Vers 72
USE_SERIAL_FEEDBACK=true
DEVELOPMENT_MODE=false
USE_RMC_ONLY=false

$GPRMC,123941.250,A,4308.3001,N,07726.2692,W,0.00,123.58,130519,,,A*73
$GPGGA,123941.500,4308.3001,N,07726.2692,W,1,08,0.99,146.2,M,-34.4,M,,*56
lng=-77.437820, lat=43.138339, altitude=146.20, speed=0.00, satellites=8, angle=123.5800, fixquality=1
$GPRMC,123941.750,A,4308.3001,N,07726.2692,W,0.01,26.24,130519,,,A*48
$GPGGA,123942.000,4308.3001,N,07726.2692,W,1,08,0.99,146.2,M,-34.4,M,,*50
lng=-77.437820, lat=43.138339, altitude=146.20, speed=0.01, satellites=8, angle=26.2400, fixquality=1
$GPGGA,124024.250,4308.2999,N,07726.2683,W,1,10,0.80,146.4,M,-34.4,M,,*57
$GPRMC,124024.250,A,4308.2999,N,07726.2683,W,0.03,72.45,130519,,,A*4D
lng=-77.437797, lat=43.138328, altitude=146.40, speed=0.01, satellites=10, angle=322.3600, fixquality=1
$GPGGA,124024.500,4308.2999,N,07726.2683,W,1,10,0.80,146.5,M,-34.4,M,,*54
$GPRMC,124024.500,A,4308.2999,N,07726.2683,W,0.02,258.53,130519,,,A*73
lng=-77.437797, lat=43.138328, altitude=146.50, speed=0.03, satellites=10, angle=72.4500, fixquality=1
$GPRMC,124036.500,A,4308.3007,N,07726.2678,W,2.59,10.87,130519,,,A*40
$GPGGA,124036.750,4308.3009,N,07726.2677,W,1,10,0.80,145.9,M,-34.4,M,,*55
lng=-77.437789, lat=43.138347, altitude=146.00, speed=2.59, satellites=10, angle=10.8700, fixquality=1
$GPRMC,124037.000,A,4308.3012,N,07726.2676,W,2.91,2.33,130519,,,A*76
$GPGGA,124037.250,4308.3014,N,07726.2675,W,1,10,0.80,145.8,M,-34.4,M,,*5E
lng=-77.437789, lat=43.138355, altitude=145.90, speed=2.91, satellites=10, angle=2.3300, fixquality=1
$GPRMC,124037.500,A,4308.3016,N,07726.2675,W,3.00,4.80,130519,,,A*73
$GPGGA,124037.750,4308.3019,N,07726.2674,W,1,10,0.80,145.6,M,-34.4,M,,*59
lng=-77.437789, lat=43.138362, altitude=145.80, speed=3.00, satellites=10, angle=4.8000, fixquality=1
$GPRMC,124038.000,A,4308.3021,N,07726.2673,W,3.14,5.23,130519,,,A*76
$GPGGA,124038.250,4308.3023,N,07726.2672,W,1,09,0.85,145.4,M,-34.4,M,,*53
lng=-77.437782, lat=43.138370, altitude=145.60, speed=3.14, satellites=10, angle=5.2300, fixquality=1
$GPRMC,124038.500,A,4308.3026,N,07726.2672,W,3.24,3.98,130519,,,A*70
$GPGGA,124038.750,4308.3028,N,07726.2671,W,1,09,0.85,145.4,M,-34.4,M,,*5E
lng=-77.437782, lat=43.138378, altitude=145.40, speed=3.24, satellites=9, angle=3.9800, fixquality=1
$GPRMC,124039.000,A,4308.3031,N,07726.2670,W,3.53,2.91,130519,,,A*78
$GPGGA,124039.250,4308.3033,N,07726.2669,W,1,10,0.80,145.5,M,-34.4,M,,*55
lng=-77.437782, lat=43.138385, altitude=145.40, speed=3.53, satellites=9, angle=2.9100, fixquality=1
$GPRMC,124039.500,A,4308.3036,N,07726.2668,W,3.61,4.41,130519,,,A*79
$GPGGA,124039.750,4308.3038,N,07726.2667,W,1,10,0.80,145.4,M,-34.4,M,,*54
lng=-77.437774, lat=43.138393, altitude=145.50, speed=3.61, satellites=10, angle=4.4100, fixquality=1
$GPRMC,124040.000,A,4308.3041,N,07726.2667,W,3.70,4.71,130519,,,A*7E
$GPGGA,124040.250,4308.3044,N,07726.2666,W,1,10,0.80,145.5,M,-34.4,M,,*54
lng=-77.437774, lat=43.138404, altitude=145.40, speed=3.70, satellites=10, angle=4.7100, fixquality=1
$GPRMC,124040.500,A,4308.3047,N,07726.2665,W,3.76,3.64,130519,,,A*7A
$GPGGA,124040.750,4308.3050,N,07726.2663,W,1,10,0.80,145.6,M,-34.4,M,,*52
lng=-77.437774, lat=43.138412, altitude=145.50, speed=3.76, satellites=10, angle=3.6400, fixquality=1
$GPRMC,124041.000,A,4308.3053,N,07726.2662,W,3.80,2.30,130519,,,A*75
$GPGGA,124041.250,4308.3055,N,07726.2661,W,1,10,0.80,145.5,M,-34.4,M,,*52
lng=-77.437767, lat=43.138420, altitude=145.60, speed=3.80, satellites=10, angle=2.3000, fixquality=1
$GPRMC,124041.500,A,4308.3058,N,07726.2660,W,3.93,2.77,130519,,,A*78
$GPGGA,124041.750,4308.3061,N,07726.2659,W,1,10,0.80,145.4,M,-34.4,M,,*5A
lng=-77.437767, lat=43.138427, altitude=145.50, speed=3.93, satellites=10, angle=2.7700, fixquality=1
$GPRMC,124042.000,A,4308.3064,N,07726.2658,W,4.00,1.33,130519,,,A*74
$GPGGA,124042.250,4308.3067,N,07726.2658,W,1,10,0.80,145.3,M,-34.4,M,,*5C
lng=-77.437759, lat=43.138442, altitude=145.40, speed=4.00, satellites=10, angle=1.3300, fixquality=1
$GPRMC,124042.500,A,4308.3070,N,07726.2657,W,4.10,3.51,130519,,,A*7C
$GPGGA,124042.750,4308.3073,N,07726.2657,W,1,10,0.80,145.2,M,-34.4,M,,*52
lng=-77.437759, lat=43.138450, altitude=145.30, speed=4.10, satellites=10, angle=3.5100, fixquality=1
$GPRMC,124043.000,A,4308.3076,N,07726.2657,W,4.26,3.42,130519,,,A*79
$GPGGA,124043.250,4308.3079,N,07726.2656,W,1,10,0.80,145.1,M,-34.4,M,,*5E
lng=-77.437759, lat=43.138462, altitude=145.20, speed=4.26, satellites=10, angle=3.4200, fixquality=1
$GPRMC,124043.500,A,4308.3082,N,07726.2655,W,4.26,4.62,130519,,,A*70
$GPGGA,124043.750,4308.3086,N,07726.2652,W,1,10,0.80,145.3,M,-34.4,M,,*5D
lng=-77.437759, lat=43.138469, altitude=145.10, speed=4.26, satellites=10, angle=4.6200, fixquality=1
$GPRMC,124044.000,A,4308.3089,N,07726.2651,W,4.41,8.07,130519,,,A*73
$GPGGA,124044.250,4308.3092,N,07726.2650,W,1,10,0.80,145.4,M,-34.4,M,,*5F
lng=-77.437751, lat=43.138484, altitude=145.30, speed=4.41, satellites=10, angle=8.0700, fixquality=1
$GPRMC,124044.500,A,4308.3096,N,07726.2649,W,4.57,7.26,130519,,,A*7A
$GPGGA,124044.750,4308.3099,N,07726.2648,W,1,10,0.80,145.5,M,-34.4,M,,*59
lng=-77.437751, lat=43.138492, altitude=145.40, speed=4.57, satellites=10, angle=7.2600, fixquality=1
$GPRMC,124045.000,A,4308.3103,N,07726.2646,W,4.33,10.24,130519,,,A*4A
$GPGGA,124045.250,4308.3106,N,07726.2645,W,1,10,0.80,145.6,M,-34.4,M,,*54
lng=-77.437744, lat=43.138500, altitude=145.50, speed=4.33, satellites=10, angle=10.2400, fixquality=1
$GPRMC,124045.500,A,4308.3110,N,07726.2644,W,4.26,10.90,130519,,,A*44
$GPGGA,124045.750,4308.3113,N,07726.2643,W,1,10,0.80,145.7,M,-34.4,M,,*52
lng=-77.437736, lat=43.138515, altitude=145.60, speed=4.26, satellites=10, angle=10.9000, fixquality=1
$GPRMC,124046.000,A,4308.3115,N,07726.2642,W,3.56,12.76,130519,,,A*4B
$GPGGA,124046.250,4308.3118,N,07726.2640,W,1,10,0.80,145.7,M,-34.4,M,,*5C
lng=-77.437736, lat=43.138526, altitude=145.70, speed=3.56, satellites=10, angle=12.7600, fixquality=1
$GPRMC,124046.500,A,4308.3121,N,07726.2639,W,2.54,8.96,130519,,,A*73
$GPGGA,124046.750,4308.3123,N,07726.2638,W,1,10,0.80,145.8,M,-34.4,M,,*51
lng=-77.437728, lat=43.138534, altitude=145.70, speed=2.54, satellites=10, angle=8.9600, fixquality=1
$GPRMC,124047.000,A,4308.3124,N,07726.2637,W,1.40,12.00,130519,,,A*4E
$GPGGA,124047.250,4308.3125,N,07726.2635,W,1,10,0.80,145.9,M,-34.4,M,,*5F
lng=-77.437728, lat=43.138542, altitude=145.80, speed=1.40, satellites=10, angle=12.0000, fixquality=1
$GPRMC,124050.000,A,4308.3133,N,07726.2628,W,2.91,12.97,130519,,,A*41
$GPGGA,124050.250,4308.3135,N,07726.2627,W,1,10,0.80,146.6,M,-34.4,M,,*57
lng=-77.437713, lat=43.138557, altitude=146.60, speed=2.91, satellites=10, angle=12.9700, fixquality=1
$GPRMC,124050.500,A,4308.3138,N,07726.2627,W,3.72,24.38,130519,,,A*4C
$GPGGA,124050.750,4308.3141,N,07726.2625,W,1,10,0.80,146.8,M,-34.4,M,,*5D
lng=-77.437713, lat=43.138565, altitude=146.60, speed=3.72, satellites=10, angle=24.3800, fixquality=1
$GPRMC,124051.000,A,4308.3143,N,07726.2624,W,4.15,27.18,130519,,,A*40
$GPGGA,124051.250,4308.3146,N,07726.2622,W,1,10,0.80,146.9,M,-34.4,M,,*58
lng=-77.437705, lat=43.138572, altitude=146.80, speed=4.15, satellites=10, angle=27.1800, fixquality=1
$GPRMC,124051.500,A,4308.3149,N,07726.2620,W,4.57,35.48,130519,,,A*4B
$GPGGA,124051.750,4308.3151,N,07726.2617,W,1,10,0.80,147.0,M,-34.4,M,,*55
lng=-77.437705, lat=43.138584, altitude=146.90, speed=4.57, satellites=10, angle=35.4800, fixquality=1
$GPRMC,124052.000,A,4308.3153,N,07726.2614,W,3.94,45.28,130519,,,A*48
$GPGGA,124052.250,4308.3155,N,07726.2611,W,1,10,0.80,147.2,M,-34.4,M,,*53
lng=-77.437690, lat=43.138591, altitude=147.00, speed=3.94, satellites=10, angle=45.2800, fixquality=1
$GPRMC,124052.500,A,4308.3156,N,07726.2608,W,3.20,50.05,130519,,,A*41
$GPGGA,124052.750,4308.3157,N,07726.2606,W,1,10,0.80,147.3,M,-34.4,M,,*53
lng=-77.437675, lat=43.138591, altitude=147.20, speed=3.20, satellites=10, angle=50.0500, fixquality=1
$GPRMC,124053.000,A,4308.3158,N,07726.2604,W,2.03,69.23,130519,,,A*49
$GPGGA,124053.250,4308.3158,N,07726.2603,W,1,10,0.80,147.5,M,-34.4,M,,*5B
lng=-77.437667, lat=43.138599, altitude=147.30, speed=2.03, satellites=10, angle=69.2300, fixquality=1
$GPGGA,124054.750,4308.3157,N,07726.2611,W,1,10,0.80,147.6,M,-34.4,M,,*56
$GPRMC,124054.750,A,4308.3157,N,07726.2611,W,3.36,257.14,130519,,,A*7B
lng=-77.437690, lat=43.138599, altitude=147.60, speed=1.31, satellites=10, angle=236.7100, fixquality=1
$GPGGA,124055.000,4308.3157,N,07726.2615,W,1,10,0.80,147.6,M,-34.4,M,,*51
$GPRMC,124055.000,A,4308.3157,N,07726.2615,W,4.44,264.38,130519,,,A*70
lng=-77.437698, lat=43.138599, altitude=147.60, speed=3.36, satellites=10, angle=257.1400, fixquality=1
$GPGGA,124055.250,4308.3157,N,07726.2620,W,1,10,0.80,147.7,M,-34.4,M,,*51
$GPRMC,124055.250,A,4308.3157,N,07726.2620,W,5.43,263.67,130519$GPGGA,124055.500,4308.3156,N,07726.2626,W,1,10,0.80,147.7,M,-34.4,M,,*54
lng=-77.437705, lat=43.138599, altitude=147.70, speed=4.44, satellites=10, angle=264.3800, fixquality=1
$GPRMC,124055.750,A,4308.3156,N,07726.2632,W,6.45,263.26,130519,,,A*7D
$GPGGA,124056.000,4308.3156,N,07726.2639,W,1,10,0.80,147.7,M,-34.4,M,,*5C
lng=-77.437721, lat=43.138591, altitude=147.70, speed=6.45, satellites=10, angle=263.2600, fixquality=1
$GPRMC,124056.250,A,4308.3155,N,07726.2646,W,7.47,268.56,130519,,,A*74
$GPGGA,124056.500,4308.3156,N,07726.2654,W,1,10,0.80,147.8,M,-34.4,M,,*5D
lng=-77.437744, lat=43.138591, altitude=147.70, speed=7.47, satellites=10, angle=268.5600, fixquality=1
$GPRMC,124056.750,A,4308.3156,N,07726.2662,W,8.65,272.41,130519,,,A*76
$GPGGA,124057.000,4308.3157,N,07726.2671,W,1,10,0.80,147.9,M,-34.4,M,,*5E
lng=-77.437767, lat=43.138591, altitude=147.80, speed=8.65, satellites=10, angle=272.4100, fixquality=1
$GPRMC,124057.250,A,4308.3158,N,07726.2680,W,9.46,277.67,130519,,,A*71
$GPGGA,124057.500,4308.3159,N,07726.2690,W,1,10,0.80,147.9,M,-34.4,M,,*5A
lng=-77.437797, lat=43.138599, altitude=147.90, speed=9.46, satellites=10, angle=277.6700, fixquality=1
$GPRMC,124057.750,A,4308.3161,N,07726.2700,W,10.30,281.33,130519,,,A*46
$GPGGA,124058.000,4308.3163,N,07726.2711,W,1,10,0.80,148.0,M,-34.4,M,,*57
lng=-77.437835, lat=43.138599, altitude=147.90, speed=10.30, satellites=10, angle=281.3300, fixquality=1
$GPRMC,124058.250,A,4308.3165,N,07726.2721,W,10.74,283.44,130519,,,A*49
$GPGGA,124058.500,4308.3168,N,07726.2733,W,1,10,0.80,148.1,M,-34.4,M,,*58
lng=-77.437866, lat=43.138607, altitude=148.00, speed=10.74, satellites=10, angle=283.4400, fixquality=1
$GPRMC,124058.750,A,4308.3172,N,07726.2744,W,12.41,287.97,130519,,,A*47
$GPGGA,124059.000,4308.3175,N,07726.2757,W,1,10,0.80,148.3,M,-34.4,M,,*50
lng=-77.437904, lat=43.138622, altitude=148.10, speed=12.41, satellites=10, angle=287.9700, fixquality=1
$GPRMC,124059.250,A,4308.3178,N,07726.2769,W,13.54,287.81,130519,,,A*44
$GPGGA,124059.500,4308.3183,N,07726.2782,W,1,10,0.80,148.4,M,-34.4,M,,*53
lng=-77.437950, lat=43.138629, altitude=148.30, speed=13.54, satellites=10, angle=287.8100, fixquality=1
$GPRMC,124059.750,A,4308.3187,N,07726.2795,W,14.43,288.65,130519,,,A*46
$GPGGA,124100.000,4308.3191,N,07726.2809,W,1,09,0.90,148.5,M,-34.4,M,,*5C
lng=-77.437988, lat=43.138648, altitude=148.40, speed=14.43, satellites=10, angle=288.6500, fixquality=1
$GPRMC,124100.250,A,4308.3196,N,07726.2824,W,15.39,290.23,130519,,,A*4C
$GPGGA,124100.500,4308.3201,N,07726.2838,W,1,10,0.80,148.5,M,-34.4,M,,*58
lng=-77.438034, lat=43.138664, altitude=148.50, speed=15.39, satellites=9, angle=290.2300, fixquality=1
$GPRMC,124100.750,A,4308.3206,N,07726.2854,W,16.91,293.48,130519,,,A*4B
$GPGGA,124101.000,4308.3211,N,07726.2869,W,1,10,0.80,148.7,M,-34.4,M,,*5B
lng=-77.438087, lat=43.138679, altitude=148.50, speed=16.91, satellites=10, angle=293.4800, fixquality=1
$GPRMC,124101.250,A,4308.3217,N,07726.2884,W,17.28,294.09,130519,,,A*43
$GPGGA,124101.500,4308.3222,N,07726.2900,W,1,10,0.80,148.8,M,-34.4,M,,*5F
lng=-77.438140, lat=43.138694, altitude=148.70, speed=17.28, satellites=10, angle=294.0900, fixquality=1
$GPRMC,124101.750,A,4308.3227,N,07726.2915,W,17.59,294.97,130519,,,A*4D
$GPGGA,124102.000,4308.3232,N,07726.2931,W,1,10,0.80,148.9,M,-34.4,M,,*5B
lng=-77.438194, lat=43.138713, altitude=148.80, speed=17.59, satellites=10, angle=294.9700, fixquality=1
$GPRMC,124102.250,A,4308.3238,N,07726.2947,W,18.31,296.30,130519,,,A*4C
$GPGGA,124102.500,4308.3245,N,07726.2964,W,1,10,0.80,148.9,M,-34.4,M,,*5E
lng=-77.438247, lat=43.138729, altitude=148.90, speed=18.31, satellites=10, angle=296.3000, fixquality=1
$GPRMC,124102.750,A,4308.3251,N,07726.2980,W,19.25,298.61,130519,,,A*43
$GPGGA,124103.000,4308.3258,N,07726.2996,W,1,10,0.80,148.9,M,-34.4,M,,*5B
lng=-77.438301, lat=43.138751, altitude=148.90, speed=19.25, satellites=10, angle=298.6100, fixquality=1
$GPRMC,124103.250,A,4308.3265,N,07726.3013,W,19.93,299.10,130519,,,A*48
$GPGGA,124103.500,4308.3271,N,07726.3029,W,1,10,0.80,148.9,M,-34.4,M,,*59
lng=-77.438354, lat=43.138778, altitude=148.90, speed=19.93, satellites=10, angle=299.1000, fixquality=1
$GPRMC,124103.750,A,4308.3278,N,07726.3046,W,20.94,300.67,130519,,,A*4D
$GPGGA,124104.000,4308.3286,N,07726.3063,W,1,10,0.80,148.7,M,-34.4,M,,*53
lng=-77.438407, lat=43.138793, altitude=148.90, speed=20.94, satellites=10, angle=300.6700, fixquality=1
$GPRMC,124104.250,A,4308.3293,N,07726.3080,W,21.92,301.21,130519,,,A*44
$GPGGA,124104.500,4308.3300,N,07726.3097,W,1,10,0.80,148.7,M,-34.4,M,,*52
lng=-77.438468, lat=43.138816, altitude=148.70, speed=21.92, satellites=10, angle=301.2100, fixquality=1
$GPRMC,124104.750,A,4308.3308,N,07726.3115,W,22.51,302.40,130519,,,A*47
$GPGGA,124105.000,4308.3317,N,07726.3133,W,1,10,0.80,148.8,M,-34.4,M,,*50
lng=-77.438522, lat=43.138843, altitude=148.70, speed=22.51, satellites=10, angle=302.4000, fixquality=1
$GPRMC,124105.250,A,4308.3325,N,07726.3152,W,23.11,302.46,130519,,,A*4C
$GPGGA,124105.500,4308.3334,N,07726.3170,W,1,10,0.80,148.8,M,-34.4,M,,*53
lng=-77.438591, lat=43.138874, altitude=148.80, speed=23.11, satellites=10, angle=302.4600, fixquality=1
$GPRMC,124105.750,A,4308.3343,N,07726.3189,W,23.58,302.09,130519,,,A*49
$GPGGA,124106.000,4308.3352,N,07726.3209,W,1,10,0.80,149.0,M,-34.4,M,,*51
lng=-77.438644, lat=43.138908, altitude=148.80, speed=23.58, satellites=10, angle=302.0900, fixquality=1
$GPRMC,124106.250,A,4308.3361,N,07726.3228,W,23.97,301.92,130519,,,A*45
$GPGGA,124106.500,4308.3370,N,07726.3248,W,1,10,0.80,149.1,M,-34.4,M,,*50
lng=-77.438713, lat=43.138931, altitude=149.00, speed=23.97, satellites=10, angle=301.9200, fixquality=1
$GPRMC,124106.750,A,4308.3379,N,07726.3268,W,24.59,302.30,130519,,,A*43
$GPGGA,124107.000,4308.3388,N,07726.3288,W,1,10,0.80,149.2,M,-34.4,M,,*5C
lng=-77.438774, lat=43.138965, altitude=149.10, speed=24.59, satellites=10, angle=302.3000, fixquality=1
$GPRMC,124107.250,A,4308.3398,N,07726.3307,W,24.66,302.90,130519,,,A*46
$GPGGA,124107.500,4308.3407,N,07726.3327,W,1,09,0.93,149.4,M,-34.4,M,,*51
lng=-77.438842, lat=43.138996, altitude=149.20, speed=24.66, satellites=10, angle=302.9000, fixquality=1
$GPRMC,124107.750,A,4308.3417,N,07726.3348,W,25.11,302.66,130519,,,A*40
$GPGGA,124108.000,4308.3426,N,07726.3368,W,1,09,0.93,149.5,M,-34.4,M,,*52
lng=-77.438919, lat=43.139030, altitude=149.40, speed=25.11, satellites=9, angle=302.6600, fixquality=1
$GPRMC,124108.250,A,4308.3436,N,07726.3389,W,25.45,303.39,130519,,,A*4E
$GPGGA,124108.500,4308.3446,N,07726.3409,W,1,10,0.80,149.7,M,-34.4,M,,*59
lng=-77.438980, lat=43.139060, altitude=149.50, speed=25.45, satellites=9, angle=303.3900, fixquality=1
$GPRMC,124108.750,A,4308.3456,N,07726.3430,W,25.68,304.15,130519,,,A*4E
$GPGGA,124109.000,4308.3467,N,07726.3450,W,1,10,0.80,149.8,M,-34.4,M,,*5D
lng=-77.439048, lat=43.139095, altitude=149.70, speed=25.68, satellites=10, angle=304.1500, fixquality=1
$GPRMC,124109.250,A,4308.3477,N,07726.3470,W,25.78,305.53,130519,,,A*4F
$GPGGA,124109.500,4308.3488,N,07726.3490,W,1,09,0.93,149.9,M,-34.4,M,,*5E
lng=-77.439117, lat=43.139125, altitude=149.80, speed=25.78, satellites=10, angle=305.5300, fixquality=1
$GPRMC,124109.750,A,4308.3500,N,07726.3510,W,26.04,307.48,130519,,,A*4C
$GPGGA,124110.000,4308.3511,N,07726.3529,W,1,09,0.93,149.6,M,-34.4,M,,*5E
lng=-77.439186, lat=43.139167, altitude=149.90, speed=26.04, satellites=9, angle=307.4800, fixquality=1
$GPRMC,124110.250,A,4308.3523,N,07726.3549,W,24.98,311.58,130519,,,A*4D
$GPGGA,124110.500,4308.3535,N,07726.3566,W,1,09,0.90,149.6,M,-34.4,M,,*55
lng=-77.439247, lat=43.139209, altitude=149.60, speed=24.98, satellites=9, angle=311.5800, fixquality=1
$GPRMC,124110.750,A,4308.3548,N,07726.3583,W,25.13,314.32,130519,,,A*48
$GPGGA,124111.000,4308.3561,N,07726.3599,W,1,09,0.93,149.8,M,-34.4,M,,*5D
lng=-77.439308, lat=43.139247, altitude=149.60, speed=25.13, satellites=9, angle=314.3200, fixquality=1
$GPRMC,124111.250,A,4308.3575,N,07726.3615,W,24.80,318.81,130519,,,A*41
$GPGGA,124111.500,4308.3588,N,07726.3630,W,1,09,0.93,150.1,M,-34.4,M,,*5E
lng=-77.439353, lat=43.139289, altitude=149.80, speed=24.80, satellites=9, angle=318.8100, fixquality=1
$GPRMC,124111.750,A,4308.3602,N,07726.3643,W,24.40,324.33,130519,,,A*4E
$GPGGA,124112.000,4308.3616,N,07726.3656,W,1,09,0.93,150.3,M,-34.4,M,,*5E
lng=-77.439407, lat=43.139339, altitude=150.10, speed=24.40, satellites=9, angle=324.3300, fixquality=1
$GPRMC,124112.250,A,4308.3630,N,07726.3669,W,24.25,328.62,130519,,,A*4A
$GPGGA,124112.500,4308.3645,N,07726.3681,W,1,09,0.93,150.5,M,-34.4,M,,*51
lng=-77.439445, lat=43.139381, altitude=150.30, speed=24.25, satellites=9, angle=328.6200, fixquality=1
$GPRMC,124112.750,A,4308.3660,N,07726.3692,W,23.83,332.02,130519,,,A*48
$GPGGA,124113.000,4308.3675,N,07726.3702,W,1,09,0.93,150.7,M,-34.4,M,,*5E
lng=-77.439483, lat=43.139438, altitude=150.50, speed=23.83, satellites=9, angle=332.0200, fixquality=1
$GPRMC,124113.250,A,4308.3690,N,07726.3712,W,24.13,336.32,130519,,,A*43
$GPGGA,124113.500,4308.3706,N,07726.3721,W,1,09,0.93,150.8,M,-34.4,M,,*50
lng=-77.439521, lat=43.139484, altitude=150.70, speed=24.13, satellites=9, angle=336.3200, fixquality=1
$GPRMC,124113.750,A,4308.3722,N,07726.3729,W,24.11,340.74,130519,,,A*47
$GPGGA,124114.000,4308.3738,N,07726.3737,W,1,10,0.80,150.8,M,-34.4,M,,*52
lng=-77.439552, lat=43.139533, altitude=150.80, speed=24.11, satellites=9, angle=340.7400, fixquality=1
$GPRMC,124114.250,A,4308.3754,N,07726.3744,W,23.93,341.44,130519,,,A*40
$GPGGA,124114.500,4308.3770,N,07726.3750,W,1,10,0.80,150.9,M,-34.4,M,,*5B
lng=-77.439575, lat=43.139591, altitude=150.80, speed=23.93, satellites=10, angle=341.4400, fixquality=1
$GPRMC,124114.750,A,4308.3786,N,07726.3757,W,23.54,344.26,130519,,,A*42
$GPGGA,124115.000,4308.3803,N,07726.3762,W,1,10,0.80,150.9,M,-34.4,M,,*55
lng=-77.439590, lat=43.139640, altitude=150.90, speed=23.54, satellites=10, angle=344.2600, fixquality=1
$GPRMC,124115.250,A,4308.3819,N,07726.3768,W,23.21,347.09,130519,,,A*4F
$GPGGA,124115.500,4308.3835,N,07726.3772,W,1,09,0.93,151.0,M,-34.4,M,,*56
lng=-77.439613, lat=43.139698, altitude=150.90, speed=23.21, satellites=10, angle=347.0900, fixquality=1
$GPRMC,124115.750,A,4308.3852,N,07726.3776,W,22.56,350.59,130519,,,A*48
$GPGGA,124116.000,4308.3868,N,07726.3778,W,1,10,0.80,151.0,M,-34.4,M,,*58
lng=-77.439620, lat=43.139755, altitude=151.00, speed=22.56, satellites=9, angle=350.5900, fixquality=1
$GPRMC,124116.250,A,4308.3885,N,07726.3780,W,22.93,354.15,130519,,,A*48
$GPGGA,124116.500,4308.3902,N,07726.3780,W,1,09,0.93,151.0,M,-34.4,M,,*5D
lng=-77.439628, lat=43.139812, altitude=151.00, speed=22.93, satellites=10, angle=354.1500, fixquality=1
$GPRMC,124116.750,A,4308.3921,N,07726.3779,W,23.74,0.20,130519,,,A*48
$GPGGA,124117.000,4308.3938,N,07726.3778,W,1,09,0.93,151.0,M,-34.4,M,,*57
lng=-77.439628, lat=43.139869, altitude=151.00, speed=23.74, satellites=9, angle=0.2000, fixquality=1
$GPRMC,124117.250,A,4308.3956,N,07726.3777,W,24.00,1.86,130519,,,A*4B
$GPGGA,124117.500,4308.3973,N,07726.3776,W,1,09,0.93,151.1,M,-34.4,M,,*52
lng=-77.439628, lat=43.139926, altitude=151.00, speed=24.00, satellites=9, angle=1.8600, fixquality=1
$GPRMC,124117.750,A,4308.3991,N,07726.3774,W,24.64,4.11,130519,,,A*4F
$GPGGA,124118.000,4308.4009,N,07726.3771,W,1,09,0.93,151.1,M,-34.4,M,,*5C
lng=-77.439620, lat=43.139980, altitude=151.10, speed=24.64, satellites=9, angle=4.1100, fixquality=1
$GPRMC,124118.250,A,4308.4027,N,07726.3768,W,25.27,6.36,130519,,,A*4A
$GPGGA,124118.500,4308.4044,N,07726.3765,W,1,09,0.93,151.0,M,-34.4,M,,*54
lng=-77.439613, lat=43.140048, altitude=151.10, speed=25.27, satellites=9, angle=6.3600, fixquality=1
$GPRMC,124118.750,A,4308.4062,N,07726.3762,W,25.57,8.49,130519,,,A*45
$GPGGA,124119.000,4308.4080,N,07726.3758,W,1,10,0.80,150.9,M,-34.4,M,,*54
lng=-77.439598, lat=43.140102, altitude=151.00, speed=25.57, satellites=9, angle=8.4900, fixquality=1
$GPRMC,124119.250,A,4308.4098,N,07726.3754,W,25.87,9.56,130519,,,A*43
$GPGGA,124119.500,4308.4116,N,07726.3750,W,1,10,0.80,150.8,M,-34.4,M,,*56
lng=-77.439590, lat=43.140159, altitude=150.90, speed=25.87, satellites=10, angle=9.5600, fixquality=1
$GPRMC,124119.750,A,4308.4134,N,07726.3745,W,26.09,10.97,130519,,,A*71
$GPGGA,124120.000,4308.4152,N,07726.3740,W,1,09,0.93,150.7,M,-34.4,M,,*5D
lng=-77.439575, lat=43.140224, altitude=150.80, speed=26.09, satellites=10, angle=10.9700, fixquality=1
$GPRMC,124120.250,A,4308.4169,N,07726.3735,W,25.86,11.49,130519,,,A*77
$GPGGA,124120.500,4308.4187,N,07726.3730,W,1,09,0.93,150.7,M,-34.4,M,,*57
lng=-77.439559, lat=43.140281, altitude=150.70, speed=25.86, satellites=9, angle=11.4900, fixquality=1
$GPRMC,124120.750,A,4308.4205,N,07726.3726,W,25.28,11.62,130519,,,A*74
$GPGGA,124121.000,4308.4223,N,07726.3721,W,1,09,0.93,150.8,M,-34.4,M,,*51
lng=-77.439544, lat=43.140338, altitude=150.70, speed=25.28, satellites=9, angle=11.6200, fixquality=1
$GPRMC,124121.250,A,4308.4240,N,07726.3716,W,25.22,11.23,130519,,,A*7D
$GPGGA,124121.500,4308.4258,N,07726.3711,W,1,09,0.93,151.0,M,-34.4,M,,*52
lng=-77.439529, lat=43.140396, altitude=150.80, speed=25.22, satellites=9, angle=11.2300, fixquality=1
$GPRMC,124121.750,A,4308.4275,N,07726.3707,W,25.35,10.61,130519,,,A*7F
$GPGGA,124122.000,4308.4293,N,07726.3702,W,1,09,0.93,151.2,M,-34.4,M,,*53
lng=-77.439506, lat=43.140460, altitude=151.00, speed=25.35, satellites=9, angle=10.6100, fixquality=1
$GPRMC,124122.250,A,4308.4310,N,07726.3697,W,25.02,10.73,130519,,,A*74
$GPGGA,124122.500,4308.4326,N,07726.3693,W,1,09,0.93,151.3,M,-34.4,M,,*51
lng=-77.439491, lat=43.140518, altitude=151.20, speed=25.02, satellites=9, angle=10.7300, fixquality=1
$GPRMC,124122.750,A,4308.4343,N,07726.3689,W,24.49,10.64,130519,,,A*70
$GPGGA,124123.000,4308.4360,N,07726.3684,W,1,10,0.80,151.4,M,-34.4,M,,*5C
lng=-77.439483, lat=43.140567, altitude=151.30, speed=24.49, satellites=9, angle=10.6400, fixquality=1
$GPRMC,124123.250,A,4308.4376,N,07726.3680,W,24.05,10.25,130519,,,A*76
$GPGGA,124123.500,4308.4393,N,07726.3676,W,1,10,0.80,151.5,M,-34.4,M,,*59
lng=-77.439468, lat=43.140625, altitude=151.40, speed=24.05, satellites=10, angle=10.2500, fixquality=1
$GPRMC,124123.750,A,4308.4409,N,07726.3672,W,23.31,9.95,130519,,,A*42
$GPGGA,124124.000,4308.4424,N,07726.3667,W,1,10,0.80,151.7,M,-34.4,M,,*52
lng=-77.439453, lat=43.140682, altitude=151.50, speed=23.31, satellites=10, angle=9.9500, fixquality=1
$GPRMC,124124.250,A,4308.4439,N,07726.3663,W,22.43,10.30,130519,,,A*70
$GPGGA,124124.500,4308.4454,N,07726.3659,W,1,10,0.80,151.9,M,-34.4,M,,*53
lng=-77.439437, lat=43.140731, altitude=151.70, speed=22.43, satellites=10, angle=10.3000, fixquality=1
$GPRMC,124124.750,A,4308.4467,N,07726.3655,W,20.62,10.46,130519,,,A*7B
$GPGGA,124125.000,4308.4480,N,07726.3651,W,1,10,0.80,152.1,M,-34.4,M,,*5D
lng=-77.439430, lat=43.140781, altitude=151.90, speed=20.62, satellites=10, angle=10.4600, fixquality=1
$GPRMC,124125.250,A,4308.4492,N,07726.3648,W,18.08,10.04,130519,,,A*78
$GPGGA,124125.500,4308.4503,N,07726.3645,W,1,10,0.80,152.3,M,-34.4,M,,*55
lng=-77.439414, lat=43.140819, altitude=152.10, speed=18.08, satellites=10, angle=10.0400, fixquality=1
$GPRMC,124125.750,A,4308.4513,N,07726.3643,W,15.10,9.11,130519,,,A*46
$GPGGA,124126.000,4308.4523,N,07726.3639,W,1,10,0.80,152.5,M,-34.4,M,,*5C
lng=-77.439407, lat=43.140853, altitude=152.30, speed=15.10, satellites=10, angle=9.1100, fixquality=1
$GPRMC,124126.250,A,4308.4531,N,07726.3636,W,12.69,7.98,130519,,,A*44
$GPGGA,124126.500,4308.4539,N,07726.3633,W,1,10,0.80,152.7,M,-34.4,M,,*5A
lng=-77.439399, lat=43.140884, altitude=152.50, speed=12.69, satellites=10, angle=7.9800, fixquality=1
$GPRMC,124126.750,A,4308.4545,N,07726.3630,W,10.06,7.43,130519,,,A*49
$GPGGA,124127.000,4308.4549,N,07726.3628,W,1,10,0.80,153.0,M,-34.4,M,,*55
lng=-77.439376, lat=43.140911, altitude=152.70, speed=10.06, satellites=10, angle=7.4300, fixquality=1
$GPRMC,124127.250,A,4308.4554,N,07726.3628,W,7.98,5.44,130519,,,A*70
$GPGGA,124127.500,4308.4557,N,07726.3627,W,1,10,0.80,153.3,M,-34.4,M,,*53
lng=-77.439376, lat=43.140926, altitude=153.00, speed=7.98, satellites=10, angle=5.4400, fixquality=1
$GPRMC,124127.750,A,4308.4560,N,07726.3626,W,6.50,3.17,130519,,,A*79
$GPGGA,124128.000,4308.4563,N,07726.3625,W,1,10,0.80,153.5,M,-34.4,M,,*5A
lng=-77.439376, lat=43.140933, altitude=153.30, speed=6.50, satellites=10, angle=3.1700, fixquality=1
$GPRMC,124128.250,A,4308.4567,N,07726.3624,W,5.90,4.53,130519,,,A*7E
$GPGGA,124128.500,4308.4570,N,07726.3623,W,1,10,0.80,153.6,M,-34.4,M,,*58
lng=-77.439369, lat=43.140941, altitude=153.50, speed=5.90, satellites=10, angle=4.5300, fixquality=1
$GPRMC,124128.750,A,4308.4574,N,07726.3622,W,6.36,356.99,130519,,,A*72
$GPGGA,124129.000,4308.4578,N,07726.3622,W,1,10,0.80,153.7,M,-34.4,M,,*54
lng=-77.439369, lat=43.140956, altitude=153.60, speed=6.36, satellites=10, angle=356.9900, fixquality=1
$GPRMC,124129.250,A,4308.4583,N,07726.3623,W,6.92,351.67,130519,,,A*77
$GPGGA,124129.500,4308.4588,N,07726.3625,W,1,10,0.80,153.8,M,-34.4,M,,*56
lng=-77.439369, lat=43.140975, altitude=153.70, speed=6.92, satellites=10, angle=351.6700, fixquality=1
$GPRMC,124129.750,A,4308.4592,N,07726.3627,W,7.23,345.60,130519,,,A*7F
$GPGGA,124130.000,4308.4596,N,07726.3630,W,1,09,0.85,153.7,M,-34.4,M,,*52
lng=-77.439376, lat=43.140983, altitude=153.80, speed=7.23, satellites=10, angle=345.6000, fixquality=1
$GPRMC,124130.250,A,4308.4601,N,07726.3634,W,7.69,335.44,130519,,,A*76
$GPGGA,124130.500,4308.4607,N,07726.3639,W,1,10,0.80,153.9,M,-34.4,M,,*56
lng=-77.439384, lat=43.140998, altitude=153.70, speed=7.69, satellites=9, angle=335.4400, fixquality=1
$GPRMC,124130.750,A,4308.4612,N,07726.3645,W,9.08,321.93,130519,,,A*71
$GPGGA,124131.000,4308.4617,N,07726.3651,W,1,10,0.80,153.8,M,-34.4,M,,*5C
lng=-77.439407, lat=43.141025, altitude=153.90, speed=9.08, satellites=10, angle=321.9300, fixquality=1
$GPRMC,124131.250,A,4308.4621,N,07726.3657,W,9.23,314.63,130519,,,A*76
$GPGGA,124131.500,4308.4625,N,07726.3666,W,1,10,0.80,153.8,M,-34.4,M,,*5C
lng=-77.439430, lat=43.141033, altitude=153.80, speed=9.23, satellites=10, angle=314.6300, fixquality=1
$GPRMC,124131.750,A,4308.4630,N,07726.3674,W,10.96,304.75,130519,,,A*42
$GPGGA,124132.000,4308.4633,N,07726.3683,W,1,10,0.80,153.4,M,-34.4,M,,*5A
lng=-77.439453, lat=43.141048, altitude=153.80, speed=10.96, satellites=10, angle=304.7500, fixquality=1
$GPRMC,124132.250,A,4308.4636,N,07726.3693,W,11.42,297.62,130519,,,A*4E
$GPGGA,124132.500,4308.4639,N,07726.3703,W,1,10,0.80,153.1,M,-34.4,M,,*59
lng=-77.439483, lat=43.141056, altitude=153.40, speed=11.42, satellites=10, angle=297.6200, fixquality=1
$GPRMC,124132.750,A,4308.4642,N,07726.3713,W,12.01,292.17,130519,,,A*42
$GPGGA,124133.000,4308.4645,N,07726.3724,W,1,10,0.80,153.0,M,-34.4,M,,*52
lng=-77.439521, lat=43.141071, altitude=153.10, speed=12.01, satellites=10, angle=292.1700, fixquality=1
$GPRMC,124133.250,A,4308.4648,N,07726.3736,W,12.27,288.29,130519,,,A*49
$GPGGA,124133.500,4308.4651,N,07726.3747,W,1,10,0.80,152.7,M,-34.4,M,,*51
lng=-77.439559, lat=43.141078, altitude=153.00, speed=12.27, satellites=10, angle=288.2900, fixquality=1
$GPRMC,124133.750,A,4308.4652,N,07726.3761,W,12.32,283.63,130519,,,A*44
$GPGGA,124134.000,4308.4654,N,07726.3774,W,1,09,0.93,152.4,M,-34.4,M,,*5F
lng=-77.439598, lat=43.141090, altitude=152.70, speed=12.32, satellites=10, angle=283.6300, fixquality=1
$GPRMC,124134.250,A,4308.4655,N,07726.3788,W,12.38,281.10,130519,,,A*4A
$GPGGA,124134.500,4308.4654,N,07726.3799,W,1,09,0.93,152.0,M,-34.4,M,,*5D
lng=-77.439651, lat=43.141090, altitude=152.40, speed=12.38, satellites=9, angle=281.1000, fixquality=1
$GPRMC,124134.750,A,4308.4653,N,07726.3811,W,12.43,279.44,130519,,,A*4C
$GPGGA,124135.000,4308.4651,N,07726.3824,W,1,09,0.93,151.7,M,-34.4,M,,*51
lng=-77.439682, lat=43.141090, altitude=152.00, speed=12.43, satellites=9, angle=279.4400, fixquality=1
$GPRMC,124135.250,A,4308.4650,N,07726.3837,W,12.65,278.33,130519,,,A*4A
$GPGGA,124135.500,4308.4650,N,07726.3849,W,1,10,0.80,151.5,M,-34.4,M,,*56
lng=-77.439727, lat=43.141078, altitude=151.70, speed=12.65, satellites=9, angle=278.3300, fixquality=1
$GPRMC,124135.750,A,4308.4650,N,07726.3862,W,12.60,278.86,130519,,,A*44
$GPGGA,124136.000,4308.4651,N,07726.3875,W,1,10,0.80,151.3,M,-34.4,M,,*58
lng=-77.439773, lat=43.141078, altitude=151.50, speed=12.60, satellites=10, angle=278.8600, fixquality=1
$GPRMC,124136.250,A,4308.4652,N,07726.3888,W,12.48,278.88,130519,,,A*40
$GPGGA,124136.500,4308.4653,N,07726.3901,W,1,09,0.93,151.0,M,-34.4,M,,*54
lng=-77.439811, lat=43.141090, altitude=151.30, speed=12.48, satellites=10, angle=278.8800, fixquality=1
$GPRMC,124136.750,A,4308.4654,N,07726.3914,W,12.58,278.36,130519,,,A*43
$GPGGA,124137.000,4308.4655,N,07726.3926,W,1,10,0.80,150.7,M,-34.4,M,,*5F
lng=-77.439857, lat=43.141090, altitude=151.00, speed=12.58, satellites=9, angle=278.3600, fixquality=1
$GPRMC,124137.250,A,4308.4656,N,07726.3939,W,12.75,277.78,130519,,,A*40
$GPGGA,124137.500,4308.4656,N,07726.3951,W,1,10,0.80,150.4,M,-34.4,M,,*5A
lng=-77.439903, lat=43.141098, altitude=150.70, speed=12.75, satellites=10, angle=277.7800, fixquality=1
$GPRMC,124137.750,A,4308.4657,N,07726.3964,W,12.73,277.47,130519,,,A*46
$GPGGA,124138.000,4308.4658,N,07726.3977,W,1,09,0.93,150.2,M,-34.4,M,,*56
lng=-77.439941, lat=43.141098, altitude=150.40, speed=12.73, satellites=10, angle=277.4700, fixquality=1
$GPRMC,124138.250,A,4308.4659,N,07726.3990,W,12.85,277.28,130519,,,A*49
$GPGGA,124138.500,4308.4660,N,07726.4003,W,1,09,0.93,150.0,M,-34.4,M,,*57
lng=-77.439979, lat=43.141098, altitude=150.20, speed=12.85, satellites=9, angle=277.2800, fixquality=1
$GPRMC,124138.750,A,4308.4661,N,07726.4015,W,12.66,278.34,130519,,,A*4B
$GPGGA,124139.000,4308.4662,N,07726.4028,W,1,10,0.80,149.8,M,-34.4,M,,*52
lng=-77.440025, lat=43.141105, altitude=150.00, speed=12.66, satellites=9, angle=278.3400, fixquality=1
$GPRMC,124139.250,A,4308.4663,N,07726.4040,W,12.59,278.72,130519,,,A*43
$GPGGA,124139.500,4308.4664,N,07726.4052,W,1,10,0.80,149.6,M,-34.4,M,,*52
lng=-77.440063, lat=43.141105, altitude=149.80, speed=12.59, satellites=10, angle=278.7200, fixquality=1
$GPRMC,124139.750,A,4308.4665,N,07726.4064,W,12.82,278.46,130519,,,A*47
$GPGGA,124140.000,4308.4666,N,07726.4076,W,1,10,0.80,149.3,M,-34.4,M,,*58
lng=-77.440101, lat=43.141105, altitude=149.60, speed=12.82, satellites=10, angle=278.4600, fixquality=1
$GPRMC,124140.250,A,4308.4667,N,07726.4088,W,12.77,278.07,130519,,,A*43
$GPGGA,124140.500,4308.4668,N,07726.4100,W,1,10,0.80,149.1,M,-34.4,M,,*51
lng=-77.440147, lat=43.141113, altitude=149.30, speed=12.77, satellites=10, angle=278.0700, fixquality=1
$GPRMC,124140.750,A,4308.4669,N,07726.4112,W,11.98,277.93,130519,,,A*4A
$GPGGA,124141.000,4308.4670,N,07726.4123,W,1,10,0.80,148.9,M,-34.4,M,,*54
lng=-77.440185, lat=43.141113, altitude=149.10, speed=11.98, satellites=10, angle=277.9300, fixquality=1
$GPRMC,124141.250,A,4308.4671,N,07726.4134,W,11.40,277.27,130519,,,A*49
$GPGGA,124141.500,4308.4671,N,07726.4145,W,1,10,0.80,148.8,M,-34.4,M,,*51
lng=-77.440223, lat=43.141120, altitude=148.90, speed=11.40, satellites=10, angle=277.2700, fixquality=1
$GPRMC,124141.750,A,4308.4671,N,07726.4156,W,10.43,276.87,130519,,,A*41
$GPGGA,124142.000,4308.4672,N,07726.4166,W,1,10,0.80,148.7,M,-34.4,M,,*5A
lng=-77.440261, lat=43.141120, altitude=148.80, speed=10.43, satellites=10, angle=276.8700, fixquality=1
$GPRMC,124142.250,A,4308.4671,N,07726.4176,W,9.58,276.65,130519,,,A*7B
$GPGGA,124142.500,4308.4671,N,07726.4185,W,1,10,0.80,148.7,M,-34.4,M,,*51
lng=-77.440292, lat=43.141120, altitude=148.70, speed=9.58, satellites=10, angle=276.6500, fixquality=1
$GPRMC,124142.750,A,4308.4672,N,07726.4193,W,8.41,277.09,130519,,,A*74
$GPGGA,124143.000,4308.4673,N,07726.4200,W,1,10,0.80,148.6,M,-34.4,M,,*58
lng=-77.440322, lat=43.141120, altitude=148.70, speed=8.41, satellites=10, angle=277.0900, fixquality=1
$GPRMC,124143.250,A,4308.4674,N,07726.4208,W,7.88,278.09,130519,,,A*72
$GPGGA,124143.500,4308.4675,N,07726.4215,W,1,10,0.80,148.4,M,-34.4,M,,*5D
lng=-77.440345, lat=43.141120, altitude=148.60, speed=7.88, satellites=10, angle=278.0900, fixquality=1
$GPRMC,124143.750,A,4308.4676,N,07726.4221,W,6.65,278.61,130519,,,A*72
$GPGGA,124144.000,4308.4677,N,07726.4226,W,1,10,0.80,148.4,M,-34.4,M,,*5D
lng=-77.440361, lat=43.141128, altitude=148.40, speed=6.65, satellites=10, angle=278.6100, fixquality=1
$GPRMC,124144.250,A,4308.4677,N,07726.4231,W,5.50,278.40,130519,,,A*76
$GPGGA,124144.500,4308.4678,N,07726.4236,W,1,10,0.80,148.3,M,-34.4,M,,*51
lng=-77.440391, lat=43.141128, altitude=148.40, speed=5.50, satellites=10, angle=278.4000, fixquality=1
$GPRMC,124144.750,A,4308.4679,N,07726.4239,W,4.40,281.65,130519,,,A*74
$GPGGA,124145.000,4308.4679,N,07726.4243,W,1,10,0.80,148.3,M,-34.4,M,,*56
lng=-77.440399, lat=43.141128, altitude=148.30, speed=4.40, satellites=10, angle=281.6500, fixquality=1
$GPRMC,124145.250,A,4308.4680,N,07726.4246,W,3.73,282.17,130519,,,A*7F
$GPGGA,124145.500,4308.4680,N,07726.4249,W,1,10,0.80,148.3,M,-34.4,M,,*5F
lng=-77.440414, lat=43.141128, altitude=148.30, speed=3.73, satellites=10, angle=282.1700, fixquality=1
$GPRMC,124145.750,A,4308.4680,N,07726.4251,W,2.80,281.22,130519,,,A*74
$GPGGA,124146.000,4308.4681,N,07726.4253,W,1,10,0.80,148.3,M,-34.4,M,,*53
lng=-77.440422, lat=43.141128, altitude=148.30, speed=2.80, satellites=10, angle=281.2200, fixquality=1
$GPRMC,124146.250,A,4308.4681,N,07726.4255,W,2.33,281.22,130519,,,A*7F
$GPGGA,124146.500,4308.4681,N,07726.4258,W,1,10,0.80,148.3,M,-34.4,M,,*5D
lng=-77.440422, lat=43.141136, altitude=148.30, speed=2.33, satellites=10, angle=281.2200, fixquality=1
$GPRMC,124205.750,A,4308.4691,N,07726.4256,W,2.53,272.77,130519,,,A*76
$GPGGA,124206.000,4308.4691,N,07726.4259,W,1,10,0.80,148.5,M,-34.4,M,,*59
lng=-77.440429, lat=43.141155, altitude=148.50, speed=2.53, satellites=10, angle=272.7700, fixquality=1
$GPRMC,124206.250,A,4308.4692,N,07726.4262,W,4.05,278.80,130519,,,A*73
$GPGGA,124206.500,4308.4692,N,07726.4266,W,1,10,0.80,148.6,M,-34.4,M,,*50
lng=-77.440437, lat=43.141155, altitude=148.50, speed=4.05, satellites=10, angle=278.8000, fixquality=1
$GPRMC,124206.750,A,4308.4693,N,07726.4271,W,5.60,277.37,130519,,,A*74
$GPGGA,124207.000,4308.4693,N,07726.4277,W,1,10,0.80,148.7,M,-34.4,M,,*54
lng=-77.440452, lat=43.141155, altitude=148.60, speed=5.60, satellites=10, angle=277.3700, fixquality=1
$GPRMC,124207.250,A,4308.4694,N,07726.4284,W,7.25,277.08,130519,,,A*72
$GPGGA,124207.500,4308.4695,N,07726.4291,W,1,10,0.80,148.7,M,-34.4,M,,*5F
lng=-77.440467, lat=43.141155, altitude=148.70, speed=7.25, satellites=10, angle=277.0800, fixquality=1
$GPRMC,124207.750,A,4308.4696,N,07726.4300,W,8.92,278.54,130519,,,A*7D
$GPGGA,124208.000,4308.4697,N,07726.4309,W,1,10,0.80,148.8,M,-34.4,M,,*58
lng=-77.440505, lat=43.141162, altitude=148.70, speed=8.92, satellites=10, angle=278.5400, fixquality=1
$GPRMC,124208.250,A,4308.4698,N,07726.4318,W,10.08,277.85,130519,,,A*49
$GPGGA,124208.500,4308.4699,N,07726.4328,W,1,10,0.80,148.7,M,-34.4,M,,*5F
lng=-77.440528, lat=43.141162, altitude=148.80, speed=10.08, satellites=10, angle=277.8500, fixquality=1
$GPRMC,124208.750,A,4308.4700,N,07726.4339,W,11.46,278.97,130519,,,A*48
$GPGGA,124209.000,4308.4701,N,07726.4350,W,1,10,0.80,148.7,M,-34.4,M,,*54
lng=-77.440567, lat=43.141170, altitude=148.70, speed=11.46, satellites=10, angle=278.9700, fixquality=1
$GPRMC,124209.250,A,4308.4702,N,07726.4362,W,12.54,277.72,130519,,,A*44
$GPGGA,124209.500,4308.4703,N,07726.4374,W,1,10,0.80,148.8,M,-34.4,M,,*5A
lng=-77.440597, lat=43.141170, altitude=148.70, speed=12.54, satellites=10, angle=277.7200, fixquality=1
$GPRMC,124209.750,A,4308.4704,N,07726.4387,W,13.87,277.63,130519,,,A*43
$GPGGA,124210.000,4308.4706,N,07726.4400,W,1,10,0.80,148.7,M,-34.4,M,,*59
lng=-77.440643, lat=43.141170, altitude=148.80, speed=13.87, satellites=10, angle=277.6300, fixquality=1
$GPRMC,124210.250,A,4308.4707,N,07726.4414,W,14.72,276.86,130519,,,A*47
$GPGGA,124210.500,4308.4708,N,07726.4428,W,1,10,0.80,148.7,M,-34.4,M,,*58
lng=-77.440689, lat=43.141178, altitude=148.70, speed=14.72, satellites=10, angle=276.8600, fixquality=1
$GPRMC,124210.750,A,4308.4709,N,07726.4443,W,15.70,276.89,130519,,,A*42
$GPGGA,124211.000,4308.4710,N,07726.4458,W,1,10,0.80,148.6,M,-34.4,M,,*53
lng=-77.440742, lat=43.141178, altitude=148.70, speed=15.70, satellites=10, angle=276.8900, fixquality=1
$GPRMC,124211.250,A,4308.4712,N,07726.4473,W,15.91,276.31,130519,,,A*43
$GPGGA,124211.500,4308.4713,N,07726.4489,W,1,10,0.80,148.6,M,-34.4,M,,*59
lng=-77.440788, lat=43.141185, altitude=148.60, speed=15.91, satellites=10, angle=276.3100, fixquality=1
$GPRMC,124211.750,A,4308.4715,N,07726.4504,W,16.19,277.56,130519,,,A*43
$GPGGA,124212.000,4308.4716,N,07726.4520,W,1,10,0.80,148.6,M,-34.4,M,,*58
lng=-77.440834, lat=43.141193, altitude=148.60, speed=16.19, satellites=10, angle=277.5600, fixquality=1
$GPRMC,124212.250,A,4308.4718,N,07726.4535,W,16.53,277.65,130519,,,A*44
$GPGGA,124212.500,4308.4721,N,07726.4553,W,1,10,0.80,148.5,M,-34.4,M,,*5E
lng=-77.440895, lat=43.141193, altitude=148.60, speed=16.53, satellites=10, angle=277.6500, fixquality=1
$GPRMC,124212.750,A,4308.4723,N,07726.4571,W,18.16,279.30,130519,,,A*48
$GPGGA,124213.000,4308.4725,N,07726.4589,W,1,09,0.93,148.6,M,-34.4,M,,*50
lng=-77.440948, lat=43.141201, altitude=148.50, speed=18.16, satellites=10, angle=279.3000, fixquality=1
$GPRMC,124213.250,A,4308.4726,N,07726.4607,W,18.79,278.90,130519,,,A*49
$GPGGA,124213.500,4308.4728,N,07726.4625,W,1,09,0.93,148.6,M,-34.4,M,,*5D
lng=-77.441017, lat=43.141212, altitude=148.60, speed=18.79, satellites=9, angle=278.9000, fixquality=1
$GPRMC,124213.750,A,4308.4730,N,07726.4644,W,19.65,278.21,130519,,,A*4A
$GPGGA,124214.000,4308.4732,N,07726.4664,W,1,09,0.93,148.6,M,-34.4,M,,*51
lng=-77.441070, lat=43.141220, altitude=148.60, speed=19.65, satellites=9, angle=278.2100, fixquality=1
$GPRMC,124214.250,A,4308.4734,N,07726.4683,W,20.43,277.54,130519,,,A*44
$GPGGA,124214.500,4308.4735,N,07726.4703,W,1,09,0.93,148.5,M,-34.4,M,,*50
lng=-77.441139, lat=43.141227, altitude=148.60, speed=20.43, satellites=9, angle=277.5400, fixquality=1
$GPRMC,124214.750,A,4308.4736,N,07726.4724,W,21.24,276.22,130519,,,A*4F
$GPGGA,124215.000,4308.4737,N,07726.4745,W,1,09,0.93,148.6,M,-34.4,M,,*57
lng=-77.441200, lat=43.141227, altitude=148.50, speed=21.24, satellites=9, angle=276.2200, fixquality=1
$GPRMC,124215.250,A,4308.4738,N,07726.4765,W,21.75,275.69,130519,,,A*48
$GPGGA,124215.500,4308.4739,N,07726.4787,W,1,10,0.80,148.6,M,-34.4,M,,*58
lng=-77.441276, lat=43.141227, altitude=148.60, speed=21.75, satellites=9, angle=275.6900, fixquality=1
$GPRMC,124215.750,A,4308.4741,N,07726.4810,W,22.88,275.91,130519,,,A*48
$GPGGA,124216.000,4308.4742,N,07726.4832,W,1,09,0.93,148.7,M,-34.4,M,,*58
lng=-77.441352, lat=43.141235, altitude=148.60, speed=22.88, satellites=10, angle=275.9100, fixquality=1
$GPRMC,124216.250,A,4308.4744,N,07726.4855,W,23.47,275.88,130519,,,A*40
$GPGGA,124216.500,4308.4746,N,07726.4878,W,1,09,0.93,148.9,M,-34.4,M,,*59
lng=-77.441421, lat=43.141242, altitude=148.70, speed=23.47, satellites=9, angle=275.8800, fixquality=1
$GPRMC,124216.750,A,4308.4748,N,07726.4901,W,23.94,275.82,130519,,,A*4D
$GPGGA,124217.000,4308.4749,N,07726.4924,W,1,09,0.93,149.0,M,-34.4,M,,*52
lng=-77.441505, lat=43.141242, altitude=148.90, speed=23.94, satellites=9, angle=275.8200, fixquality=1
$GPRMC,124217.250,A,4308.4751,N,07726.4949,W,24.68,275.45,130519,,,A*42
$GPGGA,124217.500,4308.4753,N,07726.4975,W,1,09,0.93,149.2,M,-34.4,M,,*5A
lng=-77.441581, lat=43.141250, altitude=149.00, speed=24.68, satellites=9, angle=275.4500, fixquality=1
$GPRMC,124217.750,A,4308.4755,N,07726.4999,W,25.94,275.16,130519,,,A*4A
$GPGGA,124218.000,4308.4757,N,07726.5026,W,1,09,0.93,149.4,M,-34.4,M,,*5C
lng=-77.441665, lat=43.141258, altitude=149.20, speed=25.94, satellites=9, angle=275.1600, fixquality=1
$GPRMC,124218.250,A,4308.4760,N,07726.5052,W,27.32,275.56,130519,,,A*43
$GPGGA,124218.500,4308.4762,N,07726.5078,W,1,09,0.93,149.6,M,-34.4,M,,*56
lng=-77.441757, lat=43.141269, altitude=149.40, speed=27.32, satellites=9, angle=275.5600, fixquality=1
$GPRMC,124218.750,A,4308.4764,N,07726.5105,W,28.39,274.68,130519,,,A*49
$GPGGA,124219.000,4308.4766,N,07726.5133,W,1,09,0.93,149.8,M,-34.4,M,,*56
lng=-77.441841, lat=43.141277, altitude=149.60, speed=28.39, satellites=9, angle=274.6800, fixquality=1
$GPRMC,124219.250,A,4308.4768,N,07726.5161,W,29.00,274.45,130519,,,A*47
$GPGGA,124219.500,4308.4770,N,07726.5189,W,1,09,0.93,149.8,M,-34.4,M,,*55
lng=-77.441932, lat=43.141277, altitude=149.80, speed=29.00, satellites=9, angle=274.4500, fixquality=1
$GPRMC,124219.750,A,4308.4772,N,07726.5218,W,29.91,274.59,130519,,,A*41
$GPGGA,124220.000,4308.4774,N,07726.5247,W,1,09,0.93,149.7,M,-34.4,M,,*50
lng=-77.442031, lat=43.141284, altitude=149.80, speed=29.91, satellites=9, angle=274.5900, fixquality=1
$GPRMC,124220.250,A,4308.4776,N,07726.5277,W,30.52,274.31,130519,,,A*4A
$GPGGA,124220.500,4308.4778,N,07726.5307,W,1,09,0.93,149.6,M,-34.4,M,,*5D
lng=-77.442131, lat=43.141292, altitude=149.70, speed=30.52, satellites=9, angle=274.3100, fixquality=1
$GPRMC,124220.750,A,4308.4779,N,07726.5337,W,30.85,274.30,130519,,,A*4E
$GPGGA,124221.000,4308.4781,N,07726.5367,W,1,09,0.93,149.4,M,-34.4,M,,*5B
lng=-77.442230, lat=43.141300, altitude=149.60, speed=30.85, satellites=9, angle=274.3000, fixquality=1
$GPRMC,124221.250,A,4308.4782,N,07726.5398,W,31.78,273.60,130519,,,A*4A
$GPGGA,124221.500,4308.4784,N,07726.5429,W,1,09,0.93,149.2,M,-34.4,M,,*50
lng=-77.442337, lat=43.141300, altitude=149.40, speed=31.78, satellites=9, angle=273.6000, fixquality=1
$GPRMC,124221.750,A,4308.4786,N,07726.5460,W,32.43,274.25,130519,,,A*46
$GPGGA,124222.000,4308.4788,N,07726.5491,W,1,09,0.93,148.9,M,-34.4,M,,*53
lng=-77.442428, lat=43.141307, altitude=149.20, speed=32.43, satellites=9, angle=274.2500, fixquality=1
$GPRMC,124222.250,A,4308.4790,N,07726.5523,W,32.51,274.31,130519,,,A*47
$GPGGA,124222.500,4308.4791,N,07726.5554,W,1,09,0.93,148.6,M,-34.4,M,,*59
lng=-77.442535, lat=43.141315, altitude=148.90, speed=32.51, satellites=9, angle=274.3100, fixquality=1
$GPRMC,124222.750,A,4308.4793,N,07726.5585,W,32.57,274.08,130519,,,A*41
$GPGGA,124223.000,4308.4795,N,07726.5616,W,1,09,0.93,148.4,M,-34.4,M,,*5E
lng=-77.442642, lat=43.141323, altitude=148.60, speed=32.57, satellites=9, angle=274.0800, fixquality=1
$GPRMC,124223.250,A,4308.4796,N,07726.5647,W,32.28,273.92,130519,,,A*41
$GPGGA,124223.500,4308.4798,N,07726.5677,W,1,09,0.90,148.1,M,-34.4,M,,*57
lng=-77.442749, lat=43.141323, altitude=148.40, speed=32.28, satellites=9, angle=273.9200, fixquality=1
$GPRMC,124223.750,A,4308.4800,N,07726.5708,W,32.17,273.56,130519,,,A*4A
$GPGGA,124224.000,4308.4801,N,07726.5739,W,1,10,0.80,147.8,M,-34.4,M,,*5E
lng=-77.442848, lat=43.141334, altitude=148.10, speed=32.17, satellites=9, angle=273.5600, fixquality=1
$GPRMC,124224.250,A,4308.4802,N,07726.5770,W,32.38,273.10,130519,,,A*4A
$GPGGA,124224.500,4308.4803,N,07726.5801,W,1,10,0.80,147.6,M,-34.4,M,,*53
lng=-77.442955, lat=43.141334, altitude=147.80, speed=32.38, satellites=10, angle=273.1000, fixquality=1
$GPRMC,124224.750,A,4308.4804,N,07726.5832,W,32.42,272.76,130519,,,A*4C
$GPGGA,124225.000,4308.4806,N,07726.5864,W,1,10,0.80,147.5,M,-34.4,M,,*52
lng=-77.443046, lat=43.141342, altitude=147.60, speed=32.42, satellites=10, angle=272.7600, fixquality=1
$GPRMC,124225.250,A,4308.4807,N,07726.5895,W,32.57,272.76,130519,,,A*42
$GPGGA,124225.500,4308.4808,N,07726.5928,W,1,10,0.80,147.5,M,-34.4,M,,*50
lng=-77.443153, lat=43.141342, altitude=147.50, speed=32.57, satellites=10, angle=272.7600, fixquality=1
$GPRMC,124225.750,A,4308.4809,N,07726.5960,W,32.74,272.57,130519,,,A*40
$GPGGA,124226.000,4308.4810,N,07726.5992,W,1,09,0.93,147.5,M,-34.4,M,,*54
lng=-77.443267, lat=43.141349, altitude=147.50, speed=32.74, satellites=10, angle=272.5700, fixquality=1
$GPRMC,124226.250,A,4308.4811,N,07726.6025,W,33.66,272.38,130519,,,A*4F
$GPGGA,124226.500,4308.4811,N,07726.6057,W,1,09,0.93,147.6,M,-34.4,M,,*50
lng=-77.443374, lat=43.141349, altitude=147.50, speed=33.66, satellites=9, angle=272.3800, fixquality=1
$GPRMC,124226.750,A,4308.4812,N,07726.6089,W,33.72,271.86,130519,,,A*4C
$GPGGA,124227.000,4308.4812,N,07726.6121,W,1,09,0.93,147.6,M,-34.4,M,,*57
lng=-77.443481, lat=43.141349, altitude=147.60, speed=33.72, satellites=9, angle=271.8600, fixquality=1
$GPRMC,124227.250,A,4308.4813,N,07726.6153,W,33.72,271.49,130519,,,A*4C
$GPGGA,124227.500,4308.4813,N,07726.6186,W,1,09,0.93,147.7,M,-34.4,M,,*5F
lng=-77.443588, lat=43.141357, altitude=147.60, speed=33.72, satellites=9, angle=271.4900, fixquality=1
$GPRMC,124227.750,A,4308.4814,N,07726.6218,W,33.95,271.40,130519,,,A*42
$GPGGA,124228.000,4308.4815,N,07726.6251,W,1,09,0.93,147.8,M,-34.4,M,,*55
lng=-77.443695, lat=43.141357, altitude=147.70, speed=33.95, satellites=9, angle=271.4000, fixquality=1
$GPRMC,124228.250,A,4308.4815,N,07726.6283,W,33.88,271.10,130519,,,A*42
$GPGGA,124228.500,4308.4815,N,07726.6315,W,1,09,0.93,147.9,M,-34.4,M,,*50
lng=-77.443809, lat=43.141357, altitude=147.80, speed=33.88, satellites=9, angle=271.1000, fixquality=1
$GPRMC,124228.750,A,4308.4815,N,07726.6347,W,34.08,270.34,130519,,,A*46
$GPGGA,124229.000,4308.4815,N,07726.6380,W,1,09,0.93,147.8,M,-34.4,M,,*59
lng=-77.443916, lat=43.141357, altitude=147.90, speed=34.08, satellites=9, angle=270.3400, fixquality=1
$GPRMC,124229.250,A,4308.4815,N,07726.6412,W,34.23,269.97,130519,,,A*4D
$GPGGA,124229.500,4308.4815,N,07726.6444,W,1,10,0.80,147.7,M,-34.4,M,,*56
lng=-77.444015, lat=43.141357, altitude=147.80, speed=34.23, satellites=9, angle=269.9700, fixquality=1
$GPRMC,124229.750,A,4308.4814,N,07726.6477,W,34.19,269.34,130519,,,A*4A
$GPGGA,124230.000,4308.4814,N,07726.6510,W,1,09,0.93,147.7,M,-34.4,M,,*50
lng=-77.444122, lat=43.141357, altitude=147.70, speed=34.19, satellites=10, angle=269.3400, fixquality=1
$GPRMC,124230.250,A,4308.4813,N,07726.6542,W,34.07,268.91,130519,,,A*46
$GPGGA,124230.500,4308.4812,N,07726.6575,W,1,10,0.80,147.7,M,-34.4,M,,*5A
lng=-77.444236, lat=43.141357, altitude=147.70, speed=34.07, satellites=9, angle=268.9100, fixquality=1
$GPRMC,124230.750,A,4308.4811,N,07726.6607,W,34.02,267.96,130519,,,A*4E
$GPGGA,124231.000,4308.4810,N,07726.6640,W,1,10,0.80,147.8,M,-34.4,M,,*56
lng=-77.444343, lat=43.141349, altitude=147.70, speed=34.02, satellites=10, angle=267.9600, fixquality=1
$GPRMC,124231.250,A,4308.4808,N,07726.6673,W,34.01,267.49,130519,,,A*40
$GPGGA,124231.500,4308.4807,N,07726.6705,W,1,09,0.93,147.9,M,-34.4,M,,*5E
lng=-77.444458, lat=43.141349, altitude=147.80, speed=34.01, satellites=10, angle=267.4900, fixquality=1
$GPRMC,124231.750,A,4308.4805,N,07726.6738,W,34.07,266.93,130519,,,A*46
$GPGGA,124232.000,4308.4804,N,07726.6770,W,1,09,0.93,147.9,M,-34.4,M,,*59
lng=-77.444564, lat=43.141342, altitude=147.90, speed=34.07, satellites=9, angle=266.9300, fixquality=1
$GPRMC,124232.250,A,4308.4802,N,07726.6802,W,34.09,266.34,130519,,,A*42
$GPGGA,124232.500,4308.4801,N,07726.6834,W,1,10,0.80,147.9,M,-34.4,M,,*5C
lng=-77.444671, lat=43.141334, altitude=147.90, speed=34.09, satellites=9, angle=266.3400, fixquality=1
$GPRMC,124232.750,A,4308.4799,N,07726.6866,W,33.86,265.55,130519,,,A*4C
$GPGGA,124233.000,4308.4797,N,07726.6898,W,1,09,0.93,148.0,M,-34.4,M,,*52
lng=-77.444778, lat=43.141334, altitude=147.90, speed=33.86, satellites=10, angle=265.5500, fixquality=1
$GPRMC,124233.250,A,4308.4795,N,07726.6931,W,33.89,264.75,130519,,,A*4B
$GPGGA,124233.500,4308.4793,N,07726.6963,W,1,09,0.93,148.3,M,-34.4,M,,*55
lng=-77.444877, lat=43.141323, altitude=148.00, speed=33.89, satellites=9, angle=264.7500, fixquality=1
$GPRMC,124233.750,A,4308.4791,N,07726.6995,W,33.61,265.07,130519,,,A*46
$GPGGA,124234.000,4308.4789,N,07726.7027,W,1,09,0.93,148.7,M,-34.4,M,,*50
lng=-77.444992, lat=43.141315, altitude=148.30, speed=33.61, satellites=9, angle=265.0700, fixquality=1
$GPRMC,124234.250,A,4308.4787,N,07726.7060,W,33.98,264.88,130519,,,A*41
$GPGGA,124234.500,4308.4784,N,07726.7092,W,1,09,0.93,149.1,M,-34.4,M,,*51
lng=-77.445098, lat=43.141307, altitude=148.70, speed=33.98, satellites=9, angle=264.8800, fixquality=1
$GPRMC,124234.750,A,4308.4782,N,07726.7124,W,33.98,265.15,130519,,,A*45
$GPGGA,124235.000,4308.4780,N,07726.7156,W,1,09,0.93,149.5,M,-34.4,M,,*5C
lng=-77.445205, lat=43.141300, altitude=149.10, speed=33.98, satellites=9, angle=265.1500, fixquality=1
$GPRMC,124235.250,A,4308.4778,N,07726.7189,W,33.88,265.88,130519,,,A*46
$GPGGA,124235.500,4308.4777,N,07726.7221,W,1,09,0.93,149.7,M,-34.4,M,,*50
lng=-77.445312, lat=43.141300, altitude=149.50, speed=33.88, satellites=9, angle=265.8800, fixquality=1
$GPRMC,124235.750,A,4308.4775,N,07726.7254,W,34.32,267.09,130519,,,A*40
$GPGGA,124236.000,4308.4774,N,07726.7286,W,1,09,0.93,149.9,M,-34.4,M,,*56
lng=-77.445426, lat=43.141292, altitude=149.70, speed=34.32, satellites=9, angle=267.0900, fixquality=1
$GPRMC,124236.250,A,4308.4773,N,07726.7319,W,34.34,267.62,130519,,,A*43
$GPGGA,124236.500,4308.4772,N,07726.7352,W,1,09,0.93,150.1,M,-34.4,M,,*5D
lng=-77.445533, lat=43.141292, altitude=149.90, speed=34.34, satellites=9, angle=267.6200, fixquality=1
$GPRMC,124236.750,A,4308.4771,N,07726.7385,W,34.51,267.91,130519,,,A*4E
$GPGGA,124237.000,4308.4770,N,07726.7417,W,1,09,0.93,150.3,M,-34.4,M,,*5F
lng=-77.445640, lat=43.141284, altitude=150.10, speed=34.51, satellites=9, angle=267.9100, fixquality=1
$GPRMC,124237.250,A,4308.4769,N,07726.7450,W,34.69,267.24,130519,,,A*49
$GPGGA,124237.500,4308.4767,N,07726.7483,W,1,10,0.80,150.6,M,-34.4,M,,*5E
lng=-77.445755, lat=43.141284, altitude=150.30, speed=34.69, satellites=9, angle=267.2400, fixquality=1
$GPRMC,124237.750,A,4308.4766,N,07726.7516,W,34.79,266.20,130519,,,A*44
$GPGGA,124238.000,4308.4764,N,07726.7549,W,1,10,0.80,150.8,M,-34.4,M,,*5E
lng=-77.445854, lat=43.141277, altitude=150.60, speed=34.79, satellites=10, angle=266.2000, fixquality=1
$GPRMC,124238.250,A,4308.4763,N,07726.7583,W,35.32,266.09,130519,,,A*42
$GPGGA,124238.500,4308.4761,N,07726.7616,W,1,10,0.80,151.0,M,-34.4,M,,*5E
lng=-77.445968, lat=43.141269, altitude=150.80, speed=35.32, satellites=10, angle=266.0900, fixquality=1
$GPRMC,124238.750,A,4308.4758,N,07726.7649,W,35.35,265.22,130519,,,A*47
$GPGGA,124239.000,4308.4757,N,07726.7683,W,1,09,0.93,151.1,M,-34.4,M,,*58
lng=-77.446083, lat=43.141258, altitude=151.00, speed=35.35, satellites=10, angle=265.2200, fixquality=1
$GPRMC,124239.250,A,4308.4755,N,07726.7716,W,35.62,265.57,130519,,,A*45
$GPGGA,124239.500,4308.4753,N,07726.7751,W,1,10,0.80,151.1,M,-34.4,M,,*5D
lng=-77.446189, lat=43.141258, altitude=151.10, speed=35.62, satellites=9, angle=265.5700, fixquality=1
$GPRMC,124239.750,A,4308.4751,N,07726.7785,W,35.64,265.93,130519,,,A*40
$GPGGA,124240.000,4308.4749,N,07726.7819,W,1,10,0.80,150.8,M,-34.4,M,,*56
lng=-77.446304, lat=43.141250, altitude=151.10, speed=35.64, satellites=10, angle=265.9300, fixquality=1
$GPRMC,124240.250,A,4308.4747,N,07726.7854,W,35.83,266.01,130519,,,A*4E
$GPGGA,124240.500,4308.4746,N,07726.7889,W,1,10,0.80,150.8,M,-34.4,M,,*55
lng=-77.446418, lat=43.141242, altitude=150.80, speed=35.83, satellites=10, angle=266.0100, fixquality=1
$GPRMC,124240.750,A,4308.4744,N,07726.7925,W,36.01,266.17,130519,,,A*41
$GPGGA,124241.000,4308.4743,N,07726.7961,W,1,10,0.80,150.8,M,-34.4,M,,*53
lng=-77.446540, lat=43.141242, altitude=150.80, speed=36.01, satellites=10, angle=266.1700, fixquality=1
$GPRMC,124241.250,A,4308.4741,N,07726.7997,W,36.25,266.14,130519,,,A*4C
$GPGGA,124241.500,4308.4739,N,07726.8033,W,1,10,0.80,151.0,M,-34.4,M,,*53
lng=-77.446662, lat=43.141235, altitude=150.80, speed=36.25, satellites=10, angle=266.1400, fixquality=1
$GPRMC,124241.750,A,4308.4737,N,07726.8069,W,37.92,265.65,130519,,,A*47
$GPGGA,124242.000,4308.4735,N,07726.8105,W,1,10,0.80,151.0,M,-34.4,M,,*5D
lng=-77.446784, lat=43.141227, altitude=151.00, speed=37.92, satellites=10, angle=265.6500, fixquality=1
$GPRMC,124242.250,A,4308.4733,N,07726.8141,W,37.96,265.81,130519,,,A*40
$GPGGA,124242.500,4308.4731,N,07726.8177,W,1,10,0.80,150.9,M,-34.4,M,,*51
lng=-77.446899, lat=43.141220, altitude=151.00, speed=37.96, satellites=10, angle=265.8100, fixquality=1
$GPRMC,124242.750,A,4308.4729,N,07726.8213,W,38.23,265.42,130519,,,A*44
$GPGGA,124243.000,4308.4727,N,07726.8250,W,1,10,0.79,150.8,M,-34.4,M,,*53
lng=-77.447021, lat=43.141212, altitude=150.90, speed=38.23, satellites=10, angle=265.4200, fixquality=1
$GPRMC,124243.250,A,4308.4725,N,07726.8286,W,38.34,265.28,130519,,,A*4A
$GPGGA,124243.500,4308.4723,N,07726.8323,W,1,10,0.80,150.7,M,-34.4,M,,*5E
lng=-77.447143, lat=43.141212, altitude=150.80, speed=38.34, satellites=10, angle=265.2800, fixquality=1
$GPRMC,124243.750,A,4308.4721,N,07726.8360,W,38.75,265.62,130519,,,A*49
$GPGGA,124244.000,4308.4719,N,07726.8397,W,1,10,0.80,150.5,M,-34.4,M,,*58
lng=-77.447265, lat=43.141201, altitude=150.70, speed=38.75, satellites=10, angle=265.6200, fixquality=1
$GPRMC,124244.250,A,4308.4717,N,07726.8434,W,38.97,265.26,130519,,,A*44
$GPGGA,124244.500,4308.4713,N,07726.8469,W,1,10,0.80,150.6,M,-34.4,M,,*52
lng=-77.447387, lat=43.141193, altitude=150.50, speed=38.97, satellites=10, angle=265.2600, fixquality=1
$GPRMC,124244.750,A,4308.4709,N,07726.8505,W,38.75,264.27,130519,,,A*41
$GPGGA,124245.000,4308.4705,N,07726.8541,W,1,10,0.80,150.7,M,-34.4,M,,*5B
lng=-77.447509, lat=43.141178, altitude=150.60, speed=38.75, satellites=10, angle=264.2700, fixquality=1
$GPRMC,124245.250,A,4308.4702,N,07726.8578,W,39.01,264.47,130519,,,A*40
$GPGGA,124245.500,4308.4699,N,07726.8615,W,1,10,0.80,150.6,M,-34.4,M,,*59
lng=-77.447631, lat=43.141170, altitude=150.70, speed=39.01, satellites=10, angle=264.4700, fixquality=1
$GPRMC,124245.750,A,4308.4696,N,07726.8652,W,39.03,264.58,130519,,,A*4E
$GPGGA,124246.000,4308.4693,N,07726.8688,W,1,10,0.79,150.4,M,-34.4,M,,*55
lng=-77.447753, lat=43.141162, altitude=150.60, speed=39.03, satellites=10, angle=264.5800, fixquality=1
$GPRMC,124246.250,A,4308.4691,N,07726.8725,W,39.32,264.72,130519,,,A*44
$GPGGA,124246.500,4308.4688,N,07726.8763,W,1,10,0.79,150.2,M,-34.4,M,,*58
lng=-77.447875, lat=43.141155, altitude=150.40, speed=39.32, satellites=10, angle=264.7200, fixquality=1
$GPRMC,124246.750,A,4308.4685,N,07726.8800,W,39.66,265.02,130519,,,A*4B
$GPGGA,124247.000,4308.4683,N,07726.8838,W,1,10,0.80,149.8,M,-34.4,M,,*52
lng=-77.447998, lat=43.141136, altitude=150.20, speed=39.66, satellites=10, angle=265.0200, fixquality=1
$GPRMC,124247.250,A,4308.4681,N,07726.8876,W,40.16,265.79,130519,,,A*4F
$GPGGA,124247.500,4308.4678,N,07726.8914,W,1,10,0.79,149.9,M,-34.4,M,,*5B
lng=-77.448127, lat=43.141136, altitude=149.80, speed=40.16, satellites=10, angle=265.7900, fixquality=1
$GPRMC,124247.750,A,4308.4675,N,07726.8952,W,40.36,265.53,130519,,,A*4C
$GPGGA,124248.000,4308.4673,N,07726.8990,W,1,10,0.79,149.7,M,-34.4,M,,*58
lng=-77.448249, lat=43.141120, altitude=149.90, speed=40.36, satellites=10, angle=265.5300, fixquality=1
$GPRMC,124248.250,A,4308.4670,N,07726.9028,W,40.16,264.95,130519,,,A*4F
$GPGGA,124248.500,4308.4668,N,07726.9066,W,1,10,0.80,149.5,M,-34.4,M,,*52
lng=-77.448379, lat=43.141113, altitude=149.70, speed=40.16, satellites=10, angle=264.9500, fixquality=1
$GPRMC,124248.750,A,4308.4665,N,07726.9104,W,40.40,264.85,130519,,,A*43
$GPGGA,124249.000,4308.4663,N,07726.9143,W,1,10,0.79,149.4,M,-34.4,M,,*5C
lng=-77.448501, lat=43.141105, altitude=149.50, speed=40.40, satellites=10, angle=264.8500, fixquality=1
$GPRMC,124249.250,A,4308.4660,N,07726.9181,W,40.39,265.27,130519,,,A*48
$GPGGA,124249.500,4308.4658,N,07726.9220,W,1,10,0.80,149.2,M,-34.4,M,,*57
lng=-77.448631, lat=43.141098, altitude=149.40, speed=40.39, satellites=10, angle=265.2700, fixquality=1
$GPRMC,124249.750,A,4308.4655,N,07726.9258,W,40.43,265.15,130519,,,A*40
$GPGGA,124250.000,4308.4653,N,07726.9297,W,1,10,0.79,149.1,M,-34.4,M,,*58
lng=-77.448760, lat=43.141090, altitude=149.20, speed=40.43, satellites=10, angle=265.1500, fixquality=1
$GPRMC,124250.250,A,4308.4650,N,07726.9336,W,40.84,265.45,130519,,,A*4F
$GPGGA,124250.500,4308.4648,N,07726.9375,W,1,10,0.79,148.9,M,-34.4,M,,*53
lng=-77.448890, lat=43.141078, altitude=149.10, speed=40.84, satellites=10, angle=265.4500, fixquality=1
$GPRMC,124250.750,A,4308.4645,N,07726.9414,W,41.01,265.16,130519,,,A*43
$GPGGA,124251.000,4308.4643,N,07726.9453,W,1,10,0.79,148.7,M,-34.4,M,,*51
lng=-77.449020, lat=43.141071, altitude=148.90, speed=41.01, satellites=10, angle=265.1600, fixquality=1
$GPRMC,124251.250,A,4308.4640,N,07726.9492,W,41.03,265.59,130519,,,A*45
$GPGGA,124251.500,4308.4638,N,07726.9532,W,1,10,0.80,148.5,M,-34.4,M,,*5A
lng=-77.449150, lat=43.141063, altitude=148.70, speed=41.03, satellites=10, angle=265.5900, fixquality=1
$GPRMC,124251.750,A,4308.4636,N,07726.9571,W,41.28,265.13,130519,,,A*4A
$GPGGA,124252.000,4308.4633,N,07726.9610,W,1,10,0.79,148.3,M,-34.4,M,,*54
lng=-77.449287, lat=43.141056, altitude=148.50, speed=41.28, satellites=10, angle=265.1300, fixquality=1
$GPRMC,124252.250,A,4308.4631,N,07726.9650,W,41.25,265.39,130519,,,A*4E
$GPGGA,124252.500,4308.4628,N,07726.9689,W,1,10,0.79,148.1,M,-34.4,M,,*59
lng=-77.449417, lat=43.141048, altitude=148.30, speed=41.25, satellites=10, angle=265.3900, fixquality=1
$GPRMC,124252.750,A,4308.4626,N,07726.9728,W,41.18,265.72,130519,,,A*42
$GPGGA,124253.000,4308.4624,N,07726.9767,W,1,10,0.79,147.9,M,-34.4,M,,*57
lng=-77.449546, lat=43.141040, altitude=148.10, speed=41.18, satellites=10, angle=265.7200, fixquality=1
$GPRMC,124253.250,A,4308.4622,N,07726.9806,W,40.95,265.43,130519,,,A*47
$GPGGA,124253.500,4308.4619,N,07726.9844,W,1,10,0.79,147.7,M,-34.4,M,,*5C
lng=-77.449676, lat=43.141040, altitude=147.90, speed=40.95, satellites=10, angle=265.4300, fixquality=1
$GPRMC,124253.750,A,4308.4617,N,07726.9883,W,40.74,266.20,130519,,,A*40
$GPGGA,124254.000,4308.4614,N,07726.9920,W,1,10,0.80,147.6,M,-34.4,M,,*57
lng=-77.449806, lat=43.141033, altitude=147.70, speed=40.74, satellites=10, angle=266.2000, fixquality=1
$GPRMC,124254.250,A,4308.4612,N,07726.9959,W,40.46,266.09,130519,,,A*4B
$GPGGA,124254.500,4308.4610,N,07726.9997,W,1,10,0.79,147.4,M,-34.4,M,,*5E
lng=-77.449935, lat=43.141025, altitude=147.60, speed=40.46, satellites=10, angle=266.0900, fixquality=1
$GPRMC,124254.750,A,4308.4608,N,07727.0035,W,40.20,265.81,130519,,,A*4D
$GPGGA,124255.000,4308.4605,N,07727.0073,W,1,10,0.79,147.3,M,-34.4,M,,*52
lng=-77.450057, lat=43.141014, altitude=147.40, speed=40.20, satellites=10, angle=265.8100, fixquality=1
$GPRMC,124255.250,A,4308.4603,N,07727.0111,W,39.97,265.91,130519,,,A*46
$GPGGA,124255.500,4308.4601,N,07727.0149,W,1,10,0.79,147.2,M,-34.4,M,,*5A
lng=-77.450187, lat=43.141006, altitude=147.30, speed=39.97, satellites=10, angle=265.9100, fixquality=1
$GPRMC,124255.750,A,4308.4599,N,07727.0186,W,39.79,265.84,130519,,,A*49
$GPGGA,124256.000,4308.4597,N,07727.0224,W,1,10,0.80,147.1,M,-34.4,M,,*5D
lng=-77.450309, lat=43.140998, altitude=147.20, speed=39.79, satellites=10, angle=265.8400, fixquality=1
$GPRMC,124256.250,A,4308.4595,N,07727.0262,W,39.86,266.05,130519,,,A*40
$GPGGA,124256.500,4308.4593,N,07727.0299,W,1,10,0.79,147.0,M,-34.4,M,,*5D
