Vers 81
USE_SERIAL_FEEDBACK=true
DEVELOPMENT_MODE=false
USE_RMC_ONLY=false

$GPRMC,135822.250,A,4308.3122,N,07726.2583,W,0.19,312.66,301019,,,A*73
$GPGGA,135822.500,4308.3121,N,07726.2585,W,1,04,3.78,162.9,M,-34.4,M,,*5E
$GPRMC,135822.750,A,4308.3121,N,07726.2585,W,0.22,174.83,301019,,,A*72
$GPGGA,135823.000,4308.3121,N,07726.2585,W,1,04,3.78,162.8,M,-34.4,M,,*5B
$GPRMC,135823.250,A,4308.3122,N,07726.2585,W,0.24,129.23,301019,,,A*71
$GPGGA,135823.500,4308.3122,N,07726.2584,W,1,04,3.79,163.0,M,-34.4,M,,*54
$GPRMC,135823.750,A,4308.3122,N,07726.2585,W,0.25,82.69,301019,,,A*4B
$GPGGA,135824.000,4308.3122,N,07726.2586,W,1,04,3.78,162.8,M,-34.4,M,,*5C
$GPRMC,135824.250,A,4308.3120,N,07726.2588,W,0.13,90.64,301019,,,A*4D
$GPGGA,135824.500,4308.3118,N,07726.2590,W,1,04,3.79,162.5,M,-34.4,M,,*5B
$GPRMC,135824.750,A,4308.3116,N,07726.2592,W,0.11,95.10,301019,,,A*42
$GPGGA,135825.000,4308.3114,N,07726.2594,W,1,04,3.79,162.1,M,-34.4,M,,*53
$GPRMC,135825.250,A,4308.3113,N,07726.2596,W,0.11,43.23,301019,,,A*4C
$GPGGA,135825.500,4308.3111,N,07726.2597,W,1,04,3.79,161.7,M,-34.4,M,,*55
$GPRMC,135825.750,A,4308.3108,N,07726.2599,W,0.12,23.01,301019,,,A*49
$GPGGA,135826.000,4308.3106,N,07726.2600,W,1,04,3.78,161.4,M,-34.4,M,,*5A
$GPRMC,135826.250,A,4308.3091,N,07726.2610,W,0.05,134.67,301019,,,A*7D
$GPGGA,135826.500,4308.3086,N,07726.2612,W,1,05,2.08,159.4,M,-34.4,M,,*59
$GPRMC,135826.750,A,4308.3084,N,07726.2613,W,0.08,88.05,301019,,,A*40
$GPGGA,135827.000,4308.3082,N,07726.2615,W,1,05,2.08,159.2,M,-34.4,M,,*58
$GPRMC,135827.250,A,4308.3081,N,07726.2616,W,0.14,22.31,301019,,,A*4E
$GPGGA,135827.500,4308.3079,N,07726.2617,W,1,05,2.08,158.9,M,-34.4,M,,*51
$GPRMC,135827.750,A,4308.3077,N,07726.2618,W,0.08,34.29,301019,,,A*4F
$GPGGA,135828.000,4308.3076,N,07726.2619,W,1,05,2.08,158.8,M,-34.4,M,,*5B
$GPRMC,135828.250,A,4308.3074,N,07726.2619,W,0.06,87.87,301019,,,A*45
$GPGGA,135828.500,4308.3074,N,07726.2619,W,1,05,2.08,158.7,M,-34.4,M,,*53
$GPRMC,135828.750,A,4308.3074,N,07726.2620,W,0.06,45.89,301019,,,A*4A
$GPGGA,135829.000,4308.3074,N,07726.2620,W,1,05,2.08,158.6,M,-34.4,M,,*5C
$GPRMC,135829.250,A,4308.3075,N,07726.2621,W,0.17,11.41,301019,,,A*4B
$GPGGA,135829.500,4308.3076,N,07726.2621,W,1,05,2.16,158.8,M,-34.4,M,,*5B
$GPRMC,135829.750,A,4308.3076,N,07726.2622,W,0.19,1.73,301019,,,A*70
$GPGGA,135830.000,4308.3076,N,07726.2622,W,1,05,2.16,158.8,M,-34.4,M,,*55
$GPRMC,135830.250,A,4308.3077,N,07726.2623,W,0.26,337.32,301019,,,A*72
$GPGGA,135830.500,4308.3078,N,07726.2624,W,1,05,2.08,158.8,M,-34.4,M,,*57
$GPRMC,135830.750,A,4308.3078,N,07726.2624,W,0.31,327.16,301019,,,A*7E
$GPGGA,135831.000,4308.3078,N,07726.2625,W,1,05,2.08,158.9,M,-34.4,M,,*53
$GPRMC,135831.250,A,4308.3079,N,07726.2625,W,0.32,334.35,301019,,,A*7A
$GPGGA,135831.500,4308.3079,N,07726.2625,W,1,05,2.08,158.9,M,-34.4,M,,*57
$GPRMC,135831.750,A,4308.3079,N,07726.2626,W,0.31,343.77,301019,,,A*79
$GPGGA,135832.000,4308.3079,N,07726.2626,W,1,05,2.08,158.9,M,-34.4,M,,*52
$GPRMC,135832.250,A,4308.3080,N,07726.2626,W,0.27,347.20,301019,,,A*78
$GPGGA,135832.500,4308.3080,N,07726.2627,W,1,05,2.16,159.0,M,-34.4,M,,*57
$GPRMC,135832.750,A,4308.3080,N,07726.2627,W,0.28,13.58,301019,,,A*4E
$GPGGA,135833.000,4308.3080,N,07726.2627,W,1,05,2.16,159.1,M,-34.4,M,,*52
$GPRMC,135833.250,A,4308.3080,N,07726.2627,W,0.24,10.83,301019,,,A*43
$GPGGA,135833.500,4308.3081,N,07726.2628,W,1,05,2.16,159.3,M,-34.4,M,,*5B
$GPRMC,135833.750,A,4308.3081,N,07726.2629,W,0.28,354.07,301019,,,A*7A
$GPGGA,135834.000,4308.3081,N,07726.2629,W,1,05,2.16,159.4,M,-34.4,M,,*5F
$GPRMC,135834.250,A,4308.3082,N,07726.2629,W,0.33,0.14,301019,,,A*71
$GPGGA,135834.500,4308.3082,N,07726.2630,W,1,05,2.16,159.4,M,-34.4,M,,*51
$GPRMC,135834.750,A,4308.3081,N,07726.2630,W,0.19,6.24,301019,,,A*72
$GPGGA,135835.000,4308.3080,N,07726.2630,W,1,05,2.16,159.6,M,-34.4,M,,*55
$GPRMC,135835.250,A,4308.3080,N,07726.2630,W,0.09,63.51,301019,,,A*47
$GPGGA,135835.500,4308.3080,N,07726.2630,W,1,05,2.08,159.6,M,-34.4,M,,*5F
$GPRMC,135835.750,A,4308.3081,N,07726.2630,W,0.19,29.92,301019,,,A*43
$GPGGA,135836.000,4308.3081,N,07726.2631,W,1,05,2.08,159.7,M,-34.4,M,,*58
$GPRMC,135836.250,A,4308.3081,N,07726.2631,W,0.23,20.31,301019,,,A*4D
$GPGGA,135836.500,4308.3081,N,07726.2631,W,1,05,2.08,159.5,M,-34.4,M,,*5F
$GPRMC,135836.750,A,4308.3080,N,07726.2632,W,0.16,24.83,301019,,,A*41
$GPGGA,135837.000,4308.3079,N,07726.2632,W,1,05,2.08,159.6,M,-34.4,M,,*5C
$GPRMC,135837.250,A,4308.3079,N,07726.2633,W,0.05,332.02,301019,,,A*7D
$GPGGA,135837.500,4308.3078,N,07726.2633,W,1,05,2.08,159.6,M,-34.4,M,,*59
$GPRMC,135837.750,A,4308.3078,N,07726.2633,W,0.09,288.94,301019,,,A*7A
$GPGGA,135838.000,4308.3077,N,07726.2634,W,1,05,2.08,159.5,M,-34.4,M,,*58
$GPRMC,135836.250,A,4308.3077,N,07726.2634,W,0.07,292.30,301019,,,A*7D
$GPGGA,135836.500,4308.3078,N,07726.2633,W,1,05,2.08,159.4,M,-34.4,M,,*5A
$GPRMC,135836.750,A,4308.3078,N,07726.2633,W,0.07,16.76,301019,,,A*4C
$GPGGA,135837.000,4308.3078,N,07726.2633,W,1,05,2.08,159.2,M,-34.4,M,,*58
$GPRMC,135837.250,A,4308.3078,N,07726.2632,W,0.09,76.98,301019,,,A*41
$GPGGA,135837.500,4308.3078,N,07726.2632,W,1,05,2.08,159.1,M,-34.4,M,,*5F
$GPRMC,135837.750,A,4308.3078,N,07726.2632,W,0.12,88.73,301019,,,A*4A
$GPGGA,135838.000,4308.3077,N,07726.2632,W,1,05,2.08,159.0,M,-34.4,M,,*5B
$GPRMC,135838.250,A,4308.3077,N,07726.2631,W,0.12,89.70,301019,,,A*4E
$GPGGA,135838.500,4308.3077,N,07726.2631,W,1,05,2.08,158.9,M,-34.4,M,,*55
$GPRMC,135838.750,A,4308.3077,N,07726.2631,W,0.12,71.52,301019,,,A*4C
$GPGGA,135839.000,4308.3077,N,07726.2631,W,1,05,2.08,158.8,M,-34.4,M,,*50
$GPRMC,135839.250,A,4308.3077,N,07726.2631,W,0.12,52.48,301019,,,A*42
$GPGGA,135839.500,4308.3077,N,07726.2631,W,1,05,2.08,158.6,M,-34.4,M,,*5B
$GPRMC,135839.750,A,4308.3077,N,07726.2630,W,0.12,27.95,301019,,,A*44
$GPGGA,135840.000,4308.3077,N,07726.2630,W,1,05,2.08,158.5,M,-34.4,M,,*52
$GPRMC,135840.250,A,4308.3076,N,07726.2630,W,0.11,27.51,301019,,,A*45
$GPGGA,135840.500,4308.3076,N,07726.2631,W,1,05,2.08,158.4,M,-34.4,M,,*56
$GPRMC,135840.750,A,4308.3076,N,07726.2631,W,0.11,0.87,301019,,,A*7F
$GPGGA,135841.000,4308.3075,N,07726.2632,W,1,05,2.16,158.2,M,-34.4,M,,*5B
$GPRMC,135841.250,A,4308.3076,N,07726.2632,W,0.20,345.69,301019,,,A*78
$GPGGA,135841.500,4308.3076,N,07726.2632,W,1,05,2.16,158.0,M,-34.4,M,,*5F
$GPRMC,135841.750,A,4308.3077,N,07726.2632,W,0.34,5.98,301019,,,A*70
$GPGGA,135842.000,4308.3079,N,07726.2631,W,1,05,2.16,157.7,M,-34.4,M,,*5D
$GPRMC,135842.250,A,4308.3083,N,07726.2632,W,0.77,345.56,301019,,,A*7F
$GPGGA,135842.500,4308.3084,N,07726.2632,W,1,05,2.16,157.3,M,-34.4,M,,*5D
$GPRMC,135842.750,A,4308.3086,N,07726.2633,W,1.06,336.00,301019,,,A*7E
$GPGGA,135843.000,4308.3089,N,07726.2634,W,1,05,2.08,156.9,M,-34.4,M,,*56
$GPRMC,135843.250,A,4308.3093,N,07726.2636,W,1.59,329.31,301019,,,A*7D
$GPGGA,135843.500,4308.3098,N,07726.2637,W,1,05,2.08,156.4,M,-34.4,M,,*5D
$GPRMC,135843.750,A,4308.3102,N,07726.2637,W,2.05,330.89,301019,,,A*71
$GPGGA,135844.000,4308.3104,N,07726.2637,W,1,05,2.08,156.1,M,-34.4,M,,*5E
$GPRMC,135844.250,A,4308.3108,N,07726.2637,W,2.23,336.79,301019,,,A*74
$GPGGA,135844.500,4308.3115,N,07726.2637,W,1,05,2.08,155.9,M,-34.4,M,,*50
$GPRMC,135844.750,A,4308.3124,N,07726.2636,W,3.85,358.82,301019,,,A*7F
$GPGGA,135845.000,4308.3131,N,07726.2635,W,1,05,2.16,155.7,M,-34.4,M,,*51
$GPRMC,135845.250,A,4308.3137,N,07726.2633,W,5.60,8.86,301019,,,A*73
$GPGGA,135845.500,4308.3141,N,07726.2632,W,1,05,2.16,155.5,M,-34.4,M,,*56
$GPRMC,135845.750,A,4308.3145,N,07726.2630,W,5.87,13.52,301019,,,A*4A
$GPGGA,135846.000,4308.3150,N,07726.2629,W,1,05,2.16,155.2,M,-34.4,M,,*5D
$GPRMC,135846.250,A,4308.3154,N,07726.2627,W,5.93,15.47,301019,,,A*4D
$GPGGA,135846.500,4308.3158,N,07726.2626,W,1,05,2.16,155.2,M,-34.4,M,,*5F
$GPRMC,135846.750,A,4308.3162,N,07726.2624,W,5.93,18.04,301019,,,A*44
$GPGGA,135847.000,4308.3166,N,07726.2623,W,1,05,2.16,155.2,M,-34.4,M,,*53
$GPRMC,135847.250,A,4308.3168,N,07726.2621,W,5.19,16.72,301019,,,A*42
$GPGGA,135847.500,4308.3172,N,07726.2620,W,1,05,2.08,155.1,M,-34.4,M,,*5C
$GPRMC,135847.750,A,4308.3174,N,07726.2616,W,4.94,34.67,301019,,,A*4E
$GPGGA,135848.000,4308.3175,N,07726.2611,W,1,05,2.16,155.1,M,-34.4,M,,*5C
$GPRMC,135848.250,A,4308.3176,N,07726.2607,W,4.70,59.63,301019,,,A*43
$GPGGA,135848.500,4308.3176,N,07726.2604,W,1,05,2.16,155.2,M,-34.4,M,,*5D
$GPRMC,135848.750,A,4308.3176,N,07726.2601,W,3.66,67.92,301019,,,A*43
$GPGGA,135849.000,4308.3176,N,07726.2599,W,1,05,2.08,155.2,M,-34.4,M,,*51
$GPRMC,135849.250,A,4308.3176,N,07726.2597,W,2.43,78.76,301019,,,A*49
$GPGGA,135849.500,4308.3178,N,07726.2595,W,1,05,2.08,155.2,M,-34.4,M,,*56
$GPRMC,135849.750,A,4308.3179,N,07726.2594,W,2.02,57.78,301019,,,A*46
$GPGGA,135850.000,4308.3180,N,07726.2594,W,1,05,2.08,155.1,M,-34.4,M,,*5E
$GPRMC,135850.250,A,4308.3180,N,07726.2594,W,1.08,27.18,301019,,,A*45
$GPGGA,135850.500,4308.3180,N,07726.2595,W,1,05,2.08,155.1,M,-34.4,M,,*5A
$GPRMC,135850.750,A,4308.3181,N,07726.2596,W,0.67,343.15,301019,,,A*77
$GPGGA,135851.000,4308.3182,N,07726.2597,W,1,05,2.08,155.1,M,-34.4,M,,*5E
$GPRMC,135851.250,A,4308.3184,N,07726.2599,W,1.23,332.76,301019,,,A*7B
$GPGGA,135851.500,4308.3186,N,07726.2601,W,1,05,2.08,155.1,M,-34.4,M,,*53
$GPRMC,135851.750,A,4308.3189,N,07726.2604,W,1.86,324.78,301019,,,A*72
$GPGGA,135852.000,4308.3192,N,07726.2607,W,1,05,2.08,155.1,M,-34.4,M,,*56
$GPRMC,135852.250,A,4308.3195,N,07726.2610,W,2.53,320.79,301019,,,A*72
$GPGGA,135852.500,4308.3197,N,07726.2614,W,1,05,2.08,155.1,M,-34.4,M,,*54
$GPRMC,135852.750,A,4308.3199,N,07726.2621,W,4.45,307.86,301019,,,A*7D
$GPGGA,135853.000,4308.3200,N,07726.2631,W,1,05,2.16,155.1,M,-34.4,M,,*55
$GPRMC,135853.250,A,4308.3202,N,07726.2641,W,7.18,296.20,301019,,,A*70
$GPGGA,135853.500,4308.3205,N,07726.2649,W,1,05,2.08,155.0,M,-34.4,M,,*54
$GPRMC,135853.750,A,4308.3208,N,07726.2658,W,8.71,295.31,301019,,,A*74
$GPGGA,135854.000,4308.3209,N,07726.2670,W,1,05,2.17,155.0,M,-34.4,M,,*5E
$GPRMC,135854.250,A,4308.3210,N,07726.2682,W,10.44,288.83,301019,,,A*42
$GPGGA,135854.500,4308.3211,N,07726.2693,W,1,05,2.08,154.9,M,-34.4,M,,*59
$GPRMC,135854.750,A,4308.3212,N,07726.2705,W,11.20,285.82,301019,,,A*44
$GPGGA,135855.000,4308.3214,N,07726.2717,W,1,05,2.16,154.8,M,-34.4,M,,*5B
$GPRMC,135855.250,A,4308.3217,N,07726.2730,W,12.12,285.32,301019,,,A*4A
$GPGGA,135855.500,4308.3221,N,07726.2743,W,2,05,2.08,154.8,M,-34.4,M,0000,0000*55
$GPRMC,135855.750,A,4308.3226,N,07726.2758,W,13.64,286.30,301019,,,D*47
$GPGGA,135856.000,4308.3229,N,07726.2773,W,2,05,2.08,154.8,M,-34.4,M,0000,0000*58
$GPRMC,135856.250,A,4308.3234,N,07726.2789,W,14.97,287.37,301019,,,D*43
$GPGGA,135856.500,4308.3237,N,07726.2804,W,2,05,2.08,154.8,M,-34.4,M,0000,0000*5D
$GPRMC,135856.750,A,4308.3241,N,07726.2820,W,15.67,288.28,301019,,,D*47
$GPGGA,135857.000,4308.3246,N,07726.2837,W,2,05,2.08,155.0,M,-34.4,M,0000,0000*56
$GPRMC,135857.250,A,4308.3250,N,07726.2852,W,16.30,290.12,301019,,,D*47
$GPGGA,135857.500,4308.3254,N,07726.2869,W,2,05,2.08,155.1,M,-34.4,M,0000,0000*5A
$GPRMC,135857.750,A,4308.3258,N,07726.2885,W,16.75,290.87,301019,,,D*4D
$GPGGA,135858.000,4308.3261,N,07726.2901,W,2,05,2.08,155.3,M,-34.4,M,0000,0000*5B
$GPRMC,135858.250,A,4308.3265,N,07726.2917,W,16.98,291.10,301019,,,D*4F
$GPGGA,135858.500,4308.3269,N,07726.2933,W,2,05,2.08,155.4,M,-34.4,M,0000,0000*50
$GPRMC,135858.750,A,4308.3274,N,07726.2949,W,17.19,291.61,301019,,,D*4F
$GPGGA,135859.000,4308.3280,N,07726.2965,W,2,05,2.08,155.4,M,-34.4,M,0000,0000*50
$GPRMC,135859.250,A,4308.3286,N,07726.2982,W,17.94,293.82,301019,,,D*4B
$GPGGA,135859.500,4308.3290,N,07726.3000,W,2,05,2.08,155.4,M,-34.4,M,0000,0000*5F
$GPRMC,135859.750,A,4308.3298,N,07726.3017,W,18.67,295.74,301019,,,D*49
$GPGGA,135900.000,4308.3306,N,07726.3034,W,2,05,2.08,155.4,M,-34.4,M,0000,0000*5E
$GPRMC,135900.250,A,4308.3313,N,07726.3052,W,19.48,297.54,301019,,,D*4E
$GPGGA,135900.500,4308.3320,N,07726.3070,W,2,05,2.08,155.3,M,-34.4,M,0000,0000*58
$GPRMC,135900.750,A,4308.3326,N,07726.3089,W,20.17,298.61,301019,,,D*42
$GPGGA,135901.000,4308.3334,N,07726.3107,W,2,05,2.08,155.3,M,-34.4,M,0000,0000*58
$GPRMC,135901.250,A,4308.3341,N,07726.3125,W,20.82,299.48,301019,,,D*46
$GPGGA,135901.500,4308.3349,N,07726.3144,W,2,05,2.08,155.3,M,-34.4,M,0000,0000*50
$GPRMC,135901.750,A,4308.3357,N,07726.3163,W,21.56,300.43,301019,,,D*44
$GPGGA,135902.000,4308.3366,N,07726.3182,W,2,05,2.08,155.2,M,-34.4,M,0000,0000*50
$GPRMC,135902.250,A,4308.3375,N,07726.3201,W,22.06,301.42,301019,,,D*43
$GPGGA,135902.500,4308.3384,N,07726.3220,W,2,05,2.08,155.2,M,-34.4,M,0000,0000*52
$GPRMC,135902.750,A,4308.3394,N,07726.3238,W,22.61,302.74,301019,,,D*44
$GPGGA,135903.000,4308.3404,N,07726.3256,W,2,05,2.09,155.2,M,-34.4,M,0000,0000*59
$GPRMC,135903.250,A,4308.3414,N,07726.3275,W,22.99,303.44,301019,,,D*43
$GPGGA,135903.500,4308.3425,N,07726.3293,W,2,05,2.08,155.1,M,-34.4,M,0000,0000*54
$GPRMC,135903.750,A,4308.3435,N,07726.3311,W,23.26,304.81,301019,,,D*4D
$GPGGA,135904.000,4308.3446,N,07726.3328,W,2,05,2.17,155.1,M,-34.4,M,0000,0000*5C
$GPRMC,135904.250,A,4308.3457,N,07726.3346,W,23.59,306.17,301019,,,D*4C
$GPGGA,135904.500,4308.3468,N,07726.3364,W,2,05,2.09,155.1,M,-34.4,M,0000,0000*52
$GPRMC,135904.750,A,4308.3478,N,07726.3383,W,23.82,306.45,301019,,,D*4C
$GPGGA,135905.000,4308.3489,N,07726.3400,W,2,05,2.09,155.1,M,-34.4,M,0000,0000*5C
$GPRMC,135905.250,A,4308.3500,N,07726.3418,W,23.92,307.83,301019,,,D*49
$GPGGA,135905.500,4308.3511,N,07726.3437,W,2,05,2.09,155.1,M,-34.4,M,0000,0000*5D
$GPRMC,135905.750,A,4308.3522,N,07726.3455,W,24.23,307.65,301019,,,D*40
$GPGGA,135906.000,4308.3533,N,07726.3474,W,2,05,2.09,155.1,M,-34.4,M,0000,0000*5C
$GPRMC,135906.250,A,4308.3544,N,07726.3492,W,24.29,307.68,301019,,,D*4A
$GPGGA,135906.500,4308.3554,N,07726.3511,W,2,05,2.09,155.0,M,-34.4,M,0000,0000*5B
$GPRMC,135906.750,A,4308.3566,N,07726.3527,W,24.04,308.96,301019,,,D*41
$GPGGA,135907.000,4308.3578,N,07726.3543,W,2,05,2.09,155.1,M,-34.4,M,0000,0000*57
$GPRMC,135907.250,A,4308.3589,N,07726.3560,W,23.74,311.16,301019,,,D*47
$GPGGA,135907.500,4308.3600,N,07726.3576,W,2,05,2.09,155.1,M,-34.4,M,0000,0000*58
$GPRMC,135907.750,A,4308.3612,N,07726.3592,W,23.32,313.02,301019,,,D*4B
$GPGGA,135908.000,4308.3625,N,07726.3606,W,2,05,2.17,155.1,M,-34.4,M,0000,0000*5E
$GPRMC,135908.250,A,4308.3638,N,07726.3620,W,22.82,318.16,301019,,,D*47
$GPGGA,135908.500,4308.3651,N,07726.3634,W,2,05,2.09,155.1,M,-34.4,M,0000,0000*56
$GPRMC,135908.750,A,4308.3665,N,07726.3648,W,22.49,322.44,301019,,,D*4D
$GPGGA,135909.000,4308.3678,N,07726.3662,W,2,05,2.08,155.2,M,-34.4,M,0000,0000*58
$GPRMC,135909.250,A,4308.3692,N,07726.3674,W,22.17,326.88,301019,,,D*41
$GPGGA,135909.500,4308.3706,N,07726.3686,W,2,05,2.09,155.1,M,-34.4,M,0000,0000*5D
$GPRMC,135909.750,A,4308.3723,N,07726.3697,W,22.20,331.98,301019,,,D*41
$GPGGA,135910.000,4308.3740,N,07726.3707,W,2,05,2.17,155.1,M,-34.4,M,0000,0000*55
$GPRMC,135910.250,A,4308.3755,N,07726.3716,W,22.33,334.55,301019,,,D*43
$GPGGA,135910.500,4308.3769,N,07726.3725,W,2,05,2.09,155.1,M,-34.4,M,0000,0000*54
$GPRMC,135910.750,A,4308.3784,N,07726.3733,W,22.03,336.94,301019,,,D*41
$GPGGA,135911.000,4308.3799,N,07726.3740,W,2,05,2.09,155.1,M,-34.4,M,0000,0000*5C
$GPRMC,135911.250,A,4308.3816,N,07726.3746,W,21.74,341.03,301019,,,D*4E
$GPGGA,135911.500,4308.3831,N,07726.3752,W,2,05,2.09,155.2,M,-34.4,M,0000,0000*54
$GPRMC,135911.750,A,4308.3846,N,07726.3756,W,21.35,344.95,301019,,,D*40
$GPGGA,135912.000,4308.3861,N,07726.3761,W,2,05,2.09,155.2,M,-34.4,M,0000,0000*57
$GPRMC,135912.250,A,4308.3876,N,07726.3766,W,21.07,346.72,301019,,,D*4C
$GPGGA,135912.500,4308.3890,N,07726.3769,W,2,05,2.17,155.2,M,-34.4,M,0000,0000*5B
$GPRMC,135912.750,A,4308.3905,N,07726.3771,W,20.70,349.89,301019,,,D*40
$GPGGA,135913.000,4308.3923,N,07726.3771,W,2,05,2.17,155.3,M,-34.4,M,0000,0000*5E
$GPRMC,135913.250,A,4308.3940,N,07726.3769,W,21.09,357.33,301019,,,D*4D
$GPGGA,135913.500,4308.3957,N,07726.3768,W,2,05,2.17,155.4,M,-34.4,M,0000,0000*57
$GPRMC,135913.750,A,4308.3972,N,07726.3767,W,21.23,0.07,301019,,,D*49
$GPGGA,135914.000,4308.3988,N,07726.3765,W,2,05,2.17,155.4,M,-34.4,M,0000,0000*5A
$GPRMC,135914.250,A,4308.4004,N,07726.3763,W,21.31,2.93,301019,,,D*4C
$GPGGA,135914.500,4308.4019,N,07726.3760,W,2,05,2.17,155.4,M,-34.4,M,0000,0000*5C
$GPRMC,135914.750,A,4308.4036,N,07726.3757,W,21.77,5.23,301019,,,D*41
$GPGGA,135915.000,4308.4053,N,07726.3753,W,2,05,2.17,155.5,M,-34.4,M,0000,0000*57
$GPRMC,135915.250,A,4308.4070,N,07726.3749,W,22.45,6.34,301019,,,D*4F
$GPGGA,135915.500,4308.4086,N,07726.3746,W,2,05,2.17,155.5,M,-34.4,M,0000,0000*5E
$GPRMC,135915.750,A,4308.4103,N,07726.3742,W,22.98,6.17,301019,,,D*45
$GPGGA,135916.000,4308.4121,N,07726.3739,W,2,05,2.17,155.5,M,-34.4,M,0000,0000*5C
$GPRMC,135916.250,A,4308.4138,N,07726.3735,W,23.51,6.00,301019,,,D*49
$GPGGA,135916.500,4308.4156,N,07726.3731,W,2,05,2.17,155.5,M,-34.4,M,0000,0000*51
$GPRMC,135916.750,A,4308.4174,N,07726.3727,W,24.17,6.55,301019,,,D*42
$GPGGA,135917.000,4308.4193,N,07726.3722,W,2,05,2.17,155.5,M,-34.4,M,0000,0000*5E
$GPRMC,135917.250,A,4308.4210,N,07726.3718,W,24.56,7.25,301019,,,D*48
$GPGGA,135917.500,4308.4228,N,07726.3714,W,2,05,2.17,155.5,M,-34.4,M,0000,0000*5D
$GPRMC,135917.750,A,4308.4247,N,07726.3709,W,24.82,8.04,301019,,,D*4A
$GPGGA,135918.000,4308.4264,N,07726.3704,W,2,05,2.17,155.5,M,-34.4,M,0000,0000*5E
$GPRMC,135918.250,A,4308.4282,N,07726.3699,W,24.88,8.61,301019,,,D*48
$GPGGA,135918.500,4308.4299,N,07726.3695,W,2,05,2.17,155.4,M,-34.4,M,0000,0000*51
$GPRMC,135918.750,A,4308.4316,N,07726.3691,W,24.77,8.88,301019,,,D*4E
$GPGGA,135919.000,4308.4333,N,07726.3686,W,2,05,2.17,155.4,M,-34.4,M,0000,0000*56
$GPRMC,135919.250,A,4308.4350,N,07726.3682,W,24.44,9.46,301019,,,D*49
$GPGGA,135919.500,4308.4367,N,07726.3679,W,2,05,2.17,155.4,M,-34.4,M,0000,0000*52
$GPRMC,135919.750,A,4308.4383,N,07726.3675,W,23.91,10.02,301019,,,D*7D
$GPGGA,135920.000,4308.4399,N,07726.3671,W,2,05,2.17,155.4,M,-34.4,M,0000,0000*54
$GPRMC,135920.250,A,4308.4414,N,07726.3667,W,23.38,10.63,301019,,,D*7C
$GPGGA,135920.500,4308.4429,N,07726.3663,W,2,05,2.18,155.3,M,-34.4,M,0000,0000*56
$GPRMC,135920.750,A,4308.4444,N,07726.3659,W,22.82,10.55,301019,,,D*74
$GPGGA,135921.000,4308.4458,N,07726.3656,W,2,05,2.17,155.3,M,-34.4,M,0000,0000*5D
$GPRMC,135921.250,A,4308.4472,N,07726.3653,W,21.86,10.62,301019,,,D*7C
$GPGGA,135921.500,4308.4486,N,07726.3650,W,2,05,2.18,155.3,M,-34.4,M,0000,0000*52
$GPRMC,135921.750,A,4308.4499,N,07726.3647,W,20.99,11.73,301019,,,D*77
$GPGGA,135922.000,4308.4511,N,07726.3644,W,2,05,2.18,155.3,M,-34.4,M,0000,0000*5E
$GPRMC,135922.250,A,4308.4523,N,07726.3640,W,19.98,12.80,301019,,,D*72
$GPGGA,135922.500,4308.4535,N,07726.3636,W,2,05,2.18,155.3,M,-34.4,M,0000,0000*58
$GPRMC,135922.750,A,4308.4545,N,07726.3633,W,18.57,14.66,301019,,,D*7F
$GPGGA,135923.000,4308.4553,N,07726.3631,W,2,05,2.18,155.3,M,-34.4,M,0000,0000*5B
$GPRMC,135923.250,A,4308.4562,N,07726.3627,W,16.66,16.07,301019,,,D*72
$GPGGA,135923.500,4308.4569,N,07726.3621,W,2,05,2.09,155.4,M,-34.4,M,0000,0000*51
$GPRMC,135923.750,A,4308.4578,N,07726.3616,W,15.57,16.16,301019,,,D*7F
$GPGGA,135924.000,4308.4586,N,07726.3611,W,2,05,2.09,155.4,M,-34.4,M,0000,0000*51
$GPRMC,135924.250,A,4308.4595,N,07726.3606,W,14.55,17.33,301019,,,D*7A
$GPGGA,135924.500,4308.4598,N,07726.3605,W,2,05,2.09,155.5,M,-34.4,M,0000,0000*5F
$GPRMC,135924.750,A,4308.4603,N,07726.3603,W,12.28,16.67,301019,,,D*7A
$GPGGA,135925.000,4308.4607,N,07726.3602,W,2,05,2.09,155.6,M,-34.4,M,0000,0000*5A
$GPRMC,135925.250,A,4308.4614,N,07726.3601,W,10.93,9.45,301019,,,D*46
$GPGGA,135925.500,4308.4622,N,07726.3599,W,2,05,2.18,155.7,M,-34.4,M,0000,0000*58
$GPRMC,135925.750,A,4308.4619,N,07726.3607,W,8.40,345.16,301019,,,D*72
$GPGGA,135926.000,4308.4625,N,07726.3610,W,2,05,2.18,155.6,M,-34.4,M,0000,0000*5A
$GPRMC,135926.250,A,4308.4630,N,07726.3615,W,8.46,331.80,301019,,,D*76
$GPGGA,135926.500,4308.4636,N,07726.3619,W,2,05,2.09,155.8,M,-34.4,M,0000,0000*5A
$GPRMC,135926.750,A,4308.4641,N,07726.3624,W,8.95,327.59,301019,,,D*7A
$GPGGA,135927.000,4308.4646,N,07726.3632,W,2,05,2.18,155.9,M,-34.4,M,0000,0000*51
$GPRMC,135927.250,A,4308.4651,N,07726.3640,W,10.15,316.97,301019,,,D*4C
$GPGGA,135927.500,4308.4657,N,07726.3649,W,2,05,2.09,156.0,M,-34.4,M,0000,0000*52
$GPRMC,135927.750,A,4308.4660,N,07726.3660,W,11.60,308.39,301019,,,D*41
$GPGGA,135928.000,4308.4664,N,07726.3671,W,2,05,2.18,156.0,M,-34.4,M,0000,0000*53
$GPRMC,135928.250,A,4308.4665,N,07726.3684,W,12.64,299.06,301019,,,D*46
$GPGGA,135928.500,4308.4669,N,07726.3696,W,2,05,2.09,156.0,M,-34.4,M,0000,0000*52
$GPRMC,135928.750,A,4308.4673,N,07726.3708,W,13.35,297.47,301019,,,D*4F
$GPGGA,135929.000,4308.4677,N,07726.3720,W,2,05,2.09,156.0,M,-34.4,M,0000,0000*55
$GPRMC,135929.250,A,4308.4681,N,07726.3734,W,14.14,295.93,301019,,,D*46
$GPGGA,135929.500,4308.4685,N,07726.3747,W,2,05,2.09,156.1,M,-34.4,M,0000,0000*5D
$GPRMC,135929.750,A,4308.4689,N,07726.3762,W,15.06,294.21,301019,,,D*42
$GPGGA,135930.000,4308.4693,N,07726.3777,W,2,05,2.09,156.1,M,-34.4,M,0000,0000*54
$GPRMC,135930.250,A,4308.4697,N,07726.3793,W,16.23,292.74,301019,,,D*4C
$GPGGA,135930.500,4308.4701,N,07726.3810,W,2,05,2.09,156.1,M,-34.4,M,0000,0000*55
$GPRMC,135930.750,A,4308.4706,N,07726.3827,W,17.54,291.59,301019,,,D*4D
$GPGGA,135931.000,4308.4710,N,07726.3847,W,2,05,2.09,156.1,M,-34.4,M,0000,0000*53
$GPRMC,135931.250,A,4308.4714,N,07726.3865,W,18.48,290.45,301019,,,D*42
$GPGGA,135931.500,4308.4718,N,07726.3884,W,2,05,2.09,156.0,M,-34.4,M,0000,0000*50
$GPRMC,135931.750,A,4308.4723,N,07726.3903,W,18.90,289.47,301019,,,D*4D
$GPGGA,135932.000,4308.4727,N,07726.3922,W,2,05,2.09,156.0,M,-34.4,M,0000,0000*57
$GPRMC,135932.250,A,4308.4731,N,07726.3940,W,19.03,288.70,301019,,,D*41
$GPGGA,135932.500,4308.4735,N,07726.3958,W,2,05,2.09,155.9,M,-34.4,M,0000,0000*56
$GPRMC,135932.750,A,4308.4738,N,07726.3977,W,19.00,287.76,301019,,,D*43
$GPGGA,135933.000,4308.4742,N,07726.3996,W,2,05,2.09,155.9,M,-34.4,M,0000,0000*50
$GPRMC,135933.250,A,4308.4745,N,07726.4015,W,19.00,287.17,301019,,,D*40
$GPGGA,135933.500,4308.4749,N,07726.4032,W,2,05,2.09,155.9,M,-34.4,M,0000,0000*5E
$GPRMC,135933.750,A,4308.4753,N,07726.4050,W,18.97,286.87,301019,,,D*44
$GPGGA,135934.000,4308.4756,N,07726.4069,W,2,05,2.09,155.8,M,-34.4,M,0000,0000*5D
$GPRMC,135934.250,A,4308.4760,N,07726.4088,W,18.90,286.21,301019,,,D*48
$GPGGA,135934.500,4308.4763,N,07726.4106,W,2,05,2.09,155.9,M,-34.4,M,0000,0000*57
$GPRMC,135934.750,A,4308.4766,N,07726.4124,W,18.83,285.81,301019,,,D*47
$GPGGA,135935.000,4308.4769,N,07726.4143,W,2,05,2.09,156.0,M,-34.4,M,0000,0000*52
$GPRMC,135935.250,A,4308.4772,N,07726.4161,W,18.32,285.06,301019,,,D*42
$GPGGA,135935.500,4308.4774,N,07726.4178,W,2,05,2.09,156.1,M,-34.4,M,0000,0000*52
$GPRMC,135935.750,A,4308.4776,N,07726.4196,W,17.81,283.83,301019,,,D*47
$GPGGA,135936.000,4308.4776,N,07726.4214,W,2,05,2.09,156.2,M,-34.4,M,0000,0000*5C
$GPRMC,135936.250,A,4308.4776,N,07726.4231,W,16.99,281.21,301019,,,D*4D
$GPGGA,135936.500,4308.4776,N,07726.4248,W,2,05,2.09,156.2,M,-34.4,M,0000,0000*50
$GPRMC,135936.750,A,4308.4776,N,07726.4265,W,15.76,278.89,301019,,,D*4F
$GPGGA,135937.000,4308.4776,N,07726.4281,W,2,05,2.09,156.3,M,-34.4,M,0000,0000*50
$GPRMC,135937.250,A,4308.4775,N,07726.4297,W,14.49,276.79,301019,,,D*49
$GPGGA,135937.500,4308.4774,N,07726.4312,W,2,05,2.09,156.4,M,-34.4,M,0000,0000*5B
$GPRMC,135937.750,A,4308.4771,N,07726.4326,W,13.19,273.24,301019,,,D*4C
$GPGGA,135938.000,4308.4769,N,07726.4338,W,2,05,2.09,156.5,M,-34.4,M,0000,0000*54
$GPRMC,135938.250,A,4308.4767,N,07726.4349,W,11.41,269.23,301019,,,D*4B
$GPGGA,135938.500,4308.4765,N,07726.4359,W,2,05,2.09,156.5,M,-34.4,M,0000,0000*5A
$GPRMC,135938.750,A,4308.4762,N,07726.4369,W,10.05,263.00,301019,,,D*43
$GPGGA,135939.000,4308.4757,N,07726.4377,W,2,05,2.09,156.6,M,-34.4,M,0000,0000*50
$GPRMC,135939.250,A,4308.4752,N,07726.4386,W,8.83,253.66,301019,,,D*71
$GPGGA,135939.500,4308.4747,N,07726.4393,W,2,05,2.09,156.7,M,-34.4,M,0000,0000*5F
$GPRMC,135939.750,A,4308.4743,N,07726.4400,W,8.05,244.66,301019,,,D*75
$GPGGA,135940.000,4308.4738,N,07726.4407,W,2,05,2.09,156.7,M,-34.4,M,0000,0000*56
$GPRMC,135940.250,A,4308.4733,N,07726.4412,W,7.28,235.36,301019,,,D*79
$GPGGA,135940.500,4308.4729,N,07726.4416,W,2,05,2.09,156.8,M,-34.4,M,0000,0000*5C
$GPRMC,135940.750,A,4308.4725,N,07726.4420,W,6.67,234.89,301019,,,D*75
$GPGGA,135941.000,4308.4723,N,07726.4423,W,2,05,2.09,156.9,M,-34.4,M,0000,0000*55
$GPRMC,135941.250,A,4308.4721,N,07726.4427,W,6.12,242.73,301019,,,D*74
$GPGGA,135941.500,4308.4720,N,07726.4432,W,2,05,2.09,157.0,M,-34.4,M,0000,0000*5B
$GPRMC,135941.750,A,4308.4720,N,07726.4438,W,6.63,255.82,301019,,,D*70
$GPGGA,135942.000,4308.4716,N,07726.4447,W,2,05,2.09,156.9,M,-34.4,M,0000,0000*52
$GPRMC,135942.250,A,4308.4712,N,07726.4456,W,7.60,265.04,301019,,,D*70
$GPGGA,135942.500,4308.4711,N,07726.4465,W,2,05,2.09,156.9,M,-34.4,M,0000,0000*50
$GPRMC,135942.750,A,4308.4707,N,07726.4477,W,8.94,268.83,301019,,,D*74
$GPGGA,135943.000,4308.4699,N,07726.4493,W,2,05,2.09,156.8,M,-34.4,M,0000,0000*5D
$GPRMC,135943.250,A,4308.4698,N,07726.4504,W,10.44,269.38,301019,,,D*47
$GPGGA,135943.500,4308.4698,N,07726.4514,W,2,05,2.09,156.8,M,-34.4,M,0000,0000*57
$GPRMC,135943.750,A,4308.4697,N,07726.4525,W,10.83,268.51,301019,,,D*4B
$GPGGA,135944.000,4308.4697,N,07726.4536,W,2,05,2.09,156.9,M,-34.4,M,0000,0000*5B
$GPRMC,135944.250,A,4308.4698,N,07726.4551,W,10.75,265.20,301019,,,D*47
$GPGGA,135944.500,4308.4695,N,07726.4570,W,2,05,2.09,157.0,M,-34.4,M,0000,0000*56
$GPRMC,135944.750,A,4308.4693,N,07726.4585,W,11.07,264.28,301019,,,D*4D
$GPGGA,135945.000,4308.4687,N,07726.4598,W,2,05,2.09,157.1,M,-34.4,M,0000,0000*56
$GPRMC,135945.250,A,4308.4683,N,07726.4609,W,10.78,258.83,301019,,,D*48
$GPGGA,135945.500,4308.4679,N,07726.4620,W,2,05,2.09,157.2,M,-34.4,M,0000,0000*51
$GPRMC,135945.750,A,4308.4676,N,07726.4630,W,10.81,256.60,301019,,,D*48
$GPGGA,135946.000,4308.4670,N,07726.4637,W,2,05,2.09,157.3,M,-34.4,M,0000,0000*59
$GPRMC,135946.250,A,4308.4663,N,07726.4648,W,11.13,254.76,301019,,,D*4A
$GPGGA,135946.500,4308.4650,N,07726.4659,W,2,05,2.09,157.3,M,-34.4,M,0000,0000*56
$GPRMC,135946.750,A,4308.4645,N,07726.4668,W,12.39,242.85,301019,,,D*49
$GPGGA,135947.000,4308.4639,N,07726.4677,W,2,05,2.09,157.4,M,-34.4,M,0000,0000*56
$GPRMC,135947.250,A,4308.4629,N,07726.4685,W,12.19,239.67,301019,,,D*46
$GPGGA,135947.500,4308.4621,N,07726.4694,W,2,05,2.09,157.4,M,-34.4,M,0000,0000*57
$GPRMC,135947.750,A,4308.4614,N,07726.4703,W,12.13,235.93,301019,,,D*4F
$GPGGA,135948.000,4308.4606,N,07726.4711,W,2,05,2.09,157.4,M,-34.4,M,0000,0000*54
$GPRMC,135948.250,A,4308.4594,N,07726.4715,W,11.89,225.43,301019,,,D*45
$GPGGA,135948.500,4308.4584,N,07726.4722,W,2,05,2.09,157.4,M,-34.4,M,0000,0000*58
$GPRMC,135948.750,A,4308.4572,N,07726.4728,W,12.43,220.35,301019,,,D*47
$GPGGA,135949.000,4308.4561,N,07726.4735,W,2,05,2.09,157.4,M,-34.4,M,0000,0000*51
$GPRMC,135949.250,A,4308.4549,N,07726.4741,W,13.29,216.53,301019,,,D*4C
$GPGGA,135949.500,4308.4539,N,07726.4747,W,2,05,2.09,157.3,M,-34.4,M,0000,0000*5B
$GPRMC,135949.750,A,4308.4528,N,07726.4754,W,13.89,215.54,301019,,,D*44
$GPGGA,135950.000,4308.4516,N,07726.4760,W,2,05,2.09,157.2,M,-34.4,M,0000,0000*5F
$GPRMC,135950.250,A,4308.4504,N,07726.4766,W,14.59,213.30,301019,,,D*48
$GPGGA,135950.500,4308.4491,N,07726.4772,W,2,05,2.09,157.1,M,-34.4,M,0000,0000*54
$GPRMC,135950.750,A,4308.4465,N,07726.4779,W,16.47,208.92,301019,,,D*4A
$GPGGA,135951.000,4308.4443,N,07726.4787,W,2,05,2.09,157.1,M,-34.4,M,0000,0000*55
$GPRMC,135951.250,A,4308.4423,N,07726.4795,W,18.56,206.89,301019,,,D*44
$GPGGA,135951.500,4308.4402,N,07726.4804,W,2,05,2.09,157.0,M,-34.4,M,0000,0000*50
$GPRMC,135951.750,A,4308.4382,N,07726.4813,W,20.07,205.35,301019,,,D*47
$GPGGA,135952.000,4308.4361,N,07726.4822,W,2,05,2.09,157.0,M,-34.4,M,0000,0000*50
$GPRMC,135952.250,A,4308.4340,N,07726.4831,W,21.50,203.94,301019,,,D*41
$GPGGA,135952.500,4308.4319,N,07726.4841,W,2,05,2.09,156.8,M,-34.4,M,0000,0000*56
$GPRMC,135952.750,A,4308.4297,N,07726.4852,W,23.13,204.58,301019,,,D*48
$GPGGA,135953.000,4308.4275,N,07726.4862,W,2,05,2.09,156.7,M,-34.4,M,0000,0000*57
$GPRMC,135953.250,A,4308.4251,N,07726.4873,W,24.58,204.13,301019,,,D*42
$GPGGA,135953.500,4308.4228,N,07726.4883,W,2,05,2.09,156.6,M,-34.4,M,0000,0000*54
$GPRMC,135953.750,A,4308.4203,N,07726.4893,W,25.77,203.03,301019,,,D*44
$GPGGA,135954.000,4308.4178,N,07726.4903,W,2,05,2.09,156.6,M,-34.4,M,0000,0000*59
$GPRMC,135954.250,A,4308.4151,N,07726.4913,W,27.10,202.11,301019,,,D*4A
$GPGGA,135954.500,4308.4125,N,07726.4922,W,2,05,2.09,156.5,M,-34.4,M,0000,0000*54
$GPRMC,135954.750,A,4308.4094,N,07726.4931,W,28.45,200.16,301019,,,D*4D
$GPGGA,135955.000,4308.4062,N,07726.4940,W,2,05,2.19,156.5,M,-34.4,M,0000,0000*57
$GPRMC,135955.250,A,4308.4019,N,07726.4949,W,30.96,197.75,301019,,,D*4C
$GPGGA,135955.500,4308.3985,N,07726.4960,W,2,05,2.09,156.5,M,-34.4,M,0000,0000*56
$GPRMC,135955.750,A,4308.3947,N,07726.4974,W,33.32,197.60,301019,,,D*4B
$GPGGA,135956.000,4308.3910,N,07726.4986,W,2,05,2.19,156.4,M,-34.4,M,0000,0000*54
$GPRMC,135956.250,A,4308.3876,N,07726.4998,W,35.00,197.10,301019,,,D*4C
$GPGGA,135956.500,4308.3846,N,07726.5009,W,2,05,2.09,156.3,M,-34.4,M,0000,0000*5A
$GPRMC,135956.750,A,4308.3818,N,07726.5019,W,35.77,196.12,301019,,,D*43
$GPGGA,135957.000,4308.3788,N,07726.5027,W,2,05,2.19,156.2,M,-34.4,M,0000,0000*5F
$GPRMC,135957.250,A,4308.3760,N,07726.5036,W,36.19,194.62,301019,,,D*44
$GPGGA,135957.500,4308.3733,N,07726.5045,W,2,05,2.09,156.2,M,-34.4,M,0000,0000*5F
$GPRMC,135957.750,A,4308.3706,N,07726.5054,W,36.43,194.25,301019,,,D*49
$GPGGA,135958.000,4308.3677,N,07726.5062,W,2,05,2.09,156.2,M,-34.4,M,0000,0000*51
$GPRMC,135958.250,A,4308.3647,N,07726.5069,W,36.95,192.83,301019,,,D*48
$GPGGA,135958.500,4308.3616,N,07726.5076,W,2,05,2.09,156.3,M,-34.4,M,0000,0000*57
$GPRMC,135958.750,A,4308.3586,N,07726.5082,W,37.81,190.76,301019,,,D*4A
$GPGGA,135959.000,4308.3557,N,07726.5088,W,2,05,2.19,156.3,M,-34.4,M,0000,0000*55
$GPRMC,135959.250,A,4308.3528,N,07726.5094,W,38.57,189.77,301019,,,D*40
$GPGGA,135959.500,4308.3499,N,07726.5100,W,2,05,2.09,156.3,M,-34.4,M,0000,0000*53
$GPRMC,135959.750,A,4308.3470,N,07726.5105,W,39.09,188.84,301019,,,D*47
$GPGGA,140000.000,4308.3441,N,07726.5110,W,2,05,2.09,156.3,M,-34.4,M,0000,0000*55
$GPRMC,140000.250,A,4308.3412,N,07726.5115,W,39.67,188.17,301019,,,D*42
$GPGGA,140000.500,4308.3382,N,07726.5119,W,2,05,2.09,156.4,M,-34.4,M,0000,0000*56
$GPRMC,140000.750,A,4308.3353,N,07726.5124,W,40.22,187.38,301019,,,D*4A
$GPGGA,140001.000,4308.3323,N,07726.5126,W,2,05,2.09,156.4,M,-34.4,M,0000,0000*55
$GPRMC,140001.250,A,4308.3292,N,07726.5128,W,41.01,186.05,301019,,,D*41
$GPGGA,140001.500,4308.3262,N,07726.5131,W,2,05,2.09,156.5,M,-34.4,M,0000,0000*53
$GPRMC,140001.750,A,4308.3233,N,07726.5133,W,41.04,185.31,301019,,,D*44
$GPGGA,140002.000,4308.3203,N,07726.5134,W,2,05,2.09,156.6,M,-34.4,M,0000,0000*54
$GPRMC,140002.250,A,4308.3174,N,07726.5135,W,40.90,184.44,301019,,,D*4B
$GPGGA,140002.500,4308.3145,N,07726.5137,W,2,05,2.09,156.7,M,-34.4,M,0000,0000*52
$GPRMC,140002.750,A,4308.3116,N,07726.5139,W,41.05,184.36,301019,,,D*4E
$GPGGA,140003.000,4308.3087,N,07726.5140,W,2,05,2.19,156.8,M,-34.4,M,0000,0000*57
$GPRMC,140003.250,A,4308.3058,N,07726.5143,W,41.08,184.13,301019,,,D*46
$GPGGA,140003.500,4308.3029,N,07726.5144,W,2,05,2.09,156.8,M,-34.4,M,0000,0000*53
$GPRMC,140003.750,A,4308.3001,N,07726.5146,W,41.12,183.92,301019,,,D*4F
$GPGGA,140004.000,4308.2972,N,07726.5148,W,2,05,2.09,156.8,M,-34.4,M,0000,0000*5B
$GPRMC,140004.250,A,4308.2943,N,07726.5150,W,41.36,183.55,301019,,,D*49
$GPGGA,140004.500,4308.2914,N,07726.5152,W,2,05,2.09,156.9,M,-34.4,M,0000,0000*54
$GPRMC,140004.750,A,4308.2886,N,07726.5153,W,41.25,183.06,301019,,,D*43
$GPGGA,140005.000,4308.2857,N,07726.5154,W,2,05,2.09,157.0,M,-34.4,M,0000,0000*58
$GPRMC,140005.250,A,4308.2828,N,07726.5155,W,41.16,182.44,301019,,,D*42
$GPGGA,140005.500,4308.2800,N,07726.5155,W,2,05,2.09,157.1,M,-34.4,M,0000,0000*5F
$GPRMC,140005.750,A,4308.2771,N,07726.5155,W,41.07,181.75,301019,,,D*45
$GPGGA,140006.000,4308.2741,N,07726.5156,W,2,05,2.09,157.2,M,-34.4,M,0000,0000*53
$GPRMC,140006.250,A,4308.2712,N,07726.5156,W,41.30,181.41,301019,,,D*46
$GPGGA,140006.500,4308.2682,N,07726.5157,W,2,05,2.09,157.3,M,-34.4,M,0000,0000*58
$GPRMC,140006.750,A,4308.2652,N,07726.5156,W,41.59,181.06,301019,,,D*4A
$GPGGA,140007.000,4308.2622,N,07726.5156,W,2,05,2.09,157.4,M,-34.4,M,0000,0000*50
$GPRMC,140007.250,A,4308.2592,N,07726.5156,W,41.72,181.01,301019,,,D*4F
$GPGGA,140007.500,4308.2562,N,07726.5157,W,2,05,2.09,157.5,M,-34.4,M,0000,0000*52
$GPRMC,140007.750,A,4308.2533,N,07726.5158,W,41.80,181.43,301019,,,D*44
$GPGGA,140008.000,4308.2504,N,07726.5160,W,2,05,2.09,157.6,M,-34.4,M,0000,0000*5F
$GPRMC,140008.250,A,4308.2476,N,07726.5161,W,41.81,181.74,301019,,,D*41
$GPGGA,140008.500,4308.2447,N,07726.5161,W,2,05,2.09,157.6,M,-34.4,M,0000,0000*5D
$GPRMC,140008.750,A,4308.2418,N,07726.5163,W,41.73,182.22,301019,,,D*43
$GPGGA,140009.000,4308.2390,N,07726.5164,W,2,05,2.09,157.6,M,-34.4,M,0000,0000*51
$GPRMC,140009.250,A,4308.2362,N,07726.5165,W,41.52,182.19,301019,,,D*40
$GPGGA,140009.500,4308.2334,N,07726.5166,W,2,05,2.09,157.7,M,-34.4,M,0000,0000*59
$GPRMC,140009.750,A,4308.2305,N,07726.5167,W,41.48,182.06,301019,,,D*43
$GPGGA,140010.000,4308.2276,N,07726.5167,W,2,05,2.09,157.7,M,-34.4,M,0000,0000*52
$GPRMC,140010.250,A,4308.2246,N,07726.5167,W,41.75,181.52,301019,,,D*44
$GPGGA,140010.500,4308.2216,N,07726.5168,W,2,05,2.09,157.7,M,-34.4,M,0000,0000*5E
$GPRMC,140010.750,A,4308.2187,N,07726.5169,W,41.80,181.41,301019,,,D*49
$GPGGA,140011.000,4308.2158,N,07726.5169,W,2,05,2.09,157.8,M,-34.4,M,0000,0000*5D
$GPRMC,140011.250,A,4308.2129,N,07726.5170,W,41.86,181.25,301019,,,D*45
$GPGGA,140011.500,4308.2099,N,07726.5170,W,2,05,2.09,157.8,M,-34.4,M,0000,0000*5C
$GPRMC,140011.750,A,4308.2071,N,07726.5171,W,41.89,181.53,301019,,,D*43
$GPGGA,140012.000,4308.2041,N,07726.5171,W,2,05,2.09,157.9,M,-34.4,M,0000,0000*5F
$GPRMC,140012.250,A,4308.2013,N,07726.5171,W,41.89,181.38,301019,,,D*4C
$GPGGA,140012.500,4308.1984,N,07726.5171,W,2,05,2.09,157.9,M,-34.4,M,0000,0000*59
$GPRMC,140012.750,A,4308.1954,N,07726.5172,W,41.84,181.55,301019,,,D*45
$GPGGA,140013.000,4308.1924,N,07726.5172,W,2,05,2.09,158.0,M,-34.4,M,0000,0000*52
$GPRMC,140013.250,A,4308.1892,N,07726.5173,W,42.14,181.33,301019,,,D*41
$GPGGA,140013.500,4308.1861,N,07726.5174,W,2,05,2.09,158.0,M,-34.4,M,0000,0000*51
$GPRMC,140013.750,A,4308.1828,N,07726.5173,W,42.69,180.43,301019,,,D*49
$GPGGA,140014.000,4308.1796,N,07726.5173,W,2,05,2.09,158.1,M,-34.4,M,0000,0000*52
$GPRMC,140014.250,A,4308.1763,N,07726.5172,W,43.09,180.00,301019,,,D*4A
$GPGGA,140014.500,4308.1731,N,07726.5171,W,2,05,2.09,158.0,M,-34.4,M,0000,0000*59
$GPRMC,140014.750,A,4308.1700,N,07726.5170,W,43.16,179.98,301019,,,D*41
$GPGGA,140015.000,4308.1667,N,07726.5169,W,2,05,2.20,158.0,M,-34.4,M,0000,0000*5D
$GPRMC,140015.250,A,4308.1634,N,07726.5169,W,43.60,180.62,301019,,,D*49
$GPGGA,140015.500,4308.1603,N,07726.5170,W,2,05,2.09,157.9,M,-34.4,M,0000,0000*5F
$GPRMC,140015.750,A,4308.1572,N,07726.5170,W,43.52,181.13,301019,,,D*43
$GPGGA,140016.000,4308.1541,N,07726.5171,W,2,05,2.20,157.9,M,-34.4,M,0000,0000*56
$GPRMC,140016.250,A,4308.1509,N,07726.5172,W,43.52,181.32,301019,,,D*48
$GPGGA,140016.500,4308.1479,N,07726.5172,W,2,05,2.09,157.9,M,-34.4,M,0000,0000*51
$GPRMC,140016.750,A,4308.1447,N,07726.5173,W,43.52,181.32,301019,,,D*47
$GPGGA,140017.000,4308.1417,N,07726.5174,W,2,05,2.09,158.0,M,-34.4,M,0000,0000*5D
$GPRMC,140017.250,A,4308.1387,N,07726.5175,W,43.54,181.28,301019,,,D*43
$GPGGA,140017.500,4308.1359,N,07726.5176,W,2,05,2.09,158.0,M,-34.4,M,0000,0000*57
$GPRMC,140017.750,A,4308.1330,N,07726.5176,W,43.29,181.12,301019,,,D*4A
$GPGGA,140018.000,4308.1302,N,07726.5177,W,2,05,2.20,158.0,M,-34.4,M,0000,0000*59
$GPRMC,140018.250,A,4308.1274,N,07726.5177,W,42.77,181.08,301019,,,D*41
$GPGGA,140018.500,4308.1245,N,07726.5178,W,2,05,2.09,158.0,M,-34.4,M,0000,0000*5A
$GPRMC,140018.750,A,4308.1218,N,07726.5179,W,42.29,181.20,301019,,,D*41
$GPGGA,140019.000,4308.1190,N,07726.5179,W,2,05,2.09,158.0,M,-34.4,M,0000,0000*54
$GPRMC,140019.250,A,4308.1161,N,07726.5179,W,42.07,180.96,301019,,,D*48
$GPGGA,140019.500,4308.1133,N,07726.5179,W,2,05,2.09,158.0,M,-34.4,M,0000,0000*58
$GPRMC,140019.750,A,4308.1108,N,07726.5179,W,41.70,180.28,301019,,,D*44
$GPGGA,140020.000,4308.1083,N,07726.5180,W,2,05,2.10,157.9,M,-34.4,M,0000,0000*55
$GPRMC,140020.250,A,4308.1054,N,07726.5180,W,41.32,180.87,301019,,,D*46
$GPGGA,140020.500,4308.1026,N,07726.5180,W,2,05,2.09,158.0,M,-34.4,M,0000,0000*51
$GPRMC,140020.750,A,4308.0998,N,07726.5181,W,41.35,181.49,301019,,,D*4E
$GPGGA,140021.000,4308.0971,N,07726.5182,W,2,05,2.10,158.0,M,-34.4,M,0000,0000*55
$GPRMC,140021.250,A,4308.0943,N,07726.5183,W,41.14,181.76,301019,,,D*41
$GPGGA,140021.500,4308.0915,N,07726.5184,W,2,05,2.10,158.0,M,-34.4,M,0000,0000*54
$GPRMC,140021.750,A,4308.0886,N,07726.5185,W,41.17,181.04,301019,,,D*4C
$GPGGA,140022.000,4308.0857,N,07726.5184,W,2,05,2.10,158.1,M,-34.4,M,0000,0000*54
$GPRMC,140022.250,A,4308.0828,N,07726.5184,W,41.27,180.18,301019,,,D*40
$GPGGA,140022.500,4308.0798,N,07726.5183,W,2,05,2.10,158.1,M,-34.4,M,0000,0000*5A
$GPRMC,140022.750,A,4308.0768,N,07726.5183,W,41.81,179.80,301019,,,D*42
$GPGGA,140023.000,4308.0742,N,07726.5180,W,2,05,2.20,158.1,M,-34.4,M,0000,0000*59
$GPRMC,140023.250,A,4308.0715,N,07726.5178,W,41.84,179.23,301019,,,D*44
$GPGGA,140023.500,4308.0687,N,07726.5176,W,2,05,2.10,158.2,M,-34.4,M,0000,0000*5D
$GPRMC,140023.750,A,4308.0658,N,07726.5175,W,42.23,178.88,301019,,,D*4A
$GPGGA,140024.000,4308.0628,N,07726.5173,W,2,05,2.20,158.2,M,-34.4,M,0000,0000*5C
$GPRMC,140024.250,A,4308.0599,N,07726.5170,W,42.53,177.66,301019,,,D*4B
$GPGGA,140024.500,4308.0569,N,07726.5168,W,2,05,2.10,158.2,M,-34.4,M,0000,0000*56
$GPRMC,140024.750,A,4308.0540,N,07726.5165,W,42.62,176.88,301019,,,D*4D
$GPGGA,140025.000,4308.0509,N,07726.5163,W,2,05,2.10,158.3,M,-34.4,M,0000,0000*5E
$GPRMC,140025.250,A,4308.0479,N,07726.5160,W,43.04,176.05,301019,,,D*43
$GPGGA,140025.500,4308.0450,N,07726.5157,W,2,05,2.10,158.3,M,-34.4,M,0000,0000*51
$GPRMC,140025.750,A,4308.0422,N,07726.5154,W,42.75,175.56,301019,,,D*4D
$GPGGA,140026.000,4308.0396,N,07726.5151,W,2,05,2.10,158.4,M,-34.4,M,0000,0000*5B
$GPRMC,140026.250,A,4308.0370,N,07726.5147,W,42.04,174.79,301019,,,D*43
$GPGGA,140026.500,4308.0343,N,07726.5143,W,2,05,2.10,158.4,M,-34.3,M,0000,0000*52
$GPRMC,140026.750,A,4308.0316,N,07726.5139,W,41.48,173.98,301019,,,D*4C
$GPGGA,140027.000,4308.0289,N,07726.5135,W,2,05,2.10,158.6,M,-34.3,M,0000,0000*52
$GPRMC,140027.250,A,4308.0261,N,07726.5131,W,41.23,173.54,301019,,,D*4C
$GPGGA,140027.500,4308.0235,N,07726.5126,W,2,05,2.10,158.7,M,-34.3,M,0000,0000*53
$GPRMC,140027.750,A,4308.0209,N,07726.5122,W,40.53,173.11,301019,,,D*42
$GPGGA,140028.000,4308.0182,N,07726.5117,W,2,05,2.10,158.8,M,-34.3,M,0000,0000*5B
$GPRMC,140028.250,A,4308.0155,N,07726.5113,W,40.30,172.74,301019,,,D*47
$GPGGA,140028.500,4308.0128,N,07726.5108,W,2,05,2.10,159.0,M,-34.3,M,0000,0000*59
$GPRMC,140028.750,A,4308.0102,N,07726.5104,W,40.05,172.40,301019,,,D*47
$GPGGA,140029.000,4308.0075,N,07726.5099,W,2,05,2.10,159.2,M,-34.3,M,0000,0000*5F
$GPRMC,140029.250,A,4308.0048,N,07726.5094,W,39.88,172.19,301019,,,D*43
$GPGGA,140029.500,4308.0020,N,07726.5090,W,2,05,2.10,159.4,M,-34.3,M,0000,0000*55
$GPRMC,140029.750,A,4307.9993,N,07726.5085,W,40.01,172.07,301019,,,D*4F
$GPGGA,140030.000,4307.9965,N,07726.5080,W,2,05,2.20,159.6,M,-34.3,M,0000,0000*56
$GPRMC,140030.250,A,4307.9938,N,07726.5075,W,40.07,171.62,301019,,,D*4A
$GPGGA,140030.500,4307.9911,N,07726.5069,W,2,05,2.10,159.8,M,-34.3,M,0000,0000*5A
$GPRMC,140030.750,A,4307.9885,N,07726.5063,W,39.63,171.32,301019,,,D*46
$GPGGA,140031.000,4307.9856,N,07726.5058,W,2,05,2.20,160.0,M,-34.3,M,0000,0000*5F
$GPRMC,140031.250,A,4307.9829,N,07726.5053,W,39.85,171.09,301019,,,D*47
$GPGGA,140031.500,4307.9803,N,07726.5047,W,2,05,2.10,160.2,M,-34.3,M,0000,0000*55
$GPRMC,140031.750,A,4307.9777,N,07726.5041,W,39.21,170.58,301019,,,D*4E
$GPGGA,140032.000,4307.9750,N,07726.5035,W,2,05,2.10,160.5,M,-34.3,M,0000,0000*58
$GPRMC,140032.250,A,4307.9723,N,07726.5028,W,39.20,170.48,301019,,,D*46
$GPGGA,140032.500,4307.9697,N,07726.5022,W,2,05,2.10,160.7,M,-34.3,M,0000,0000*53
$GPRMC,140032.750,A,4307.9670,N,07726.5015,W,39.28,170.25,301019,,,D*49
$GPGGA,140033.000,4307.9645,N,07726.5008,W,2,05,2.10,160.9,M,-34.3,M,0000,0000*5E
$GPRMC,140033.250,A,4307.9618,N,07726.5001,W,39.29,170.27,301019,,,D*45
$GPGGA,140033.500,4307.9592,N,07726.4994,W,2,05,2.10,161.1,M,-34.3,M,0000,0000*56
$GPRMC,140033.750,A,4307.9565,N,07726.4988,W,39.76,170.34,301019,,,D*48
$GPGGA,140034.000,4307.9539,N,07726.4981,W,2,05,2.20,161.2,M,-34.3,M,0000,0000*51
$GPRMC,140034.250,A,4307.9512,N,07726.4974,W,40.03,170.43,301019,,,D*45
$GPGGA,140034.500,4307.9486,N,07726.4968,W,2,05,2.10,161.3,M,-34.3,M,0000,0000*54
$GPRMC,140034.750,A,4307.9459,N,07726.4961,W,40.05,170.76,301019,,,D*4A
$GPGGA,140035.000,4307.9432,N,07726.4955,W,2,05,2.20,161.4,M,-34.3,M,0000,0000*55
$GPRMC,140035.250,A,4307.9404,N,07726.4949,W,40.64,171.58,301019,,,D*46
$GPGGA,140035.500,4307.9376,N,07726.4943,W,2,05,2.10,161.5,M,-34.3,M,0000,0000*52
$GPRMC,140035.750,A,4307.9348,N,07726.4937,W,40.71,171.88,301019,,,D*4C
$GPGGA,140036.000,4307.9321,N,07726.4931,W,2,05,2.20,161.5,M,-34.3,M,0000,0000*50
$GPRMC,140036.250,A,4307.9292,N,07726.4926,W,41.11,172.34,301019,,,D*4F
$GPGGA,140036.500,4307.9264,N,07726.4920,W,2,05,2.10,161.5,M,-34.3,M,0000,0000*56
$GPRMC,140036.750,A,4307.9235,N,07726.4915,W,41.16,172.72,301019,,,D*42
$GPGGA,140037.000,4307.9208,N,07726.4910,W,2,05,2.21,161.5,M,-34.3,M,0000,0000*59
$GPRMC,140037.250,A,4307.9180,N,07726.4905,W,41.38,173.14,301019,,,D*47
$GPGGA,140037.500,4307.9152,N,07726.4901,W,2,05,2.10,161.4,M,-34.3,M,0000,0000*53
$GPRMC,140037.750,A,4307.9124,N,07726.4896,W,41.72,173.41,301019,,,D*49
$GPGGA,140038.000,4307.9096,N,07726.4891,W,2,05,2.21,161.3,M,-34.3,M,0000,0000*5D
$GPRMC,140038.250,A,4307.9068,N,07726.4887,W,41.49,173.79,301019,,,D*49
$GPGGA,140038.500,4307.9041,N,07726.4883,W,2,05,2.10,161.2,M,-34.3,M,0000,0000*52
$GPRMC,140038.750,A,4307.9013,N,07726.4879,W,41.37,174.06,301019,,,D*47
$GPGGA,140039.000,4307.8985,N,07726.4875,W,2,05,2.21,161.2,M,-34.3,M,0000,0000*5D
$GPRMC,140039.250,A,4307.8957,N,07726.4871,W,41.01,174.15,301019,,,D*44
$GPGGA,140039.500,4307.8930,N,07726.4867,W,2,05,2.10,161.2,M,-34.3,M,0000,0000*57
$GPRMC,140039.750,A,4307.8903,N,07726.4863,W,40.87,174.10,301019,,,D*49
$GPGGA,140040.000,4307.8876,N,07726.4859,W,2,05,2.21,161.2,M,-34.3,M,0000,0000*50
$GPRMC,140040.250,A,4307.8849,N,07726.4856,W,40.10,174.46,301019,,,D*46
$GPGGA,140040.500,4307.8822,N,07726.4852,W,2,05,2.10,161.2,M,-34.3,M,0000,0000*5D
$GPRMC,140040.750,A,4307.8794,N,07726.4849,W,39.75,174.74,301019,,,D*4E
$GPGGA,140041.000,4307.8768,N,07726.4846,W,2,05,2.21,161.2,M,-34.3,M,0000,0000*5F
$GPRMC,140041.250,A,4307.8740,N,07726.4843,W,39.46,174.83,301019,,,D*41
$GPGGA,140041.500,4307.8714,N,07726.4840,W,2,05,2.10,161.3,M,-34.3,M,0000,0000*54
$GPRMC,140041.750,A,4307.8687,N,07726.4836,W,38.77,175.02,301019,,,D*47
$GPGGA,140042.000,4307.8660,N,07726.4834,W,2,05,2.21,161.3,M,-34.3,M,0000,0000*51
$GPRMC,140042.250,A,4307.8634,N,07726.4831,W,38.68,175.62,301019,,,D*46
$GPGGA,140042.500,4307.8605,N,07726.4830,W,2,05,2.10,161.3,M,-34.3,M,0000,0000*51
$GPRMC,140042.750,A,4307.8576,N,07726.4828,W,39.25,176.40,301019,,,D*45
$GPGGA,140043.000,4307.8547,N,07726.4827,W,2,05,2.21,161.4,M,-34.3,M,0000,0000*53
$GPRMC,140043.250,A,4307.8519,N,07726.4825,W,39.17,176.84,301019,,,D*4C
$GPGGA,140043.500,4307.8491,N,07726.4824,W,2,05,2.10,161.5,M,-34.3,M,0000,0000*5C
$GPRMC,140043.750,A,4307.8463,N,07726.4822,W,39.46,177.26,301019,,,D*4F
$GPGGA,140044.000,4307.8435,N,07726.4821,W,2,05,2.21,161.6,M,-34.3,M,0000,0000*54
$GPRMC,140044.250,A,4307.8408,N,07726.4820,W,39.47,177.72,301019,,,D*42
$GPGGA,140044.500,4307.8382,N,07726.4819,W,2,05,2.10,161.4,M,-34.3,M,0000,0000*51
$GPRMC,140044.750,A,4307.8356,N,07726.4817,W,38.30,178.15,301019,,,D*40
$GPGGA,140045.000,4307.8330,N,07726.4817,W,2,05,2.21,161.4,M,-34.3,M,0000,0000*50
$GPRMC,140045.250,A,4307.8304,N,07726.4817,W,37.27,178.80,301019,,,D*46
$GPGGA,140045.500,4307.8280,N,07726.4816,W,2,05,2.10,161.5,M,-34.3,M,0000,0000*5D
$GPRMC,140045.750,A,4307.8255,N,07726.4816,W,36.52,179.07,301019,,,D*4A
$GPGGA,140046.000,4307.8232,N,07726.4816,W,2,05,2.10,161.6,M,-34.3,M,0000,0000*51
$GPRMC,140046.250,A,4307.8209,N,07726.4816,W,35.36,179.65,301019,,,D*40
$GPGGA,140046.500,4307.8187,N,07726.4817,W,2,05,2.10,161.7,M,-34.3,M,0000,0000*59
$GPRMC,140046.750,A,4307.8169,N,07726.4816,W,33.56,179.48,301019,,,D*4F
$GPGGA,140047.000,4307.8150,N,07726.4817,W,2,05,2.21,161.9,M,-34.3,M,0000,0000*5B
$GPRMC,140047.250,A,4307.8133,N,07726.4817,W,31.34,180.89,301019,,,D*48
$GPGGA,140047.500,4307.8131,N,07726.4818,W,2,05,2.10,161.9,M,-34.3,M,0000,0000*54
$GPRMC,140047.750,A,4307.8119,N,07726.4818,W,25.75,181.28,301019,,,D*40
$GPGGA,140048.000,4307.8108,N,07726.4819,W,2,05,2.10,162.1,M,-34.3,M,0000,0000*5E
$GPRMC,140048.250,A,4307.8097,N,07726.4821,W,22.21,183.73,301019,,,D*4D
$GPGGA,140048.500,4307.8083,N,07726.4823,W,2,05,2.21,162.2,M,-34.3,M,0000,0000*51
$GPRMC,140048.750,A,4307.8071,N,07726.4826,W,21.40,184.88,301019,,,D*40
$GPGGA,140049.000,4307.8065,N,07726.4830,W,2,05,2.21,162.3,M,-34.3,M,0000,0000*5E
$GPRMC,140049.250,A,4307.8052,N,07726.4834,W,20.12,189.09,301019,,,D*44
$GPGGA,140049.500,4307.8042,N,07726.4839,W,2,05,2.10,162.4,M,-34.3,M,0000,0000*52
$GPRMC,140049.750,A,4307.8043,N,07726.4846,W,19.25,193.21,301019,,,D*4B
$GPGGA,140050.000,4307.8043,N,07726.4853,W,2,05,2.10,162.2,M,-34.3,M,0000,0000*54
$GPRMC,140050.250,A,4307.8037,N,07726.4860,W,18.33,196.39,301019,,,D*4B
$GPGGA,140050.500,4307.8033,N,07726.4867,W,2,05,2.10,162.2,M,-34.3,M,0000,0000*51
$GPRMC,140050.750,A,4307.8031,N,07726.4874,W,17.39,199.69,301019,,,D*42
$GPGGA,140051.000,4307.8029,N,07726.4882,W,2,05,2.10,162.2,M,-34.3,M,0000,0000*55
$GPRMC,140051.250,A,4307.8056,N,07726.4895,W,16.48,203.04,301019,,,D*44
$GPGGA,140051.500,4307.8070,N,07726.4906,W,2,05,2.10,162.2,M,-34.3,M,0000,0000*51
$GPRMC,140051.750,A,4307.8076,N,07726.4915,W,15.73,206.26,301019,,,D*44
$GPGGA,140052.000,4307.8083,N,07726.4926,W,2,05,2.10,162.2,M,-34.3,M,0000,0000*59
$GPRMC,140052.250,A,4307.8084,N,07726.4934,W,14.71,211.08,301019,,,D*45
$GPGGA,140052.500,4307.8082,N,07726.4943,W,2,05,2.10,162.4,M,-34.3,M,0000,0000*58
$GPRMC,140052.750,A,4307.8084,N,07726.4951,W,13.81,214.17,301019,,,D*40
$GPGGA,140053.000,4307.8079,N,07726.4958,W,2,05,2.10,162.5,M,-34.3,M,0000,0000*53
$GPRMC,140053.250,A,4307.8081,N,07726.4964,W,11.83,216.24,301019,,,D*45
$GPGGA,140053.500,4307.8110,N,07726.4973,W,2,05,2.10,162.5,M,-34.3,M,0000,0000*51
$GPRMC,140053.750,A,4307.8128,N,07726.4982,W,5.76,290.10,301019,,,D*7C
$GPGGA,140054.000,4307.8130,N,07726.4988,W,2,05,2.21,162.5,M,-34.3,M,0000,0000*57
$GPRMC,140054.250,A,4307.8138,N,07726.4994,W,5.45,308.54,301019,,,D*78
$GPGGA,140054.500,4307.8155,N,07726.5001,W,2,05,2.10,162.4,M,-34.3,M,0000,0000*5B
$GPRMC,140054.750,A,4307.8168,N,07726.5006,W,6.72,324.19,301019,,,D*7B
$GPGGA,140055.000,4307.8177,N,07726.5009,W,2,05,2.21,162.4,M,-34.3,M,0000,0000*55
$GPRMC,140055.250,A,4307.8183,N,07726.5012,W,6.65,334.67,301019,,,D*71
$GPGGA,140055.500,4307.8187,N,07726.5015,W,2,05,2.10,162.5,M,-34.3,M,0000,0000*51
$GPRMC,140055.750,A,4307.8191,N,07726.5017,W,6.55,336.80,301019,,,D*7A
$GPGGA,140056.000,4307.8196,N,07726.5019,W,2,05,2.10,162.7,M,-34.3,M,0000,0000*59
$GPRMC,140056.250,A,4307.8200,N,07726.5019,W,6.05,345.43,301019,,,D*77
$GPGGA,140056.500,4307.8203,N,07726.5020,W,2,05,2.21,162.7,M,-34.3,M,0000,0000*5B
$GPRMC,140056.750,A,4307.8207,N,07726.5020,W,5.80,355.49,301019,,,D*7A
$GPGGA,140057.000,4307.8211,N,07726.5020,W,2,05,2.21,162.2,M,-34.3,M,0000,0000*59
$GPRMC,140057.250,A,4307.8215,N,07726.5020,W,5.79,357.65,301019,,,D*77
$GPGGA,140057.500,4307.8219,N,07726.5020,W,2,05,2.21,161.7,M,-34.3,M,0000,0000*52
$GPRMC,140057.750,A,4307.8223,N,07726.5020,W,5.78,357.87,301019,,,D*7A
$GPGGA,140058.000,4307.8227,N,07726.5021,W,2,05,2.21,161.5,M,-34.3,M,0000,0000*56
$GPRMC,140058.250,A,4307.8231,N,07726.5021,W,5.47,358.99,301019,,,D*7E
$GPGGA,140058.500,4307.8235,N,07726.5021,W,2,05,2.21,161.2,M,-34.3,M,0000,0000*57
$GPRMC,140058.750,A,4307.8238,N,07726.5022,W,5.47,357.14,301019,,,D*7B
$GPGGA,140059.000,4307.8243,N,07726.5027,W,2,05,2.21,161.0,M,-34.3,M,0000,0000*56
$GPRMC,140059.250,A,4307.8248,N,07726.5029,W,4.88,357.96,301019,,,D*7B
$GPGGA,140059.500,4307.8252,N,07726.5029,W,2,05,2.21,160.8,M,-34.3,M,0000,0000*54
$GPRMC,140059.750,A,4307.8256,N,07726.5029,W,4.80,358.41,301019,,,D*7C
$GPGGA,140100.000,4307.8260,N,07726.5029,W,2,05,2.22,160.4,M,-34.3,M,0000,0000*52
$GPRMC,140100.250,A,4307.8263,N,07726.5030,W,4.21,1.83,301019,,,D*70
$GPGGA,140100.500,4307.8265,N,07726.5030,W,2,05,2.21,160.3,M,-34.3,M,0000,0000*5E
$GPRMC,140100.750,A,4307.8266,N,07726.5030,W,3.26,8.34,301019,,,D*75
$GPGGA,140101.000,4307.8268,N,07726.5029,W,2,05,2.21,160.1,M,-34.3,M,0000,0000*5D
$GPRMC,140101.250,A,4307.8269,N,07726.5029,W,2.52,8.34,301019,,,D*74
$GPGGA,140101.500,4307.8269,N,07726.5030,W,2,05,2.22,160.0,M,-34.3,M,0000,0000*53
$GPRMC,140101.750,A,4307.8268,N,07726.5030,W,1.38,8.34,301019,,,D*77
$GPGGA,140102.000,4307.8268,N,07726.5030,W,2,05,2.10,159.9,M,-34.3,M,0000,0000*56
$GPRMC,140102.250,A,4307.8269,N,07726.5030,W,1.07,8.34,301019,,,D*7C
$GPGGA,140102.500,4307.8269,N,07726.5030,W,2,05,2.10,159.9,M,-34.3,M,0000,0000*52
$GPRMC,140102.750,A,4307.8270,N,07726.5029,W,0.86,8.34,301019,,,D*71
$GPGGA,140103.000,4307.8271,N,07726.5029,W,2,05,2.10,159.8,M,-34.3,M,0000,0000*56
$GPRMC,140103.250,A,4307.8272,N,07726.5029,W,0.74,8.34,301019,,,D*7A
$GPGGA,140103.500,4307.8272,N,07726.5029,W,2,05,2.10,159.8,M,-34.3,M,0000,0000*50
$GPRMC,140103.750,A,4307.8272,N,07726.5030,W,0.62,8.34,301019,,,D*70
$GPGGA,140104.000,4307.8273,N,07726.5030,W,2,05,2.10,159.5,M,-34.3,M,0000,0000*56
$GPRMC,140104.250,A,4307.8275,N,07726.5030,W,0.55,8.34,301019,,,D*71
$GPGGA,140104.500,4307.8276,N,07726.5030,W,2,05,2.10,159.2,M,-34.3,M,0000,0000*51
$GPRMC,140104.750,A,4307.8277,N,07726.5030,W,0.54,8.34,301019,,,D*77
$GPGGA,140105.000,4307.8278,N,07726.5030,W,2,05,2.10,159.3,M,-34.3,M,0000,0000*5A
$GPRMC,140105.250,A,4307.8278,N,07726.5030,W,0.58,8.34,301019,,,D*70
$GPGGA,140105.500,4307.8278,N,07726.5029,W,2,05,2.10,159.3,M,-34.3,M,0000,0000*57
$GPRMC,140105.750,A,4307.8279,N,07726.5029,W,0.55,8.34,301019,,,D*71
$GPGGA,140106.000,4307.8279,N,07726.5029,W,2,05,2.10,159.4,M,-34.3,M,0000,0000*57
$GPRMC,140106.250,A,4307.8279,N,07726.5029,W,0.46,8.34,301019,,,D*75
$GPGGA,140106.500,4307.8279,N,07726.5028,W,2,05,2.10,159.4,M,-34.3,M,0000,0000*53
$GPRMC,140106.750,A,4307.8280,N,07726.5028,W,0.43,8.34,301019,,,D*72
$GPGGA,140107.000,4307.8280,N,07726.5028,W,2,05,2.10,159.5,M,-34.3,M,0000,0000*50
$GPRMC,140107.250,A,4307.8280,N,07726.5028,W,0.41,8.34,301019,,,D*74
$GPGGA,140107.500,4307.8280,N,07726.5027,W,2,05,2.10,159.5,M,-34.3,M,0000,0000*5A
$GPRMC,140107.750,A,4307.8281,N,07726.5027,W,0.53,8.34,301019,,,D*7C
$GPGGA,140108.000,4307.8281,N,07726.5027,W,2,05,2.10,159.5,M,-34.3,M,0000,0000*51
$GPRMC,140108.250,A,4307.8282,N,07726.5027,W,0.78,8.34,301019,,,D*7C
$GPGGA,140108.500,4307.8282,N,07726.5027,W,2,05,2.22,159.6,M,-34.3,M,0000,0000*55
$GPRMC,140108.750,A,4307.8283,N,07726.5026,W,0.81,8.34,301019,,,D*7F
$GPGGA,140109.000,4307.8283,N,07726.5026,W,2,05,2.22,159.6,M,-34.3,M,0000,0000*51
$GPRMC,140109.250,A,4307.8284,N,07726.5026,W,0.98,8.34,301019,,,D*74
$GPGGA,140109.500,4307.8285,N,07726.5026,W,2,05,2.22,159.6,M,-34.3,M,0000,0000*52
$GPRMC,140109.750,A,4307.8285,N,07726.5026,W,1.02,8.34,301019,,,D*72
$GPGGA,140110.000,4307.8286,N,07726.5026,W,2,05,2.22,159.7,M,-34.3,M,0000,0000*5D
$GPRMC,140110.250,A,4307.8287,N,07726.5026,W,1.01,8.34,301019,,,D*7E
$GPGGA,140110.500,4307.8288,N,07726.5026,W,2,05,2.22,159.7,M,-34.3,M,0000,0000*56
$GPRMC,140110.750,A,4307.8288,N,07726.5025,W,0.99,8.34,301019,,,D*77
$GPGGA,140111.000,4307.8289,N,07726.5025,W,2,05,2.22,159.7,M,-34.3,M,0000,0000*50
$GPRMC,140111.250,A,4307.8290,N,07726.5025,W,0.94,8.34,301019,,,D*77
$GPGGA,140111.500,4307.8290,N,07726.5025,W,2,05,2.22,159.8,M,-34.3,M,0000,0000*52
$GPRMC,140111.750,A,4307.8291,N,07726.5025,W,0.87,8.34,301019,,,D*71
$GPGGA,140112.000,4307.8291,N,07726.5025,W,2,05,2.22,159.8,M,-34.3,M,0000,0000*55
$GPRMC,140112.250,A,4307.8292,N,07726.5024,W,0.79,8.34,301019,,,D*74
$GPGGA,140112.500,4307.8292,N,07726.5024,W,2,05,2.22,159.8,M,-34.3,M,0000,0000*52
$GPRMC,140112.750,A,4307.8293,N,07726.5024,W,0.77,8.34,301019,,,D*7E
$GPGGA,140113.000,4307.8294,N,07726.5024,W,2,05,2.10,159.8,M,-34.3,M,0000,0000*51
$GPRMC,140113.250,A,4307.8294,N,07726.5024,W,0.79,8.34,301019,,,D*73
$GPGGA,140113.500,4307.8295,N,07726.5023,W,2,05,2.10,159.9,M,-34.3,M,0000,0000*53
$GPRMC,140113.750,A,4307.8295,N,07726.5023,W,0.78,8.34,301019,,,D*71
$GPGGA,140114.000,4307.8296,N,07726.5023,W,2,05,2.10,159.9,M,-34.3,M,0000,0000*52
$GPRMC,140114.250,A,4307.8296,N,07726.5023,W,0.78,8.34,301019,,,D*70
$GPGGA,140114.500,4307.8297,N,07726.5023,W,2,05,2.10,159.9,M,-34.3,M,0000,0000*56
$GPRMC,140114.750,A,4307.8297,N,07726.5022,W,0.78,8.34,301019,,,D*75
$GPGGA,140115.000,4307.8298,N,07726.5022,W,2,05,2.22,160.0,M,-34.3,M,0000,0000*5E
$GPRMC,140115.250,A,4307.8298,N,07726.5022,W,0.77,8.34,301019,,,D*71
$GPGGA,140115.500,4307.8299,N,07726.5022,W,2,05,2.22,160.0,M,-34.3,M,0000,0000*5A
$GPRMC,140115.750,A,4307.8299,N,07726.5022,W,0.84,8.34,301019,,,D*79
$GPGGA,140116.000,4307.8300,N,07726.5022,W,2,05,2.22,160.0,M,-34.3,M,0000,0000*5D
$GPRMC,140116.250,A,4307.8301,N,07726.5021,W,0.90,8.34,301019,,,D*79
$GPGGA,140116.500,4307.8301,N,07726.5021,W,2,05,2.22,160.0,M,-34.3,M,0000,0000*5A
$GPRMC,140116.750,A,4307.8302,N,07726.5021,W,0.96,8.34,301019,,,D*79
$GPGGA,140117.000,4307.8303,N,07726.5021,W,2,05,2.22,160.1,M,-34.3,M,0000,0000*5D
$GPRMC,140117.250,A,4307.8303,N,07726.5020,W,0.00,8.34,301019,,,D*72
$GPGGA,140117.500,4307.8303,N,07726.5020,W,2,05,2.22,160.1,M,-34.3,M,0000,0000*59
$GPRMC,140117.750,A,4307.8303,N,07726.5020,W,0.00,8.34,301019,,,D*77
$GPGGA,140118.000,4307.8304,N,07726.5020,W,2,05,2.22,160.1,M,-34.3,M,0000,0000*54
$GPRMC,140118.250,A,4307.8304,N,07726.5020,W,0.02,8.34,301019,,,D*78
$GPGGA,140118.500,4307.8304,N,07726.5020,W,2,05,2.10,160.1,M,-34.3,M,0000,0000*50
$GPRMC,140118.750,A,4307.8304,N,07726.5020,W,0.00,8.34,301019,,,D*7F
$GPGGA,140119.000,4307.8304,N,07726.5020,W,2,05,2.22,160.1,M,-34.3,M,0000,0000*55
$GPRMC,140119.250,A,4307.8304,N,07726.5020,W,0.00,8.34,301019,,,D*7B
$GPGGA,140119.500,4307.8304,N,07726.5020,W,2,05,2.22,160.1,M,-34.3,M,0000,0000*50
$GPRMC,140119.750,A,4307.8304,N,07726.5020,W,0.00,8.34,301019,,,D*7E
$GPGGA,140120.000,4307.8304,N,07726.5020,W,2,05,2.22,160.1,M,-34.3,M,0000,0000*5F
$GPRMC,140120.250,A,4307.8304,N,07726.5020,W,0.00,8.34,301019,,,D*71
$GPGGA,140120.500,4307.8304,N,07726.5020,W,2,05,2.22,160.1,M,-34.3,M,0000,0000*5A
$GPRMC,140120.750,A,4307.8304,N,07726.5020,W,0.00,8.34,301019,,,D*74
$GPGGA,140121.000,4307.8304,N,07726.5020,W,2,05,2.22,160.1,M,-34.3,M,0000,0000*5E
$GPRMC,140121.250,A,4307.8304,N,07726.5020,W,0.00,8.34,301019,,,D*70
$GPGGA,140121.500,4307.8304,N,07726.5020,W,2,05,2.22,160.1,M,-34.3,M,0000,0000*5B
$GPRMC,140121.750,A,4307.8304,N,07726.5020,W,0.00,8.34,301019,,,D*75
$GPGGA,140122.000,4307.8304,N,07726.5020,W,2,05,2.22,160.1,M,-34.3,M,0000,0000*5D
$GPRMC,140122.250,A,4307.8304,N,07726.5020,W,0.00,8.34,301019,,,D*73
$GPGGA,140122.500,4307.8304,N,07726.5020,W,2,05,2.22,160.1,M,-34.3,M,0000,0000*58
$GPRMC,140122.750,A,4307.8304,N,07726.5020,W,0.00,8.34,301019,,,D*76
$GPGGA,140123.000,4307.8304,N,07726.5020,W,2,05,2.22,160.1,M,-34.3,M,0000,0000*5C
$GPRMC,140123.250,A,4307.8304,N,07726.5020,W,0.00,8.34,301019,,,D*72
$GPGGA,140123.500,4307.8304,N,07726.5020,W,2,05,2.22,160.1,M,-34.3,M,0000,0000*59
$GPRMC,140123.750,A,4307.8304,N,07726.5020,W,0.00,8.34,301019,,,D*77
$GPGGA,140124.000,4307.8304,N,07726.5020,W,2,05,2.22,160.1,M,-34.3,M,0000,0000*5B
$GPRMC,140124.250,A,4307.8304,N,07726.5020,W,0.00,8.34,301019,,,D*75
$GPGGA,140124.500,4307.8304,N,07726.5020,W,2,05,2.22,160.1,M,-34.3,M,0000,0000*5E
$GPRMC,140124.750,A,4307.8304,N,07726.5020,W,0.00,8.34,301019,,,D*70
$GPGGA,140125.000,4307.8304,N,07726.5020,W,2,05,2.22,160.1,M,-34.3,M,0000,0000*5A
$GPRMC,140125.250,A,4307.8304,N,07726.5020,W,0.00,8.34,301019,,,D*74
$GPGGA,140125.500,4307.8304,N,07726.5020,W,2,05,2.22,160.1,M,-34.3,M,0000,0000*5F
$GPRMC,140125.750,A,4307.8304,N,07726.5020,W,0.00,8.34,301019,,,D*71
$GPGGA,140126.000,4307.8304,N,07726.5020,W,2,05,2.23,160.1,M,-34.3,M,0000,0000*58
$GPRMC,140126.250,A,4307.8304,N,07726.5020,W,0.00,8.34,301019,,,D*77
$GPGGA,140126.500,4307.8304,N,07726.5020,W,2,05,2.23,160.1,M,-34.3,M,0000,0000*5D
$GPRMC,140126.750,A,4307.8304,N,07726.5020,W,0.00,8.34,301019,,,D*72
$GPGGA,140127.000,4307.8304,N,07726.5020,W,2,05,2.23,160.1,M,-34.3,M,0000,0000*59
$GPRMC,140127.250,A,4307.8304,N,07726.5020,W,0.00,8.34,301019,,,D*76
$GPGGA,140127.500,4307.8304,N,07726.5020,W,2,05,2.23,160.1,M,-34.3,M,0000,0000*5C
$GPRMC,140127.750,A,4307.8304,N,07726.5020,W,0.00,8.34,301019,,,D*73
$GPGGA,140128.000,4307.8304,N,07726.5020,W,2,05,2.23,160.1,M,-34.3,M,0000,0000*56
$GPRMC,140128.250,A,4307.8304,N,07726.5020,W,0.00,8.34,301019,,,D*79
$GPGGA,140128.500,4307.8304,N,07726.5020,W,2,05,2.23,160.1,M,-34.3,M,0000,0000*53
$GPRMC,140128.750,A,4307.8304,N,07726.5020,W,0.00,8.34,301019,,,D*7C
$GPGGA,140129.000,4307.8304,N,07726.5020,W,2,05,2.23,160.1,M,-34.3,M,0000,0000*57
$GPRMC,140129.250,A,4307.8304,N,07726.5020,W,0.01,8.34,301019,,,D*79
$GPGGA,140129.500,4307.8304,N,07726.5020,W,2,05,2.10,160.1,M,-34.3,M,0000,0000*52
$GPRMC,140129.750,A,4307.8304,N,07726.5020,W,0.01,8.34,301019,,,D*7C
$GPGGA,140130.000,4307.8304,N,07726.5020,W,2,05,2.10,160.1,M,-34.3,M,0000,0000*5F
$GPRMC,140130.250,A,4307.8304,N,07726.5020,W,0.02,8.34,301019,,,D*72
$GPGGA,140130.500,4307.8305,N,07726.5020,W,2,05,2.23,160.1,M,-34.3,M,0000,0000*5B
$GPRMC,140130.750,A,4307.8305,N,07726.5020,W,0.02,8.34,301019,,,D*76
$GPGGA,140131.000,4307.8305,N,07726.5020,W,2,05,2.23,160.1,M,-34.3,M,0000,0000*5F
$GPRMC,140131.250,A,4307.8305,N,07726.5020,W,0.03,8.34,301019,,,D*73
$GPGGA,140131.500,4307.8305,N,07726.5020,W,2,05,2.10,160.1,M,-34.3,M,0000,0000*5A
$GPRMC,140131.750,A,4307.8305,N,07726.5020,W,0.03,8.34,301019,,,D*76
$GPGGA,140132.000,4307.8306,N,07726.5020,W,2,05,2.23,160.1,M,-34.3,M,0000,0000*5F
$GPRMC,140132.250,A,4307.8306,N,07726.5020,W,0.03,8.34,301019,,,D*73
$GPGGA,140132.500,4307.8306,N,07726.5020,W,2,05,2.23,160.1,M,-34.3,M,0000,0000*5A
$GPRMC,140132.750,A,4307.8307,N,07726.5020,W,0.04,8.34,301019,,,D*70
$GPGGA,140133.000,4307.8307,N,07726.5020,W,2,05,2.23,160.1,M,-34.3,M,0000,0000*5F
$GPRMC,140133.250,A,4307.8307,N,07726.5020,W,0.05,8.34,301019,,,D*75
$GPGGA,140133.500,4307.8308,N,07726.5020,W,2,05,2.23,160.1,M,-34.3,M,0000,0000*55
$GPRMC,140133.750,A,4307.8308,N,07726.5020,W,0.05,8.34,301019,,,D*7F
$GPGGA,140134.000,4307.8308,N,07726.5020,W,2,05,2.23,160.1,M,-34.3,M,0000,0000*57
$GPRMC,140134.250,A,4307.8309,N,07726.5019,W,0.06,8.34,301019,,,D*75
$GPGGA,140134.500,4307.8309,N,07726.5019,W,2,05,2.23,160.1,M,-34.3,M,0000,0000*59
$GPRMC,140134.750,A,4307.8310,N,07726.5019,W,0.06,8.34,301019,,,D*78
$GPGGA,140135.000,4307.8310,N,07726.5019,W,2,05,2.23,160.1,M,-34.3,M,0000,0000*55
$GPRMC,140135.250,A,4307.8311,N,07726.5019,W,0.07,8.34,301019,,,D*7C
$GPGGA,140135.500,4307.8311,N,07726.5019,W,2,05,2.23,160.1,M,-34.3,M,0000,0000*51
$GPRMC,140135.750,A,4307.8311,N,07726.5019,W,0.07,8.34,301019,,,D*79
$GPGGA,140136.000,4307.8312,N,07726.5019,W,2,05,2.23,160.1,M,-34.3,M,0000,0000*54
$GPRMC,140136.250,A,4307.8312,N,07726.5019,W,0.07,8.34,301019,,,D*7C
$GPGGA,140136.500,4307.8313,N,07726.5019,W,2,05,2.23,160.1,M,-34.3,M,0000,0000*50
$GPRMC,140136.750,A,4307.8313,N,07726.5019,W,0.07,8.34,301019,,,D*78
$GPGGA,140137.000,4307.8314,N,07726.5018,W,2,05,2.23,160.2,M,-34.3,M,0000,0000*51
$GPRMC,140137.250,A,4307.8315,N,07726.5018,W,0.07,8.34,301019,,,D*7B
$GPGGA,140137.500,4307.8315,N,07726.5018,W,2,05,2.23,160.2,M,-34.3,M,0000,0000*55
