Vers 57
USE_SERIAL_FEEDBACK=false
DEVELOPMENT_MODE=false
USE_RMC_ONLY=false

$GPRMC,123053.600,A,4308.3006,N,07726.2701,W,0.03,233.08,040519,,,A*76
$GPGGA,123053.800,4308.3006,N,07726.2701,W,1,10,0.93,146.3,M,-34.4,M,,*5F
lng=-77.437835, lat=43.138347, altitude=146.40, speed=0.03, satellites=10, angle=233.0800, fixquality=1
$GPRMC,123054.000,A,4308.3006,N,07726.2701,W,0.02,199.96,040519,,,A*72
$GPGGA,123054.200,4308.3006,N,07726.2701,W,1,10,0.93,146.3,M,-34.4,M,,*52
lng=-77.437835, lat=43.138347, altitude=146.30, speed=0.02, satellites=10, angle=199.9600, fixquality=1
$GPRMC,123054.400,A,4308.3006,N,07726.2701,W,0.01,200.01,040519,,,A*78
$GPGGA,123054.600,4308.3006,N,07726.2701,W,1,10,0.93,146.3,M,-34.4,M,,*56
lng=-77.437835, lat=43.138347, altitude=146.30, speed=0.01, satellites=10, angle=200.0100, fixquality=1
$GPRMC,123054.800,A,4308.3006,N,07726.2701,W,0.02,172.43,040519,,,A*77
$GPGGA,123055.000,4308.3005,N,07726.2701,W,1,10,0.93,146.3,M,-34.4,M,,*52
lng=-77.437835, lat=43.138347, altitude=146.30, speed=0.02, satellites=10, angle=172.4300, fixquality=1
$GPRMC,123055.200,A,4308.3005,N,07726.2701,W,0.03,156.88,040519,,,A*7F
$GPGGA,123055.400,4308.3005,N,07726.2701,W,1,10,0.93,146.3,M,-34.4,M,,*56
lng=-77.437835, lat=43.138339, altitude=146.30, speed=0.03, satellites=10, angle=156.8800, fixquality=1
$GPRMC,123055.600,A,4308.3005,N,07726.2701,W,0.04,183.46,040519,,,A*76
$GPGGA,123055.800,4308.3005,N,07726.2701,W,1,10,0.93,146.3,M,-34.4,M,,*5A
lng=-77.437835, lat=43.138339, altitude=146.30, speed=0.04, satellites=10, angle=183.4600, fixquality=1
$GPRMC,123056.000,A,4308.3005,N,07726.2701,W,0.05,203.71,040519,,,A*7D
$GPGGA,123056.200,4308.3005,N,07726.2701,W,1,10,0.93,146.4,M,-34.4,M,,*54
lng=-77.437835, lat=43.138339, altitude=146.30, speed=0.05, satellites=10, angle=203.7100, fixquality=1
$GPRMC,123056.400,A,4308.3005,N,07726.2701,W,0.05,212.31,040519,,,A*7D
$GPGGA,123056.600,4308.3005,N,07726.2701,W,1,10,0.93,146.6,M,-34.4,M,,*52
lng=-77.437835, lat=43.138339, altitude=146.40, speed=0.05, satellites=10, angle=212.3100, fixquality=1
$GPRMC,123056.800,A,4308.3005,N,07726.2700,W,0.06,206.38,040519,,,A*7F
$GPGGA,123057.000,4308.3005,N,07726.2700,W,1,10,0.93,146.6,M,-34.4,M,,*54
lng=-77.437835, lat=43.138339, altitude=146.60, speed=0.06, satellites=10, angle=206.3800, fixquality=1
$GPRMC,123057.200,A,4308.3005,N,07726.2700,W,0.05,207.71,040519,,,A*7B
$GPGGA,123057.400,4308.3005,N,07726.2700,W,1,10,0.93,146.6,M,-34.4,M,,*50
lng=-77.437835, lat=43.138339, altitude=146.60, speed=0.05, satellites=10, angle=207.7100, fixquality=1
$GPRMC,123057.600,A,4308.3005,N,07726.2699,W,0.03,193.41,040519,,,A*75
$GPGGA,123057.800,4308.3005,N,07726.2698,W,1,10,0.93,146.6,M,-34.4,M,,*5C
lng=-77.437835, lat=43.138339, altitude=146.60, speed=0.03, satellites=10, angle=193.4100, fixquality=1
$GPRMC,123058.000,A,4308.3005,N,07726.2696,W,0.03,138.43,040519,,,A*70
$GPGGA,123058.200,4308.3005,N,07726.2695,W,1,10,0.93,146.8,M,-34.4,M,,*5A
lng=-77.437828, lat=43.138339, altitude=146.60, speed=0.03, satellites=10, angle=138.4300, fixquality=1
$GPRMC,123058.400,A,4308.3005,N,07726.2694,W,0.04,112.31,040519,,,A*7C
$GPGGA,123058.600,4308.3005,N,07726.2693,W,1,10,0.93,147.0,M,-34.4,M,,*51
lng=-77.437828, lat=43.138339, altitude=146.80, speed=0.04, satellites=10, angle=112.3100, fixquality=1
$GPRMC,123058.800,A,4308.3004,N,07726.2691,W,0.06,131.17,040519,,,A*73
$GPGGA,123059.000,4308.3003,N,07726.2690,W,1,10,0.93,147.3,M,-34.4,M,,*50
lng=-77.437820, lat=43.138339, altitude=147.00, speed=0.06, satellites=10, angle=131.1700, fixquality=1
$GPRMC,123059.200,A,4308.3003,N,07726.2689,W,0.07,135.85,040519,,,A*78
$GPGGA,123059.400,4308.3003,N,07726.2689,W,1,10,0.93,147.5,M,-34.4,M,,*5A
lng=-77.437820, lat=43.138339, altitude=147.30, speed=0.07, satellites=10, angle=135.8500, fixquality=1
$GPRMC,123059.600,A,4308.3003,N,07726.2688,W,0.07,135.23,040519,,,A*71
$GPGGA,123059.800,4308.3003,N,07726.2688,W,1,10,0.93,147.5,M,-34.4,M,,*57
lng=-77.437812, lat=43.138339, altitude=147.50, speed=0.07, satellites=10, angle=135.2300, fixquality=1
$GPRMC,123100.000,A,4308.3003,N,07726.2688,W,0.04,130.71,040519,,,A*7B
$GPGGA,123100.200,4308.3003,N,07726.2688,W,1,10,0.93,147.5,M,-34.4,M,,*50
lng=-77.437812, lat=43.138339, altitude=147.50, speed=0.04, satellites=10, angle=130.7100, fixquality=1
$GPRMC,123100.400,A,4308.3003,N,07726.2688,W,0.05,125.26,040519,,,A*78
$GPGGA,123100.600,4308.3003,N,07726.2688,W,1,10,0.93,147.5,M,-34.4,M,,*54
lng=-77.437812, lat=43.138339, altitude=147.50, speed=0.05, satellites=10, angle=125.2600, fixquality=1
$GPRMC,123100.800,A,4308.3003,N,07726.2688,W,0.00,128.92,040519,,,A*73
$GPGGA,123101.000,4308.3003,N,07726.2688,W,1,10,0.93,147.5,M,-34.4,M,,*53
lng=-77.437812, lat=43.138339, altitude=147.50, speed=0.00, satellites=10, angle=128.9200, fixquality=1
$GPRMC,123101.200,A,4308.3003,N,07726.2688,W,0.00,0.00,040519,,,A*78
$GPGGA,123101.400,4308.3003,N,07726.2688,W,1,10,0.93,147.5,M,-34.4,M,,*57
lng=-77.437812, lat=43.138339, altitude=147.50, speed=0.00, satellites=10, angle=0.0000, fixquality=1
$GPRMC,123101.600,A,4308.3003,N,07726.2688,W,0.01,210.77,040519,,,A*7E
$GPGGA,123101.800,4308.3003,N,07726.2688,W,1,10,0.93,147.5,M,-34.4,M,,*5B
lng=-77.437812, lat=43.138339, altitude=147.50, speed=0.01, satellites=10, angle=210.7700, fixquality=1
$GPRMC,123102.000,A,4308.3003,N,07726.2688,W,0.01,328.19,040519,,,A*79
$GPGGA,123102.200,4308.3003,N,07726.2688,W,1,10,0.93,147.5,M,-34.4,M,,*52
lng=-77.437812, lat=43.138339, altitude=147.50, speed=0.01, satellites=10, angle=328.1900, fixquality=1
$GPRMC,123102.400,A,4308.3003,N,07726.2688,W,0.00,22.31,040519,,,A*4F
$GPGGA,123102.600,4308.3003,N,07726.2688,W,1,10,0.93,147.5,M,-34.4,M,,*56
lng=-77.437812, lat=43.138339, altitude=147.50, speed=0.00, satellites=10, angle=22.3100, fixquality=1
$GPRMC,123102.800,A,4308.3003,N,07726.2688,W,0.01,13.36,040519,,,A*47
$GPGGA,123103.000,4308.3003,N,07726.2688,W,1,10,0.93,147.5,M,-34.4,M,,*51
lng=-77.437812, lat=43.138339, altitude=147.50, speed=0.01, satellites=10, angle=13.3600, fixquality=1
$GPRMC,123103.200,A,4308.3003,N,07726.2688,W,0.00,294.50,040519,,,A*70
$GPGGA,123103.400,4308.3003,N,07726.2688,W,1,10,0.93,147.5,M,-34.4,M,,*55
lng=-77.437812, lat=43.138339, altitude=147.50, speed=0.00, satellites=10, angle=294.5000, fixquality=1
$GPRMC,123103.600,A,4308.3003,N,07726.2688,W,0.00,285.80,040519,,,A*79
$GPGGA,123103.800,4308.3003,N,07726.2688,W,1,10,0.93,147.5,M,-34.4,M,,*59
lng=-77.437812, lat=43.138339, altitude=147.50, speed=0.00, satellites=10, angle=285.8000, fixquality=1
$GPRMC,123104.000,A,4308.3003,N,07726.2688,W,0.01,99.55,040519,,,A*4E
$GPGGA,123104.200,4308.3003,N,07726.2688,W,1,10,0.93,147.5,M,-34.4,M,,*54
lng=-77.437812, lat=43.138339, altitude=147.50, speed=0.01, satellites=10, angle=99.5500, fixquality=1
$GPRMC,123104.400,A,4308.3003,N,07726.2688,W,0.01,170.80,040519,,,A*74
$GPGGA,123104.600,4308.3003,N,07726.2688,W,1,10,0.93,147.5,M,-34.4,M,,*50
lng=-77.437812, lat=43.138339, altitude=147.50, speed=0.01, satellites=10, angle=170.8000, fixquality=1
$GPRMC,123104.800,A,4308.3003,N,07726.2688,W,0.00,297.26,040519,,,A*7F
$GPGGA,123105.000,4308.3003,N,07726.2688,W,1,10,0.93,147.5,M,-34.4,M,,*57
lng=-77.437812, lat=43.138339, altitude=147.50, speed=0.00, satellites=10, angle=297.2600, fixquality=1
$GPRMC,123105.200,A,4308.3003,N,07726.2688,W,0.00,54.09,040519,,,A*44
$GPGGA,123105.400,4308.3003,N,07726.2688,W,1,10,0.93,147.5,M,-34.4,M,,*53
lng=-77.437812, lat=43.138339, altitude=147.50, speed=0.00, satellites=10, angle=54.0900, fixquality=1
$GPRMC,123105.600,A,4308.3003,N,07726.2688,W,0.01,293.84,040519,,,A*7D
$GPGGA,123105.800,4308.3003,N,07726.2688,W,1,10,0.93,147.5,M,-34.4,M,,*5F
lng=-77.437812, lat=43.138339, altitude=147.50, speed=0.01, satellites=10, angle=293.8400, fixquality=1
$GPRMC,123106.000,A,4308.3003,N,07726.2688,W,0.01,228.15,040519,,,A*70
$GPGGA,123106.200,4308.3003,N,07726.2688,W,1,10,0.93,147.6,M,-34.4,M,,*55
lng=-77.437812, lat=43.138339, altitude=147.50, speed=0.01, satellites=10, angle=228.1500, fixquality=1
$GPRMC,123106.400,A,4308.3003,N,07726.2688,W,0.00,276.41,040519,,,A*7F
$GPGGA,123106.600,4308.3003,N,07726.2688,W,1,10,0.93,147.6,M,-34.4,M,,*51
lng=-77.437812, lat=43.138339, altitude=147.60, speed=0.00, satellites=10, angle=276.4100, fixquality=1
$GPRMC,123106.800,A,4308.3003,N,07726.2688,W,0.00,24.98,040519,,,A*42
$GPGGA,123107.000,4308.3003,N,07726.2688,W,1,10,0.93,147.6,M,-34.4,M,,*56
lng=-77.437812, lat=43.138339, altitude=147.60, speed=0.00, satellites=10, angle=24.9800, fixquality=1
$GPRMC,123107.200,A,4308.3003,N,07726.2688,W,0.00,308.22,040519,,,A*75
$GPGGA,123107.400,4308.3003,N,07726.2688,W,1,10,0.93,147.6,M,-34.4,M,,*52
lng=-77.437812, lat=43.138339, altitude=147.60, speed=0.00, satellites=10, angle=308.2200, fixquality=1
$GPRMC,123107.600,A,4308.3003,N,07726.2688,W,0.01,12.13,040519,,,A*4A
$GPGGA,123107.800,4308.3003,N,07726.2688,W,1,10,0.93,147.6,M,-34.4,M,,*5E
lng=-77.437812, lat=43.138339, altitude=147.60, speed=0.01, satellites=10, angle=12.1300, fixquality=1
$GPRMC,123108.000,A,4308.3003,N,07726.2688,W,0.00,311.08,040519,,,A*78
$GPGGA,123108.200,4308.3003,N,07726.2688,W,1,10,0.93,147.6,M,-34.4,M,,*5B
lng=-77.437812, lat=43.138339, altitude=147.60, speed=0.00, satellites=10, angle=311.0800, fixquality=1
$GPRMC,123108.400,A,4308.3003,N,07726.2688,W,0.00,0.00,040519,,,A*77
$GPGGA,123108.600,4308.3003,N,07726.2688,W,1,10,0.93,147.6,M,-34.4,M,,*5F
lng=-77.437812, lat=43.138339, altitude=147.60, speed=0.00, satellites=10, angle=0.0000, fixquality=1
$GPRMC,123108.800,A,4308.3003,N,07726.2688,W,0.00,91.63,040519,,,A*46
$GPGGA,123109.000,4308.3003,N,07726.2688,W,1,10,0.93,147.6,M,-34.4,M,,*58
lng=-77.437812, lat=43.138339, altitude=147.60, speed=0.00, satellites=10, angle=91.6300, fixquality=1
$GPRMC,123109.200,A,4308.3003,N,07726.2688,W,0.01,59.67,040519,,,A*4C
$GPGGA,123109.400,4308.3003,N,07726.2688,W,1,10,0.93,147.6,M,-34.4,M,,*5C
lng=-77.437812, lat=43.138339, altitude=147.60, speed=0.01, satellites=10, angle=59.6700, fixquality=1
$GPRMC,123109.600,A,4308.3003,N,07726.2688,W,0.02,66.50,040519,,,A*43
$GPGGA,123109.800,4308.3003,N,07726.2688,W,1,10,0.93,147.6,M,-34.4,M,,*50
lng=-77.437812, lat=43.138339, altitude=147.60, speed=0.02, satellites=10, angle=66.5000, fixquality=1
$GPRMC,123110.000,A,4308.3003,N,07726.2688,W,0.01,78.64,040519,,,A*46
$GPGGA,123110.200,4308.3003,N,07726.2688,W,1,10,0.93,147.6,M,-34.4,M,,*52
lng=-77.437812, lat=43.138339, altitude=147.60, speed=0.01, satellites=10, angle=78.6400, fixquality=1
$GPRMC,123110.400,A,4308.3003,N,07726.2688,W,0.00,139.88,040519,,,A*75
$GPGGA,123110.600,4308.3003,N,07726.2688,W,1,10,0.93,147.6,M,-34.4,M,,*56
lng=-77.437812, lat=43.138339, altitude=147.60, speed=0.00, satellites=10, angle=139.8800, fixquality=1
$GPRMC,123110.800,A,4308.3003,N,07726.2688,W,0.01,272.16,040519,,,A*73
$GPGGA,123111.000,4308.3003,N,07726.2688,W,1,10,0.93,147.6,M,-34.4,M,,*51
lng=-77.437812, lat=43.138339, altitude=147.60, speed=0.01, satellites=10, angle=272.1600, fixquality=1
$GPRMC,123111.200,A,4308.3003,N,07726.2688,W,0.00,348.31,040519,,,A*74
$GPGGA,123111.400,4308.3003,N,07726.2688,W,1,10,0.93,147.6,M,-34.4,M,,*55
lng=-77.437812, lat=43.138339, altitude=147.60, speed=0.00, satellites=10, angle=348.3100, fixquality=1
$GPRMC,123111.600,A,4308.3003,N,07726.2688,W,0.00,184.08,040519,,,A*78
$GPGGA,123111.800,4308.3003,N,07726.2688,W,1,10,0.93,147.6,M,-34.4,M,,*59
lng=-77.437812, lat=43.138339, altitude=147.60, speed=0.00, satellites=10, angle=184.0800, fixquality=1
$GPRMC,123112.000,A,4308.3003,N,07726.2688,W,0.01,288.58,040519,,,A*76
$GPGGA,123112.200,4308.3003,N,07726.2688,W,1,10,0.93,147.6,M,-34.4,M,,*50
lng=-77.437812, lat=43.138339, altitude=147.60, speed=0.01, satellites=10, angle=288.5800, fixquality=1
$GPRMC,123112.400,A,4308.3003,N,07726.2688,W,0.00,316.13,040519,,,A*7A
$GPGGA,123112.600,4308.3003,N,07726.2688,W,1,10,0.93,147.6,M,-34.4,M,,*54
lng=-77.437812, lat=43.138339, altitude=147.60, speed=0.00, satellites=10, angle=316.1300, fixquality=1
$GPRMC,123112.800,A,4308.3003,N,07726.2688,W,0.00,359.14,040519,,,A*7A
$GPGGA,123113.000,4308.3003,N,07726.2688,W,1,10,0.93,147.6,M,-34.4,M,,*53
lng=-77.437812, lat=43.138339, altitude=147.60, speed=0.00, satellites=10, angle=359.1400, fixquality=1
$GPRMC,123113.200,A,4308.3003,N,07726.2688,W,0.01,20.00,040519,,,A*48
$GPGGA,123113.400,4308.3003,N,07726.2688,W,1,10,0.93,147.6,M,-34.4,M,,*57
lng=-77.437812, lat=43.138339, altitude=147.60, speed=0.01, satellites=10, angle=20.0000, fixquality=1
$GPRMC,123113.600,A,4308.3003,N,07726.2688,W,0.01,100.55,040519,,,A*7F
$GPGGA,123113.800,4308.3003,N,07726.2688,W,1,10,0.93,147.6,M,-34.4,M,,*5B
lng=-77.437812, lat=43.138339, altitude=147.60, speed=0.01, satellites=10, angle=100.5500, fixquality=1
$GPRMC,123114.000,A,4308.3003,N,07726.2688,W,0.00,88.74,040519,,,A*4D
$GPGGA,123114.200,4308.3003,N,07726.2688,W,1,10,0.93,147.6,M,-34.4,M,,*56
lng=-77.437812, lat=43.138339, altitude=147.60, speed=0.00, satellites=10, angle=88.7400, fixquality=1
$GPRMC,123114.400,A,4308.3003,N,07726.2688,W,0.00,316.27,040519,,,A*7B
$GPGGA,123114.600,4308.3003,N,07726.2688,W,1,10,0.93,147.6,M,-34.4,M,,*52
lng=-77.437812, lat=43.138339, altitude=147.60, speed=0.00, satellites=10, angle=316.2700, fixquality=1
$GPRMC,123114.800,A,4308.3003,N,07726.2688,W,0.01,323.81,040519,,,A*7C
$GPGGA,123115.000,4308.3003,N,07726.2688,W,1,10,0.93,147.7,M,-34.4,M,,*54
lng=-77.437812, lat=43.138339, altitude=147.60, speed=0.01, satellites=10, angle=323.8100, fixquality=1
$GPRMC,123115.200,A,4308.3003,N,07726.2688,W,0.00,288.10,040519,,,A*7E
$GPGGA,123115.400,4308.3003,N,07726.2688,W,1,10,0.93,147.7,M,-34.4,M,,*50
lng=-77.437812, lat=43.138339, altitude=147.70, speed=0.00, satellites=10, angle=288.1000, fixquality=1
$GPRMC,123115.600,A,4308.3003,N,07726.2688,W,0.00,171.51,040519,,,A*7A
$GPGGA,123115.800,4308.3003,N,07726.2688,W,1,10,0.93,147.7,M,-34.4,M,,*5C
lng=-77.437812, lat=43.138339, altitude=147.70, speed=0.00, satellites=10, angle=171.5100, fixquality=1
$GPRMC,123116.000,A,4308.3003,N,07726.2688,W,0.01,255.37,040519,,,A*7B
$GPGGA,123116.200,4308.3003,N,07726.2688,W,1,10,0.93,147.7,M,-34.4,M,,*55
lng=-77.437812, lat=43.138339, altitude=147.70, speed=0.01, satellites=10, angle=255.3700, fixquality=1
$GPRMC,123116.400,A,4308.3003,N,07726.2688,W,0.00,296.94,040519,,,A*78
$GPGGA,123116.600,4308.3003,N,07726.2688,W,1,10,0.93,147.7,M,-34.4,M,,*51
lng=-77.437812, lat=43.138339, altitude=147.70, speed=0.00, satellites=10, angle=296.9400, fixquality=1
$GPRMC,123116.800,A,4308.3003,N,07726.2688,W,0.01,270.65,040519,,,A*73
$GPGGA,123117.000,4308.3003,N,07726.2688,W,1,10,0.93,147.7,M,-34.4,M,,*56
lng=-77.437812, lat=43.138339, altitude=147.70, speed=0.01, satellites=10, angle=270.6500, fixquality=1
$GPRMC,123117.200,A,4308.3003,N,07726.2688,W,0.00,184.43,040519,,,A*75
$GPGGA,123117.400,4308.3003,N,07726.2688,W,1,10,0.93,147.7,M,-34.4,M,,*52
lng=-77.437812, lat=43.138339, altitude=147.70, speed=0.00, satellites=10, angle=184.4300, fixquality=1
$GPRMC,123117.600,A,4308.3003,N,07726.2688,W,0.00,198.49,040519,,,A*76
$GPGGA,123117.800,4308.3003,N,07726.2688,W,1,10,0.93,147.7,M,-34.4,M,,*5E
lng=-77.437812, lat=43.138339, altitude=147.70, speed=0.00, satellites=10, angle=198.4900, fixquality=1
$GPRMC,123118.000,A,4308.3003,N,07726.2688,W,0.00,248.99,040519,,,A*7C
$GPGGA,123118.200,4308.3003,N,07726.2688,W,1,10,0.93,147.7,M,-34.4,M,,*5B
lng=-77.437812, lat=43.138339, altitude=147.70, speed=0.00, satellites=10, angle=248.9900, fixquality=1
$GPRMC,123118.400,A,4308.3003,N,07726.2688,W,0.00,176.52,040519,,,A*71
$GPGGA,123118.600,4308.3003,N,07726.2688,W,1,10,0.93,147.7,M,-34.4,M,,*5F
lng=-77.437812, lat=43.138339, altitude=147.70, speed=0.00, satellites=10, angle=176.5200, fixquality=1
$GPRMC,123118.800,A,4308.3003,N,07726.2688,W,0.00,207.01,040519,,,A*7E
$GPGGA,123119.000,4308.3003,N,07726.2688,W,1,10,0.93,147.7,M,-34.4,M,,*58
lng=-77.437812, lat=43.138339, altitude=147.70, speed=0.00, satellites=10, angle=207.0100, fixquality=1
$GPRMC,123119.200,A,4308.3003,N,07726.2688,W,0.01,167.17,040519,,,A*76
$GPGGA,123119.400,4308.3003,N,07726.2688,W,1,10,0.93,147.7,M,-34.4,M,,*5C
lng=-77.437812, lat=43.138339, altitude=147.70, speed=0.01, satellites=10, angle=167.1700, fixquality=1
$GPRMC,123119.600,A,4308.3003,N,07726.2688,W,0.01,317.89,040519,,,A*70
$GPGGA,123119.800,4308.3003,N,07726.2688,W,1,10,0.93,147.7,M,-34.4,M,,*50
lng=-77.437812, lat=43.138339, altitude=147.70, speed=0.01, satellites=10, angle=317.8900, fixquality=1
$GPRMC,123120.000,A,4308.3003,N,07726.2688,W,0.02,311.97,040519,,,A*76
$GPGGA,123120.200,4308.3003,N,07726.2688,W,1,10,0.93,147.7,M,-34.4,M,,*50
lng=-77.437812, lat=43.138339, altitude=147.70, speed=0.02, satellites=10, angle=311.9700, fixquality=1
$GPRMC,123120.400,A,4308.3003,N,07726.2688,W,0.03,338.32,040519,,,A*77
$GPGGA,123120.600,4308.3003,N,07726.2688,W,1,10,0.93,147.7,M,-34.4,M,,*54
lng=-77.437812, lat=43.138339, altitude=147.70, speed=0.03, satellites=10, angle=338.3200, fixquality=1
$GPRMC,123120.800,A,4308.3003,N,07726.2688,W,0.04,329.19,040519,,,A*75
$GPGGA,123121.000,4308.3003,N,07726.2688,W,1,10,0.93,147.7,M,-34.4,M,,*53
lng=-77.437812, lat=43.138339, altitude=147.70, speed=0.04, satellites=10, angle=329.1900, fixquality=1
$GPRMC,123121.200,A,4308.3003,N,07726.2688,W,0.02,324.68,040519,,,A*73
$GPGGA,123121.400,4308.3003,N,07726.2688,W,1,10,0.93,147.7,M,-34.4,M,,*57
lng=-77.437812, lat=43.138339, altitude=147.70, speed=0.02, satellites=10, angle=324.6800, fixquality=1
$GPRMC,123121.600,A,4308.3003,N,07726.2688,W,0.02,352.63,040519,,,A*7D
$GPGGA,123121.800,4308.3003,N,07726.2688,W,1,10,0.93,147.7,M,-34.4,M,,*5B
lng=-77.437812, lat=43.138339, altitude=147.70, speed=0.02, satellites=10, angle=352.6300, fixquality=1
$GPRMC,123122.000,A,4308.3003,N,07726.2688,W,0.04,4.89,040519,,,A*7A
$GPGGA,123122.200,4308.3003,N,07726.2688,W,1,10,0.93,147.7,M,-34.4,M,,*52
lng=-77.437812, lat=43.138339, altitude=147.70, speed=0.04, satellites=10, angle=4.8900, fixquality=1
$GPRMC,123122.400,A,4308.3003,N,07726.2688,W,0.03,328.47,040519,,,A*76
$GPGGA,123122.600,4308.3003,N,07726.2688,W,1,10,0.93,147.7,M,-34.4,M,,*56
lng=-77.437812, lat=43.138339, altitude=147.70, speed=0.03, satellites=10, angle=328.4700, fixquality=1
$GPRMC,123122.800,A,4308.3003,N,07726.2688,W,0.09,342.94,040519,,,A*72
$GPGGA,123123.000,4308.3003,N,07726.2688,W,1,10,0.93,147.7,M,-34.4,M,,*51
lng=-77.437812, lat=43.138339, altitude=147.70, speed=0.09, satellites=10, angle=342.9400, fixquality=1
$GPRMC,123123.200,A,4308.3004,N,07726.2688,W,0.14,1.17,040519,,,A*7D
$GPGGA,123123.400,4308.3004,N,07726.2688,W,1,10,0.93,147.7,M,-34.4,M,,*52
lng=-77.437812, lat=43.138339, altitude=147.70, speed=0.14, satellites=10, angle=1.1700, fixquality=1
$GPRMC,123123.600,A,4308.3004,N,07726.2688,W,0.46,356.62,040519,,,A*7D
$GPGGA,123123.800,4308.3004,N,07726.2688,W,1,10,0.93,147.7,M,-34.4,M,,*5E
lng=-77.437812, lat=43.138339, altitude=147.70, speed=0.46, satellites=10, angle=356.6200, fixquality=1
$GPRMC,123124.000,A,4308.3006,N,07726.2688,W,0.81,349.46,040519,,,A*7D
$GPGGA,123124.200,4308.3007,N,07726.2687,W,1,10,0.93,147.9,M,-34.4,M,,*51
lng=-77.437812, lat=43.138347, altitude=147.70, speed=0.81, satellites=10, angle=349.4600, fixquality=1
$GPRMC,123124.400,A,4308.3008,N,07726.2687,W,0.85,351.47,040519,,,A*74
$GPGGA,123124.600,4308.3009,N,07726.2687,W,1,10,0.93,148.1,M,-34.4,M,,*5C
lng=-77.437812, lat=43.138347, altitude=147.90, speed=0.85, satellites=10, angle=351.4700, fixquality=1
$GPRMC,123124.800,A,4308.3010,N,07726.2686,W,0.90,353.64,040519,,,A*77
$GPGGA,123125.000,4308.3012,N,07726.2685,W,1,10,0.93,148.3,M,-34.4,M,,*51
lng=-77.437812, lat=43.138347, altitude=148.10, speed=0.90, satellites=10, angle=353.6400, fixquality=1
$GPRMC,123125.200,A,4308.3014,N,07726.2684,W,1.27,3.49,040519,,,A*7E
$GPGGA,123125.400,4308.3016,N,07726.2683,W,1,10,0.93,148.5,M,-34.4,M,,*51
lng=-77.437812, lat=43.138355, altitude=148.30, speed=1.27, satellites=10, angle=3.4900, fixquality=1
$GPRMC,123125.600,A,4308.3017,N,07726.2682,W,1.56,9.78,040519,,,A*71
$GPGGA,123125.800,4308.3019,N,07726.2682,W,1,10,0.93,148.6,M,-34.4,M,,*50
lng=-77.437797, lat=43.138362, altitude=148.50, speed=1.56, satellites=10, angle=9.7800, fixquality=1
$GPRMC,123126.000,A,4308.3020,N,07726.2680,W,1.96,8.05,040519,,,A*75
$GPGGA,123126.200,4308.3022,N,07726.2679,W,1,10,0.93,148.7,M,-34.4,M,,*54
lng=-77.437797, lat=43.138362, altitude=148.60, speed=1.96, satellites=10, angle=8.0500, fixquality=1
$GPRMC,123126.400,A,4308.3024,N,07726.2678,W,2.21,12.60,040519,,,A*45
$GPGGA,123126.600,4308.3025,N,07726.2676,W,1,10,0.93,148.8,M,-34.4,M,,*57
lng=-77.437789, lat=43.138370, altitude=148.70, speed=2.21, satellites=10, angle=12.6000, fixquality=1
$GPRMC,123126.800,A,4308.3026,N,07726.2675,W,2.37,19.09,040519,,,A*45
$GPGGA,123127.000,4308.3028,N,07726.2673,W,1,10,0.86,148.8,M,-34.4,M,,*5C
lng=-77.437789, lat=43.138378, altitude=148.80, speed=2.37, satellites=10, angle=19.0900, fixquality=1
$GPRMC,123127.200,A,4308.3029,N,07726.2672,W,2.11,19.19,040519,,,A*43
$GPGGA,123127.400,4308.3031,N,07726.2671,W,1,10,0.86,148.9,M,-34.4,M,,*53
lng=-77.437782, lat=43.138378, altitude=148.80, speed=2.11, satellites=10, angle=19.1900, fixquality=1
$GPRMC,123127.600,A,4308.3033,N,07726.2670,W,2.74,16.43,040519,,,A*4D
$GPGGA,123127.800,4308.3035,N,07726.2669,W,1,10,0.86,148.9,M,-34.4,M,,*52
lng=-77.437782, lat=43.138385, altitude=148.90, speed=2.74, satellites=10, angle=16.4300, fixquality=1
$GPRMC,123128.000,A,4308.3037,N,07726.2668,W,3.05,23.78,040519,,,A*40
$GPGGA,123128.200,4308.3039,N,07726.2667,W,1,10,0.86,148.9,M,-34.4,M,,*55
lng=-77.437774, lat=43.138393, altitude=148.90, speed=3.05, satellites=10, angle=23.7800, fixquality=1
$GPRMC,123128.400,A,4308.3041,N,07726.2666,W,3.02,22.08,040519,,,A*4A
$GPGGA,123128.600,4308.3043,N,07726.2665,W,1,10,0.86,148.9,M,-34.4,M,,*5E
lng=-77.437774, lat=43.138404, altitude=148.90, speed=3.02, satellites=10, angle=22.0800, fixquality=1
$GPRMC,123128.800,A,4308.3045,N,07726.2663,W,3.07,24.93,040519,,,A*46
$GPGGA,123129.000,4308.3047,N,07726.2662,W,1,09,0.95,148.9,M,-34.4,M,,*50
lng=-77.437767, lat=43.138412, altitude=148.90, speed=3.07, satellites=10, angle=24.9300, fixquality=1
$GPRMC,123129.200,A,4308.3049,N,07726.2661,W,3.13,26.07,040519,,,A*49
$GPGGA,123129.400,4308.3051,N,07726.2660,W,1,10,0.86,148.9,M,-34.4,M,,*5B
lng=-77.437767, lat=43.138412, altitude=148.90, speed=3.13, satellites=9, angle=26.0700, fixquality=1
$GPRMC,123129.600,A,4308.3053,N,07726.2659,W,3.34,26.33,040519,,,A*4F
$GPGGA,123129.800,4308.3055,N,07726.2657,W,1,10,0.86,148.9,M,-34.4,M,,*57
lng=-77.437767, lat=43.138420, altitude=148.90, speed=3.34, satellites=10, angle=26.3300, fixquality=1
$GPRMC,123130.000,A,4308.3057,N,07726.2656,W,3.12,19.96,040519,,,A*4D
$GPGGA,123130.200,4308.3059,N,07726.2655,W,1,10,0.86,148.9,M,-34.4,M,,*5B
lng=-77.437759, lat=43.138427, altitude=148.90, speed=3.12, satellites=10, angle=19.9600, fixquality=1
$GPRMC,123130.400,A,4308.3061,N,07726.2655,W,3.49,18.28,040519,,,A*45
$GPGGA,123130.600,4308.3063,N,07726.2654,W,1,10,0.86,148.8,M,-34.4,M,,*56
lng=-77.437759, lat=43.138435, altitude=148.90, speed=3.49, satellites=10, angle=18.2800, fixquality=1
$GPRMC,123130.800,A,4308.3065,N,07726.2653,W,3.37,20.77,040519,,,A*43
$GPGGA,123131.000,4308.3067,N,07726.2652,W,1,10,0.86,148.8,M,-34.4,M,,*53
lng=-77.437751, lat=43.138442, altitude=148.80, speed=3.37, satellites=10, angle=20.7700, fixquality=1
$GPRMC,123131.200,A,4308.3069,N,07726.2651,W,3.69,16.09,040519,,,A*41
$GPGGA,123131.400,4308.3071,N,07726.2650,W,1,10,0.86,148.8,M,-34.4,M,,*52
lng=-77.437751, lat=43.138450, altitude=148.80, speed=3.69, satellites=10, angle=16.0900, fixquality=1
$GPRMC,123131.600,A,4308.3073,N,07726.2649,W,3.70,12.70,040519,,,A*45
$GPGGA,123131.800,4308.3075,N,07726.2649,W,1,10,0.93,148.8,M,-34.4,M,,*56
lng=-77.437751, lat=43.138450, altitude=148.80, speed=3.70, satellites=10, angle=12.7000, fixquality=1
$GPRMC,123132.000,A,4308.3078,N,07726.2649,W,3.73,5.16,040519,,,A*7E
$GPGGA,123132.200,4308.3080,N,07726.2648,W,1,10,0.93,148.8,M,-34.4,M,,*54
lng=-77.437751, lat=43.138462, altitude=148.80, speed=3.73, satellites=10, angle=5.1600, fixquality=1
$GPRMC,123132.400,A,4308.3082,N,07726.2648,W,3.82,0.66,040519,,,A*72
$GPGGA,123132.600,4308.3084,N,07726.2648,W,1,10,0.93,148.7,M,-34.4,M,,*5B
lng=-77.437744, lat=43.138469, altitude=148.80, speed=3.82, satellites=10, angle=0.6600, fixquality=1
$GPRMC,123132.800,A,4308.3086,N,07726.2648,W,3.40,358.03,040519,,,A*79
$GPGGA,123133.000,4308.3088,N,07726.2648,W,1,10,0.93,148.7,M,-34.4,M,,*50
lng=-77.437744, lat=43.138477, altitude=148.70, speed=3.40, satellites=10, angle=358.0300, fixquality=1
$GPRMC,123133.200,A,4308.3090,N,07726.2648,W,3.30,356.92,040519,,,A*74
$GPGGA,123133.400,4308.3092,N,07726.2648,W,1,10,0.93,148.6,M,-34.4,M,,*5E
lng=-77.437744, lat=43.138484, altitude=148.70, speed=3.30, satellites=10, angle=356.9200, fixquality=1
$GPRMC,123133.600,A,4308.3094,N,07726.2648,W,3.39,0.10,040519,,,A*77
$GPGGA,123133.800,4308.3095,N,07726.2648,W,1,10,0.93,148.6,M,-34.4,M,,*55
lng=-77.437744, lat=43.138492, altitude=148.60, speed=3.39, satellites=10, angle=0.1000, fixquality=1
$GPRMC,123134.000,A,4308.3097,N,07726.2648,W,3.39,358.08,040519,,,A*72
$GPGGA,123134.200,4308.3099,N,07726.2648,W,1,10,0.93,148.5,M,-34.4,M,,*57
lng=-77.437744, lat=43.138492, altitude=148.60, speed=3.39, satellites=10, angle=358.0800, fixquality=1
$GPRMC,123134.400,A,4308.3101,N,07726.2647,W,3.67,3.42,040519,,,A*7F
$GPGGA,123134.600,4308.3103,N,07726.2647,W,1,10,0.93,148.4,M,-34.4,M,,*5F
lng=-77.437744, lat=43.138500, altitude=148.50, speed=3.67, satellites=10, angle=3.4200, fixquality=1
$GPRMC,123134.800,A,4308.3104,N,07726.2647,W,3.62,7.92,040519,,,A*7A
$GPGGA,123135.000,4308.3106,N,07726.2646,W,1,10,0.93,148.3,M,-34.4,M,,*5B
lng=-77.437744, lat=43.138507, altitude=148.40, speed=3.62, satellites=10, angle=7.9200, fixquality=1
$GPRMC,123135.200,A,4308.3109,N,07726.2645,W,4.16,12.99,040519,,,A*45
$GPGGA,123135.400,4308.3111,N,07726.2645,W,1,10,0.93,148.2,M,-34.4,M,,*5B
lng=-77.437744, lat=43.138515, altitude=148.30, speed=4.16, satellites=10, angle=12.9900, fixquality=1
$GPRMC,123135.600,A,4308.3113,N,07726.2644,W,3.80,11.30,040519,,,A*43
$GPGGA,123135.800,4308.3114,N,07726.2643,W,1,10,0.93,148.2,M,-34.4,M,,*54
lng=-77.437736, lat=43.138526, altitude=148.20, speed=3.80, satellites=10, angle=11.3000, fixquality=1
$GPRMC,123136.000,A,4308.3116,N,07726.2642,W,3.54,15.32,040519,,,A*4A
$GPGGA,123136.200,4308.3118,N,07726.2642,W,1,10,0.86,148.2,M,-34.4,M,,*54
lng=-77.437736, lat=43.138526, altitude=148.20, speed=3.54, satellites=10, angle=15.3200, fixquality=1
$GPRMC,123136.400,A,4308.3119,N,07726.2641,W,2.90,14.46,040519,,,A*49
$GPGGA,123136.600,4308.3121,N,07726.2640,W,1,09,0.98,148.1,M,-34.4,M,,*5C
lng=-77.437736, lat=43.138534, altitude=148.20, speed=2.90, satellites=10, angle=14.4600, fixquality=1
$GPRMC,123136.800,A,4308.3122,N,07726.2639,W,2.34,22.04,040519,,,A*4F
$GPGGA,123137.000,4308.3123,N,07726.2639,W,1,10,0.86,148.1,M,-34.4,M,,*50
lng=-77.437728, lat=43.138534, altitude=148.10, speed=2.34, satellites=9, angle=22.0400, fixquality=1
$GPRMC,123137.200,A,4308.3124,N,07726.2638,W,2.13,18.31,040519,,,A*49
$GPGGA,123137.400,4308.3126,N,07726.2637,W,1,10,0.86,148.1,M,-34.4,M,,*5F
lng=-77.437728, lat=43.138542, altitude=148.10, speed=2.13, satellites=10, angle=18.3100, fixquality=1
$GPRMC,123137.600,A,4308.3127,N,07726.2636,W,2.57,22.33,040519,,,A*4B
$GPGGA,123137.800,4308.3129,N,07726.2635,W,1,10,0.86,148.0,M,-34.4,M,,*5F
lng=-77.437728, lat=43.138542, altitude=148.10, speed=2.57, satellites=10, angle=22.3300, fixquality=1
$GPRMC,123138.000,A,4308.3130,N,07726.2634,W,3.00,22.55,040519,,,A*45
$GPGGA,123138.200,4308.3132,N,07726.2633,W,1,10,0.86,148.0,M,-34.4,M,,*56
lng=-77.437721, lat=43.138549, altitude=148.00, speed=3.00, satellites=10, angle=22.5500, fixquality=1
$GPRMC,123138.400,A,4308.3134,N,07726.2632,W,3.42,27.41,040519,,,A*45
$GPGGA,123138.600,4308.3135,N,07726.2631,W,1,10,0.86,148.0,M,-34.4,M,,*57
lng=-77.437721, lat=43.138557, altitude=148.00, speed=3.42, satellites=10, angle=27.4100, fixquality=1
$GPRMC,123138.800,A,4308.3137,N,07726.2629,W,3.41,32.81,040519,,,A*4B
$GPGGA,123139.000,4308.3139,N,07726.2628,W,1,10,0.86,147.9,M,-34.4,M,,*52
lng=-77.437713, lat=43.138557, altitude=148.00, speed=3.41, satellites=10, angle=32.8100, fixquality=1
$GPRMC,123139.200,A,4308.3140,N,07726.2626,W,3.50,38.93,040519,,,A*46
$GPGGA,123139.400,4308.3142,N,07726.2624,W,1,10,0.86,147.9,M,-34.4,M,,*56
lng=-77.437713, lat=43.138565, altitude=147.90, speed=3.50, satellites=10, angle=38.9300, fixquality=1
$GPRMC,123139.600,A,4308.3143,N,07726.2622,W,3.62,53.61,040519,,,A*44
$GPGGA,123139.800,4308.3144,N,07726.2619,W,1,10,0.86,147.8,M,-34.4,M,,*53
lng=-77.437705, lat=43.138572, altitude=147.90, speed=3.62, satellites=10, angle=53.6100, fixquality=1
$GPRMC,123140.000,A,4308.3145,N,07726.2617,W,3.29,58.99,040519,,,A*4F
$GPGGA,123140.200,4308.3146,N,07726.2615,W,1,10,0.86,147.7,M,-34.4,M,,*56
lng=-77.437698, lat=43.138572, altitude=147.80, speed=3.29, satellites=10, angle=58.9900, fixquality=1
$GPRMC,123140.400,A,4308.3146,N,07726.2613,W,2.62,65.68,040519,,,A*42
$GPGGA,123140.600,4308.3147,N,07726.2611,W,1,10,0.86,147.6,M,-34.4,M,,*56
lng=-77.437690, lat=43.138572, altitude=147.70, speed=2.62, satellites=10, angle=65.6800, fixquality=1
$GPRMC,123140.800,A,4308.3147,N,07726.2610,W,1.66,59.80,040519,,,A*42
$GPGGA,123141.000,4308.3147,N,07726.2609,W,1,10,0.86,147.5,M,-34.4,M,,*5B
lng=-77.437690, lat=43.138584, altitude=147.60, speed=1.66, satellites=10, angle=59.8000, fixquality=1
$GPRMC,123141.200,A,4308.3147,N,07726.2609,W,0.79,63.20,040519,,,A*4D
$GPGGA,123141.400,4308.3148,N,07726.2609,W,1,10,0.86,147.5,M,-34.4,M,,*50
lng=-77.437675, lat=43.138584, altitude=147.50, speed=0.79, satellites=10, angle=63.2000, fixquality=1
$GPRMC,123141.600,A,4308.3147,N,07726.2610,W,0.15,212.02,040519,,,A*7F
$GPGGA,123141.800,4308.3147,N,07726.2611,W,1,10,0.86,147.5,M,-34.4,M,,*5A
lng=-77.437690, lat=43.138584, altitude=147.50, speed=0.15, satellites=10, angle=212.0200, fixquality=1
$GPRMC,123142.000,A,4308.3147,N,07726.2611,W,0.81,256.41,040519,,,A*71
$GPGGA,123142.200,4308.3146,N,07726.2612,W,1,10,0.86,147.5,M,-34.4,M,,*51
lng=-77.437690, lat=43.138584, altitude=147.50, speed=0.81, satellites=10, angle=256.4100, fixquality=1
$GPRMC,123142.400,A,4308.3146,N,07726.2615,W,3.66,256.39,040519,,,A*75
$GPGGA,123142.600,4308.3145,N,07726.2618,W,1,10,0.86,147.6,M,-34.4,M,,*5F
lng=-77.437698, lat=43.138572, altitude=147.50, speed=3.66, satellites=10, angle=256.3900, fixquality=1
$GPRMC,123142.800,A,4308.3145,N,07726.2622,W,5.15,255.60,040519,,,A*73
$GPGGA,123143.000,4308.3144,N,07726.2626,W,1,10,0.93,147.7,M,-34.4,M,,*51
lng=-77.437705, lat=43.138572, altitude=147.60, speed=5.15, satellites=10, angle=255.6000, fixquality=1
$GPRMC,123143.200,A,4308.3144,N,07726.2630,W,6.71,263.84,040519,,,A*74
$GPGGA,123143.400,4308.3144,N,07726.2636,W,1,10,0.93,147.7,M,-34.4,M,,*54
lng=-77.437721, lat=43.138572, altitude=147.70, speed=6.71, satellites=10, angle=263.8400, fixquality=1
$GPRMC,123143.600,A,4308.3144,N,07726.2642,W,8.21,270.75,040519,,,A*72
$GPGGA,123143.800,4308.3145,N,07726.2648,W,1,10,0.93,147.7,M,-34.4,M,,*50
lng=-77.437736, lat=43.138572, altitude=147.70, speed=8.21, satellites=10, angle=270.7500, fixquality=1
$GPRMC,123144.000,A,4308.3145,N,07726.2655,W,9.55,275.27,040519,,,A*74
$GPGGA,123144.200,4308.3146,N,07726.2662,W,1,10,0.93,147.7,M,-34.4,M,,*56
lng=-77.437759, lat=43.138572, altitude=147.70, speed=9.55, satellites=10, angle=275.2700, fixquality=1
$GPRMC,123144.400,A,4308.3147,N,07726.2670,W,10.57,275.63,040519,,,A*4F
$GPGGA,123144.600,4308.3149,N,07726.2677,W,1,10,0.93,147.7,M,-34.4,M,,*59
lng=-77.437782, lat=43.138584, altitude=147.70, speed=10.57, satellites=10, angle=275.6300, fixquality=1
$GPRMC,123144.800,A,4308.3151,N,07726.2684,W,11.55,277.58,040519,,,A*46
$GPGGA,123145.000,4308.3154,N,07726.2693,W,1,10,0.93,147.8,M,-34.4,M,,*57
lng=-77.437812, lat=43.138584, altitude=147.70, speed=11.55, satellites=10, angle=277.5800, fixquality=1
$GPRMC,123145.200,A,4308.3156,N,07726.2702,W,13.07,287.66,040519,,,A*42
$GPGGA,123145.400,4308.3159,N,07726.2711,W,1,10,0.93,147.7,M,-34.4,M,,*5A
lng=-77.437835, lat=43.138591, altitude=147.80, speed=13.07, satellites=10, angle=287.6600, fixquality=1
$GPRMC,123145.600,A,4308.3161,N,07726.2720,W,14.53,286.13,040519,,,A*47
$GPGGA,123145.800,4308.3164,N,07726.2730,W,1,10,0.93,148.0,M,-34.4,M,,*53
lng=-77.437866, lat=43.138599, altitude=147.70, speed=14.53, satellites=10, angle=286.1300, fixquality=1
$GPRMC,123146.000,A,4308.3166,N,07726.2741,W,15.67,288.62,040519,,,A*4C
$GPGGA,123146.200,4308.3169,N,07726.2752,W,1,10,0.93,148.0,M,-34.4,M,,*53
lng=-77.437896, lat=43.138607, altitude=148.00, speed=15.67, satellites=10, angle=288.6200, fixquality=1
$GPRMC,123146.400,A,4308.3172,N,07726.2764,W,16.58,290.90,040519,,,A*41
$GPGGA,123146.600,4308.3175,N,07726.2775,W,1,10,0.93,148.0,M,-34.4,M,,*5F
lng=-77.437942, lat=43.138622, altitude=148.00, speed=16.58, satellites=10, angle=290.9000, fixquality=1
$GPRMC,123146.800,A,4308.3177,N,07726.2788,W,17.41,290.77,040519,,,A*4A
$GPGGA,123147.000,4308.3180,N,07726.2800,W,1,10,0.93,148.0,M,-34.4,M,,*5F
lng=-77.437980, lat=43.138629, altitude=148.00, speed=17.41, satellites=10, angle=290.7700, fixquality=1
$GPRMC,123147.200,A,4308.3184,N,07726.2814,W,18.61,292.04,040519,,,A*4C
$GPGGA,123147.400,4308.3188,N,07726.2827,W,1,10,0.93,148.0,M,-34.4,M,,*56
lng=-77.438018, lat=43.138637, altitude=148.00, speed=18.61, satellites=10, angle=292.0400, fixquality=1
$GPRMC,123147.600,A,4308.3192,N,07726.2841,W,19.59,290.97,040519,,,A*4D
$GPGGA,123147.800,4308.3196,N,07726.2855,W,1,10,0.93,147.9,M,-34.4,M,,*56
lng=-77.438072, lat=43.138656, altitude=148.00, speed=19.59, satellites=10, angle=290.9700, fixquality=1
$GPRMC,123148.000,A,4308.3200,N,07726.2869,W,20.45,292.42,040519,,,A*4B
$GPGGA,123148.200,4308.3205,N,07726.2883,W,1,10,0.93,148.0,M,-34.4,M,,*57
lng=-77.438117, lat=43.138664, altitude=147.90, speed=20.45, satellites=10, angle=292.4200, fixquality=1
$GPRMC,123148.400,A,4308.3209,N,07726.2898,W,21.32,293.70,040519,,,A*49
$GPGGA,123148.600,4308.3214,N,07726.2913,W,1,10,0.93,148.0,M,-34.4,M,,*5B
lng=-77.438163, lat=43.138679, altitude=148.00, speed=21.32, satellites=10, angle=293.7000, fixquality=1
$GPRMC,123148.800,A,4308.3220,N,07726.2927,W,21.83,295.01,040519,,,A*41
$GPGGA,123149.000,4308.3225,N,07726.2943,W,1,10,0.93,148.0,M,-34.4,M,,*5B
lng=-77.438209, lat=43.138694, altitude=148.00, speed=21.83, satellites=10, angle=295.0100, fixquality=1
$GPRMC,123149.200,A,4308.3231,N,07726.2958,W,22.71,297.24,040519,,,A*49
$GPGGA,123149.400,4308.3238,N,07726.2973,W,1,10,0.93,148.0,M,-34.4,M,,*50
lng=-77.438262, lat=43.138721, altitude=148.00, speed=22.71, satellites=10, angle=297.2400, fixquality=1
$GPRMC,123149.600,A,4308.3244,N,07726.2989,W,23.32,297.40,040519,,,A*47
$GPGGA,123149.800,4308.3251,N,07726.3006,W,1,10,0.93,148.1,M,-34.4,M,,*58
lng=-77.438316, lat=43.138736, altitude=148.00, speed=23.32, satellites=10, angle=297.4000, fixquality=1
$GPRMC,123150.000,A,4308.3258,N,07726.3022,W,24.30,299.40,040519,,,A*46
$GPGGA,123150.200,4308.3265,N,07726.3038,W,1,10,0.93,148.2,M,-34.4,M,,*53
lng=-77.438369, lat=43.138759, altitude=148.10, speed=24.30, satellites=10, angle=299.4000, fixquality=1
$GPRMC,123150.400,A,4308.3272,N,07726.3054,W,24.79,300.10,040519,,,A*42
$GPGGA,123150.600,4308.3280,N,07726.3070,W,1,10,0.93,148.3,M,-34.4,M,,*51
lng=-77.438423, lat=43.138786, altitude=148.20, speed=24.79, satellites=10, angle=300.1000, fixquality=1
$GPRMC,123150.800,A,4308.3287,N,07726.3086,W,25.33,300.40,040519,,,A*41
$GPGGA,123151.000,4308.3295,N,07726.3102,W,1,10,0.93,148.3,M,-34.4,M,,*56
lng=-77.438476, lat=43.138809, altitude=148.30, speed=25.33, satellites=10, angle=300.4000, fixquality=1
$GPRMC,123151.200,A,4308.3303,N,07726.3118,W,25.67,301.27,040519,,,A*40
$GPGGA,123151.400,4308.3311,N,07726.3135,W,1,10,0.93,148.4,M,-34.4,M,,*5C
lng=-77.438529, lat=43.138835, altitude=148.30, speed=25.67, satellites=10, angle=301.2700, fixquality=1
$GPRMC,123151.600,A,4308.3319,N,07726.3151,W,26.07,301.85,040519,,,A*4F
$GPGGA,123151.800,4308.3327,N,07726.3168,W,1,10,0.93,148.6,M,-34.4,M,,*5F
lng=-77.438583, lat=43.138866, altitude=148.40, speed=26.07, satellites=10, angle=301.8500, fixquality=1
$GPRMC,123152.000,A,4308.3335,N,07726.3186,W,26.21,301.64,040519,,,A*45
$GPGGA,123152.200,4308.3343,N,07726.3203,W,1,10,0.93,148.7,M,-34.4,M,,*5B
lng=-77.438636, lat=43.138893, altitude=148.60, speed=26.21, satellites=10, angle=301.6400, fixquality=1
$GPRMC,123152.400,A,4308.3351,N,07726.3221,W,26.42,302.14,040519,,,A*4C
$GPGGA,123152.600,4308.3359,N,07726.3238,W,1,10,0.93,148.8,M,-34.4,M,,*53
lng=-77.438705, lat=43.138916, altitude=148.70, speed=26.42, satellites=10, angle=302.1400, fixquality=1
$GPRMC,123152.800,A,4308.3368,N,07726.3256,W,27.33,302.20,040519,,,A*4A
$GPGGA,123153.000,4308.3376,N,07726.3273,W,1,10,0.93,148.9,M,-34.4,M,,*57
lng=-77.438758, lat=43.138950, altitude=148.80, speed=27.33, satellites=10, angle=302.2000, fixquality=1
$GPRMC,123153.200,A,4308.3385,N,07726.3291,W,27.51,302.48,040519,,,A*43
$GPGGA,123153.400,4308.3393,N,07726.3308,W,1,10,0.93,149.0,M,-34.4,M,,*5D
lng=-77.438819, lat=43.138973, altitude=148.90, speed=27.51, satellites=10, angle=302.4800, fixquality=1
$GPRMC,123153.600,A,4308.3401,N,07726.3326,W,27.43,302.46,040519,,,A*4C
$GPGGA,123153.800,4308.3410,N,07726.3344,W,1,10,0.93,149.3,M,-34.4,M,,*56
lng=-77.438873, lat=43.139003, altitude=149.00, speed=27.43, satellites=10, angle=302.4600, fixquality=1
$GPRMC,123154.000,A,4308.3418,N,07726.3361,W,27.16,302.97,040519,,,A*4A
$GPGGA,123154.200,4308.3427,N,07726.3379,W,1,10,0.93,149.3,M,-34.4,M,,*51
lng=-77.438934, lat=43.139030, altitude=149.30, speed=27.16, satellites=10, angle=302.9700, fixquality=1
$GPRMC,123154.400,A,4308.3435,N,07726.3396,W,27.21,303.61,040519,,,A*45
$GPGGA,123154.600,4308.3444,N,07726.3414,W,1,10,0.93,149.5,M,-34.4,M,,*5A
lng=-77.438995, lat=43.139053, altitude=149.30, speed=27.21, satellites=10, angle=303.6100, fixquality=1
$GPRMC,123154.800,A,4308.3452,N,07726.3431,W,27.10,303.60,040519,,,A*41
$GPGGA,123155.000,4308.3461,N,07726.3448,W,1,10,0.93,149.7,M,-34.4,M,,*51
lng=-77.439056, lat=43.139087, altitude=149.50, speed=27.10, satellites=10, angle=303.6000, fixquality=1
$GPRMC,123155.200,A,4308.3470,N,07726.3466,W,27.07,304.17,040519,,,A*49
$GPGGA,123155.400,4308.3479,N,07726.3482,W,1,10,0.93,149.8,M,-34.4,M,,*55
lng=-77.439109, lat=43.139118, altitude=149.70, speed=27.07, satellites=10, angle=304.1700, fixquality=1
$GPRMC,123155.600,A,4308.3488,N,07726.3499,W,26.45,305.99,040519,,,A*4A
$GPGGA,123155.800,4308.3497,N,07726.3515,W,1,10,0.93,150.0,M,-34.4,M,,*56
lng=-77.439170, lat=43.139144, altitude=149.80, speed=26.45, satellites=10, angle=305.9900, fixquality=1
$GPRMC,123156.000,A,4308.3506,N,07726.3531,W,26.16,307.13,040519,,,A*4D
$GPGGA,123156.200,4308.3515,N,07726.3546,W,1,10,0.93,150.1,M,-34.4,M,,*53
lng=-77.439216, lat=43.139175, altitude=150.00, speed=26.16, satellites=10, angle=307.1300, fixquality=1
$GPRMC,123156.400,A,4308.3525,N,07726.3562,W,25.94,311.92,040519,,,A*49
$GPGGA,123156.600,4308.3535,N,07726.3577,W,1,10,0.93,150.5,M,-34.4,M,,*53
lng=-77.439277, lat=43.139209, altitude=150.10, speed=25.94, satellites=10, angle=311.9200, fixquality=1
$GPRMC,123156.800,A,4308.3545,N,07726.3591,W,26.24,314.48,040519,,,A*45
$GPGGA,123157.000,4308.3556,N,07726.3605,W,1,10,0.93,150.8,M,-34.4,M,,*5A
lng=-77.439315, lat=43.139240, altitude=150.50, speed=26.24, satellites=10, angle=314.4800, fixquality=1
$GPRMC,123157.200,A,4308.3567,N,07726.3619,W,26.39,318.54,040519,,,A*40
$GPGGA,123157.400,4308.3579,N,07726.3631,W,1,09,0.98,151.2,M,-34.4,M,,*5C
lng=-77.439361, lat=43.139282, altitude=150.80, speed=26.39, satellites=10, angle=318.5400, fixquality=1
$GPRMC,123157.600,A,4308.3591,N,07726.3644,W,26.30,322.42,040519,,,A*42
$GPGGA,123157.800,4308.3603,N,07726.3656,W,1,10,0.93,151.4,M,-34.4,M,,*5A
lng=-77.439407, lat=43.139316, altitude=151.20, speed=26.30, satellites=9, angle=322.4200, fixquality=1
$GPRMC,123158.000,A,4308.3616,N,07726.3667,W,26.36,325.65,040519,,,A*42
$GPGGA,123158.200,4308.3628,N,07726.3678,W,1,10,0.93,151.6,M,-34.4,M,,*58
lng=-77.439445, lat=43.139362, altitude=151.40, speed=26.36, satellites=10, angle=325.6500, fixquality=1
$GPRMC,123158.400,A,4308.3641,N,07726.3688,W,26.08,328.72,040519,,,A*43
$GPGGA,123158.600,4308.3654,N,07726.3698,W,1,10,0.93,151.9,M,-34.4,M,,*56
lng=-77.439476, lat=43.139404, altitude=151.60, speed=26.08, satellites=10, angle=328.7200, fixquality=1
$GPRMC,123158.800,A,4308.3667,N,07726.3707,W,26.03,332.55,040519,,,A*48
$GPGGA,123159.000,4308.3680,N,07726.3715,W,1,10,0.93,152.1,M,-34.4,M,,*57
lng=-77.439506, lat=43.139446, altitude=151.90, speed=26.03, satellites=10, angle=332.5500, fixquality=1
$GPRMC,123159.200,A,4308.3693,N,07726.3723,W,25.77,335.94,040519,,,A*44
$GPGGA,123159.400,4308.3706,N,07726.3730,W,1,10,0.93,152.2,M,-34.4,M,,*58
lng=-77.439537, lat=43.139484, altitude=152.10, speed=25.77, satellites=10, angle=335.9400, fixquality=1
$GPRMC,123159.600,A,4308.3719,N,07726.3737,W,24.96,338.19,040519,,,A*40
$GPGGA,123159.800,4308.3732,N,07726.3744,W,1,10,0.93,152.4,M,-34.4,M,,*56
lng=-77.439559, lat=43.139533, altitude=152.20, speed=24.96, satellites=10, angle=338.1900, fixquality=1
$GPRMC,123200.000,A,4308.3745,N,07726.3750,W,24.52,340.01,040519,,,A*4F
$GPGGA,123200.200,4308.3758,N,07726.3756,W,1,10,0.93,152.5,M,-34.4,M,,*5D
lng=-77.439582, lat=43.139575, altitude=152.40, speed=24.52, satellites=10, angle=340.0100, fixquality=1
$GPRMC,123200.400,A,4308.3771,N,07726.3761,W,24.15,342.69,040519,,,A*41
$GPGGA,123200.600,4308.3785,N,07726.3766,W,1,10,0.93,152.7,M,-34.4,M,,*58
lng=-77.439598, lat=43.139614, altitude=152.50, speed=24.15, satellites=10, angle=342.6900, fixquality=1
$GPRMC,123200.800,A,4308.3798,N,07726.3770,W,24.05,346.50,040519,,,A*45
$GPGGA,123201.000,4308.3812,N,07726.3773,W,1,10,0.93,152.9,M,-34.4,M,,*54
lng=-77.439613, lat=43.139663, altitude=152.70, speed=24.05, satellites=10, angle=346.5000, fixquality=1
$GPRMC,123201.200,A,4308.3825,N,07726.3777,W,24.04,348.70,040519,,,A*4D
$GPGGA,123201.400,4308.3839,N,07726.3780,W,1,10,0.93,153.0,M,-34.4,M,,*5D
lng=-77.439628, lat=43.139705, altitude=152.90, speed=24.04, satellites=10, angle=348.7000, fixquality=1
$GPRMC,123201.600,A,4308.3852,N,07726.3782,W,23.85,350.69,040519,,,A*4C
$GPGGA,123201.800,4308.3866,N,07726.3785,W,1,10,0.93,153.1,M,-34.4,M,,*5F
lng=-77.439643, lat=43.139755, altitude=153.00, speed=23.85, satellites=10, angle=350.6900, fixquality=1
$GPRMC,123202.000,A,4308.3880,N,07726.3786,W,24.57,353.71,040519,,,A*40
$GPGGA,123202.200,4308.3894,N,07726.3787,W,1,10,0.93,153.1,M,-34.4,M,,*59
lng=-77.439643, lat=43.139804, altitude=153.10, speed=24.57, satellites=10, angle=353.7100, fixquality=1
$GPRMC,123202.400,A,4308.3909,N,07726.3788,W,25.40,357.83,040519,,,A*44
$GPGGA,123202.600,4308.3923,N,07726.3788,W,1,10,0.93,153.2,M,-34.4,M,,*5C
lng=-77.439651, lat=43.139850, altitude=153.10, speed=25.40, satellites=10, angle=357.8300, fixquality=1
$GPRMC,123202.800,A,4308.3938,N,07726.3788,W,26.32,359.65,040519,,,A*4A
$GPGGA,123203.000,4308.3953,N,07726.3788,W,1,10,0.93,153.2,M,-34.4,M,,*5C
lng=-77.439651, lat=43.139892, altitude=153.20, speed=26.32, satellites=10, angle=359.6500, fixquality=1
$GPRMC,123203.200,A,4308.3968,N,07726.3787,W,26.59,2.11,040519,,,A*48
$GPGGA,123203.400,4308.3983,N,07726.3785,W,1,10,0.93,153.3,M,-34.4,M,,*59
lng=-77.439651, lat=43.139949, altitude=153.20, speed=26.59, satellites=10, angle=2.1100, fixquality=1
$GPRMC,123203.600,A,4308.3998,N,07726.3784,W,27.14,4.63,040519,,,A*4B
$GPGGA,123203.800,4308.4013,N,07726.3782,W,1,10,0.93,153.3,M,-34.4,M,,*55
lng=-77.439643, lat=43.139999, altitude=153.30, speed=27.14, satellites=10, angle=4.6300, fixquality=1
$GPRMC,123204.000,A,4308.4028,N,07726.3779,W,27.21,6.99,040519,,,A*4C
$GPGGA,123204.200,4308.4043,N,07726.3777,W,1,10,0.93,153.4,M,-34.4,M,,*50
lng=-77.439628, lat=43.140048, altitude=153.30, speed=27.21, satellites=10, angle=6.9900, fixquality=1
$GPRMC,123204.400,A,4308.4058,N,07726.3774,W,27.53,8.34,040519,,,A*4E
$GPGGA,123204.600,4308.4074,N,07726.3770,W,1,10,0.93,153.4,M,-34.4,M,,*57
lng=-77.439620, lat=43.140094, altitude=153.40, speed=27.53, satellites=10, angle=8.3400, fixquality=1
$GPRMC,123204.800,A,4308.4089,N,07726.3767,W,27.99,9.60,040519,,,A*4A
$GPGGA,123205.000,4308.4105,N,07726.3763,W,1,10,0.93,153.6,M,-34.4,M,,*57
lng=-77.439605, lat=43.140144, altitude=153.40, speed=27.99, satellites=10, angle=9.6000, fixquality=1
$GPRMC,123205.200,A,4308.4120,N,07726.3759,W,28.20,10.05,040519,,,A*78
$GPGGA,123205.400,4308.4136,N,07726.3755,W,1,10,0.93,153.9,M,-34.4,M,,*59
lng=-77.439598, lat=43.140201, altitude=153.60, speed=28.20, satellites=10, angle=10.0500, fixquality=1
$GPRMC,123205.600,A,4308.4151,N,07726.3752,W,28.30,10.25,040519,,,A*72
$GPGGA,123205.800,4308.4167,N,07726.3748,W,1,10,0.93,154.2,M,-34.4,M,,*51
lng=-77.439582, lat=43.140251, altitude=153.90, speed=28.30, satellites=10, angle=10.2500, fixquality=1
$GPRMC,123206.000,A,4308.4182,N,07726.3744,W,28.30,10.61,040519,,,A*7E
$GPGGA,123206.200,4308.4197,N,07726.3739,W,1,10,0.93,154.5,M,-34.4,M,,*56
lng=-77.439575, lat=43.140300, altitude=154.20, speed=28.30, satellites=10, angle=10.6100, fixquality=1
$GPRMC,123206.400,A,4308.4212,N,07726.3735,W,28.26,10.70,040519,,,A*71
$GPGGA,123206.600,4308.4227,N,07726.3732,W,1,10,0.93,154.7,M,-34.4,M,,*53
lng=-77.439559, lat=43.140357, altitude=154.50, speed=28.26, satellites=10, angle=10.7000, fixquality=1
$GPRMC,123206.800,A,4308.4242,N,07726.3728,W,26.83,9.86,040519,,,A*44
$GPGGA,123207.000,4308.4256,N,07726.3724,W,1,10,0.93,154.9,M,-34.4,M,,*5B
lng=-77.439544, lat=43.140403, altitude=154.70, speed=26.83, satellites=10, angle=9.8600, fixquality=1
$GPRMC,123207.200,A,4308.4271,N,07726.3721,W,26.43,9.98,040519,,,A*45
$GPGGA,123207.400,4308.4285,N,07726.3717,W,1,10,0.93,155.0,M,-34.4,M,,*59
lng=-77.439537, lat=43.140453, altitude=154.90, speed=26.43, satellites=10, angle=9.9800, fixquality=1
$GPRMC,123207.600,A,4308.4299,N,07726.3713,W,25.75,9.81,040519,,,A*48
$GPGGA,123207.800,4308.4313,N,07726.3710,W,1,10,0.93,155.2,M,-34.4,M,,*5E
lng=-77.439521, lat=43.140495, altitude=155.00, speed=25.75, satellites=10, angle=9.8100, fixquality=1
$GPRMC,123208.000,A,4308.4327,N,07726.3706,W,25.43,9.53,040519,,,A*4B
$GPGGA,123208.200,4308.4341,N,07726.3703,W,1,10,0.93,155.3,M,-34.4,M,,*5F
lng=-77.439506, lat=43.140544, altitude=155.20, speed=25.43, satellites=10, angle=9.5300, fixquality=1
$GPRMC,123208.400,A,4308.4355,N,07726.3700,W,24.62,8.67,040519,,,A*48
$GPGGA,123208.600,4308.4368,N,07726.3698,W,1,10,0.93,155.3,M,-34.4,M,,*53
lng=-77.439498, lat=43.140590, altitude=155.30, speed=24.62, satellites=10, angle=8.6700, fixquality=1
$GPRMC,123208.800,A,4308.4382,N,07726.3695,W,23.74,8.41,040519,,,A*47
$GPGGA,123209.000,4308.4394,N,07726.3692,W,1,10,0.93,154.7,M,-34.4,M,,*58
lng=-77.439491, lat=43.140632, altitude=155.30, speed=23.74, satellites=10, angle=8.4100, fixquality=1
$GPRMC,123209.200,A,4308.4407,N,07726.3689,W,22.55,8.41,040519,,,A*49
$GPGGA,123209.400,4308.4419,N,07726.3687,W,1,10,0.93,154.8,M,-34.4,M,,*55
lng=-77.439483, lat=43.140682, altitude=154.70, speed=22.55, satellites=10, angle=8.4100, fixquality=1
$GPRMC,123209.600,A,4308.4431,N,07726.3684,W,22.16,8.40,040519,,,A*43
$GPGGA,123209.800,4308.4443,N,07726.3681,W,1,10,0.93,154.6,M,-34.4,M,,*5E
lng=-77.439468, lat=43.140712, altitude=154.80, speed=22.16, satellites=10, angle=8.4000, fixquality=1
$GPRMC,123210.000,A,4308.4455,N,07726.3678,W,20.86,10.09,040519,,,A*73
$GPGGA,123210.200,4308.4466,N,07726.3674,W,1,10,0.93,154.4,M,-34.4,M,,*53
lng=-77.439460, lat=43.140754, altitude=154.60, speed=20.86, satellites=10, angle=10.0900, fixquality=1
$GPRMC,123210.400,A,4308.4477,N,07726.3672,W,19.38,9.29,040519,,,A*48
$GPGGA,123210.600,4308.4487,N,07726.3669,W,1,10,0.93,154.4,M,-34.4,M,,*54
lng=-77.439453, lat=43.140796, altitude=154.40, speed=19.38, satellites=10, angle=9.2900, fixquality=1
$GPRMC,123210.800,A,4308.4497,N,07726.3666,W,17.71,8.92,040519,,,A*4D
$GPGGA,123211.000,4308.4506,N,07726.3663,W,1,10,0.93,154.4,M,-34.4,M,,*51
lng=-77.439445, lat=43.140827, altitude=154.40, speed=17.71, satellites=10, angle=8.9200, fixquality=1
$GPRMC,123211.200,A,4308.4514,N,07726.3661,W,14.94,9.14,040519,,,A*4C
$GPGGA,123211.400,4308.4522,N,07726.3657,W,1,10,0.93,154.3,M,-34.4,M,,*53
lng=-77.439437, lat=43.140853, altitude=154.40, speed=14.94, satellites=10, angle=9.1400, fixquality=1
$GPRMC,123211.600,A,4308.4529,N,07726.3654,W,12.13,11.56,040519,,,A*76
$GPGGA,123211.800,4308.4535,N,07726.3650,W,1,10,0.93,154.0,M,-34.4,M,,*5D
lng=-77.439422, lat=43.140884, altitude=154.30, speed=12.13, satellites=10, angle=11.5600, fixquality=1
$GPRMC,123212.000,A,4308.4541,N,07726.3648,W,9.48,10.19,040519,,,A*4E
$GPGGA,123212.200,4308.4545,N,07726.3645,W,1,10,0.93,154.0,M,-34.4,M,,*57
lng=-77.439414, lat=43.140903, altitude=154.00, speed=9.48, satellites=10, angle=10.1900, fixquality=1
$GPRMC,123212.400,A,4308.4549,N,07726.3643,W,7.25,11.71,040519,,,A*43
$GPGGA,123212.600,4308.4553,N,07726.3641,W,1,10,0.93,154.0,M,-34.4,M,,*50
lng=-77.439407, lat=43.140918, altitude=154.00, speed=7.25, satellites=10, angle=11.7100, fixquality=1
$GPRMC,123212.800,A,4308.4556,N,07726.3640,W,6.99,10.19,040519,,,A*4B
$GPGGA,123213.000,4308.4560,N,07726.3639,W,1,10,0.93,154.0,M,-34.4,M,,*58
lng=-77.439399, lat=43.140926, altitude=154.00, speed=6.99, satellites=10, angle=10.1900, fixquality=1
$GPRMC,123213.200,A,4308.4563,N,07726.3637,W,7.10,10.16,040519,,,A*49
$GPGGA,123213.400,4308.4567,N,07726.3637,W,1,10,0.93,154.0,M,-34.4,M,,*55
lng=-77.439399, lat=43.140933, altitude=154.00, speed=7.10, satellites=10, angle=10.1600, fixquality=1
$GPRMC,123213.600,A,4308.4571,N,07726.3636,W,7.56,2.95,040519,,,A*75
$GPGGA,123213.800,4308.4575,N,07726.3636,W,1,10,0.93,154.0,M,-34.4,M,,*5B
lng=-77.439399, lat=43.140949, altitude=154.00, speed=7.56, satellites=10, angle=2.9500, fixquality=1
$GPRMC,123214.000,A,4308.4580,N,07726.3636,W,8.58,356.38,040519,,,A*7E
$GPGGA,123214.200,4308.4585,N,07726.3637,W,1,10,0.93,154.1,M,-34.4,M,,*59
lng=-77.439399, lat=43.140968, altitude=154.00, speed=8.58, satellites=10, angle=356.3800, fixquality=1
$GPRMC,123214.400,A,4308.4590,N,07726.3638,W,9.04,347.83,040519,,,A*7D
$GPGGA,123214.600,4308.4595,N,07726.3640,W,1,10,0.93,154.3,M,-34.4,M,,*5E
lng=-77.439399, lat=43.140983, altitude=154.10, speed=9.04, satellites=10, angle=347.8300, fixquality=1
$GPRMC,123214.800,A,4308.4600,N,07726.3642,W,9.33,335.84,040519,,,A*70
$GPGGA,123215.000,4308.4605,N,07726.3646,W,1,10,0.93,154.4,M,-34.4,M,,*52
lng=-77.439407, lat=43.140998, altitude=154.30, speed=9.33, satellites=10, angle=335.8400, fixquality=1
$GPRMC,123215.200,A,4308.4611,N,07726.3651,W,11.45,325.59,040519,,,A*40
$GPGGA,123215.400,4308.4616,N,07726.3657,W,1,10,0.93,154.4,M,-34.4,M,,*54
lng=-77.439422, lat=43.141014, altitude=154.40, speed=11.45, satellites=10, angle=325.5900, fixquality=1
$GPRMC,123215.600,A,4308.4621,N,07726.3664,W,12.91,314.41,040519,,,A*40
$GPGGA,123215.800,4308.4626,N,07726.3672,W,1,10,0.93,154.4,M,-34.4,M,,*5C
lng=-77.439437, lat=43.141033, altitude=154.40, speed=12.91, satellites=10, angle=314.4100, fixquality=1
$GPRMC,123216.000,A,4308.4630,N,07726.3680,W,14.36,306.31,040519,,,A*40
$GPGGA,123216.200,4308.4635,N,07726.3689,W,1,10,0.93,154.3,M,-34.4,M,,*54
lng=-77.439468, lat=43.141048, altitude=154.40, speed=14.36, satellites=10, angle=306.3100, fixquality=1
$GPRMC,123216.400,A,4308.4638,N,07726.3699,W,14.88,298.65,040519,,,A*46
$GPGGA,123216.600,4308.4641,N,07726.3710,W,1,10,0.93,154.2,M,-34.4,M,,*53
lng=-77.439498, lat=43.141063, altitude=154.30, speed=14.88, satellites=10, angle=298.6500, fixquality=1
$GPRMC,123216.800,A,4308.4643,N,07726.3721,W,16.02,285.40,040519,,,A*4F
$GPGGA,123217.000,4308.4645,N,07726.3733,W,1,09,0.97,154.0,M,-34.4,M,,*5F
lng=-77.439537, lat=43.141071, altitude=154.20, speed=16.02, satellites=10, angle=285.4000, fixquality=1
$GPRMC,123217.200,A,4308.4647,N,07726.3745,W,16.99,281.23,040519,,,A*41
$GPGGA,123217.400,4308.4649,N,07726.3758,W,1,09,0.97,153.8,M,-34.4,M,,*55
lng=-77.439575, lat=43.141078, altitude=154.00, speed=16.99, satellites=9, angle=281.2300, fixquality=1
$GPRMC,123217.600,A,4308.4651,N,07726.3770,W,17.64,279.09,040519,,,A*48
$GPGGA,123217.800,4308.4654,N,07726.3782,W,1,10,0.93,153.7,M,-34.4,M,,*51
lng=-77.439613, lat=43.141090, altitude=153.80, speed=17.64, satellites=9, angle=279.0900, fixquality=1
$GPRMC,123218.000,A,4308.4656,N,07726.3794,W,18.38,278.25,040519,,,A*45
$GPGGA,123218.200,4308.4659,N,07726.3808,W,1,10,0.93,153.5,M,-34.4,M,,*56
lng=-77.439659, lat=43.141098, altitude=153.70, speed=18.38, satellites=10, angle=278.2500, fixquality=1
$GPRMC,123218.400,A,4308.4661,N,07726.3822,W,18.83,278.82,040519,,,A*4A
$GPGGA,123218.600,4308.4663,N,07726.3836,W,1,10,0.93,153.4,M,-34.4,M,,*57
lng=-77.439704, lat=43.141105, altitude=153.50, speed=18.83, satellites=10, angle=278.8200, fixquality=1
$GPRMC,123218.800,A,4308.4666,N,07726.3850,W,19.17,278.50,040519,,,A*47
$GPGGA,123219.000,4308.4667,N,07726.3865,W,1,10,0.93,153.2,M,-34.4,M,,*54
lng=-77.439743, lat=43.141113, altitude=153.40, speed=19.17, satellites=10, angle=278.5000, fixquality=1
$GPRMC,123219.200,A,4308.4668,N,07726.3880,W,20.03,275.45,040519,,,A*49
$GPGGA,123219.400,4308.4670,N,07726.3895,W,1,10,0.93,153.1,M,-34.4,M,,*5A
lng=-77.439804, lat=43.141113, altitude=153.20, speed=20.03, satellites=10, angle=275.4500, fixquality=1
$GPRMC,123219.600,A,4308.4671,N,07726.3911,W,20.53,276.12,040519,,,A*48
$GPGGA,123219.800,4308.4673,N,07726.3926,W,1,09,1.06,153.0,M,-34.4,M,,*58
lng=-77.439849, lat=43.141120, altitude=153.10, speed=20.53, satellites=10, angle=276.1200, fixquality=1
$GPRMC,123220.000,A,4308.4675,N,07726.3940,W,20.53,276.18,040519,,,A*4E
$GPGGA,123220.200,4308.4677,N,07726.3955,W,1,09,1.06,152.9,M,-34.4,M,,*50
lng=-77.439903, lat=43.141120, altitude=153.00, speed=20.53, satellites=9, angle=276.1800, fixquality=1
$GPRMC,123220.400,A,4308.4679,N,07726.3970,W,20.32,276.74,040519,,,A*48
$GPGGA,123220.600,4308.4681,N,07726.3985,W,1,10,0.93,152.8,M,-34.4,M,,*54
lng=-77.439949, lat=43.141128, altitude=152.90, speed=20.32, satellites=9, angle=276.7400, fixquality=1
$GPRMC,123220.800,A,4308.4683,N,07726.4000,W,20.23,277.06,040519,,,A*4C
$GPGGA,123221.000,4308.4684,N,07726.4015,W,1,10,0.93,152.7,M,-34.4,M,,*5E
lng=-77.439994, lat=43.141136, altitude=152.80, speed=20.23, satellites=10, angle=277.0600, fixquality=1
$GPRMC,123221.200,A,4308.4686,N,07726.4030,W,20.15,276.77,040519,,,A*43
$GPGGA,123221.400,4308.4688,N,07726.4045,W,1,10,0.93,152.7,M,-34.4,M,,*53
lng=-77.440048, lat=43.141147, altitude=152.70, speed=20.15, satellites=10, angle=276.7700, fixquality=1
$GPRMC,123221.600,A,4308.4689,N,07726.4060,W,20.06,276.53,040519,,,A*49
$GPGGA,123221.800,4308.4691,N,07726.4075,W,1,10,0.93,152.7,M,-34.4,M,,*54
lng=-77.440093, lat=43.141147, altitude=152.70, speed=20.06, satellites=10, angle=276.5300, fixquality=1
$GPRMC,123222.000,A,4308.4693,N,07726.4089,W,19.81,276.83,040519,,,A*48
$GPGGA,123222.200,4308.4694,N,07726.4104,W,1,10,0.93,152.7,M,-34.4,M,,*5F
lng=-77.440147, lat=43.141155, altitude=152.70, speed=19.81, satellites=10, angle=276.8300, fixquality=1
$GPRMC,123222.400,A,4308.4696,N,07726.4119,W,19.76,277.26,040519,,,A*47
$GPGGA,123222.600,4308.4698,N,07726.4135,W,1,10,0.93,152.6,M,-34.4,M,,*54
lng=-77.440200, lat=43.141162, altitude=152.70, speed=19.76, satellites=10, angle=277.2600, fixquality=1
$GPRMC,123222.800,A,4308.4700,N,07726.4150,W,19.72,278.39,040519,,,A*4D
$GPGGA,123223.000,4308.4702,N,07726.4165,W,1,10,0.93,152.5,M,-34.4,M,,*57
lng=-77.440254, lat=43.141170, altitude=152.60, speed=19.72, satellites=10, angle=278.3900, fixquality=1
$GPRMC,123223.200,A,4308.4703,N,07726.4180,W,19.71,278.97,040519,,,A*4F
$GPGGA,123223.400,4308.4705,N,07726.4195,W,1,10,0.93,152.5,M,-34.4,M,,*5B
lng=-77.440299, lat=43.141170, altitude=152.50, speed=19.71, satellites=10, angle=278.9700, fixquality=1
$GPRMC,123223.600,A,4308.4707,N,07726.4210,W,19.38,279.36,040519,,,A*42
$GPGGA,123223.800,4308.4709,N,07726.4224,W,1,10,0.93,152.5,M,-34.4,M,,*52
lng=-77.440345, lat=43.141178, altitude=152.50, speed=19.38, satellites=10, angle=279.3600, fixquality=1
$GPRMC,123224.000,A,4308.4710,N,07726.4238,W,18.51,278.97,040519,,,A*4B
$GPGGA,123224.200,4308.4711,N,07726.4251,W,1,10,0.93,152.4,M,-34.4,M,,*55
lng=-77.440399, lat=43.141185, altitude=152.50, speed=18.51, satellites=10, angle=278.9700, fixquality=1
$GPRMC,123224.400,A,4308.4712,N,07726.4264,W,17.50,278.45,040519,,,A*45
$GPGGA,123224.600,4308.4713,N,07726.4277,W,1,10,0.93,152.3,M,-34.4,M,,*50
lng=-77.440437, lat=43.141185, altitude=152.40, speed=17.50, satellites=10, angle=278.4500, fixquality=1
$GPRMC,123224.800,A,4308.4715,N,07726.4289,W,16.46,279.13,040519,,,A*49
$GPGGA,123225.000,4308.4716,N,07726.4302,W,1,10,0.93,152.2,M,-34.4,M,,*50
lng=-77.440475, lat=43.141193, altitude=152.30, speed=16.46, satellites=10, angle=279.1300, fixquality=1
$GPRMC,123225.200,A,4308.4717,N,07726.4314,W,15.62,279.72,040519,,,A*47
$GPGGA,123225.400,4308.4718,N,07726.4325,W,1,10,0.93,152.2,M,-34.4,M,,*5F
lng=-77.440528, lat=43.141193, altitude=152.20, speed=15.62, satellites=10, angle=279.7200, fixquality=1
$GPRMC,123225.600,A,4308.4719,N,07726.4336,W,14.37,281.75,040519,,,A*4C
$GPGGA,123225.800,4308.4719,N,07726.4346,W,1,10,0.93,152.3,M,-34.4,M,,*56
lng=-77.440559, lat=43.141193, altitude=152.20, speed=14.37, satellites=10, angle=281.7500, fixquality=1
$GPRMC,123226.000,A,4308.4721,N,07726.4355,W,13.04,283.59,040519,,,A*4C
$GPGGA,123226.200,4308.4722,N,07726.4364,W,1,10,0.93,152.4,M,-34.4,M,,*50
lng=-77.440589, lat=43.141201, altitude=152.30, speed=13.04, satellites=10, angle=283.5900, fixquality=1
$GPRMC,123226.400,A,4308.4723,N,07726.4371,W,11.27,286.60,040519,,,A*40
$GPGGA,123226.600,4308.4724,N,07726.4378,W,1,09,1.06,152.4,M,-34.4,M,,*5A
lng=-77.440620, lat=43.141201, altitude=152.40, speed=11.27, satellites=10, angle=286.6000, fixquality=1
$GPRMC,123226.800,A,4308.4725,N,07726.4384,W,9.02,290.38,040519,,,A*74
$GPGGA,123227.000,4308.4726,N,07726.4388,W,1,09,1.06,152.5,M,-34.4,M,,*51
lng=-77.440643, lat=43.141212, altitude=152.40, speed=9.02, satellites=9, angle=290.3800, fixquality=1
$GPRMC,123227.200,A,4308.4727,N,07726.4392,W,7.01,290.65,040519,,,A*7F
$GPGGA,123227.400,4308.4728,N,07726.4396,W,1,09,1.06,152.5,M,-34.4,M,,*54
lng=-77.440650, lat=43.141212, altitude=152.50, speed=7.01, satellites=9, angle=290.6500, fixquality=1
$GPRMC,123227.600,A,4308.4729,N,07726.4398,W,5.23,291.92,040519,,,A*74
$GPGGA,123227.800,4308.4730,N,07726.4401,W,1,09,1.06,152.3,M,-34.4,M,,*5E
lng=-77.440666, lat=43.141212, altitude=152.50, speed=5.23, satellites=9, angle=291.9200, fixquality=1
$GPRMC,123228.000,A,4308.4731,N,07726.4402,W,3.51,295.63,040519,,,A*79
$GPGGA,123228.200,4308.4731,N,07726.4403,W,1,09,0.95,152.2,M,-34.4,M,,*52
lng=-77.440673, lat=43.141220, altitude=152.30, speed=3.51, satellites=9, angle=295.6300, fixquality=1
$GPRMC,123228.400,A,4308.4732,N,07726.4403,W,2.17,297.97,040519,,,A*75
$GPGGA,123228.600,4308.4730,N,07726.4401,W,1,09,0.95,152.1,M,-34.4,M,,*56
lng=-77.440673, lat=43.141220, altitude=152.20, speed=2.17, satellites=9, angle=297.9700, fixquality=1
$GPRMC,123228.800,A,4308.4733,N,07726.4401,W,0.04,297.97,040519,,,A*7A
$GPGGA,123229.000,4308.4733,N,07726.4400,W,1,09,0.95,153.2,M,-34.4,M,,*51
lng=-77.440666, lat=43.141220, altitude=152.10, speed=0.04, satellites=9, angle=297.9700, fixquality=1
$GPRMC,123229.200,A,4308.4733,N,07726.4400,W,0.03,297.97,040519,,,A*77
$GPGGA,123229.400,4308.4733,N,07726.4399,W,1,09,0.95,153.6,M,-34.4,M,,*56
lng=-77.440666, lat=43.141220, altitude=153.20, speed=0.03, satellites=9, angle=297.9700, fixquality=1
$GPRMC,123229.600,A,4308.4732,N,07726.4398,W,0.00,297.97,040519,,,A*77
$GPGGA,123229.800,4308.4731,N,07726.4398,W,1,09,0.95,153.7,M,-34.4,M,,*58
