Vers 60
USE_SERIAL_FEEDBACK=true
DEVELOPMENT_MODE=false
USE_RMC_ONLY=false

$GPRMC,134649.250,A,4308.3051,N,07726.2607,W,0.33,142.94,220519,,,A*7E
$GPGGA,134649.500,4308.3055,N,07726.2610,W,1,04,2.40,172.1,M,-34.4,M,,*52
lng=-77.437675, lat=43.138420, altitude=174.00, speed=0.33, satellites=4, angle=142.9400, fixquality=1
$GPRMC,134649.750,A,4308.3057,N,07726.2612,W,0.31,161.58,220519,,,A*7A
$GPGGA,134650.000,4308.3061,N,07726.2614,W,1,04,2.40,170.8,M,-34.4,M,,*57
lng=-77.437690, lat=43.138427, altitude=172.10, speed=0.31, satellites=4, angle=161.5800, fixquality=1
$GPRMC,134650.250,A,4308.3063,N,07726.2615,W,0.41,174.06,220519,,,A*7F
$GPGGA,134650.500,4308.3065,N,07726.2617,W,1,04,2.40,170.2,M,-34.4,M,,*5F
lng=-77.437698, lat=43.138435, altitude=170.80, speed=0.41, satellites=4, angle=174.0600, fixquality=1
$GPRMC,134650.750,A,4308.3066,N,07726.2618,W,0.39,156.99,220519,,,A*7B
$GPGGA,134651.000,4308.3068,N,07726.2618,W,1,04,2.40,170.3,M,-34.4,M,,*58
lng=-77.437698, lat=43.138442, altitude=170.20, speed=0.39, satellites=4, angle=156.9900, fixquality=1
$GPRMC,134651.250,A,4308.3069,N,07726.2619,W,0.49,143.55,220519,,,A*72
$GPGGA,134651.500,4308.3071,N,07726.2620,W,1,04,2.40,170.4,M,-34.4,M,,*59
lng=-77.437698, lat=43.138450, altitude=170.30, speed=0.49, satellites=4, angle=143.5500, fixquality=1
$GPRMC,134651.750,A,4308.3073,N,07726.2621,W,0.49,144.89,220519,,,A*71
$GPGGA,134652.000,4308.3077,N,07726.2622,W,1,04,2.40,171.3,M,-34.4,M,,*5D
lng=-77.437705, lat=43.138450, altitude=170.40, speed=0.49, satellites=4, angle=144.8900, fixquality=1
$GPRMC,134652.250,A,4308.3080,N,07726.2623,W,0.36,145.65,220519,,,A*72
$GPGGA,134652.500,4308.3082,N,07726.2623,W,1,04,2.40,172.0,M,-34.4,M,,*53
lng=-77.437705, lat=43.138469, altitude=171.30, speed=0.36, satellites=4, angle=145.6500, fixquality=1
$GPRMC,134652.750,A,4308.3083,N,07726.2624,W,0.33,152.42,220519,,,A*75
$GPGGA,134653.000,4308.3084,N,07726.2624,W,1,04,2.40,172.5,M,-34.4,M,,*53
lng=-77.437705, lat=43.138469, altitude=172.00, speed=0.33, satellites=4, angle=152.4200, fixquality=1
$GPRMC,134653.250,A,4308.3085,N,07726.2625,W,0.34,159.96,220519,,,A*73
$GPGGA,134653.500,4308.3086,N,07726.2625,W,1,04,2.40,173.1,M,-34.4,M,,*50
lng=-77.437713, lat=43.138477, altitude=172.50, speed=0.34, satellites=4, angle=159.9600, fixquality=1
$GPRMC,134653.750,A,4308.3087,N,07726.2626,W,0.29,176.03,220519,,,A*7A
$GPGGA,134654.000,4308.3088,N,07726.2627,W,1,04,2.40,173.5,M,-34.4,M,,*5A
lng=-77.437713, lat=43.138477, altitude=173.10, speed=0.29, satellites=4, angle=176.0300, fixquality=1
$GPRMC,134654.250,A,4308.3088,N,07726.2636,W,0.18,179.03,220519,,,A*7B
$GPGGA,134654.500,4308.3086,N,07726.2641,W,1,05,1.95,160.8,M,-34.4,M,,*54
lng=-77.437728, lat=43.138477, altitude=173.50, speed=0.18, satellites=4, angle=179.0300, fixquality=1
$GPRMC,134654.750,A,4308.3089,N,07726.2645,W,0.16,170.84,220519,,,A*73
$GPGGA,134655.000,4308.3090,N,07726.2648,W,1,05,1.95,156.7,M,-34.4,M,,*54
lng=-77.437744, lat=43.138484, altitude=160.80, speed=0.16, satellites=5, angle=170.8400, fixquality=1
$GPRMC,134655.250,A,4308.3091,N,07726.2650,W,0.11,190.54,220519,,,A*7E
$GPGGA,134655.500,4308.3093,N,07726.2651,W,1,05,1.95,155.1,M,-34.4,M,,*5F
lng=-77.437751, lat=43.138484, altitude=156.70, speed=0.11, satellites=5, angle=190.5400, fixquality=1
$GPRMC,134655.750,A,4308.3094,N,07726.2653,W,0.08,195.08,220519,,,A*79
$GPGGA,134656.000,4308.3095,N,07726.2654,W,1,05,1.95,154.4,M,-34.4,M,,*5E
lng=-77.437751, lat=43.138492, altitude=155.10, speed=0.08, satellites=5, angle=195.0800, fixquality=1
$GPRMC,134656.250,A,4308.3096,N,07726.2655,W,0.12,175.97,220519,,,A*78
$GPGGA,134656.500,4308.3099,N,07726.2656,W,1,05,1.95,154.3,M,-34.4,M,,*52
lng=-77.437759, lat=43.138492, altitude=154.40, speed=0.12, satellites=5, angle=175.9700, fixquality=1
$GPRMC,134656.750,A,4308.3099,N,07726.2657,W,0.06,177.94,220519,,,A*74
$GPGGA,134657.000,4308.3101,N,07726.2658,W,1,05,1.95,154.3,M,-34.4,M,,*58
lng=-77.437759, lat=43.138500, altitude=154.30, speed=0.06, satellites=5, angle=177.9400, fixquality=1
$GPRMC,134657.250,A,4308.3102,N,07726.2658,W,0.02,256.28,220519,,,A*7F
$GPGGA,134657.500,4308.3103,N,07726.2659,W,1,05,1.95,154.6,M,-34.4,M,,*5B
lng=-77.437759, lat=43.138500, altitude=154.30, speed=0.02, satellites=5, angle=256.2800, fixquality=1
$GPRMC,134657.750,A,4308.3104,N,07726.2660,W,0.03,224.23,220519,,,A*78
$GPGGA,134658.000,4308.3105,N,07726.2661,W,1,05,1.95,155.0,M,-34.4,M,,*5B
lng=-77.437767, lat=43.138507, altitude=154.60, speed=0.03, satellites=5, angle=224.2300, fixquality=1
$GPRMC,134658.250,A,4308.3106,N,07726.2662,W,0.02,199.86,220519,,,A*79
$GPGGA,134658.500,4308.3108,N,07726.2662,W,1,05,1.95,155.7,M,-34.4,M,,*57
lng=-77.437767, lat=43.138507, altitude=155.00, speed=0.02, satellites=5, angle=199.8600, fixquality=1
$GPRMC,134658.750,A,4308.3109,N,07726.2663,W,0.03,197.63,220519,,,A*76
$GPGGA,134659.000,4308.3110,N,07726.2664,W,1,05,1.95,156.3,M,-34.4,M,,*5B
lng=-77.437767, lat=43.138515, altitude=155.70, speed=0.03, satellites=5, angle=197.6300, fixquality=1
$GPRMC,134659.250,A,4308.3111,N,07726.2665,W,0.04,174.63,220519,,,A*77
$GPGGA,134659.500,4308.3112,N,07726.2666,W,1,05,1.95,157.0,M,-34.4,M,,*5C
lng=-77.437774, lat=43.138515, altitude=156.30, speed=0.04, satellites=5, angle=174.6300, fixquality=1
$GPRMC,134659.750,A,4308.3112,N,07726.2666,W,0.12,176.37,220519,,,A*76
$GPGGA,134700.000,4308.3114,N,07726.2667,W,1,05,1.95,157.7,M,-34.4,M,,*54
lng=-77.437774, lat=43.138515, altitude=157.00, speed=0.12, satellites=5, angle=176.3700, fixquality=1
$GPRMC,134700.250,A,4308.3095,N,07726.2665,W,0.08,183.38,220519,,,A*7D
$GPGGA,134700.500,4308.3084,N,07726.2664,W,1,06,1.38,155.0,M,-34.4,M,,*5B
lng=-77.437774, lat=43.138492, altitude=157.70, speed=0.08, satellites=5, angle=183.3800, fixquality=1
$GPRMC,134700.750,A,4308.3076,N,07726.2663,W,0.01,309.41,220519,,,A*74
$GPGGA,134701.000,4308.3070,N,07726.2662,W,1,06,1.38,153.9,M,-34.4,M,,*5D
lng=-77.437767, lat=43.138462, altitude=155.00, speed=0.01, satellites=6, angle=309.4100, fixquality=1
$GPRMC,134701.250,A,4308.3067,N,07726.2662,W,0.01,337.81,220519,,,A*70
$GPGGA,134701.500,4308.3064,N,07726.2663,W,1,06,1.38,153.7,M,-34.4,M,,*52
lng=-77.437767, lat=43.138442, altitude=153.90, speed=0.01, satellites=6, angle=337.8100, fixquality=1
$GPRMC,134701.750,A,4308.3061,N,07726.2663,W,0.06,210.98,220519,,,A*79
$GPGGA,134702.000,4308.3060,N,07726.2663,W,1,06,1.38,153.9,M,-34.4,M,,*5E
lng=-77.437767, lat=43.138435, altitude=153.70, speed=0.06, satellites=6, angle=210.9800, fixquality=1
$GPRMC,134702.250,A,4308.3059,N,07726.2663,W,0.05,185.43,220519,,,A*7E
$GPGGA,134702.500,4308.3057,N,07726.2664,W,1,06,1.38,154.2,M,-34.4,M,,*54
lng=-77.437767, lat=43.138427, altitude=153.90, speed=0.05, satellites=6, angle=185.4300, fixquality=1
$GPRMC,134702.750,A,4308.3056,N,07726.2664,W,0.09,38.40,220519,,,A*4B
$GPGGA,134703.000,4308.3056,N,07726.2665,W,1,06,1.38,154.7,M,-34.4,M,,*55
lng=-77.437774, lat=43.138427, altitude=154.20, speed=0.09, satellites=6, angle=38.4000, fixquality=1
$GPRMC,134703.250,A,4308.3055,N,07726.2665,W,0.03,347.53,220519,,,A*7E
$GPGGA,134703.500,4308.3054,N,07726.2665,W,1,06,1.58,155.0,M,-34.4,M,,*52
lng=-77.437774, lat=43.138427, altitude=154.70, speed=0.03, satellites=6, angle=347.5300, fixquality=1
$GPRMC,134703.750,A,4308.3054,N,07726.2666,W,0.02,301.42,220519,,,A*7A
$GPGGA,134704.000,4308.3054,N,07726.2667,W,1,06,1.38,155.6,M,-34.4,M,,*52
lng=-77.437774, lat=43.138420, altitude=155.00, speed=0.02, satellites=6, angle=301.4200, fixquality=1
$GPRMC,134704.250,A,4308.3054,N,07726.2667,W,0.05,277.19,220519,,,A*70
$GPGGA,134704.500,4308.3054,N,07726.2668,W,1,06,1.38,156.0,M,-34.4,M,,*5D
lng=-77.437774, lat=43.138420, altitude=155.60, speed=0.05, satellites=6, angle=277.1900, fixquality=1
$GPRMC,134704.750,A,4308.3054,N,07726.2668,W,0.01,131.07,220519,,,A*70
$GPGGA,134705.000,4308.3053,N,07726.2668,W,1,06,1.38,156.2,M,-34.4,M,,*5C
lng=-77.437774, lat=43.138420, altitude=156.00, speed=0.01, satellites=6, angle=131.0700, fixquality=1
$GPRMC,134705.250,A,4308.3053,N,07726.2669,W,0.02,340.29,220519,,,A*79
$GPGGA,134705.500,4308.3053,N,07726.2669,W,1,06,1.38,156.4,M,-34.4,M,,*5E
lng=-77.437782, lat=43.138420, altitude=156.20, speed=0.02, satellites=6, angle=340.2900, fixquality=1
$GPRMC,134705.750,A,4308.3052,N,07726.2669,W,0.09,212.52,220519,,,A*7C
$GPGGA,134706.000,4308.3052,N,07726.2670,W,1,06,1.38,156.4,M,-34.4,M,,*51
lng=-77.437782, lat=43.138420, altitude=156.40, speed=0.09, satellites=6, angle=212.5200, fixquality=1
$GPRMC,134706.250,A,4308.3052,N,07726.2670,W,0.02,171.22,220519,,,A*78
$GPGGA,134706.500,4308.3051,N,07726.2670,W,1,06,1.38,156.5,M,-34.4,M,,*56
lng=-77.437782, lat=43.138420, altitude=156.40, speed=0.02, satellites=6, angle=171.2200, fixquality=1
$GPRMC,134706.750,A,4308.3051,N,07726.2670,W,0.03,339.72,220519,,,A*74
$GPGGA,134707.000,4308.3050,N,07726.2670,W,1,06,1.38,156.5,M,-34.4,M,,*53
lng=-77.437782, lat=43.138420, altitude=156.50, speed=0.03, satellites=6, angle=339.7200, fixquality=1
$GPRMC,134707.250,A,4308.3050,N,07726.2671,W,0.03,333.90,220519,,,A*76
$GPGGA,134707.500,4308.3050,N,07726.2671,W,1,06,1.38,156.5,M,-34.4,M,,*57
lng=-77.437782, lat=43.138420, altitude=156.50, speed=0.03, satellites=6, angle=333.9000, fixquality=1
$GPRMC,134707.750,A,4308.3050,N,07726.2671,W,0.18,235.10,220519,,,A*76
$GPGGA,134708.000,4308.3049,N,07726.2671,W,1,05,1.59,156.6,M,-34.4,M,,*52
lng=-77.437782, lat=43.138420, altitude=156.50, speed=0.18, satellites=6, angle=235.1000, fixquality=1
$GPRMC,134708.250,A,4308.3049,N,07726.2671,W,0.11,319.83,220519,,,A*78
$GPGGA,134708.500,4308.3049,N,07726.2672,W,1,05,1.59,156.7,M,-34.4,M,,*55
lng=-77.437782, lat=43.138412, altitude=156.60, speed=0.11, satellites=5, angle=319.8300, fixquality=1
$GPRMC,134708.750,A,4308.3049,N,07726.2672,W,0.11,67.94,220519,,,A*42
$GPGGA,134709.000,4308.3048,N,07726.2672,W,1,06,1.38,156.8,M,-34.4,M,,*5B
lng=-77.437782, lat=43.138412, altitude=156.70, speed=0.11, satellites=5, angle=67.9400, fixquality=1
$GPRMC,134709.250,A,4308.3048,N,07726.2672,W,0.28,23.87,220519,,,A*4F
$GPGGA,134709.500,4308.3048,N,07726.2672,W,1,06,1.38,156.8,M,-34.4,M,,*5E
lng=-77.437782, lat=43.138412, altitude=156.80, speed=0.28, satellites=6, angle=23.8700, fixquality=1
$GPRMC,134709.750,A,4308.3047,N,07726.2672,W,0.15,58.44,220519,,,A*48
$GPGGA,134710.000,4308.3048,N,07726.2671,W,1,06,1.38,156.8,M,-34.4,M,,*50
lng=-77.437782, lat=43.138412, altitude=156.80, speed=0.15, satellites=6, angle=58.4400, fixquality=1
$GPRMC,134710.250,A,4308.3048,N,07726.2671,W,0.20,69.02,220519,,,A*4F
$GPGGA,134710.500,4308.3048,N,07726.2671,W,1,06,1.38,156.8,M,-34.4,M,,*55
lng=-77.437782, lat=43.138412, altitude=156.80, speed=0.20, satellites=6, angle=69.0200, fixquality=1
$GPRMC,134710.750,A,4308.3048,N,07726.2671,W,0.16,64.64,220519,,,A*42
$GPGGA,134711.000,4308.3048,N,07726.2671,W,1,06,1.38,156.8,M,-34.4,M,,*51
lng=-77.437782, lat=43.138412, altitude=156.80, speed=0.16, satellites=6, angle=64.6400, fixquality=1
$GPRMC,134711.250,A,4308.3048,N,07726.2671,W,0.20,83.61,220519,,,A*4F
$GPGGA,134711.500,4308.3048,N,07726.2671,W,1,06,1.38,156.8,M,-34.4,M,,*54
lng=-77.437782, lat=43.138412, altitude=156.80, speed=0.20, satellites=6, angle=83.6100, fixquality=1
$GPRMC,134711.750,A,4308.3048,N,07726.2671,W,0.19,74.60,220519,,,A*49
$GPGGA,134712.000,4308.3048,N,07726.2671,W,1,06,1.38,156.8,M,-34.4,M,,*52
lng=-77.437782, lat=43.138412, altitude=156.80, speed=0.19, satellites=6, angle=74.6000, fixquality=1
$GPRMC,134712.250,A,4308.3048,N,07726.2671,W,0.16,84.84,220519,,,A*45
$GPGGA,134712.500,4308.3048,N,07726.2671,W,1,06,1.38,157.0,M,-34.4,M,,*5E
lng=-77.437782, lat=43.138412, altitude=156.80, speed=0.16, satellites=6, angle=84.8400, fixquality=1
$GPRMC,134712.750,A,4308.3048,N,07726.2671,W,0.12,85.60,220519,,,A*4F
$GPGGA,134713.000,4308.3048,N,07726.2671,W,1,06,1.38,157.1,M,-34.4,M,,*5B
lng=-77.437782, lat=43.138412, altitude=157.00, speed=0.12, satellites=6, angle=85.6000, fixquality=1
$GPRMC,134713.250,A,4308.3048,N,07726.2671,W,0.11,84.19,220519,,,A*47
$GPGGA,134713.500,4308.3049,N,07726.2671,W,1,06,1.38,157.2,M,-34.4,M,,*5C
lng=-77.437782, lat=43.138412, altitude=157.10, speed=0.11, satellites=6, angle=84.1900, fixquality=1
$GPRMC,134713.750,A,4308.3049,N,07726.2671,W,0.11,24.10,220519,,,A*40
$GPGGA,134714.000,4308.3050,N,07726.2671,W,1,06,1.38,157.3,M,-34.4,M,,*57
lng=-77.437782, lat=43.138412, altitude=157.20, speed=0.11, satellites=6, angle=24.1000, fixquality=1
$GPRMC,134714.250,A,4308.3050,N,07726.2671,W,0.15,2.77,220519,,,A*7B
$GPGGA,134714.500,4308.3050,N,07726.2671,W,1,06,1.58,157.5,M,-34.4,M,,*52
lng=-77.437782, lat=43.138420, altitude=157.30, speed=0.15, satellites=6, angle=2.7700, fixquality=1
$GPRMC,134714.750,A,4308.3050,N,07726.2671,W,0.09,39.39,220519,,,A*41
$GPGGA,134715.000,4308.3051,N,07726.2672,W,1,06,1.38,157.7,M,-34.4,M,,*50
lng=-77.437782, lat=43.138420, altitude=157.50, speed=0.09, satellites=6, angle=39.3900, fixquality=1
$GPRMC,134715.250,A,4308.3051,N,07726.2672,W,0.04,132.21,220519,,,A*79
$GPGGA,134715.500,4308.3051,N,07726.2672,W,1,06,1.38,157.8,M,-34.4,M,,*5A
lng=-77.437782, lat=43.138420, altitude=157.70, speed=0.04, satellites=6, angle=132.2100, fixquality=1
$GPRMC,134715.750,A,4308.3051,N,07726.2672,W,0.08,110.44,220519,,,A*73
$GPGGA,134716.000,4308.3051,N,07726.2672,W,1,06,1.38,157.9,M,-34.4,M,,*5D
lng=-77.437782, lat=43.138420, altitude=157.80, speed=0.08, satellites=6, angle=110.4400, fixquality=1
$GPRMC,134716.250,A,4308.3051,N,07726.2671,W,0.11,104.22,220519,,,A*7B
$GPGGA,134716.500,4308.3051,N,07726.2671,W,1,06,1.38,157.9,M,-34.4,M,,*5B
lng=-77.437782, lat=43.138420, altitude=157.90, speed=0.11, satellites=6, angle=104.2200, fixquality=1
$GPRMC,134716.750,A,4308.3051,N,07726.2671,W,0.12,111.30,220519,,,A*7A
$GPGGA,134717.000,4308.3052,N,07726.2672,W,1,06,1.38,158.0,M,-34.4,M,,*59
lng=-77.437782, lat=43.138420, altitude=157.90, speed=0.12, satellites=6, angle=111.3000, fixquality=1
$GPRMC,134717.250,A,4308.3052,N,07726.2672,W,0.07,336.41,220519,,,A*7B
$GPGGA,134717.500,4308.3052,N,07726.2672,W,1,06,1.38,158.1,M,-34.4,M,,*5D
lng=-77.437782, lat=43.138420, altitude=158.00, speed=0.07, satellites=6, angle=336.4100, fixquality=1
$GPRMC,134717.750,A,4308.3052,N,07726.2673,W,0.04,310.60,220519,,,A*7B
$GPGGA,134718.000,4308.3052,N,07726.2673,W,1,06,1.38,158.1,M,-34.4,M,,*56
lng=-77.437782, lat=43.138420, altitude=158.10, speed=0.04, satellites=6, angle=310.6000, fixquality=1
$GPRMC,134718.250,A,4308.3052,N,07726.2673,W,0.11,232.97,220519,,,A*7C
$GPGGA,134718.500,4308.3052,N,07726.2674,W,1,06,1.38,158.2,M,-34.4,M,,*57
lng=-77.437782, lat=43.138420, altitude=158.10, speed=0.11, satellites=6, angle=232.9700, fixquality=1
$GPRMC,134718.750,A,4308.3052,N,07726.2674,W,0.13,225.40,220519,,,A*70
$GPGGA,134719.000,4308.3052,N,07726.2674,W,1,06,1.38,158.2,M,-34.4,M,,*53
lng=-77.437789, lat=43.138420, altitude=158.20, speed=0.13, satellites=6, angle=225.4000, fixquality=1
$GPRMC,134719.250,A,4308.3053,N,07726.2674,W,0.06,281.64,220519,,,A*79
$GPGGA,134719.500,4308.3053,N,07726.2674,W,1,06,1.38,158.3,M,-34.4,M,,*56
lng=-77.437789, lat=43.138420, altitude=158.20, speed=0.06, satellites=6, angle=281.6400, fixquality=1
$GPRMC,134719.750,A,4308.3053,N,07726.2674,W,0.06,242.36,220519,,,A*74
$GPGGA,134720.000,4308.3053,N,07726.2674,W,1,06,1.38,158.3,M,-34.4,M,,*59
lng=-77.437789, lat=43.138420, altitude=158.30, speed=0.06, satellites=6, angle=242.3600, fixquality=1
$GPRMC,134720.250,A,4308.3053,N,07726.2674,W,0.05,192.15,220519,,,A*77
$GPGGA,134720.500,4308.3053,N,07726.2674,W,1,06,1.38,158.2,M,-34.4,M,,*5D
lng=-77.437789, lat=43.138420, altitude=158.30, speed=0.05, satellites=6, angle=192.1500, fixquality=1
$GPRMC,134720.750,A,4308.3053,N,07726.2674,W,0.04,234.92,220519,,,A*73
$GPGGA,134721.000,4308.3053,N,07726.2674,W,1,06,1.38,158.2,M,-34.4,M,,*59
lng=-77.437789, lat=43.138420, altitude=158.20, speed=0.04, satellites=6, angle=234.9200, fixquality=1
$GPRMC,134721.250,A,4308.3053,N,07726.2673,W,0.04,141.27,220519,,,A*7F
$GPGGA,134721.500,4308.3054,N,07726.2673,W,1,06,1.38,158.1,M,-34.4,M,,*5F
lng=-77.437782, lat=43.138420, altitude=158.20, speed=0.04, satellites=6, angle=141.2700, fixquality=1
$GPRMC,134721.750,A,4308.3054,N,07726.2673,W,0.03,125.83,220519,,,A*76
$GPGGA,134722.000,4308.3054,N,07726.2673,W,1,06,1.38,158.1,M,-34.4,M,,*59
lng=-77.437782, lat=43.138420, altitude=158.10, speed=0.03, satellites=6, angle=125.8300, fixquality=1
$GPRMC,134722.250,A,4308.3054,N,07726.2673,W,0.15,350.75,220519,,,A*7E
$GPGGA,134722.500,4308.3054,N,07726.2673,W,1,06,1.58,158.1,M,-34.4,M,,*5A
lng=-77.437782, lat=43.138420, altitude=158.10, speed=0.15, satellites=6, angle=350.7500, fixquality=1
$GPRMC,134722.750,A,4308.3054,N,07726.2673,W,0.17,8.44,220519,,,A*75
$GPGGA,134723.000,4308.3054,N,07726.2673,W,1,06,1.58,158.1,M,-34.4,M,,*5E
lng=-77.437782, lat=43.138420, altitude=158.10, speed=0.17, satellites=6, angle=8.4400, fixquality=1
$GPRMC,134723.250,A,4308.3054,N,07726.2673,W,0.06,72.35,220519,,,A*4A
$GPGGA,134723.500,4308.3054,N,07726.2673,W,1,06,1.38,158.1,M,-34.4,M,,*5D
lng=-77.437782, lat=43.138420, altitude=158.10, speed=0.06, satellites=6, angle=72.3500, fixquality=1
$GPRMC,134723.750,A,4308.3054,N,07726.2673,W,0.12,327.42,220519,,,A*79
$GPGGA,134724.000,4308.3054,N,07726.2673,W,1,06,1.38,158.1,M,-34.4,M,,*5F
lng=-77.437782, lat=43.138420, altitude=158.10, speed=0.12, satellites=6, angle=327.4200, fixquality=1
$GPRMC,134724.250,A,4308.3054,N,07726.2673,W,0.06,323.42,220519,,,A*7A
$GPGGA,134724.500,4308.3054,N,07726.2673,W,1,07,1.09,158.1,M,-34.4,M,,*59
lng=-77.437782, lat=43.138420, altitude=158.10, speed=0.06, satellites=6, angle=323.4200, fixquality=1
$GPRMC,134724.750,A,4308.3054,N,07726.2673,W,0.04,335.71,220519,,,A*7A
$GPGGA,134725.000,4308.3054,N,07726.2673,W,1,07,1.09,158.1,M,-34.4,M,,*5D
lng=-77.437782, lat=43.138420, altitude=158.10, speed=0.04, satellites=7, angle=335.7100, fixquality=1
$GPRMC,134725.250,A,4308.3054,N,07726.2673,W,0.04,206.62,220519,,,A*7D
$GPGGA,134725.500,4308.3054,N,07726.2673,W,1,07,1.09,158.1,M,-34.4,M,,*58
lng=-77.437782, lat=43.138420, altitude=158.10, speed=0.04, satellites=7, angle=206.6200, fixquality=1
$GPRMC,134725.750,A,4308.3054,N,07726.2673,W,0.15,235.51,220519,,,A*78
$GPGGA,134726.000,4308.3054,N,07726.2674,W,1,07,1.09,158.1,M,-34.4,M,,*59
lng=-77.437782, lat=43.138420, altitude=158.10, speed=0.15, satellites=7, angle=235.5100, fixquality=1
$GPRMC,134726.250,A,4308.3054,N,07726.2674,W,0.05,251.89,220519,,,A*7F
$GPGGA,134726.500,4308.3054,N,07726.2674,W,1,07,1.09,158.1,M,-34.4,M,,*5C
lng=-77.437789, lat=43.138420, altitude=158.10, speed=0.05, satellites=7, angle=251.8900, fixquality=1
$GPRMC,134726.750,A,4308.3054,N,07726.2674,W,0.35,356.57,220519,,,A*7C
$GPGGA,134727.000,4308.3055,N,07726.2674,W,1,07,1.11,158.1,M,-34.4,M,,*50
lng=-77.437789, lat=43.138420, altitude=158.10, speed=0.35, satellites=7, angle=356.5700, fixquality=1
$GPRMC,134727.250,A,4308.3057,N,07726.2673,W,1.15,357.58,220519,,,A*71
$GPGGA,134727.500,4308.3060,N,07726.2672,W,1,07,1.11,157.8,M,-34.4,M,,*53
lng=-77.437782, lat=43.138427, altitude=158.10, speed=1.15, satellites=7, angle=357.5800, fixquality=1
$GPRMC,134727.750,A,4308.3063,N,07726.2671,W,2.62,352.62,220519,,,A*7E
$GPGGA,134728.000,4308.3066,N,07726.2671,W,1,07,1.11,157.6,M,-34.4,M,,*52
lng=-77.437782, lat=43.138435, altitude=157.80, speed=2.62, satellites=7, angle=352.6200, fixquality=1
$GPRMC,134728.250,A,4308.3069,N,07726.2671,W,4.67,357.29,220519,,,A*77
$GPGGA,134728.500,4308.3073,N,07726.2671,W,1,07,1.11,157.5,M,-34.4,M,,*50
lng=-77.437782, lat=43.138450, altitude=157.60, speed=4.67, satellites=7, angle=357.2900, fixquality=1
$GPRMC,134728.750,A,4308.3076,N,07726.2671,W,5.25,2.30,220519,,,A*70
$GPGGA,134729.000,4308.3080,N,07726.2671,W,1,07,1.11,157.4,M,-34.4,M,,*59
lng=-77.437782, lat=43.138462, altitude=157.50, speed=5.25, satellites=7, angle=2.3000, fixquality=1
$GPRMC,134729.250,A,4308.3083,N,07726.2670,W,5.58,3.48,220519,,,A*7B
$GPGGA,134729.500,4308.3087,N,07726.2670,W,1,07,1.11,157.2,M,-34.4,M,,*5C
lng=-77.437782, lat=43.138469, altitude=157.40, speed=5.58, satellites=7, angle=3.4800, fixquality=1
$GPRMC,134729.750,A,4308.3091,N,07726.2670,W,5.68,3.18,220519,,,A*7B
$GPGGA,134730.000,4308.3095,N,07726.2670,W,1,07,1.11,157.2,M,-34.4,M,,*52
lng=-77.437782, lat=43.138484, altitude=157.20, speed=5.68, satellites=7, angle=3.1800, fixquality=1
$GPRMC,134730.250,A,4308.3099,N,07726.2670,W,5.77,356.59,220519,,,A*76
$GPGGA,134730.500,4308.3102,N,07726.2670,W,1,07,1.11,157.1,M,-34.4,M,,*5B
lng=-77.437782, lat=43.138500, altitude=157.20, speed=5.77, satellites=7, angle=356.5900, fixquality=1
$GPRMC,134730.750,A,4308.3107,N,07726.2671,W,5.97,358.15,220519,,,A*7C
$GPGGA,134731.000,4308.3111,N,07726.2671,W,1,07,1.11,157.1,M,-34.4,M,,*5C
lng=-77.437782, lat=43.138507, altitude=157.10, speed=5.97, satellites=7, angle=358.1500, fixquality=1
$GPRMC,134731.250,A,4308.3115,N,07726.2672,W,5.92,353.74,220519,,,A*71
$GPGGA,134731.500,4308.3118,N,07726.2673,W,1,07,1.11,157.2,M,-34.4,M,,*51
lng=-77.437782, lat=43.138526, altitude=157.10, speed=5.92, satellites=7, angle=353.7400, fixquality=1
$GPRMC,134731.750,A,4308.3122,N,07726.2674,W,5.72,352.87,220519,,,A*75
$GPGGA,134732.000,4308.3126,N,07726.2675,W,1,07,1.11,157.2,M,-34.4,M,,*5C
lng=-77.437789, lat=43.138534, altitude=157.20, speed=5.72, satellites=7, angle=352.8700, fixquality=1
$GPRMC,134732.250,A,4308.3130,N,07726.2676,W,5.32,355.74,220519,,,A*7D
$GPGGA,134732.500,4308.3133,N,07726.2677,W,1,07,1.11,157.2,M,-34.4,M,,*5F
lng=-77.437789, lat=43.138549, altitude=157.20, speed=5.32, satellites=7, angle=355.7400, fixquality=1
$GPRMC,134732.750,A,4308.3135,N,07726.2677,W,3.98,358.35,220519,,,A*72
$GPGGA,134733.000,4308.3137,N,07726.2677,W,1,07,1.11,157.3,M,-34.4,M,,*5E
lng=-77.437789, lat=43.138557, altitude=157.20, speed=3.98, satellites=7, angle=358.3500, fixquality=1
$GPRMC,134733.250,A,4308.3139,N,07726.2677,W,2.95,8.65,220519,,,A*75
$GPGGA,134733.500,4308.3140,N,07726.2677,W,1,07,1.11,157.3,M,-34.4,M,,*5B
lng=-77.437789, lat=43.138565, altitude=157.30, speed=2.95, satellites=7, angle=8.6500, fixquality=1
$GPRMC,134733.750,A,4308.3141,N,07726.2677,W,2.06,4.75,220519,,,A*78
$GPGGA,134734.000,4308.3142,N,07726.2677,W,1,07,1.11,157.3,M,-34.4,M,,*5B
lng=-77.437789, lat=43.138565, altitude=157.30, speed=2.06, satellites=7, angle=4.7500, fixquality=1
$GPRMC,134734.250,A,4308.3142,N,07726.2677,W,1.28,11.32,220519,,,A*41
$GPGGA,134734.500,4308.3143,N,07726.2678,W,1,07,1.11,157.4,M,-34.4,M,,*57
lng=-77.437789, lat=43.138565, altitude=157.30, speed=1.28, satellites=7, angle=11.3200, fixquality=1
$GPRMC,134734.750,A,4308.3144,N,07726.2678,W,1.11,353.19,220519,,,A*7B
$GPGGA,134735.000,4308.3145,N,07726.2678,W,1,07,1.11,157.4,M,-34.4,M,,*55
lng=-77.437789, lat=43.138572, altitude=157.40, speed=1.11, satellites=7, angle=353.1900, fixquality=1
$GPRMC,134735.250,A,4308.3147,N,07726.2679,W,1.69,355.70,220519,,,A*7B
$GPGGA,134735.500,4308.3149,N,07726.2679,W,1,07,1.11,157.5,M,-34.4,M,,*5C
lng=-77.437797, lat=43.138584, altitude=157.40, speed=1.69, satellites=7, angle=355.7000, fixquality=1
$GPRMC,134735.750,A,4308.3151,N,07726.2679,W,2.91,357.02,220519,,,A*7A
$GPGGA,134736.000,4308.3154,N,07726.2678,W,1,07,1.11,157.5,M,-34.4,M,,*57
lng=-77.437797, lat=43.138584, altitude=157.50, speed=2.91, satellites=7, angle=357.0200, fixquality=1
$GPRMC,134736.250,A,4308.3156,N,07726.2676,W,4.29,20.83,220519,,,A*4B
$GPGGA,134736.500,4308.3159,N,07726.2674,W,1,07,1.11,157.5,M,-34.4,M,,*53
lng=-77.437789, lat=43.138591, altitude=157.50, speed=4.29, satellites=7, angle=20.8300, fixquality=1
$GPRMC,134736.750,A,4308.3162,N,07726.2672,W,4.69,25.50,220519,,,A*42
$GPGGA,134737.000,4308.3165,N,07726.2670,W,1,07,1.11,157.5,M,-34.4,M,,*5C
lng=-77.437782, lat=43.138607, altitude=157.50, speed=4.69, satellites=7, angle=25.5000, fixquality=1
$GPRMC,134737.250,A,4308.3167,N,07726.2667,W,4.41,33.74,220519,,,A*4C
$GPGGA,134737.500,4308.3169,N,07726.2664,W,1,07,1.11,157.4,M,-34.4,M,,*51
lng=-77.437774, lat=43.138614, altitude=157.50, speed=4.41, satellites=7, angle=33.7400, fixquality=1
$GPRMC,134737.750,A,4308.3172,N,07726.2662,W,4.39,34.58,220519,,,A*4E
$GPGGA,134738.000,4308.3174,N,07726.2659,W,1,07,1.11,157.4,M,-34.4,M,,*59
lng=-77.437767, lat=43.138622, altitude=157.40, speed=4.39, satellites=7, angle=34.5800, fixquality=1
$GPRMC,134738.250,A,4308.3175,N,07726.2656,W,3.88,44.14,220519,,,A*46
$GPGGA,134738.500,4308.3176,N,07726.2652,W,1,07,1.09,157.3,M,-34.4,M,,*5B
lng=-77.437759, lat=43.138622, altitude=157.40, speed=3.88, satellites=7, angle=44.1400, fixquality=1
$GPRMC,134738.750,A,4308.3176,N,07726.2648,W,3.23,67.49,220519,,,A*47
$GPGGA,134739.000,4308.3176,N,07726.2646,W,1,07,1.09,157.2,M,-34.4,M,,*5B
lng=-77.437744, lat=43.138622, altitude=157.30, speed=3.23, satellites=7, angle=67.4900, fixquality=1
$GPRMC,134739.250,A,4308.3177,N,07726.2643,W,2.16,74.67,220519,,,A*40
$GPGGA,134739.500,4308.3177,N,07726.2641,W,1,07,1.09,157.1,M,-34.4,M,,*5B
lng=-77.437736, lat=43.138629, altitude=157.20, speed=2.16, satellites=7, angle=74.6700, fixquality=1
$GPRMC,134739.750,A,4308.3177,N,07726.2639,W,1.64,81.08,220519,,,A*4D
$GPGGA,134740.000,4308.3177,N,07726.2638,W,1,07,1.09,157.1,M,-34.4,M,,*5E
lng=-77.437728, lat=43.138629, altitude=157.10, speed=1.64, satellites=7, angle=81.0800, fixquality=1
$GPRMC,134740.250,A,4308.3178,N,07726.2638,W,0.91,60.87,220519,,,A*4B
$GPGGA,134740.500,4308.3178,N,07726.2638,W,1,07,1.09,157.1,M,-34.4,M,,*54
lng=-77.437728, lat=43.138629, altitude=157.10, speed=0.91, satellites=7, angle=60.8700, fixquality=1
$GPRMC,134740.750,A,4308.3178,N,07726.2639,W,0.21,331.24,220519,,,A*7A
$GPGGA,134741.000,4308.3177,N,07726.2642,W,1,07,1.09,157.0,M,-34.4,M,,*53
lng=-77.437728, lat=43.138629, altitude=157.10, speed=0.21, satellites=7, angle=331.2400, fixquality=1
$GPRMC,134741.250,A,4308.3176,N,07726.2644,W,1.30,259.62,220519,,,A*76
$GPGGA,134741.500,4308.3176,N,07726.2647,W,1,07,1.09,156.9,M,-34.4,M,,*5A
lng=-77.437736, lat=43.138622, altitude=157.00, speed=1.30, satellites=7, angle=259.6200, fixquality=1
$GPRMC,134741.750,A,4308.3175,N,07726.2650,W,2.52,253.54,220519,,,A*7D
$GPGGA,134742.000,4308.3174,N,07726.2654,W,1,07,1.09,156.9,M,-34.4,M,,*5C
lng=-77.437751, lat=43.138622, altitude=156.90, speed=2.52, satellites=7, angle=253.5400, fixquality=1
$GPRMC,134742.250,A,4308.3173,N,07726.2658,W,4.54,255.06,220519,,,A*74
$GPGGA,134742.500,4308.3173,N,07726.2663,W,1,07,1.11,156.8,M,-34.4,M,,*52
lng=-77.437759, lat=43.138622, altitude=156.90, speed=4.54, satellites=7, angle=255.0600, fixquality=1
$GPRMC,134742.750,A,4308.3172,N,07726.2668,W,5.66,260.04,220519,,,A*77
$GPGGA,134743.000,4308.3172,N,07726.2674,W,1,07,1.11,156.9,M,-34.4,M,,*50
lng=-77.437774, lat=43.138622, altitude=156.80, speed=5.66, satellites=7, angle=260.0400, fixquality=1
$GPRMC,134743.250,A,4308.3171,N,07726.2681,W,6.55,263.87,220519,,,A*7C
$GPGGA,134743.500,4308.3171,N,07726.2688,W,1,07,1.11,156.9,M,-34.4,M,,*55
lng=-77.437797, lat=43.138614, altitude=156.90, speed=6.55, satellites=7, angle=263.8700, fixquality=1
$GPRMC,134743.750,A,4308.3171,N,07726.2696,W,7.50,266.79,220519,,,A*7F
$GPGGA,134744.000,4308.3172,N,07726.2704,W,1,07,1.11,156.9,M,-34.4,M,,*51
lng=-77.437828, lat=43.138614, altitude=156.90, speed=7.50, satellites=7, angle=266.7900, fixquality=1
$GPRMC,134744.250,A,4308.3172,N,07726.2713,W,8.77,270.90,220519,,,A*78
$GPGGA,134744.500,4308.3172,N,07726.2722,W,1,07,1.11,156.8,M,-34.4,M,,*51
lng=-77.437858, lat=43.138622, altitude=156.90, speed=8.77, satellites=7, angle=270.9000, fixquality=1
$GPRMC,134744.750,A,4308.3173,N,07726.2732,W,9.93,274.72,220519,,,A*7C
$GPGGA,134745.000,4308.3174,N,07726.2741,W,1,07,1.11,156.8,M,-34.4,M,,*56
lng=-77.437889, lat=43.138622, altitude=156.80, speed=9.93, satellites=7, angle=274.7200, fixquality=1
$GPRMC,134745.250,A,4308.3175,N,07726.2751,W,10.38,277.81,220519,,,A*4D
$GPGGA,134745.500,4308.3177,N,07726.2761,W,1,07,1.09,156.9,M,-34.4,M,,*5A
lng=-77.437911, lat=43.138622, altitude=156.80, speed=10.38, satellites=7, angle=277.8100, fixquality=1
$GPRMC,134745.750,A,4308.3179,N,07726.2772,W,10.64,280.56,220519,,,A*4E
$GPGGA,134746.000,4308.3182,N,07726.2782,W,1,07,1.09,156.9,M,-34.4,M,,*5B
lng=-77.437957, lat=43.138629, altitude=156.90, speed=10.64, satellites=7, angle=280.5600, fixquality=1
$GPRMC,134746.250,A,4308.3184,N,07726.2793,W,10.96,284.63,220519,,,A*4A
$GPGGA,134746.500,4308.3188,N,07726.2803,W,1,07,1.09,157.0,M,-34.4,M,,*5A
lng=-77.437988, lat=43.138637, altitude=156.90, speed=10.96, satellites=7, angle=284.6300, fixquality=1
$GPRMC,134746.750,A,4308.3191,N,07726.2814,W,11.35,287.79,220519,,,A*4B
$GPGGA,134747.000,4308.3194,N,07726.2824,W,1,07,1.09,157.0,M,-34.4,M,,*56
lng=-77.438018, lat=43.138656, altitude=157.00, speed=11.35, satellites=7, angle=287.7900, fixquality=1
$GPRMC,134747.250,A,4308.3198,N,07726.2834,W,11.58,289.57,220519,,,A*4D
$GPGGA,134747.500,4308.3201,N,07726.2846,W,1,07,1.11,157.0,M,-34.4,M,,*51
lng=-77.438056, lat=43.138664, altitude=157.00, speed=11.58, satellites=7, angle=289.5700, fixquality=1
$GPRMC,134747.750,A,4308.3204,N,07726.2856,W,11.77,289.64,220519,,,A*47
$GPGGA,134748.000,4308.3208,N,07726.2868,W,1,07,1.09,157.0,M,-34.4,M,,*57
lng=-77.438095, lat=43.138671, altitude=157.00, speed=11.77, satellites=7, angle=289.6400, fixquality=1
$GPRMC,134748.250,A,4308.3212,N,07726.2881,W,12.71,289.95,220519,,,A*4B
$GPGGA,134748.500,4308.3216,N,07726.2894,W,1,07,1.09,157.1,M,-34.4,M,,*5F
lng=-77.438133, lat=43.138687, altitude=157.00, speed=12.71, satellites=7, angle=289.9500, fixquality=1
$GPRMC,134748.750,A,4308.3220,N,07726.2906,W,13.44,292.93,220519,,,A*4A
$GPGGA,134749.000,4308.3225,N,07726.2919,W,1,07,1.09,157.1,M,-34.4,M,,*5F
lng=-77.438179, lat=43.138694, altitude=157.10, speed=13.44, satellites=7, angle=292.9300, fixquality=1
$GPRMC,134749.250,A,4308.3229,N,07726.2931,W,13.86,293.59,220519,,,A*4A
$GPGGA,134749.500,4308.3233,N,07726.2944,W,1,07,1.09,157.2,M,-34.4,M,,*56
lng=-77.438217, lat=43.138713, altitude=157.10, speed=13.86, satellites=7, angle=293.5900, fixquality=1
$GPRMC,134749.750,A,4308.3238,N,07726.2958,W,15.20,294.31,220519,,,A*43
$GPGGA,134750.000,4308.3243,N,07726.2972,W,1,07,1.09,157.2,M,-34.4,M,,*59
lng=-77.438262, lat=43.138729, altitude=157.20, speed=15.20, satellites=7, angle=294.3100, fixquality=1
$GPRMC,134750.250,A,4308.3249,N,07726.2987,W,17.08,295.76,220519,,,A*40
$GPGGA,134750.500,4308.3255,N,07726.3003,W,1,07,1.09,157.3,M,-34.4,M,,*54
lng=-77.438316, lat=43.138744, altitude=157.20, speed=17.08, satellites=7, angle=295.7600, fixquality=1
$GPRMC,134750.750,A,4308.3261,N,07726.3019,W,18.31,296.97,220519,,,A*49
$GPGGA,134751.000,4308.3269,N,07726.3035,W,1,07,1.09,157.3,M,-34.4,M,,*5A
lng=-77.438362, lat=43.138771, altitude=157.30, speed=18.31, satellites=7, angle=296.9700, fixquality=1
$GPRMC,134751.250,A,4308.3276,N,07726.3051,W,19.26,298.19,220519,,,A*48
$GPGGA,134751.500,4308.3283,N,07726.3068,W,1,07,1.11,157.3,M,-34.4,M,,*5A
lng=-77.438423, lat=43.138793, altitude=157.30, speed=19.26, satellites=7, angle=298.1900, fixquality=1
$GPRMC,134751.750,A,4308.3290,N,07726.3085,W,19.91,298.80,220519,,,A*40
$GPGGA,134752.000,4308.3298,N,07726.3102,W,1,07,1.09,157.3,M,-34.4,M,,*52
lng=-77.438476, lat=43.138816, altitude=157.30, speed=19.91, satellites=7, angle=298.8000, fixquality=1
$GPRMC,134752.250,A,4308.3305,N,07726.3120,W,20.59,299.51,220519,,,A*46
$GPGGA,134752.500,4308.3313,N,07726.3138,W,1,07,1.11,157.4,M,-34.4,M,,*52
lng=-77.438529, lat=43.138843, altitude=157.30, speed=20.59, satellites=7, angle=299.5100, fixquality=1
$GPRMC,134752.750,A,4308.3321,N,07726.3156,W,21.22,300.29,220519,,,A*47
$GPGGA,134753.000,4308.3329,N,07726.3175,W,1,07,1.11,157.4,M,-34.4,M,,*56
lng=-77.438591, lat=43.138866, altitude=157.40, speed=21.22, satellites=7, angle=300.2900, fixquality=1
$GPRMC,134753.250,A,4308.3337,N,07726.3193,W,21.97,300.79,220519,,,A*46
$GPGGA,134753.500,4308.3346,N,07726.3212,W,1,07,1.11,157.4,M,-34.4,M,,*58
lng=-77.438652, lat=43.138893, altitude=157.40, speed=21.97, satellites=7, angle=300.7900, fixquality=1
$GPRMC,134753.750,A,4308.3354,N,07726.3231,W,22.65,301.43,220519,,,A*4B
$GPGGA,134754.000,4308.3363,N,07726.3250,W,1,07,1.11,157.4,M,-34.4,M,,*5B
lng=-77.438720, lat=43.138923, altitude=157.40, speed=22.65, satellites=7, angle=301.4300, fixquality=1
$GPRMC,134754.250,A,4308.3371,N,07726.3269,W,23.28,302.19,220519,,,A*47
$GPGGA,134754.500,4308.3380,N,07726.3289,W,1,07,1.11,157.4,M,-34.4,M,,*57
lng=-77.438774, lat=43.138950, altitude=157.40, speed=23.28, satellites=7, angle=302.1900, fixquality=1
$GPRMC,134754.750,A,4308.3389,N,07726.3309,W,23.74,302.50,220519,,,A*46
$GPGGA,134755.000,4308.3398,N,07726.3329,W,1,07,1.11,157.4,M,-34.4,M,,*51
lng=-77.438850, lat=43.138980, altitude=157.40, speed=23.74, satellites=7, angle=302.5000, fixquality=1
$GPRMC,134755.250,A,4308.3407,N,07726.3349,W,23.99,302.40,220519,,,A*45
$GPGGA,134755.500,4308.3416,N,07726.3369,W,1,07,1.11,157.4,M,-34.4,M,,*51
lng=-77.438919, lat=43.139015, altitude=157.40, speed=23.99, satellites=7, angle=302.4000, fixquality=1
$GPRMC,134755.750,A,4308.3425,N,07726.3389,W,24.27,302.23,220519,,,A*4B
$GPGGA,134756.000,4308.3434,N,07726.3409,W,1,07,1.11,157.5,M,-34.4,M,,*57
lng=-77.438980, lat=43.139038, altitude=157.40, speed=24.27, satellites=7, angle=302.2300, fixquality=1
$GPRMC,134756.250,A,4308.3443,N,07726.3429,W,24.38,302.12,220519,,,A*4C
$GPGGA,134756.500,4308.3452,N,07726.3449,W,1,07,1.11,157.5,M,-34.4,M,,*56
lng=-77.439048, lat=43.139072, altitude=157.50, speed=24.38, satellites=7, angle=302.1200, fixquality=1
$GPRMC,134756.750,A,4308.3461,N,07726.3469,W,24.58,302.31,220519,,,A*4A
$GPGGA,134757.000,4308.3470,N,07726.3489,W,1,07,1.11,157.5,M,-34.4,M,,*5E
lng=-77.439109, lat=43.139102, altitude=157.50, speed=24.58, satellites=7, angle=302.3100, fixquality=1
$GPRMC,134757.250,A,4308.3479,N,07726.3509,W,24.58,303.15,220519,,,A*47
$GPGGA,134757.500,4308.3489,N,07726.3528,W,1,07,1.11,157.5,M,-34.4,M,,*57
lng=-77.439186, lat=43.139125, altitude=157.50, speed=24.58, satellites=7, angle=303.1500, fixquality=1
$GPRMC,134757.750,A,4308.3498,N,07726.3549,W,24.57,304.80,220519,,,A*4D
$GPGGA,134758.000,4308.3507,N,07726.3569,W,1,07,1.11,157.6,M,-34.4,M,,*5C
lng=-77.439247, lat=43.139160, altitude=157.50, speed=24.57, satellites=7, angle=304.8000, fixquality=1
$GPRMC,134758.250,A,4308.3518,N,07726.3587,W,24.55,306.83,220519,,,A*4F
$GPGGA,134758.500,4308.3528,N,07726.3606,W,1,07,1.11,157.7,M,-34.4,M,,*5F
lng=-77.439315, lat=43.139194, altitude=157.60, speed=24.55, satellites=7, angle=306.8300, fixquality=1
$GPRMC,134758.750,A,4308.3538,N,07726.3625,W,24.53,307.97,220519,,,A*41
$GPGGA,134759.000,4308.3548,N,07726.3643,W,1,07,1.11,157.8,M,-34.4,M,,*53
lng=-77.439369, lat=43.139232, altitude=157.70, speed=24.53, satellites=7, angle=307.9700, fixquality=1
$GPRMC,134759.250,A,4308.3560,N,07726.3660,W,24.05,311.73,220519,,,A*47
$GPGGA,134759.500,4308.3571,N,07726.3676,W,1,07,1.09,158.0,M,-34.4,M,,*54
lng=-77.439437, lat=43.139266, altitude=157.80, speed=24.05, satellites=7, angle=311.7300, fixquality=1
$GPRMC,134759.750,A,4308.3583,N,07726.3692,W,23.74,314.77,220519,,,A*42
$GPGGA,134800.000,4308.3596,N,07726.3707,W,1,07,1.09,158.0,M,-34.4,M,,*5C
lng=-77.439483, lat=43.139305, altitude=158.00, speed=23.74, satellites=7, angle=314.7700, fixquality=1
$GPRMC,134800.250,A,4308.3610,N,07726.3721,W,24.06,319.21,220519,,,A*48
$GPGGA,134800.500,4308.3622,N,07726.3735,W,1,07,1.09,158.0,M,-34.4,M,,*54
lng=-77.439537, lat=43.139347, altitude=158.00, speed=24.06, satellites=7, angle=319.2100, fixquality=1
$GPRMC,134800.750,A,4308.3635,N,07726.3749,W,23.70,320.81,220519,,,A*42
$GPGGA,134801.000,4308.3649,N,07726.3762,W,1,07,1.11,158.1,M,-34.4,M,,*57
lng=-77.439582, lat=43.139389, altitude=158.00, speed=23.70, satellites=7, angle=320.8100, fixquality=1
$GPRMC,134801.250,A,4308.3662,N,07726.3774,W,23.36,323.38,220519,,,A*49
$GPGGA,134801.500,4308.3676,N,07726.3784,W,1,07,1.09,158.1,M,-34.4,M,,*5F
lng=-77.439620, lat=43.139438, altitude=158.10, speed=23.36, satellites=7, angle=323.3800, fixquality=1
$GPRMC,134801.750,A,4308.3694,N,07726.3788,W,23.20,331.28,220519,,,A*43
$GPGGA,134802.000,4308.3709,N,07726.3796,W,1,07,1.09,158.1,M,-34.4,M,,*53
lng=-77.439651, lat=43.139492, altitude=158.10, speed=23.20, satellites=7, angle=331.2800, fixquality=1
$GPRMC,134802.250,A,4308.3723,N,07726.3805,W,22.76,333.80,220519,,,A*40
$GPGGA,134802.500,4308.3737,N,07726.3813,W,1,07,1.09,158.1,M,-34.4,M,,*59
lng=-77.439674, lat=43.139533, altitude=158.10, speed=22.76, satellites=7, angle=333.8000, fixquality=1
$GPRMC,134802.750,A,4308.3754,N,07726.3816,W,22.68,340.18,220519,,,A*4D
$GPGGA,134803.000,4308.3771,N,07726.3818,W,1,07,1.09,158.1,M,-34.4,M,,*54
lng=-77.439697, lat=43.139591, altitude=158.10, speed=22.68, satellites=7, angle=340.1800, fixquality=1
$GPRMC,134803.250,A,4308.3786,N,07726.3821,W,22.51,346.05,220519,,,A*42
$GPGGA,134803.500,4308.3802,N,07726.3825,W,1,07,1.11,158.1,M,-34.4,M,,*5D
lng=-77.439704, lat=43.139640, altitude=158.10, speed=22.51, satellites=7, angle=346.0500, fixquality=1
$GPRMC,134803.750,A,4308.3817,N,07726.3828,W,22.43,348.52,220519,,,A*46
$GPGGA,134804.000,4308.3833,N,07726.3831,W,1,07,1.11,158.2,M,-34.4,M,,*5B
lng=-77.439712, lat=43.139698, altitude=158.10, speed=22.43, satellites=7, angle=348.5200, fixquality=1
$GPRMC,134804.250,A,4308.3849,N,07726.3833,W,22.61,352.02,220519,,,A*4B
$GPGGA,134804.500,4308.3866,N,07726.3834,W,1,07,1.11,158.3,M,-34.4,M,,*5A
lng=-77.439720, lat=43.139747, altitude=158.20, speed=22.61, satellites=7, angle=352.0200, fixquality=1
$GPRMC,134804.750,A,4308.3882,N,07726.3834,W,22.86,355.36,220519,,,A*47
$GPGGA,134805.000,4308.3899,N,07726.3832,W,1,07,1.11,158.4,M,-34.4,M,,*5F
lng=-77.439720, lat=43.139804, altitude=158.30, speed=22.86, satellites=7, angle=355.3600, fixquality=1
$GPRMC,134805.250,A,4308.3916,N,07726.3829,W,23.23,0.22,220519,,,A*4B
$GPGGA,134805.500,4308.3931,N,07726.3822,W,1,07,1.11,158.6,M,-34.4,M,,*5A
lng=-77.439712, lat=43.139858, altitude=158.40, speed=23.23, satellites=7, angle=0.2200, fixquality=1
$GPRMC,134805.750,A,4308.3948,N,07726.3818,W,22.84,6.16,220519,,,A*4A
$GPGGA,134806.000,4308.3964,N,07726.3813,W,1,07,1.11,158.8,M,-34.4,M,,*50
lng=-77.439697, lat=43.139915, altitude=158.60, speed=22.84, satellites=7, angle=6.1600, fixquality=1
$GPRMC,134806.250,A,4308.3980,N,07726.3809,W,22.78,8.59,220519,,,A*4E
$GPGGA,134806.500,4308.3996,N,07726.3804,W,1,07,1.11,159.0,M,-34.4,M,,*57
lng=-77.439682, lat=43.139965, altitude=158.80, speed=22.78, satellites=7, angle=8.5900, fixquality=1
$GPRMC,134806.750,A,4308.4012,N,07726.3800,W,22.67,9.66,220519,,,A*44
$GPGGA,134807.000,4308.4028,N,07726.3795,W,1,07,1.11,159.2,M,-34.4,M,,*5D
lng=-77.439666, lat=43.140022, altitude=159.00, speed=22.67, satellites=7, angle=9.6600, fixquality=1
$GPRMC,134807.250,A,4308.4043,N,07726.3791,W,22.30,10.46,220519,,,A*7B
$GPGGA,134807.500,4308.4058,N,07726.3786,W,1,07,1.11,159.4,M,-34.4,M,,*5B
lng=-77.439651, lat=43.140071, altitude=159.20, speed=22.30, satellites=7, angle=10.4600, fixquality=1
$GPRMC,134807.750,A,4308.4074,N,07726.3781,W,21.95,10.90,220519,,,A*7C
$GPGGA,134808.000,4308.4089,N,07726.3776,W,1,07,1.11,159.6,M,-34.4,M,,*50
lng=-77.439628, lat=43.140121, altitude=159.40, speed=21.95, satellites=7, angle=10.9000, fixquality=1
$GPRMC,134808.250,A,4308.4103,N,07726.3772,W,21.42,10.73,220519,,,A*7C
$GPGGA,134808.500,4308.4118,N,07726.3767,W,1,07,1.11,159.9,M,-34.4,M,,*53
lng=-77.439620, lat=43.140171, altitude=159.60, speed=21.42, satellites=7, angle=10.7300, fixquality=1
$GPRMC,134808.750,A,4308.4132,N,07726.3763,W,21.18,10.22,220519,,,A*70
$GPGGA,134809.000,4308.4147,N,07726.3759,W,1,07,1.11,160.1,M,-34.4,M,,*52
lng=-77.439605, lat=43.140216, altitude=159.90, speed=21.18, satellites=7, angle=10.2200, fixquality=1
$GPRMC,134809.250,A,4308.4161,N,07726.3755,W,20.68,9.82,220519,,,A*43
$GPGGA,134809.500,4308.4175,N,07726.3751,W,1,07,1.11,160.2,M,-34.4,M,,*5D
lng=-77.439590, lat=43.140266, altitude=160.10, speed=20.68, satellites=7, angle=9.8200, fixquality=1
$GPRMC,134809.750,A,4308.4189,N,07726.3747,W,20.25,9.00,220519,,,A*40
$GPGGA,134810.000,4308.4203,N,07726.3743,W,1,07,1.11,160.3,M,-34.4,M,,*50
lng=-77.439575, lat=43.140316, altitude=160.20, speed=20.25, satellites=7, angle=9.0000, fixquality=1
$GPRMC,134810.250,A,4308.4217,N,07726.3740,W,19.88,8.11,220519,,,A*42
$GPGGA,134810.500,4308.4231,N,07726.3736,W,1,07,1.11,160.4,M,-34.4,M,,*51
lng=-77.439567, lat=43.140365, altitude=160.30, speed=19.88, satellites=7, angle=8.1100, fixquality=1
$GPRMC,134810.750,A,4308.4245,N,07726.3733,W,19.76,7.76,220519,,,A*4B
$GPGGA,134811.000,4308.4259,N,07726.3730,W,1,07,1.11,160.5,M,-34.4,M,,*5C
lng=-77.439559, lat=43.140403, altitude=160.40, speed=19.76, satellites=7, angle=7.7600, fixquality=1
$GPRMC,134811.250,A,4308.4273,N,07726.3727,W,19.72,7.51,220519,,,A*4E
$GPGGA,134811.500,4308.4287,N,07726.3723,W,1,07,1.11,160.7,M,-34.4,M,,*5A
lng=-77.439544, lat=43.140453, altitude=160.50, speed=19.72, satellites=7, angle=7.5100, fixquality=1
$GPRMC,134811.750,A,4308.4301,N,07726.3720,W,19.66,7.46,220519,,,A*4B
$GPGGA,134812.000,4308.4315,N,07726.3717,W,1,07,1.11,160.9,M,-34.4,M,,*5F
lng=-77.439537, lat=43.140502, altitude=160.70, speed=19.66, satellites=7, angle=7.4600, fixquality=1
$GPRMC,134812.250,A,4308.4328,N,07726.3714,W,19.65,7.81,220519,,,A*49
$GPGGA,134812.500,4308.4343,N,07726.3710,W,1,07,1.11,161.1,M,-34.4,M,,*57
lng=-77.439529, lat=43.140544, altitude=160.90, speed=19.65, satellites=7, angle=7.8100, fixquality=1
$GPRMC,134812.750,A,4308.4357,N,07726.3707,W,19.72,8.09,220519,,,A*4F
$GPGGA,134813.000,4308.4371,N,07726.3703,W,1,07,1.11,161.2,M,-34.4,M,,*53
lng=-77.439506, lat=43.140590, altitude=161.10, speed=19.72, satellites=7, angle=8.0900, fixquality=1
$GPRMC,134813.250,A,4308.4384,N,07726.3700,W,19.92,7.51,220519,,,A*4E
$GPGGA,134813.500,4308.4398,N,07726.3697,W,1,07,1.11,161.3,M,-34.4,M,,*5C
lng=-77.439498, lat=43.140640, altitude=161.20, speed=19.92, satellites=7, angle=7.5100, fixquality=1
$GPRMC,134813.750,A,4308.4412,N,07726.3693,W,19.53,8.58,220519,,,A*43
$GPGGA,134814.000,4308.4425,N,07726.3690,W,1,07,1.11,161.4,M,-34.4,M,,*5F
lng=-77.439483, lat=43.140689, altitude=161.30, speed=19.53, satellites=7, angle=8.5800, fixquality=1
$GPRMC,134814.250,A,4308.4439,N,07726.3686,W,19.15,9.00,220519,,,A*42
$GPGGA,134814.500,4308.4452,N,07726.3682,W,1,07,1.11,161.5,M,-34.4,M,,*58
lng=-77.439476, lat=43.140731, altitude=161.40, speed=19.15, satellites=7, angle=9.0000, fixquality=1
$GPRMC,134814.750,A,4308.4465,N,07726.3679,W,18.66,9.57,220519,,,A*49
$GPGGA,134815.000,4308.4478,N,07726.3675,W,1,07,1.11,161.6,M,-34.4,M,,*5F
lng=-77.439460, lat=43.140769, altitude=161.50, speed=18.66, satellites=7, angle=9.5700, fixquality=1
$GPRMC,134815.250,A,4308.4490,N,07726.3672,W,17.23,10.64,220519,,,A*7A
$GPGGA,134815.500,4308.4500,N,07726.3668,W,1,07,1.11,161.7,M,-34.4,M,,*59
lng=-77.439453, lat=43.140819, altitude=161.60, speed=17.23, satellites=7, angle=10.6400, fixquality=1
$GPRMC,134815.750,A,4308.4512,N,07726.3662,W,15.07,14.29,220519,,,A*7C
$GPGGA,134816.000,4308.4522,N,07726.3657,W,1,07,1.11,161.8,M,-34.4,M,,*5C
lng=-77.439437, lat=43.140853, altitude=161.70, speed=15.07, satellites=7, angle=14.2900, fixquality=1
$GPRMC,134816.250,A,4308.4532,N,07726.3652,W,13.06,12.46,220519,,,A*73
$GPGGA,134816.500,4308.4541,N,07726.3648,W,1,07,1.11,162.0,M,-34.4,M,,*59
lng=-77.439422, lat=43.140884, altitude=161.80, speed=13.06, satellites=7, angle=12.4600, fixquality=1
$GPRMC,134816.750,A,4308.4549,N,07726.3645,W,10.82,12.40,220519,,,A*75
$GPGGA,134817.000,4308.4555,N,07726.3641,W,1,06,1.21,162.1,M,-34.4,M,,*52
lng=-77.439407, lat=43.140918, altitude=162.00, speed=10.82, satellites=7, angle=12.4000, fixquality=1
$GPRMC,134817.250,A,4308.4561,N,07726.3638,W,8.05,12.88,220519,,,A*43
$GPGGA,134817.500,4308.4566,N,07726.3636,W,1,07,1.11,161.9,M,-34.4,M,,*5E
lng=-77.439399, lat=43.140933, altitude=162.10, speed=8.05, satellites=6, angle=12.8800, fixquality=1
$GPRMC,134817.750,A,4308.4570,N,07726.3633,W,5.83,13.19,220519,,,A*47
$GPGGA,134818.000,4308.4572,N,07726.3632,W,1,07,1.11,162.0,M,-34.4,M,,*5F
lng=-77.439384, lat=43.140949, altitude=161.90, speed=5.83, satellites=7, angle=13.1900, fixquality=1
$GPRMC,134818.250,A,4308.4573,N,07726.3631,W,3.04,10.37,220519,,,A*4A
$GPGGA,134818.500,4308.4574,N,07726.3630,W,1,07,1.11,162.3,M,-34.4,M,,*5D
lng=-77.439384, lat=43.140956, altitude=162.00, speed=3.04, satellites=7, angle=10.3700, fixquality=1
$GPRMC,134818.750,A,4308.4575,N,07726.3629,W,2.00,10.37,220519,,,A*45
$GPGGA,134819.000,4308.4576,N,07726.3628,W,1,07,1.11,162.4,M,-34.4,M,,*55
lng=-77.439376, lat=43.140956, altitude=162.30, speed=2.00, satellites=7, angle=10.3700, fixquality=1
$GPRMC,134819.250,A,4308.4577,N,07726.3628,W,1.94,10.37,220519,,,A*4C
$GPGGA,134819.500,4308.4579,N,07726.3627,W,1,07,1.11,162.4,M,-34.4,M,,*50
lng=-77.439376, lat=43.140956, altitude=162.40, speed=1.94, satellites=7, angle=10.3700, fixquality=1
$GPRMC,134819.750,A,4308.4580,N,07726.3625,W,2.54,10.37,220519,,,A*43
$GPGGA,134820.000,4308.4584,N,07726.3624,W,1,07,1.11,162.2,M,-34.4,M,,*58
lng=-77.439369, lat=43.140968, altitude=162.40, speed=2.54, satellites=7, angle=10.3700, fixquality=1
$GPRMC,134820.250,A,4308.4587,N,07726.3623,W,5.06,357.49,220519,,,A*74
$GPGGA,134820.500,4308.4591,N,07726.3623,W,1,07,1.11,161.8,M,-34.4,M,,*57
lng=-77.439369, lat=43.140975, altitude=162.20, speed=5.06, satellites=7, angle=357.4900, fixquality=1
$GPRMC,134820.750,A,4308.4596,N,07726.3623,W,5.99,353.45,220519,,,A*7F
$GPGGA,134821.000,4308.4600,N,07726.3625,W,1,07,1.11,161.8,M,-34.4,M,,*5E
lng=-77.439369, lat=43.140991, altitude=161.80, speed=5.99, satellites=7, angle=353.4500, fixquality=1
$GPRMC,134821.250,A,4308.4605,N,07726.3628,W,7.79,336.81,220519,,,A*7E
$GPGGA,134821.500,4308.4610,N,07726.3634,W,1,07,1.11,162.3,M,-34.4,M,,*52
lng=-77.439376, lat=43.141006, altitude=161.80, speed=7.79, satellites=7, angle=336.8100, fixquality=1
$GPRMC,134821.750,A,4308.4615,N,07726.3640,W,9.53,325.75,220519,,,A*7B
$GPGGA,134822.000,4308.4620,N,07726.3647,W,1,07,1.11,162.7,M,-34.4,M,,*57
lng=-77.439399, lat=43.141025, altitude=162.30, speed=9.53, satellites=7, angle=325.7500, fixquality=1
$GPRMC,134822.250,A,4308.4625,N,07726.3655,W,10.77,316.59,220519,,,A*4A
$GPGGA,134822.500,4308.4630,N,07726.3664,W,1,07,1.11,163.0,M,-34.4,M,,*54
lng=-77.439430, lat=43.141040, altitude=162.70, speed=10.77, satellites=7, angle=316.5900, fixquality=1
$GPRMC,134822.750,A,4308.4635,N,07726.3673,W,11.97,309.75,220519,,,A*45
$GPGGA,134823.000,4308.4640,N,07726.3683,W,1,07,1.11,163.2,M,-34.4,M,,*5C
lng=-77.439453, lat=43.141056, altitude=163.00, speed=11.97, satellites=7, angle=309.7500, fixquality=1
$GPRMC,134823.250,A,4308.4645,N,07726.3694,W,12.94,304.85,220519,,,A*4D
$GPGGA,134823.500,4308.4649,N,07726.3706,W,1,07,1.11,163.4,M,-34.4,M,,*5A
lng=-77.439491, lat=43.141071, altitude=163.20, speed=12.94, satellites=7, angle=304.8500, fixquality=1
$GPRMC,134823.750,A,4308.4652,N,07726.3719,W,13.98,296.94,220519,,,A*4D
$GPGGA,134824.000,4308.4656,N,07726.3733,W,1,07,1.09,163.6,M,-34.4,M,,*5B
lng=-77.439537, lat=43.141090, altitude=163.40, speed=13.98, satellites=7, angle=296.9400, fixquality=1
$GPRMC,134824.250,A,4308.4659,N,07726.3748,W,14.65,292.51,220519,,,A*48
$GPGGA,134824.500,4308.4661,N,07726.3764,W,1,07,1.11,163.9,M,-34.4,M,,*5E
lng=-77.439582, lat=43.141098, altitude=163.60, speed=14.65, satellites=7, angle=292.5100, fixquality=1
$GPRMC,134824.750,A,4308.4663,N,07726.3780,W,15.31,286.22,220519,,,A*41
$GPGGA,134825.000,4308.4664,N,07726.3795,W,1,07,1.11,164.2,M,-34.4,M,,*5D
lng=-77.439628, lat=43.141105, altitude=163.90, speed=15.31, satellites=7, angle=286.2200, fixquality=1
$GPRMC,134825.250,A,4308.4665,N,07726.3811,W,15.40,281.84,220519,,,A*49
$GPGGA,134825.500,4308.4666,N,07726.3827,W,1,07,1.11,164.4,M,-34.4,M,,*5A
lng=-77.439682, lat=43.141105, altitude=164.20, speed=15.40, satellites=7, angle=281.8400, fixquality=1
$GPRMC,134825.750,A,4308.4667,N,07726.3843,W,15.17,279.74,220519,,,A*43
$GPGGA,134826.000,4308.4668,N,07726.3859,W,1,07,1.11,164.5,M,-34.4,M,,*5A
lng=-77.439735, lat=43.141113, altitude=164.40, speed=15.17, satellites=7, angle=279.7400, fixquality=1
$GPRMC,134826.250,A,4308.4669,N,07726.3874,W,15.17,278.18,220519,,,A*44
$GPGGA,134826.500,4308.4670,N,07726.3889,W,1,07,1.11,164.7,M,-34.4,M,,*59
lng=-77.439788, lat=43.141113, altitude=164.50, speed=15.17, satellites=7, angle=278.1800, fixquality=1
$GPRMC,134826.750,A,4308.4671,N,07726.3903,W,15.28,277.46,220519,,,A*41
$GPGGA,134827.000,4308.4672,N,07726.3918,W,1,07,1.11,164.8,M,-34.4,M,,*59
lng=-77.439834, lat=43.141120, altitude=164.70, speed=15.28, satellites=7, angle=277.4600, fixquality=1
$GPRMC,134827.250,A,4308.4673,N,07726.3932,W,15.39,277.46,220519,,,A*45
$GPGGA,134827.500,4308.4674,N,07726.3947,W,1,07,1.11,164.9,M,-34.4,M,,*51
lng=-77.439888, lat=43.141120, altitude=164.80, speed=15.39, satellites=7, angle=277.4600, fixquality=1
$GPRMC,134827.750,A,4308.4675,N,07726.3961,W,15.42,278.32,220519,,,A*40
$GPGGA,134828.000,4308.4676,N,07726.3976,W,1,07,1.11,164.9,M,-34.4,M,,*5B
lng=-77.439933, lat=43.141120, altitude=164.90, speed=15.42, satellites=7, angle=278.3200, fixquality=1
$GPRMC,134828.250,A,4308.4678,N,07726.3990,W,15.40,280.29,220519,,,A*46
$GPGGA,134828.500,4308.4679,N,07726.4004,W,1,07,1.11,165.0,M,-34.4,M,,*52
lng=-77.439979, lat=43.141128, altitude=164.90, speed=15.40, satellites=7, angle=280.2900, fixquality=1
$GPRMC,134828.750,A,4308.4680,N,07726.4018,W,15.37,280.93,220519,,,A*4B
$GPGGA,134829.000,4308.4682,N,07726.4032,W,1,07,1.11,165.0,M,-34.4,M,,*57
lng=-77.440032, lat=43.141128, altitude=165.00, speed=15.37, satellites=7, angle=280.9300, fixquality=1
$GPRMC,134829.250,A,4308.4683,N,07726.4046,W,15.31,280.86,220519,,,A*45
$GPGGA,134829.500,4308.4685,N,07726.4060,W,1,07,1.11,165.1,M,-34.4,M,,*53
lng=-77.440078, lat=43.141136, altitude=165.00, speed=15.31, satellites=7, angle=280.8600, fixquality=1
$GPRMC,134829.750,A,4308.4686,N,07726.4074,W,15.27,281.52,220519,,,A*4B
$GPGGA,134830.000,4308.4688,N,07726.4088,W,1,07,1.11,165.2,M,-34.4,M,,*56
lng=-77.440116, lat=43.141147, altitude=165.10, speed=15.27, satellites=7, angle=281.5200, fixquality=1
$GPRMC,134830.250,A,4308.4689,N,07726.4102,W,15.17,280.97,220519,,,A*42
$GPGGA,134830.500,4308.4691,N,07726.4116,W,1,07,1.11,165.4,M,-34.4,M,,*5B
lng=-77.440170, lat=43.141147, altitude=165.20, speed=15.17, satellites=7, angle=280.9700, fixquality=1
$GPRMC,134830.750,A,4308.4688,N,07726.4130,W,15.17,276.45,220519,,,A*41
$GPGGA,134831.000,4308.4690,N,07726.4144,W,1,07,1.11,165.2,M,-34.4,M,,*5F
lng=-77.440216, lat=43.141147, altitude=165.40, speed=15.17, satellites=7, angle=276.4500, fixquality=1
$GPRMC,134831.250,A,4308.4691,N,07726.4158,W,15.07,278.30,220519,,,A*4E
$GPGGA,134831.500,4308.4692,N,07726.4173,W,1,07,1.11,165.4,M,-34.4,M,,*5A
lng=-77.440269, lat=43.141155, altitude=165.20, speed=15.07, satellites=7, angle=278.3000, fixquality=1
$GPRMC,134831.750,A,4308.4694,N,07726.4188,W,14.85,279.23,220519,,,A*4B
$GPGGA,134832.000,4308.4695,N,07726.4202,W,1,07,1.11,165.4,M,-34.4,M,,*5E
lng=-77.440315, lat=43.141155, altitude=165.40, speed=14.85, satellites=7, angle=279.2300, fixquality=1
$GPRMC,134832.250,A,4308.4696,N,07726.4216,W,14.82,281.61,220519,,,A*4D
$GPGGA,134832.500,4308.4698,N,07726.4231,W,1,07,1.11,165.5,M,-34.4,M,,*57
lng=-77.440353, lat=43.141162, altitude=165.40, speed=14.82, satellites=7, angle=281.6100, fixquality=1
$GPRMC,134832.750,A,4308.4700,N,07726.4245,W,14.60,282.80,220519,,,A*40
$GPGGA,134833.000,4308.4702,N,07726.4258,W,1,07,1.11,165.6,M,-34.4,M,,*5D
lng=-77.440406, lat=43.141170, altitude=165.50, speed=14.60, satellites=7, angle=282.8000, fixquality=1
$GPRMC,134833.250,A,4308.4704,N,07726.4272,W,14.34,281.92,220519,,,A*45
$GPGGA,134833.500,4308.4706,N,07726.4286,W,1,07,1.11,165.7,M,-34.4,M,,*5E
lng=-77.440452, lat=43.141170, altitude=165.60, speed=14.34, satellites=7, angle=281.9200, fixquality=1
$GPRMC,134833.750,A,4308.4708,N,07726.4299,W,13.91,284.24,220519,,,A*49
$GPGGA,134834.000,4308.4710,N,07726.4311,W,1,07,1.11,165.9,M,-34.4,M,,*5A
lng=-77.440498, lat=43.141178, altitude=165.70, speed=13.91, satellites=7, angle=284.2400, fixquality=1
$GPRMC,134834.250,A,4308.4712,N,07726.4323,W,12.13,283.36,220519,,,A*4F
$GPGGA,134834.500,4308.4713,N,07726.4334,W,1,07,1.11,164.9,M,-34.4,M,,*5A
lng=-77.440536, lat=43.141185, altitude=165.90, speed=12.13, satellites=7, angle=283.3600, fixquality=1
$GPRMC,134834.750,A,4308.4714,N,07726.4343,W,10.07,284.10,220519,,,A*4E
$GPGGA,134835.000,4308.4716,N,07726.4353,W,1,07,1.11,164.9,M,-34.4,M,,*5A
lng=-77.440567, lat=43.141185, altitude=164.90, speed=10.07, satellites=7, angle=284.1000, fixquality=1
$GPRMC,134835.250,A,4308.4717,N,07726.4362,W,9.79,282.13,220519,,,A*7E
$GPGGA,134835.500,4308.4718,N,07726.4371,W,1,07,1.11,165.0,M,-34.4,M,,*59
lng=-77.440597, lat=43.141193, altitude=164.90, speed=9.79, satellites=7, angle=282.1300, fixquality=1
$GPRMC,134835.750,A,4308.4718,N,07726.4380,W,8.92,282.15,220519,,,A*7A
$GPGGA,134836.000,4308.4719,N,07726.4387,W,1,07,1.11,165.2,M,-34.4,M,,*55
lng=-77.440635, lat=43.141193, altitude=165.00, speed=8.92, satellites=7, angle=282.1500, fixquality=1
$GPRMC,134836.250,A,4308.4720,N,07726.4394,W,7.56,285.17,220519,,,A*70
$GPGGA,134836.500,4308.4720,N,07726.4399,W,1,07,1.11,165.3,M,-34.4,M,,*54
lng=-77.440658, lat=43.141201, altitude=165.20, speed=7.56, satellites=7, angle=285.1700, fixquality=1
$GPRMC,134836.750,A,4308.4721,N,07726.4404,W,5.81,285.80,220519,,,A*7C
$GPGGA,134837.000,4308.4721,N,07726.4408,W,1,07,1.11,165.5,M,-34.4,M,,*58
lng=-77.440673, lat=43.141201, altitude=165.30, speed=5.81, satellites=7, angle=285.8000, fixquality=1
$GPRMC,134837.250,A,4308.4721,N,07726.4411,W,3.84,287.17,220519,,,A*73
$GPGGA,134837.500,4308.4722,N,07726.4413,W,1,07,1.09,165.6,M,-34.4,M,,*5E
lng=-77.440681, lat=43.141201, altitude=165.50, speed=3.84, satellites=7, angle=287.1700, fixquality=1
$GPRMC,134837.750,A,4308.4722,N,07726.4415,W,2.34,291.42,220519,,,A*7C
$GPGGA,134838.000,4308.4722,N,07726.4416,W,1,07,1.09,165.7,M,-34.4,M,,*50
lng=-77.440689, lat=43.141201, altitude=165.60, speed=2.34, satellites=7, angle=291.4200, fixquality=1
$GPRMC,134838.250,A,4308.4723,N,07726.4416,W,0.10,291.42,220519,,,A*70
$GPGGA,134838.500,4308.4723,N,07726.4414,W,1,07,1.09,165.8,M,-34.4,M,,*59
lng=-77.440689, lat=43.141201, altitude=165.70, speed=0.10, satellites=7, angle=291.4200, fixquality=1
$GPRMC,134838.750,A,4308.4724,N,07726.4414,W,0.07,291.42,220519,,,A*76
$GPGGA,134839.000,4308.4724,N,07726.4412,W,1,07,1.11,165.9,M,-34.4,M,,*54
lng=-77.440689, lat=43.141201, altitude=165.80, speed=0.07, satellites=7, angle=291.4200, fixquality=1
$GPRMC,134839.250,A,4308.4724,N,07726.4411,W,0.09,291.42,220519,,,A*79
$GPGGA,134839.500,4308.4724,N,07726.4410,W,1,07,1.09,165.3,M,-34.4,M,,*50
lng=-77.440681, lat=43.141201, altitude=165.90, speed=0.09, satellites=7, angle=291.4200, fixquality=1
$GPRMC,134839.750,A,4308.4724,N,07726.4409,W,0.10,291.42,220519,,,A*7D
$GPGGA,134840.000,4308.4724,N,07726.4408,W,1,07,1.09,164.6,M,-34.4,M,,*56
lng=-77.440681, lat=43.141201, altitude=165.30, speed=0.10, satellites=7, angle=291.4200, fixquality=1
$GPRMC,134840.250,A,4308.4724,N,07726.4407,W,0.10,291.42,220519,,,A*78
$GPGGA,134840.500,4308.4724,N,07726.4407,W,1,07,1.09,164.3,M,-34.4,M,,*59
lng=-77.440681, lat=43.141201, altitude=164.60, speed=0.10, satellites=7, angle=291.4200, fixquality=1
$GPRMC,134840.750,A,4308.4724,N,07726.4406,W,0.09,291.42,220519,,,A*74
$GPGGA,134841.000,4308.4724,N,07726.4406,W,1,07,1.09,164.3,M,-34.4,M,,*5C
lng=-77.440673, lat=43.141201, altitude=164.30, speed=0.09, satellites=7, angle=291.4200, fixquality=1
$GPRMC,134841.250,A,4308.4724,N,07726.4407,W,0.07,291.42,220519,,,A*7F
$GPGGA,134841.500,4308.4725,N,07726.4406,W,1,07,1.09,164.2,M,-34.4,M,,*59
lng=-77.440681, lat=43.141201, altitude=164.30, speed=0.07, satellites=7, angle=291.4200, fixquality=1
$GPRMC,134841.750,A,4308.4725,N,07726.4406,W,0.06,291.42,220519,,,A*7B
$GPGGA,134842.000,4308.4725,N,07726.4405,W,1,07,1.09,164.3,M,-34.4,M,,*5D
lng=-77.440673, lat=43.141212, altitude=164.20, speed=0.06, satellites=7, angle=291.4200, fixquality=1
$GPRMC,134842.250,A,4308.4726,N,07726.4405,W,0.05,291.42,220519,,,A*7E
$GPGGA,134842.500,4308.4726,N,07726.4405,W,1,07,1.09,164.4,M,-34.4,M,,*5C
lng=-77.440673, lat=43.141212, altitude=164.30, speed=0.05, satellites=7, angle=291.4200, fixquality=1
$GPRMC,134842.750,A,4308.4726,N,07726.4405,W,0.04,291.42,220519,,,A*7A
$GPGGA,134843.000,4308.4727,N,07726.4405,W,1,07,1.09,164.4,M,-34.4,M,,*59
lng=-77.440673, lat=43.141212, altitude=164.40, speed=0.04, satellites=7, angle=291.4200, fixquality=1
$GPRMC,134843.250,A,4308.4727,N,07726.4405,W,0.03,291.42,220519,,,A*78
$GPGGA,134843.500,4308.4727,N,07726.4405,W,1,07,1.11,164.5,M,-34.4,M,,*54
lng=-77.440673, lat=43.141212, altitude=164.40, speed=0.03, satellites=7, angle=291.4200, fixquality=1
$GPRMC,134843.750,A,4308.4727,N,07726.4405,W,0.01,291.42,220519,,,A*7F
$GPGGA,134844.000,4308.4727,N,07726.4405,W,1,07,1.11,164.6,M,-34.4,M,,*55
lng=-77.440673, lat=43.141212, altitude=164.50, speed=0.01, satellites=7, angle=291.4200, fixquality=1
$GPRMC,134844.250,A,4308.4727,N,07726.4405,W,0.01,291.42,220519,,,A*7D
$GPGGA,134844.500,4308.4727,N,07726.4405,W,1,07,1.11,164.7,M,-34.4,M,,*51
lng=-77.440673, lat=43.141212, altitude=164.60, speed=0.01, satellites=7, angle=291.4200, fixquality=1
$GPRMC,134844.750,A,4308.4728,N,07726.4405,W,0.00,291.42,220519,,,A*76
$GPGGA,134845.000,4308.4728,N,07726.4405,W,1,07,1.09,164.7,M,-34.4,M,,*53
lng=-77.440673, lat=43.141212, altitude=164.70, speed=0.00, satellites=7, angle=291.4200, fixquality=1
$GPRMC,134845.250,A,4308.4728,N,07726.4405,W,0.01,291.42,220519,,,A*73
$GPGGA,134845.500,4308.4728,N,07726.4405,W,1,07,1.09,164.8,M,-34.4,M,,*59
lng=-77.440673, lat=43.141212, altitude=164.70, speed=0.01, satellites=7, angle=291.4200, fixquality=1
$GPRMC,134845.750,A,4308.4728,N,07726.4405,W,0.00,291.42,220519,,,A*77
$GPGGA,134846.000,4308.4728,N,07726.4405,W,1,07,1.11,164.9,M,-34.4,M,,*57
lng=-77.440673, lat=43.141212, altitude=164.80, speed=0.00, satellites=7, angle=291.4200, fixquality=1
$GPRMC,134846.250,A,4308.4728,N,07726.4405,W,0.00,291.42,220519,,,A*71
$GPGGA,134846.500,4308.4728,N,07726.4405,W,1,07,1.09,164.9,M,-34.4,M,,*5B
lng=-77.440673, lat=43.141212, altitude=164.90, speed=0.00, satellites=7, angle=291.4200, fixquality=1
$GPRMC,134846.750,A,4308.4728,N,07726.4405,W,0.01,291.42,220519,,,A*75
$GPGGA,134847.000,4308.4728,N,07726.4405,W,1,07,1.09,165.0,M,-34.4,M,,*57
lng=-77.440673, lat=43.141212, altitude=164.90, speed=0.01, satellites=7, angle=291.4200, fixquality=1
$GPRMC,134847.250,A,4308.4728,N,07726.4405,W,0.01,291.42,220519,,,A*71
$GPGGA,134847.500,4308.4728,N,07726.4405,W,1,07,1.11,165.0,M,-34.4,M,,*5B
lng=-77.440673, lat=43.141212, altitude=165.00, speed=0.01, satellites=7, angle=291.4200, fixquality=1
$GPRMC,134847.750,A,4308.4728,N,07726.4405,W,0.00,291.42,220519,,,A*75
$GPGGA,134848.000,4308.4728,N,07726.4405,W,1,07,1.09,165.1,M,-34.4,M,,*59
lng=-77.440673, lat=43.141212, altitude=165.00, speed=0.00, satellites=7, angle=291.4200, fixquality=1
$GPRMC,134848.250,A,4308.4728,N,07726.4405,W,0.01,291.42,220519,,,A*7E
$GPGGA,134848.500,4308.4728,N,07726.4405,W,1,07,1.09,165.1,M,-34.4,M,,*5C
lng=-77.440673, lat=43.141212, altitude=165.10, speed=0.01, satellites=7, angle=291.4200, fixquality=1
$GPRMC,134848.750,A,4308.4728,N,07726.4404,W,0.00,291.42,220519,,,A*7B
$GPGGA,134849.000,4308.4728,N,07726.4404,W,1,07,1.11,165.1,M,-34.4,M,,*50
lng=-77.440673, lat=43.141212, altitude=165.10, speed=0.00, satellites=7, angle=291.4200, fixquality=1
$GPRMC,134849.250,A,4308.4728,N,07726.4404,W,0.00,291.42,220519,,,A*7F
$GPGGA,134849.500,4308.4728,N,07726.4404,W,1,07,1.09,165.2,M,-34.4,M,,*5F
lng=-77.440673, lat=43.141212, altitude=165.10, speed=0.00, satellites=7, angle=291.4200, fixquality=1
$GPRMC,134849.750,A,4308.4728,N,07726.4404,W,0.01,291.42,220519,,,A*7B
