Vers 81
USE_SERIAL_FEEDBACK=true
DEVELOPMENT_MODE=false
USE_RMC_ONLY=false

$GPRMC,134128.250,A,4308.3042,N,07726.2615,W,0.10,312.20,071019,,,A*75
$GPGGA,134128.500,4308.3042,N,07726.2613,W,1,05,1.63,152.6,M,-34.4,M,,*51
$GPGGA,134129.000,4308.3042,N,07726.2609,W,1,05,1.63,153.1,M,-34.4,M,,*58
$GPRMC,134129.000,A,4308.3042,N,07726.2609,W,0.07,26.93,071019,,,A*44
$GPRMC,134129.500,A,4308.3042,N,07726.2607,W,0.07,340.97,071019,,,A*78
$GPGGA,134129.750,4308.3043,N,07726.2607,W,1,05,1.63,153.1,M,-34.4,M,,*55
$GPGGA,134130.250,4308.3043,N,07726.2608,W,1,05,1.63,152.7,M,-34.4,M,,*50
$GPRMC,134130.250,A,4308.3043,N,07726.2608,W,0.06,342.44,0710191.63,152.5,M,-34.4,M,,*51
$GPRMC,134130.500,A,4308.3043,N,07726.2609,W,0.02,249.46,07101919,,,A*76
$GPGGA,134131.000,4308.3044,N,07726.2610,W,1,05,1.63,152.2,M,-34.4,M,,*5D
$GPGGA,134131.500,4308.3044,N,07726.2612,W,1,05,1.63,152.0,M,-34.4,M,,*58
$GPRMC,134131.500,A,4308.3044,N,07726.2612,W,0.07,254.48,071019,,A*75
$GPRMC,134132.000,A,4308.3044,N,07726.2615,W,0.05,263.67,071019,,,A*7F
$GPGGA,134132.250,4308.3044,N,07726.2616,W,1,05,1.63,151.6,M,-34.4,M,,*58
$GPGGA,134132.750,4308.3043,N,07726.2619,W,1,05,1.63,151.2,M,-34.4,M,,*51
$GPRMC,134132.750,A,4308.3043,N,07726.2619,W,0.04,204.27,071019,,,A*72
$GPRMC,134133.250,A,4308.3043,N,07726.2621,W,0.04,252.62,071019,,,A*7F
$GPGGA,134133.500,4308.3043,N,07726.2622,W,1,05,1.63,150.7,M,-34.4,M,,*5B
$GPGGA,134134.000,4308.3044,N,07726.2624,W,1,05,1.63,150.4,M,-34.4,M,,*5B
$GPRMC,134134.000,A,4308.3044,N,07726.2624,W,0.01,236.22,071019,,,A*7E
$GPRMC,134134.500,A,4308.3044,N,07726.2625,W,0.05,117.09,071019,,,A*77
$GPGGA,134134.750,4308.3045,N,07726.2627,W,1,05,1.63,150.3,M,-34.4,M,,*5C
$GPRMC,134135.250,A,4308.3045,N,07726.2629,W,0.02,334.60,071019,,,A*72
$GPGGA,134135.500,4308.3045,N,07726.2630,W,1,05,1.63,149.8,M,-34.4,M,,*5F
$GPGGA,134136.000,4308.3045,N,07726.2634,W,1,05,1.63,149.3,M,-34.4,M,,*56
$GPRMC,134136.000,A,4308.3045,N,07726.2634,W,0.08,155.19,071019,,,A*7B
$GPRMC,134136.500,A,4308.3044,N,07726.2638,W,0.18,113.94,071019,,,A*75
$GPGGA,134136.750,4308.3044,N,07726.2641,W,1,05,1.63,148.5,M,-34.4,M,,*50
$GPGGA,134137.250,4308.3044,N,07726.2648,W,1,05,1.63,147.9,M,-34.4,M,,*5E
$GPRMC,134137.250,A,4308.3044,N,07726.2648,W,0.13,132.99,071019,,A*74
$GPRMC,134137.750,A,4308.3044,N,07726.2650,W,0.11,135.72,071019,,,A*78
$GPGGA,134138.000,4308.3044,N,07726.2651,W,1,05,1.63,147.6,M,-34.4,M,,*51
$GPGGA,134138.500,4308.3044,N,07726.2651,W,1,05,1.63,147.4,M,-34.4,M,,*56
$GPRMC,134138.500,A,4308.3044,N,07726.2651,W,0.10,106.21,071019,,,A*76
$GPRMC,134139.000,A,4308.3045,N,07726.2653,W,0.16,88.96,071019,,,A*4C
$GPGGA,134139.250,4308.3045,N,07726.2654,W,1,05,1.63,146.9,M,-34.4,M,,*5D
$GPGGA,134139.750,4308.3045,N,07726.2656,W,1,05,1.63,146.6,M,-34.4,M,,*55
$GPRMC,134139.750,A,4308.3045,N,07726.2656,W,0.07,33.52,071019,,,A*43
$GPRMC,134140.250,A,4308.3045,N,07726.2657,W,0.03,205.96,071019,,,A*72
$GPGGA,134140.500,4308.3045,N,07726.2656,W,1,05,1.63,146.3,M,-34.4,M,,*59
$GPGGA,134141.000,4308.3045,N,07726.2656,W,1,05,1.63,146.2,M,-34.4,M,,*5C
$GPRMC,134141.000,A,4308.3045,N,07726.2656,W,0.05,242.00,071019,,,A*7F
$GPRMC,134141.500,A,4308.3045,N,07726.2656,W,0.04,286.34,071019,,,A*74
$GPGGA,134141.750,4308.3045,N,07726.2657,W,1,05,1.63,145.9,M,-34.4,M,,*57
$GPGGA,134142.250,4308.3045,N,07726.2658,W,1,05,2.17,145.6,M,-34.4,M,,*51
$GPRMC,134142.250,A,4308.3045,N,07726.2658,W,0.05,8.66,071019,,,A*79
$GPRMC,134142.750,A,4308.3045,N,07726.2658,W,0.01,325.64,071019,,,A*76
$GPGGA,134143.000,4308.3044,N,07726.2658,W,1,05,1.63,145.3,M,-34.4,M,,*53
$GPGGA,134143.500,4308.3044,N,07726.2659,W,1,05,1.63,145.1,M,-34.4,M,,*55
$GPRMC,134143.500,A,4308.3044,N,07726.2659,W,0.03,167.32,071019.63,144.9,M,-34.4,M,,*5B
$GPGGA,134144.250,4308.3044,N,07726.2660,W,1,05,1.63,144.6,M,-34.4,M,,*5C
$GPRMC,134144.250,A,4308.3044,N,07726.2660,W,0.01,175.69,071019,,,A*75
$GPRMC,134144.750,A,4308.3043,N,07726.2661,W,0.03,47.70,071019,,,A*4C
$GPGGA,134145.000,4308.3043,N,07726.2662,W,1,05,1.63,144.3,M,-34.4,M,,*5A
$GPGGA,134145.500,4308.3043,N,07726.2662,W,1,05,1.63,144.1,M,-34.4,M,,*5D
$GPRMC,134145.500,A,4308.3043,N,07726.2662,W,0.01,198.29,071019,,A*74
$GPRMC,134146.000,A,4308.3043,N,07726.2662,W,0.02,251.91,071019,,,A*74
$GPGGA,134146.250,4308.3043,N,07726.2663,W,1,05,1.63,143.8,M,-34.4,M,,*53
$GPGGA,134146.750,4308.3042,N,07726.2664,W,1,05,1.63,143.6,M,-34.4,M,,*5E
$GPRMC,134146.750,A,4308.3042,N,07726.2664,W,0.06,201.46,071019,,A*7A
$GPGGA,134147.000,4308.3042,N,07726.2665,W,1,05,1.63,143.5,M,-
$GPGGA,134147.250,4308.3042,N,07726.2665,W,1,05,1.63,143.4,M,-34.4,M,,*59
$GPGGA,134147.750,4308.3042,N,07726.2665,W,1,05,1.63,143.2,M,-34.4,M,,*5A
$GPRMC,134147.750,A,4308.3042,N,07726.2665,W,0.04,132.51,07101963,143.2,M,-34.4,M,,*57
$GPGGA,134148.500,4308.3042,N,07726.2666,W,1,05,2.17,143.0,M,-34.4,M,,*53
$GPRMC,134148.500,A,4308.3042,N,07726.2666,W,0.02,14.15,071019,,A*45
$GPRMC,134149.000,A,4308.3042,N,07726.2666,W,0.02,188.47,071019,,,A*72
$GPGGA,134149.250,4308.3042,N,07726.2667,W,1,05,1.63,142.7,M,-34.4,M,,*57
$GPGGA,134149.750,4308.3042,N,07726.2667,W,1,05,1.63,142.5,M,-34.4,M,,*50
$GPRMC,134149.750,A,4308.3042,N,07726.2667,W,0.03,179.64,071019,,A*7F
$GPRMC,134150.250,A,4308.3041,N,07726.2666,W,0.00,91.02,071019,,,A*44
$GPGGA,134150.500,4308.3041,N,07726.2664,W,1,06,1.38,143.0,M,-34.4,M,,*56
$GPGGA,134151.000,4308.3041,N,07726.2662,W,1,06,1.38,143.5,M,-34.4,M,,*51
$GPRMC,134151.000,A,4308.3041,N,07726.2662,W,0.01,245.26,071019,,A*7A
$GPRMC,134151.500,A,4308.3041,N,07726.2659,W,0.06,336.00,071019,,,A*71
$GPGGA,134151.750,4308.3041,N,07726.2658,W,1,06,1.38,144.1,M,-34.4,M,,*59
$GPGGA,134152.250,4308.3040,N,07726.2656,W,1,06,1.38,144.5,M,-34.4,M,,*54
$GPRMC,134152.250,A,4308.3040,N,07726.2656,W,0.02,284.13,071019,06,1.38,144.7,M,-34.4,M,,*57
$GPGGA,134153.000,4308.3040,N,07726.2654,W,1,06,1.38,145.0,M,-34.4,M,,*54
$GPRMC,134153.000,A,4308.3040,N,07726.2654,W,0.01,344.53,071019,,,A*7E
$GPRMC,134153.500,A,4308.3040,N,07726.2652,W,0.02,29.65,071019,,,A*43
$GPGGA,134153.750,4308.3040,N,07726.2651,W,1,06,1.38,145.5,M,-34.4,M,,*56
$GPGGA,134154.250,4308.3040,N,07726.2650,W,1,06,1.38,145.7,M,-34.4,M,,*57
$GPRMC,134154.250,A,4308.3040,N,07726.2650,W,0.02,343.79,0710191.38,145.9,M,-34.4,M,,*53
$GPGGA,134155.000,4308.3040,N,07726.2648,W,1,06,1.38,146.2,M,-34.4,M,,*5E
$GPRMC,134155.000,A,4308.3040,N,07726.2648,W,0.06,311.03,071019,,A*77
$GPRMC,134155.500,A,4308.3040,N,07726.2646,W,0.04,15.68,071019,,,A*44
$GPGGA,134155.750,4308.3040,N,07726.2645,W,1,06,1.38,146.6,M,-34.4,M,,*55
$GPGGA,134156.250,4308.3040,N,07726.2644,W,1,06,1.38,146.8,M,-34.4,M,,*5C
$GPRMC,134156.250,A,4308.3040,N,07726.2644,W,0.02,323.14,071019,,A*7C
$GPRMC,134156.750,A,4308.3040,N,07726.2643,W,0.02,269.12,071019,,,A*77
$GPGGA,134157.000,4308.3040,N,07726.2643,W,1,06,1.38,147.1,M,-34.4,M,,*55
$GPGGA,134157.500,4308.3040,N,07726.2641,W,1,06,1.38,147.3,M,-34.4,M,,*50
$GPRMC,134157.500,A,4308.3040,N,07726.2641,W,0.04,209.41,071019,,A*75
$GPRMC,134158.000,A,4308.3040,N,07726.2640,W,0.03,80.58,071019,,,A*42
$GPGGA,134158.250,4308.3040,N,07726.2640,W,1,06,1.38,147.7,M,-34.4,M,,*58
$GPRMC,134158.750,A,4308.3040,N,07726.2639,W,0.01,336.37,071019,,,A*7B
$GPGGA,134159.000,4308.3040,N,07726.2638,W,1,06,1.38,147.9,M,-34.4,M,,*5F
$GPGGA,134159.500,4308.3040,N,07726.2638,W,1,06,1.38,148.1,M,-34.4,M,,*5D
$GPRMC,134159.500,A,4308.3040,N,07726.2638,W,0.02,316.25,071019,,A*7E
$GPRMC,134200.000,A,4308.3040,N,07726.2638,W,0.02,165.42,071019,,,A*73
$GPGGA,134200.250,4308.3040,N,07726.2638,W,1,06,1.38,148.1,M,-34.4,M,,*50
$GPRMC,134200.250,A,4308.3040,N,07726.2638,W,0.06,329.30,07101919,,,A*77
$GPGGA,134200.750,4308.3041,N,07726.2638,W,1,06,1.47,148.1,M,-34.4,M,,*5C
$GPGGA,134201.250,4308.3041,N,07726.2638,W,1,06,1.47,148.1,M,-34.4,M,,*58
$GPRMC,134201.250,A,4308.3041,N,07726.2638,W,0.80,0.12,071019,,,A*79
$GPGGA,134201.500,4308.3042,N,07726.2637,W,1,06,1.47,148.2,M,-34.4,M,,*55
$GPRMC,134201.500,A,4308.3042,N,07726.2637,W,1.77,359.77,071019,,A*72
$GPGGA,134201.750,4308.3044,N,07726.2637,W,1,06,1.47,148.2,M,-
$GPGGA,134202.000,4308.3046,N,07726.2636,W,1,06,1.47,148.3,M,-34.4,M,,*57
$GPGGA,134202.500,4308.3051,N,07726.2636,W,1,06,1.47,148.5,M,-34.4,M,,*52
$GPRMC,134202.500,A,4308.3051,N,07726.2636,W,4.25,1.96,071019,,,A*71
$GPRMC,134203.000,A,4308.3057,N,07726.2635,W,4.44,0.57,071019,,,A*7B
$GPGGA,134203.250,4308.3061,N,07726.2635,W,1,06,1.47,148.7,M,-34.4,M,,*53
$GPGGA,134203.750,4308.3067,N,07726.2635,W,1,06,1.47,148.8,M,-34.4,M,,*5F
$GPRMC,134203.750,A,4308.3067,N,07726.2635,W,4.55,359.45,071019,,A*76
$GPRMC,134204.250,A,4308.3073,N,07726.2635,W,4.51,356.61,071019,,,A*7C
$GPGGA,134204.500,4308.3077,N,07726.2636,W,1,06,1.47,148.9,M,-34.4,M,,*5C
$GPGGA,134205.000,4308.3083,N,07726.2636,W,1,06,1.47,148.9,M,-34.4,M,,*53
$GPRMC,134205.000,A,4308.3083,N,07726.2636,W,4.60,355.80,071019,148.9,M,-34.4,M,,*50
$GPGGA,134205.750,4308.3093,N,07726.2637,W,1,06,1.47,149.0,M,-34.4,M,,*59
$GPRMC,134205.750,A,4308.3093,N,07726.2637,W,4.90,358.92,071019,,A*7B
$GPRMC,134206.250,A,4308.3100,N,07726.2637,W,5.02,356.74,071019,,,A*7A
$GPGGA,134206.500,4308.3103,N,07726.2638,W,1,06,1.47,149.0,M,-34.4,M,,*5A
$GPGGA,134207.000,4308.3110,N,07726.2639,W,1,06,1.47,149.1,M,-34.4,M,,*5C
$GPRMC,134207.000,A,4308.3110,N,07726.2639,W,4.56,353.77,071019,,,A*75
$GPRMC,134207.500,A,4308.3117,N,07726.2640,W,5.06,355.34,071019,,,A*7C
$GPGGA,134207.750,4308.3120,N,07726.2640,W,1,06,1.47,149.1,M,-34.4,M,,*53
$GPGGA,134208.250,4308.3128,N,07726.2640,W,1,06,1.47,149.2,M,-34.4,M,,*52
$GPRMC,134208.250,A,4308.3128,N,07726.2640,W,5.41,4.24,071019,,A*78
$GPRMC,134208.750,A,4308.3136,N,07726.2638,W,5.53,9.93,071019,,,A*7F
$GPGGA,134209.000,4308.3139,N,07726.2637,W,1,06,1.47,149.1,M,-34.4,M,,*57
$GPGGA,134209.500,4308.3145,N,07726.2634,W,1,06,1.47,149.1,M,-34.4,M,,*5A
$GPRMC,134209.500,A,4308.3145,N,07726.2634,W,4.93,23.71,071019,,M,-34.4,M,,*56
$GPGGA,134210.250,4308.3153,N,07726.2626,W,1,06,1.47,149.2,M,-34.4,M,,*57
$GPRMC,134210.250,A,4308.3153,N,07726.2626,W,4.99,44.47,071019,,,A*48
$GPGGA,134210.500,4308.3154,N,07726.2623,W,1,06,1.47,149.3,M,-345
$GPGGA,134210.750,4308.3155,N,07726.2619,W,1,06,1.47,149.3,M,-34.4,M,,*59
$GPGGA,134211.250,4308.3158,N,07726.2612,W,1,06,1.47,149.2,M,-34.4,M,,*5A
$GPRMC,134211.250,A,4308.3158,N,07726.2612,W,4.42,55.79,071019,,A*4E
$GPRMC,134211.750,A,4308.3161,N,07726.2605,W,4.28,61.97,071019,,,A*4C
$GPGGA,134212.000,4308.3162,N,07726.2603,W,1,06,1.47,149.1,M,-34.4,M,,*54
$GPGGA,134212.500,4308.3162,N,07726.2600,W,1,06,1.38,149.1,M,-34.4,M,,*5A
$GPRMC,134212.500,A,4308.3162,N,07726.2600,W,2.69,59.89,071019,,,A*49
$GPRMC,134213.000,A,4308.3162,N,07726.2599,W,1.68,50.82,071019,,,A*4E
$GPGGA,134213.250,4308.3162,N,07726.2600,W,1,06,1.38,149.1,M,-34.4,M,,*59
$GPGGA,134213.750,4308.3162,N,07726.2603,W,1,06,1.38,149.0,M,-34.4,M,,*5E
$GPRMC,134213.750,A,4308.3162,N,07726.2603,W,0.87,323.19,0710198,149.0,M,-34.4,M,,*5E
$GPRMC,134214.500,A,4308.3160,N,07726.2616,W,2.34,281.94,071019,,,A*79
$GPGGA,134214.750,4308.3159,N,07726.2621,W,1,06,1.38,148.8,M,-34.4,M,,*58
$GPGGA,134215.250,4308.3157,N,07726.2636,W,1,06,1.47,148.8,M,-34.4,M,,*5C
$GPRMC,134215.250,A,4308.3157,N,07726.2636,W,6.42,274.50,071019,,A*7B
$GPRMC,134215.750,A,4308.3156,N,07726.2654,W,8.42,273.39,071019,,,A*7D
$GPGGA,134216.000,4308.3155,N,07726.2664,W,1,06,1.47,148.8,M,-34.4,M,,*5D
$GPRMC,134216.500,A,4308.3155,N,07726.2686,W,11.07,273.42,071019,,,A*40
$GPGGA,134216.750,4308.3155,N,07726.2698,W,1,06,1.47,148.7,M,-34.4,M,,*53
$GPGGA,134217.250,4308.3157,N,07726.2723,W,1,06,1.47,148.7,M,-34.4,M,,*54
$GPRMC,134217.250,A,4308.3157,N,07726.2723,W,12.66,274.69,07101,,,A*45
$GPRMC,134217.750,A,4308.3159,N,07726.2750,W,13.83,276.92,071019,,,A*46
$GPGGA,134218.000,4308.3160,N,07726.2764,W,1,06,1.47,148.7,M,-34.4,M,,*5B
$GPGGA,134218.500,4308.3165,N,07726.2794,W,1,06,1.47,148.8,M,-34.4,M,,*5B
$GPRMC,134218.500,A,4308.3165,N,07726.2794,W,15.37,280.32,07101148.8,M,-34.4,M,,*54
$GPGGA,134219.250,4308.3176,N,07726.2838,W,1,06,1.47,148.8,M,-34.4,M,,*53
$GPRMC,134219.250,A,4308.3176,N,07726.2838,W,16.49,285.43,07101,,,A*42
$GPRMC,134219.750,A,4308.3184,N,07726.2870,W,17.63,287.47,071019,,,A*49
$GPGGA,134220.000,4308.3189,N,07726.2887,W,1,05,2.18,149.0,M,-34.4,M,,*59
$GPGGA,134220.500,4308.3199,N,07726.2922,W,1,05,2.18,149.0,M,-34.4,M,,*53
$GPRMC,134220.500,A,4308.3199,N,07726.2922,W,19.52,290.25,071019,,,A*40
$GPRMC,134221.000,A,4308.3211,N,07726.2958,W,20.24,293.14,071019,,,A*40
$GPGGA,134221.250,4308.3219,N,07726.2974,W,1,06,1.47,149.2,M,-34.4,M,,*50
$GPGGA,134221.750,4308.3233,N,07726.3011,W,1,05,1.63,149.2,M,-34.4,M,,*53
$GPRMC,134221.750,A,4308.3233,N,07726.3011,W,21.71,297.64,07101,,,A*45
$GPRMC,134222.250,A,4308.3248,N,07726.3051,W,22.63,298.43,071019,,,A*41
$GPGGA,134222.500,4308.3256,N,07726.3071,W,1,05,2.18,149.2,M,-34.4,M,,*5D
$GPGGA,134223.000,4308.3273,N,07726.3112,W,1,05,2.18,149.1,M,-34.4,M,,*59
$GPRMC,134223.000,A,4308.3273,N,07726.3112,W,23.93,299.99,07101,1.47,149.2,M,-34.4,M,,*58
$GPGGA,134223.750,4308.3300,N,07726.3174,W,1,05,1.63,149.1,M,-34.4,M,,*51
$GPRMC,134223.750,A,4308.3300,N,07726.3174,W,25.01,301.80,07101,,,A*43
$GPRMC,134224.250,A,4308.3320,N,07726.3215,W,25.78,303.36,071019,,,A*46
$GPGGA,134224.500,4308.3330,N,07726.3236,W,1,06,1.47,149.2,M,-34.4,M,,*51
$GPGGA,134225.000,4308.3350,N,07726.3279,W,1,06,1.47,149.3,M,-34.4,M,,*59
$GPRMC,134225.000,A,4308.3350,N,07726.3279,W,26.21,303.68,071019,,,A*49
$GPRMC,134225.500,A,4308.3371,N,07726.3322,W,26.45,303.85,071019,,,A*41
$GPGGA,134225.750,4308.3381,N,07726.3344,W,1,05,1.63,149.4,M,-34.4,M,,*5A
$GPGGA,134226.250,4308.3402,N,07726.3388,W,1,05,2.18,149.4,M,-34.4,M,,*5F
$GPRMC,134226.250,A,4308.3402,N,07726.3388,W,26.98,303.60,07101,,,A*48
$GPRMC,134226.750,A,4308.3422,N,07726.3432,W,26.91,303.36,071019,,,A*43
$GPGGA,134227.000,4308.3432,N,07726.3453,W,1,06,1.47,149.6,M,-34.4,M,,*53
$GPGGA,134227.500,4308.3452,N,07726.3496,W,1,06,1.47,149.7,M,-34.4,M,,*58
$GPRMC,134227.500,A,4308.3452,N,07726.3496,W,26.15,303.09,07101,149.8,M,-34.4,M,,*5A
$GPGGA,134228.250,4308.3481,N,07726.3555,W,1,06,1.47,150.1,M,-34.4,M,,*5B
$GPRMC,134228.250,A,4308.3481,N,07726.3555,W,24.80,304.77,07101,,,A*41
$GPRMC,134228.750,A,4308.3502,N,07726.3592,W,24.45,306.40,071019,,,A*4A
$GPGGA,134229.000,4308.3512,N,07726.3610,W,1,06,1.47,150.5,M,-34.4,M,,*50
$GPGGA,134229.500,4308.3536,N,07726.3643,W,1,06,1.47,150.5,M,-34.4,M,,*55
$GPRMC,134229.500,A,4308.3536,N,07726.3643,W,23.93,311.10,0710150.6,M,-34.4,M,,*5B
$GPRMC,134230.250,A,4308.3572,N,07726.3690,W,23.01,314.66,071019,,,A*40
$GPGGA,134230.500,4308.3584,N,07726.3704,W,1,06,1.47,150.7,M,-34.4,M,,*54
$GPGGA,134231.000,4308.3607,N,07726.3733,W,1,06,1.47,151.0,M,-34.4,M,,*5A
$GPRMC,134231.000,A,4308.3607,N,07726.3733,W,21.92,317.71,07101,,,A*42
$GPRMC,134231.500,A,4308.3631,N,07726.3757,W,21.24,321.51,071019,,,A*4A
$GPGGA,134231.750,4308.3646,N,07726.3767,W,1,06,1.38,151.1,M,-34.4,M,,*55
$GPRMC,134232.250,A,4308.3676,N,07726.3783,W,20.67,330.90,071019,,,A*4A
$GPGGA,134232.500,4308.3688,N,07726.3791,W,1,06,1.47,150.9,M,-34.4,M,,*5B
$GPGGA,134233.000,4308.3714,N,07726.3807,W,1,06,1.47,151.0,M,-34.4,M,,*53
$GPRMC,134233.000,A,4308.3714,N,07726.3807,W,19.72,335.16,071019,,,A*4F
$GPRMC,134233.500,A,4308.3741,N,07726.3818,W,19.29,340.30,071019,,,A*4C
$GPGGA,134233.750,4308.3754,N,07726.3823,W,1,06,1.38,151.1,M,-34.4,M,,*5A
$GPGGA,134234.250,4308.3778,N,07726.3831,W,1,06,1.47,151.2,M,-34.4,M,,*5E
$GPRMC,134234.250,A,4308.3778,N,07726.3831,W,18.38,345.40,07101151.2,M,-34.4,M,,*5E
$GPGGA,134235.000,4308.3820,N,07726.3835,W,1,06,1.47,151.5,M,-34.4,M,,*59
$GPRMC,134235.000,A,4308.3820,N,07726.3835,W,18.88,354.39,071019,,,A*4E
$GPRMC,134235.500,A,4308.3849,N,07726.3834,W,19.60,358.82,071019,,,A*4E
$GPGGA,134235.750,4308.3863,N,07726.3833,W,1,06,1.47,151.8,M,-34.4,M,,*57
$GPGGA,134236.250,4308.3891,N,07726.3828,W,1,06,1.46,152.3,M,-34.4,M,,*5F
$GPRMC,134236.250,A,4308.3891,N,07726.3828,W,20.18,4.05,071019,,,A*47
$GPRMC,134236.750,A,4308.3920,N,07726.3823,W,20.45,5.74,071019,,,A*4D
$GPGGA,134237.000,4308.3935,N,07726.3820,W,1,06,1.46,152.9,M,-34.4,M,,*54
$GPGGA,134237.500,4308.3964,N,07726.3812,W,1,06,1.46,153.3,M,-34.4,M,,*5F
$GPRMC,134237.500,A,4308.3964,N,07726.3812,W,20.62,10.17,071019,,A*7D
$GPRMC,134238.000,A,4308.3992,N,07726.3803,W,20.25,11.58,071019,,,A*77
$GPGGA,134238.250,4308.4006,N,07726.3798,W,1,06,1.46,153.8,M,-34.4,M,,*5E
$GPRMC,134238.750,A,4308.4032,N,07726.3791,W,19.40,11.27,071019,,,A*74
$GPGGA,134239.000,4308.4044,N,07726.3787,W,1,06,1.46,154.3,M,-34.4,M,,*5C
$GPGGA,134239.500,4308.4069,N,07726.3781,W,1,06,1.47,154.6,M,-34.4,M,,*54
$GPRMC,134239.500,A,4308.4069,N,07726.3781,W,18.58,10.70,071019,,A*76
$GPRMC,134240.000,A,4308.4094,N,07726.3774,W,18.28,10.74,071019,,,A*76
$GPGGA,134240.250,4308.4106,N,07726.3770,W,1,06,1.46,155.1,M,-34.4,M,,*59
$GPGGA,134240.750,4308.4128,N,07726.3764,W,1,06,1.46,155.4,M,-34.4,M,,*50
$GPRMC,134240.750,A,4308.4128,N,07726.3764,W,17.29,10.82,071019,,,A*74
$GPRMC,134241.250,A,4308.4150,N,07726.3757,W,16.74,11.23,071019,,,A*7C
$GPGGA,134241.500,4308.4160,N,07726.3754,W,1,06,1.46,155.7,M,-34.4,M,,*5A
$GPGGA,134242.000,4308.4180,N,07726.3748,W,1,06,1.46,156.0,M,-34.4,M,,*5B
$GPRMC,134242.000,A,4308.4180,N,07726.3748,W,15.52,11.68,071019,,,A*73
$GPRMC,134242.500,A,4308.4200,N,07726.3743,W,14.98,10.70,071019,,,A*79
$GPGGA,134242.750,4308.4209,N,07726.3741,W,1,06,1.46,156.4,M,-34.4,M,,*56
$GPGGA,134243.250,4308.4228,N,07726.3736,W,1,06,1.46,156.6,M,-34.4,M,,*53
$GPRMC,134243.250,A,4308.4228,N,07726.3736,W,14.32,10.61,0710196,156.7,M,-34.4,M,,*5D
$GPRMC,134243.500,A,4308.4236,N,07726.3734,W,13.99,11.03,07101974
$GPGGA,134244.000,4308.4254,N,07726.3730,W,1,06,1.46,156.9,M,-34.4,M,,*51
$GPGGA,134244.500,4308.4271,N,07726.3726,W,1,06,1.46,157.1,M,-34.4,M,,*5D
$GPRMC,134244.500,A,4308.4271,N,07726.3726,W,13.16,9.78,071019,,A*4B
$GPRMC,134245.000,A,4308.4287,N,07726.3721,W,12.64,9.91,071019,,,A*42
$GPGGA,134245.250,4308.4295,N,07726.3720,W,1,06,1.46,157.2,M,-34.4,M,,*51
$GPRMC,134245.750,A,4308.4312,N,07726.3716,W,12.18,9.96,071019,,,A*45
$GPGGA,134246.000,4308.4320,N,07726.3714,W,1,06,1.46,157.5,M,-34.4,M,,*5A
$GPRMC,134246.500,A,4308.4335,N,07726.3711,W,11.56,8.45,071019,,,A*45
$GPGGA,134246.750,4308.4343,N,07726.3709,W,1,06,1.46,157.8,M,-34.4,M,,*5C
$GPGGA,134247.250,4308.4358,N,07726.3705,W,1,06,1.46,158.0,M,-34.4,M,,*59
$GPRMC,134247.250,A,4308.4358,N,07726.3705,W,11.21,7.62,071019,,,A*42
$GPRMC,134247.750,A,4308.4373,N,07726.3701,W,10.90,7.24,071019,,,A*43
$GPGGA,134248.000,4308.4378,N,07726.3699,W,1,06,1.46,158.3,M,-34.4,M,,*54
$GPRMC,134248.500,A,4308.4389,N,07726.3696,W,9.82,9.57,071019,,,A*70
$GPGGA,134248.750,4308.4396,N,07726.3694,W,1,05,2.18,158.4,M,-34.4,M,,*57
$GPGGA,134249.250,4308.4408,N,07726.3691,W,1,06,1.46,158.6,M,-34.4,M,,*5F
$GPRMC,134249.250,A,4308.4408,N,07726.3691,W,9.42,10.23,071019,,A*4D
$GPRMC,134249.750,A,4308.4420,N,07726.3687,W,9.36,10.58,071019,,,A*4A
$GPGGA,134250.000,4308.4426,N,07726.3685,W,1,06,1.46,158.9,M,-34.4,M,,*56
$GPGGA,134250.500,4308.4438,N,07726.3683,W,1,06,1.46,159.1,M,-34.4,M,,*53
$GPRMC,134250.500,A,4308.4438,N,07726.3683,W,8.53,10.96,071019,.3,M,-34.4,M,,*58
$GPGGA,134251.250,4308.4453,N,07726.3678,W,1,06,1.46,159.6,M,-34.4,M,,*5E
$GPRMC,134251.250,A,4308.4453,N,07726.3678,W,7.83,12.64,071019,,,A*4F
$GPRMC,134251.750,A,4308.4463,N,07726.3675,W,7.70,11.44,071019,,,A*49
$GPGGA,134252.000,4308.4469,N,07726.3674,W,1,06,1.46,159.8,M,-34.4,M,,*51
$GPGGA,134252.500,4308.4478,N,07726.3671,W,1,06,1.46,160.0,M,-34.4,M,,*53
$GPRMC,134252.500,A,4308.4478,N,07726.3671,W,7.41,10.49,071019,,,A*4D
$GPRMC,134253.000,A,4308.4488,N,07726.3669,W,7.35,10.72,071019,,,A*44
$GPGGA,134253.250,4308.4492,N,07726.3667,W,1,06,1.46,160.6,M,-34.4,M,,*55
$GPGGA,134253.750,4308.4501,N,07726.3665,W,1,06,1.46,161.2,M,-34.4,M,,*5C
$GPRMC,134253.750,A,4308.4501,N,07726.3665,W,7.05,10.68,071019,,A*42
$GPRMC,134254.250,A,4308.4508,N,07726.3662,W,6.51,11.20,071019,,,A*43
$GPGGA,134254.500,4308.4512,N,07726.3661,W,1,06,1.46,161.9,M,-34.4,M,,*51
$GPRMC,134255.000,A,4308.4518,N,07726.3659,W,4.92,12.72,071019,,,A*45
$GPGGA,134255.250,4308.4520,N,07726.3658,W,1,06,1.46,162.4,M,-34.4,M,,*57
$GPGGA,134255.750,4308.4523,N,07726.3658,W,1,06,1.37,162.7,M,-34.4,M,,*54
$GPRMC,134255.750,A,4308.4523,N,07726.3658,W,2.98,12.67,071019,,,A*46
$GPRMC,134256.250,A,4308.4525,N,07726.3658,W,1.81,12.67,071019,,,A*4D
$GPGGA,134256.500,4308.4525,N,07726.3659,W,1,06,1.46,162.9,M,-34.4,M,,*5F
$GPGGA,134257.000,4308.4527,N,07726.3659,W,1,06,1.46,162.8,M,-34.4,M,,*58
$GPRMC,134257.000,A,4308.4527,N,07726.3659,W,1.11,12.67,071019,,,A*41
$GPRMC,134257.500,A,4308.4529,N,07726.3658,W,1.34,12.67,071019,,,A*4C
$GPGGA,134257.750,4308.4529,N,07726.3658,W,1,06,1.46,163.5,M,-34.4,M,,*59
$GPGGA,134258.250,4308.4530,N,07726.3657,W,1,06,1.46,164.3,M,-34.4,M,,*55
$GPRMC,134258.250,A,4308.4530,N,07726.3657,W,1.59,12.67,071019,,,A*4D
$GPRMC,134258.750,A,4308.4533,N,07726.3659,W,1.69,12.67,071019,,,A*46
$GPGGA,134259.000,4308.4536,N,07726.3661,W,1,06,1.46,164.8,M,-34.4,M,,*5B
$GPGGA,134259.500,4308.4543,N,07726.3664,W,1,06,1.46,165.2,M,-34.4,M,,*52
$GPRMC,134259.500,A,4308.4543,N,07726.3664,W,3.27,344.49,0710197,165.4,M,-34.4,M,,*5F
$GPGGA,134300.250,4308.4555,N,07726.3674,W,1,06,1.46,165.6,M,-34.4,M,,*5F
$GPRMC,134300.250,A,4308.4555,N,07726.3674,W,6.65,326.71,071019,,A*78
$GPRMC,134300.750,A,4308.4565,N,07726.3688,W,9.62,317.95,071019,,,A*7D
$GPGGA,134301.000,4308.4570,N,07726.3698,W,1,05,1.63,166.0,M,-34.4,M,,*5D
$GPGGA,134301.500,4308.4577,N,07726.3719,W,1,05,2.18,166.1,M,-34.4,M,,*59
$GPRMC,134301.500,A,4308.4577,N,07726.3719,W,12.17,305.28,07101,,,A*4C
$GPRMC,134302.000,A,4308.4585,N,07726.3741,W,12.55,302.77,071019,,,A*41
$GPGGA,134302.250,4308.4589,N,07726.3753,W,1,06,1.46,166.6,M,-34.4,M,,*5B
$GPRMC,134302.750,A,4308.4598,N,07726.3778,W,14.35,298.54,071019,,,A*46
$GPGGA,134303.000,4308.4602,N,07726.3791,W,1,06,1.46,167.1,M,-34.4,M,,*55
$GPGGA,134303.500,4308.4609,N,07726.3819,W,1,06,1.46,167.3,M,-34.4,M,,*56
$GPRMC,134303.500,A,4308.4609,N,07726.3819,W,15.60,294.94,07101,,,A*42
$GPRMC,134304.000,A,4308.4614,N,07726.3852,W,16.55,291.02,071019,,,A*4C
$GPGGA,134304.250,4308.4616,N,07726.3869,W,1,06,1.46,167.8,M,-34.4,M,,*51
$GPRMC,134304.250,A,4308.4616,N,07726.3869,W,17.10,289.51,071018
$GPGGA,134304.750,4308.4622,N,07726.3903,W,1,06,1.37,168.1,M,-34.4,M,,*5E
$GPGGA,134305.250,4308.4628,N,07726.3937,W,1,06,1.46,168.5,M,-34.4,M,,*55
$GPRMC,134305.250,A,4308.4628,N,07726.3937,W,18.28,287.30,071019,,,A*45
$GPRMC,134305.750,A,4308.4634,N,07726.3973,W,18.30,285.82,071019,,,A*4F
$GPGGA,134306.000,4308.4637,N,07726.3990,W,1,05,1.63,168.8,M,-34.4,M,,*5B
$GPRMC,134306.500,A,4308.4641,N,07726.4026,W,18.28,283.46,071019,,,A*40
$GPGGA,134306.750,4308.4642,N,07726.4045,W,1,06,1.37,168.9,M,-34.4,M,,*5E
$GPGGA,134307.250,4308.4645,N,07726.4081,W,1,06,1.46,169.0,M,-34.4,M,,*5B
$GPRMC,134307.250,A,4308.4645,N,07726.4081,W,18.29,281.49,071019,,,A*46
$GPRMC,134307.750,A,4308.4648,N,07726.4116,W,17.85,280.45,071019,,,A*45
$GPGGA,134308.000,4308.4650,N,07726.4133,W,1,06,1.37,169.2,M,-34.4,M,,*5B
$GPGGA,134308.500,4308.4652,N,07726.4166,W,1,06,1.46,169.5,M,-34.4,M,,*5D
$GPRMC,134308.500,A,4308.4652,N,07726.4166,W,16.57,278.68,07101169.6,M,-34.4,M,,*50
$GPGGA,134309.250,4308.4656,N,07726.4209,W,1,06,1.46,169.8,M,-34.4,M,,*5D
$GPRMC,134309.250,A,4308.4656,N,07726.4209,W,14.84,276.46,07101,,,A*44
$GPRMC,134309.750,A,4308.4659,N,07726.4235,W,14.14,276.46,071019,,,A*48
$GPGGA,134310.000,4308.4661,N,07726.4247,W,1,06,1.46,170.0,M,-34.4,M,,*5C
$GPRMC,134310.500,A,4308.4664,N,07726.4270,W,12.40,276.43,071019,,,A*4A
$GPGGA,134310.750,4308.4665,N,07726.4280,W,1,06,1.46,170.3,M,-34.4,M,,*52
$GPRMC,134311.250,A,4308.4667,N,07726.4299,W,10.51,275.94,071019,,,A*46
$GPGGA,134311.500,4308.4667,N,07726.4307,W,1,06,1.46,170.5,M,-34.4,M,,*5E
$GPGGA,134312.000,4308.4670,N,07726.4322,W,1,06,1.46,170.7,M,-34.4,M,,*5B
$GPRMC,134312.000,A,4308.4670,N,07726.4322,W,8.39,274.74,071019,,,A*7D
$GPRMC,134312.500,A,4308.4671,N,07726.4334,W,7.05,274.76,071019,,,A*7C
$GPGGA,134312.750,4308.4672,N,07726.4339,W,1,06,1.37,170.9,M,-34.4,M,,*59
$GPGGA,134313.250,4308.4673,N,07726.4348,W,1,06,1.46,171.0,M,-34.4,M,,*54
$GPRMC,134313.250,A,4308.4673,N,07726.4348,W,5.16,274.27,07101946,171.0,M,-34.4,M,,*58
$GPGGA,134314.000,4308.4673,N,07726.4354,W,1,06,1.37,171.1,M,-34.4,M,,*5E
$GPRMC,134314.000,A,4308.4673,N,07726.4354,W,2.81,268.95,071019,,,A*72
$GPRMC,134314.500,A,4308.4674,N,07726.4356,W,1.83,268.95,071019,,,A*73
$GPGGA,134314.750,4308.4674,N,07726.4358,W,1,06,1.37,171.2,M,-34.4,M,,*54
$GPGGA,134315.250,4308.4674,N,07726.4358,W,1,06,1.37,171.4,M,-34.4,M,,*56
$GPRMC,134315.250,A,4308.4674,N,07726.4358,W,0.73,268.95,071019,,A*70
$GPRMC,134315.750,A,4308.4674,N,07726.4359,W,0.50,268.95,071019,,,A*75
$GPGGA,134316.000,4308.4674,N,07726.4359,W,1,06,1.37,170.8,M,-34.4,M,,*5E
$GPGGA,134316.500,4308.4674,N,07726.4359,W,1,06,1.37,170.5,M,-34.4,M,,*56
$GPRMC,134316.500,A,4308.4674,N,07726.4359,W,0.25,268.95,071019,,,A*73
$GPRMC,134317.000,A,4308.4675,N,07726.4358,W,0.16,268.95,071019,,,A*77
$GPGGA,134317.250,4308.4675,N,07726.4358,W,1,06,1.37,170.2,M,-34.4,M,,*52
$GPGGA,134317.750,4308.4675,N,07726.4357,W,1,06,1.37,170.1,M,-34.4,M,,*5B
$GPRMC,134317.750,A,4308.4675,N,07726.4357,W,0.05,268.95,0710197,170.1,M,-34.4,M,,*56
$GPRMC,134318.500,A,4308.4675,N,07726.4357,W,0.18,268.95,071019,,,A*7C
$GPGGA,134318.750,4308.4675,N,07726.4356,W,1,06,1.37,170.2,M,-34.4,M,,*56
$GPGGA,134319.250,4308.4675,N,07726.4356,W,1,06,1.37,170.3,M,-34.4,M,,*53
$GPRMC,134319.250,A,4308.4675,N,07726.4356,W,0.22,268.95,071019,,,A*77
$GPRMC,134319.750,A,4308.4675,N,07726.4356,W,0.28,268.95,071019,,,A*78
$GPGGA,134320.000,4308.4675,N,07726.4355,W,1,06,1.37,170.3,M,-34.4,M,,*5D
$GPRMC,134320.500,A,4308.4676,N,07726.4355,W,0.39,268.95,071019,,,A*75
$GPGGA,134320.750,4308.4676,N,07726.4355,W,1,06,1.37,170.4,M,-34.4,M,,*5B
$GPGGA,134321.250,4308.4676,N,07726.4354,W,1,06,1.37,170.4,M,-34.4,M,,*5E
$GPRMC,134321.250,A,4308.4676,N,07726.4354,W,0.43,268.95,071019,,,A*7A
$GPRMC,134321.750,A,4308.4677,N,07726.4353,W,0.40,268.95,071019,,,A*7A
$GPGGA,134322.000,4308.4677,N,07726.4353,W,1,06,1.37,170.4,M,-34.4,M,,*5C
$GPRMC,134322.250,A,4308.4677,N,07726.4353,W,0.37,268.95,071019,,,A*7C
$GPGGA,134322.500,4308.4677,N,07726.4353,W,1,06,1.37,170.4,M,-34.4,M,,*59
$GPGGA,134323.000,4308.4678,N,07726.4352,W,1,06,1.37,170.5,M,-34.4,M,,*52
$GPRMC,134323.000,A,4308.4678,N,07726.4352,W,0.38,268.95,071019,,A*7B
$GPRMC,134323.500,A,4308.4678,N,07726.4351,W,0.41,268.95,071019,,,A*73
$GPGGA,134323.750,4308.4678,N,07726.4351,W,1,06,1.37,170.5,M,-34.4,M,,*53
$GPGGA,134324.250,4308.4679,N,07726.4351,W,1,06,1.37,170.5,M,-34.4,M,,*50
$GPRMC,134324.250,A,4308.4679,N,07726.4351,W,0.38,268.95,071019,,A*79
$GPRMC,134324.750,A,4308.4679,N,07726.4350,W,0.36,268.95,071019,,,A*73
$GPGGA,134325.000,4308.4679,N,07726.4350,W,1,06,1.37,170.5,M,-34.4,M,,*57
$GPGGA,134325.500,4308.4680,N,07726.4350,W,1,06,1.37,170.6,M,-34.4,M,,*57
$GPRMC,134325.500,A,4308.4680,N,07726.4350,W,0.33,268.95,071019,,A*76
$GPRMC,134326.000,A,4308.4680,N,07726.4349,W,0.33,268.95,071019,,,A*78
$GPGGA,134326.250,4308.4680,N,07726.4349,W,1,06,1.37,170.6,M,-34.4,M,,*5E
$GPGGA,134326.750,4308.4680,N,07726.4349,W,1,06,1.37,170.6,M,-34.4,M,,*5B
$GPRMC,134326.750,A,4308.4680,N,07726.4349,W,0.31,268.95,071019,*59
$GPRMC,134327.000,A,4308.4681,N,07726.4349,W,0.29,268.95,071019
$GPGGA,134327.500,4308.4681,N,07726.4348,W,1,06,1.37,170.6,M,-34.4,M,,*5D
$GPGGA,134328.000,4308.4681,N,07726.4348,W,1,06,1.37,170.6,M,-34.4,M,,*57
$GPRMC,134328.000,A,4308.4681,N,07726.4348,W,0.28,268.95,071019,,A*7C
$GPRMC,134328.500,A,4308.4682,N,07726.4348,W,0.30,268.95,071019,,,A*73
$GPGGA,134328.750,4308.4682,N,07726.4348,W,1,06,1.37,170.6,M,-34.4,M,,*56
$GPRMC,134329.250,A,4308.4682,N,07726.4347,W,0.25,268.95,071019,,,A*7B
$GPGGA,134329.500,4308.4682,N,07726.4347,W,1,06,1.37,170.6,M,-34.4,M,,*5F
$GPGGA,134330.000,4308.4682,N,07726.4347,W,1,06,1.37,170.7,M,-34.4,M,,*53
$GPRMC,134330.000,A,4308.4682,N,07726.4347,W,0.25,268.95,071019,,A*74
$GPRMC,134330.500,A,4308.4683,N,07726.4347,W,0.35,268.95,071019,,,A*71
$GPGGA,134330.750,4308.4683,N,07726.4347,W,1,06,1.37,170.7,M,-34.4,M,,*50
$GPGGA,134331.250,4308.4683,N,07726.4347,W,1,06,1.37,170.7,M,-34.4,M,,*54
$GPRMC,134331.250,A,4308.4683,N,07726.4347,W,0.50,268.95,07101937,170.7,M,-34.4,M,,*5E
$GPGGA,134332.000,4308.4684,N,07726.4348,W,1,06,1.37,170.7,M,-34.4,M,,*58
$GPRMC,134332.000,A,4308.4684,N,07726.4348,W,0.49,268.95,071019,,A*75
$GPGGA,134332.250,4308.4684,N,07726.4349,W,1,07,1.31,170.7,M,-39
$GPGGA,134332.500,4308.4685,N,07726.4349,W,1,07,1.31,170.7,M,-34.4,M,,*5A
$GPGGA,134333.000,4308.4685,N,07726.4349,W,1,07,1.31,170.7,M,-34.4,M,,*5E
$GPRMC,134333.000,A,4308.4685,N,07726.4349,W,0.34,268.95,071019,,A*7E
$GPRMC,134333.500,A,4308.4686,N,07726.4349,W,0.30,268.95,071019,,,A*7C
$GPGGA,134333.750,4308.4686,N,07726.4349,W,1,07,1.41,170.7,M,-34.4,M,,*58
$GPGGA,134334.250,4308.4686,N,07726.4349,W,1,07,1.30,170.7,M,-34.4,M,,*5C
$GPRMC,134334.250,A,4308.4686,N,07726.4349,W,0.22,268.95,071019,,A*7A
$GPRMC,134334.750,A,4308.4686,N,07726.4349,W,0.27,50.78,071019,,,A*40
$GPGGA,134335.000,4308.4686,N,07726.4349,W,1,07,1.30,170.7,M,-34.4,M,,*5A
$GPGGA,134335.500,4308.4687,N,07726.4348,W,1,07,1.30,170.7,M,-34.4,M,,*5F
$GPRMC,134335.500,A,4308.4687,N,07726.4348,W,0.20,70.89,071019,.30,170.7,M,-34.4,M,,*58
$GPGGA,134336.250,4308.4687,N,07726.4348,W,1,07,1.30,170.7,M,-34.4,M,,*5E
$GPRMC,134336.250,A,4308.4687,N,07726.4348,W,0.19,72.80,071019,,A*4D
$GPRMC,134336.750,A,4308.4687,N,07726.4348,W,0.18,74.93,071019,,,A*4D
$GPGGA,134337.000,4308.4687,N,07726.4347,W,1,07,1.30,170.7,M,-34.4,M,,*57
$GPGGA,134337.500,4308.4687,N,07726.4347,W,1,07,1.30,170.7,M,-34.4,M,,*52
$GPRMC,134337.500,A,4308.4687,N,07726.4347,W,0.14,78.39,071019,,A*44
$GPRMC,134338.000,A,4308.4686,N,07726.4347,W,0.12,79.60,071019,,,A*44
$GPGGA,134338.250,4308.4686,N,07726.4347,W,1,07,1.30,170.7,M,-34.4,M,,*5E
$GPGGA,134338.750,4308.4686,N,07726.4347,W,1,07,1.30,170.7,M,-34.4,M,,*5B
$GPRMC,134338.750,A,4308.4686,N,07726.4347,W,0.07,79.87,071019,,,A*4B
$GPRMC,134339.250,A,4308.4687,N,07726.4347,W,0.10,79.87,071019,,,A*48
$GPGGA,134339.500,4308.4687,N,07726.4347,W,1,07,1.30,170.7,M,-34.4,M,,*5C
$GPGGA,134340.000,4308.4687,N,07726.4347,W,1,07,1.40,170.7,M,-34.4,M,,*50
$GPRMC,134340.000,A,4308.4687,N,07726.4347,W,0.11,79.87,071019,1.40,170.7,M,-34.4,M,,*57
$GPGGA,134340.750,4308.4687,N,07726.4346,W,1,07,1.30,170.7,M,-34.4,M,,*54
$GPRMC,134340.750,A,4308.4687,N,07726.4346,W,0.10,79.87,071019,,A*42
$GPRMC,134341.250,A,4308.4687,N,07726.4346,W,0.10,79.87,071019,,,A*46
$GPGGA,134341.500,4308.4687,N,07726.4346,W,1,07,1.30,170.7,M,-34.4,M,,*52
$GPGGA,134342.000,4308.4687,N,07726.4346,W,1,07,1.30,170.8,M,-34.4,M,,*5B
$GPRMC,134342.000,A,4308.4687,N,07726.4346,W,0.09,79.87,071019,,,A*4A
$GPGGA,134342.250,4308.4687,N,07726.4346,W,1,07,1.30,170.8,M,-
$GPRMC,134342.500,A,4308.4687,N,07726.4346,W,0.10,79.87,071019,$GPGGA,134342.750,4308.4687,N,07726.4346,W,1,07,1.30,170.8,M,-34.4,M,,*59
$GPRMC,134342.750,A,4308.4687,N,07726.4346,W,0.11,79.87,071019,3
$GPGGA,134343.250,4308.4687,N,07726.4346,W,1,07,1.30,170.8,M,-34.4,M,,*5D
$GPGGA,134343.750,4308.4687,N,07726.4346,W,1,07,1.30,170.8,M,-34.4,M,,*58
$GPRMC,134343.750,A,4308.4687,N,07726.4346,W,0.08,79.87,071019,,A*48
$GPRMC,134344.250,A,4308.4687,N,07726.4345,W,0.08,79.87,071019,,,A*49
$GPGGA,134344.500,4308.4687,N,07726.4345,W,1,07,1.30,170.8,M,-34.4,M,,*5B
$GPRMC,134344.500,A,4308.4687,N,07726.4345,W,0.09,79.87,071019,45
$GPGGA,134345.000,4308.4687,N,07726.4345,W,1,07,1.30,170.8,M,-34.4,M,,*5F
$GPGGA,134345.500,4308.4687,N,07726.4345,W,1,07,1.30,170.8,M,-34.4,M,,*5A
$GPRMC,134345.500,A,4308.4687,N,07726.4345,W,0.14,79.87,071019,,A*47
$GPRMC,134346.000,A,4308.4687,N,07726.4345,W,0.13,79.87,071019,,,A*46
$GPGGA,134346.250,4308.4687,N,07726.4345,W,1,07,1.30,170.8,M,-34.4,M,,*5B
$GPRMC,134346.750,A,4308.4688,N,07726.4345,W,0.12,79.87,071019,,,A*4A
$GPGGA,134347.000,4308.4688,N,07726.4345,W,1,07,1.30,170.8,M,-34.4,M,,*52
$GPGGA,134347.500,4308.4688,N,07726.4345,W,1,07,1.30,170.8,M,-34.4,M,,*57
$GPRMC,134347.500,A,4308.4688,N,07726.4345,W,0.12,79.87,071019,,,A*4C
$GPRMC,134348.000,A,4308.4688,N,07726.4345,W,0.12,79.87,071019,,,A*46
$GPGGA,134348.250,4308.4688,N,07726.4345,W,1,06,1.76,170.8,M,-34.4,M,,*59
$GPGGA,134348.750,4308.4688,N,07726.4345,W,1,07,1.40,170.8,M,-34.4,M,,*58
$GPRMC,134348.750,A,4308.4688,N,07726.4345,W,0.18,79.87,071019,30,170.8,M,-34.4,M,,*5D
$GPGGA,134349.500,4308.4689,N,07726.4344,W,1,07,1.30,170.8,M,-34.4,M,,*59
$GPRMC,134349.500,A,4308.4689,N,07726.4344,W,0.21,79.87,071019,,,A*42
$GPRMC,134350.000,A,4308.4689,N,07726.4344,W,0.23,79.87,071019,,,A*4D
$GPGGA,134350.250,4308.4689,N,07726.4344,W,1,07,1.30,170.8,M,-34.4,M,,*53
$GPGGA,134350.750,4308.4689,N,07726.4344,W,1,07,1.30,170.8,M,-34.4,M,,*56
$GPRMC,134350.750,A,4308.4689,N,07726.4344,W,0.28,79.87,071019,,,A*44
$GPGGA,134351.000,4308.4689,N,07726.4344,W,1,07,1.30,170.8,M,-340
$GPGGA,134351.750,4308.4690,N,07726.4343,W,1,07,1.30,170.8,M,-34.4,M,,*58
$GPGGA,134352.250,4308.4690,N,07726.4343,W,1,07,1.30,170.8,M,-34.4,M,,*5E
$GPRMC,134352.250,A,4308.4690,N,07726.4343,W,0.11,29.26,071019,,A*48
$GPGGA,134352.500,4308.4690,N,07726.4343,W,1,07,1.30,170.8,M,-33
$GPGGA,134352.750,4308.4690,N,07726.4343,W,1,07,1.30,170.8,M,-34.4,M,,*5B
$GPGGA,134353.250,4308.4690,N,07726.4343,W,1,07,1.30,170.8,M,-34.4,M,,*5F
$GPRMC,134353.250,A,4308.4690,N,07726.4343,W,0.07,29.26,071019,1.30,170.8,M,-34.4,M,,*5D
$GPGGA,134354.000,4308.4690,N,07726.4343,W,1,07,1.30,170.8,M,-34.4,M,,*5F
$GPRMC,134354.000,A,4308.4690,N,07726.4343,W,0.06,29.26,071019,,,A*4F
$GPRMC,134354.500,A,4308.4690,N,07726.4343,W,0.06,29.26,071019,,,A*4A
$GPGGA,134354.750,4308.4690,N,07726.4343,W,1,07,1.30,170.8,M,-34.4,M,,*5D
$GPGGA,134355.250,4308.4690,N,07726.4343,W,1,07,1.30,170.8,M,-34.4,M,,*59
$GPRMC,134355.250,A,4308.4690,N,07726.4343,W,0.06,29.26,071019,,A*49
$GPRMC,134355.750,A,4308.4690,N,07726.4342,W,0.07,29.26,071019,,,A*4C
$GPGGA,134356.000,4308.4690,N,07726.4342,W,1,07,1.30,170.8,M,-34.4,M,,*5C
$GPGGA,134356.500,4308.4690,N,07726.4342,W,1,07,1.30,170.8,M,-34.4,M,,*59
$GPRMC,134356.500,A,4308.4690,N,07726.4342,W,0.09,29.26,071019,,,A*46
$GPRMC,134357.000,A,4308.4690,N,07726.4342,W,0.11,29.26,071019,,,A*4B
$GPGGA,134357.250,4308.4690,N,07726.4342,W,1,07,1.30,170.8,M,-34.4,M,,*5A
$GPRMC,134357.750,A,4308.4690,N,07726.4342,W,0.07,29.26,071019,,,A*4E
$GPGGA,134358.000,4308.4690,N,07726.4342,W,1,07,1.40,170.8,M,-34.4,M,,*55
$GPGGA,134358.500,4308.4690,N,07726.4342,W,1,07,1.40,170.8,M,-34.4,M,,*50
$GPRMC,134358.500,A,4308.4690,N,07726.4342,W,0.18,29.26,071019,,,A*48
$GPRMC,134359.000,A,4308.4690,N,07726.4342,W,0.40,29.26,071019,,,A*41
$GPGGA,134359.250,4308.4690,N,07726.4342,W,1,07,1.30,170.8,M,-34.4,M,,*54
$GPGGA,134359.750,4308.4690,N,07726.4345,W,1,07,1.30,170.8,M,-34.4,M,,*56
$GPRMC,134359.750,A,4308.4690,N,07726.4345,W,1.65,289.98,071019,,A*7F
$GPRMC,134400.250,A,4308.4691,N,07726.4352,W,5.28,281.27,071019,,,A*77
$GPGGA,134400.500,4308.4692,N,07726.4359,W,1,07,1.40,170.8,M,-34.4,M,,*52
$GPGGA,134401.000,4308.4695,N,07726.4376,W,1,07,1.40,170.8,M,-34.4,M,,*5C
$GPRMC,134401.000,A,4308.4695,N,07726.4376,W,9.46,281.40,071019,,A*76
$GPRMC,134401.500,A,4308.4698,N,07726.4397,W,11.31,280.63,071019,,,A*48
$GPGGA,134401.750,4308.4700,N,07726.4408,W,1,07,1.40,170.9,M,-34.4,M,,*5C
$GPGGA,134402.250,4308.4702,N,07726.4433,W,1,07,1.40,170.9,M,-34.4,M,,*50
$GPRMC,134402.250,A,4308.4702,N,07726.4433,W,13.33,278.66,07101170.9,M,-34.4,M,,*50
$GPGGA,134403.000,4308.4705,N,07726.4474,W,1,07,1.40,171.0,M,-34.4,M,,*5A
$GPRMC,134403.000,A,4308.4705,N,07726.4474,W,14.71,278.35,071019,,,A*45
$GPRMC,134403.500,A,4308.4707,N,07726.4504,W,15.72,278.65,071019,,,A*43
$GPGGA,134403.750,4308.4707,N,07726.4520,W,1,07,1.40,171.2,M,-34.4,M,,*58
$GPGGA,134404.250,4308.4709,N,07726.4553,W,1,07,1.40,171.3,M,-34.4,M,,*51
$GPRMC,134404.250,A,4308.4709,N,07726.4553,W,17.45,277.39,071019,,,A*4A
$GPRMC,134404.750,A,4308.4712,N,07726.4589,W,18.52,278.17,071019,,,A*48
$GPGGA,134405.000,4308.4713,N,07726.4608,W,1,07,1.40,171.4,M,-34.4,M,,*56
$GPRMC,134405.000,A,4308.4713,N,07726.4608,W,19.40,278.32,0710
$GPGGA,134405.500,4308.4716,N,07726.4647,W,1,07,1.40,171.6,M,-34.4,M,,*5F
$GPGGA,134406.000,4308.4719,N,07726.4689,W,1,07,1.40,171.7,M,-34.4,M,,*55
$GPRMC,134406.000,A,4308.4719,N,07726.4689,W,21.76,279.12,071019,,,A*48
$GPRMC,134406.500,A,4308.4726,N,07726.4731,W,22.85,279.31,071019,,,A*4D
$GPGGA,134406.750,4308.4729,N,07726.4753,W,1,07,1.40,171.8,M,-34.4,M,,*5D
$GPGGA,134407.250,4308.4735,N,07726.4800,W,1,07,1.40,172.0,M,-34.4,M,,*56
$GPRMC,134407.250,A,4308.4735,N,07726.4800,W,24.62,278.79,071019,,,A*43
$GPRMC,134407.750,A,4308.4740,N,07726.4848,W,25.38,278.09,071019,,,A*41
$GPGGA,134408.000,4308.4742,N,07726.4873,W,1,07,1.40,172.3,M,-34.4,M,,*59
$GPGGA,134408.500,4308.4746,N,07726.4925,W,1,07,1.40,172.5,M,-34.4,M,,*5C
$GPRMC,134408.500,A,4308.4746,N,07726.4925,W,26.99,277.58,071019,,,A*46
$GPRMC,134409.000,A,4308.4751,N,07726.4978,W,27.99,277.47,071019,,,A*43
$GPGGA,134409.250,4308.4753,N,07726.5006,W,1,07,1.40,172.8,M,-34.4,M,,*5F
$GPGGA,134409.750,4308.4756,N,07726.5062,W,1,07,1.40,173.0,M,-34.4,M,,*54
$GPRMC,134409.750,A,4308.4756,N,07726.5062,W,28.90,275.29,071019,,,A*49
$GPRMC,134410.250,A,4308.4759,N,07726.5119,W,29.92,275.04,071019,,,A*4A
$GPGGA,134410.500,4308.4761,N,07726.5148,W,1,07,1.40,173.2,M,-34.4,M,,*54
$GPGGA,134411.000,4308.4764,N,07726.5208,W,1,07,1.40,173.2,M,-34.4,M,,*52
$GPRMC,134411.000,A,4308.4764,N,07726.5208,W,30.99,275.25,07101,173.3,M,-34.4,M,,*55
$GPGGA,134411.750,4308.4769,N,07726.5300,W,1,07,1.30,173.4,M,-34.4,M,,*55
$GPRMC,134411.750,A,4308.4769,N,07726.5300,W,32.06,274.48,071019,,,A*49
$GPRMC,134412.250,A,4308.4772,N,07726.5363,W,32.25,274.29,071019,,,A*46
$GPGGA,134412.500,4308.4773,N,07726.5394,W,1,07,1.40,173.5,M,-34.4,M,,*51
$GPGGA,134413.000,4308.4776,N,07726.5458,W,1,07,1.40,173.7,M,-34.4,M,,*55
$GPRMC,134413.000,A,4308.4776,N,07726.5458,W,33.26,274.55,07101,,,A*42
$GPGGA,134413.750,4308.4780,N,07726.5557,W,1,07,1.40,173.9,M,-34.4,M,,*5E
$GPRMC,134413.750,A,4308.4780,N,07726.5557,W,34.17,273.86,07101,,,A*4B
$GPRMC,134414.250,A,4308.4783,N,07726.5623,W,34.32,273.34,071019,,,A*44
$GPGGA,134414.500,4308.4784,N,07726.5656,W,1,06,1.75,174.1,M,-34.4,M,,*50
$GPGGA,134415.000,4308.4786,N,07726.5723,W,1,05,2.54,174.2,M,-34.4,M,,*55
$GPRMC,134415.000,A,4308.4786,N,07726.5723,W,35.02,273.30,071019,,,A*40
$GPRMC,134415.500,A,4308.4788,N,07726.5791,W,35.52,272.89,071019,,,A*44
$GPGGA,134415.750,4308.4789,N,07726.5825,W,1,07,1.40,174.4,M,-34.4,M,,*53
$GPGGA,134416.250,4308.4791,N,07726.5894,W,1,05,2.54,174.6,M,-34.4,M,,*50
$GPRMC,134416.250,A,4308.4791,N,07726.5894,W,35.77,273.23,071019,,,A*41
$GPGGA,134416.750,4308.4794,N,07726.5963,W,1,06,2.10,174.8,M,-34.4,M,,*54
$GPRMC,134416.750,A,4308.4794,N,07726.5963,W,35.86,273.61,07101,,,A*40
$GPRMC,134417.250,A,4308.4796,N,07726.6032,W,35.98,273.09,071019,,,A*49
$GPGGA,134417.500,4308.4797,N,07726.6067,W,1,07,1.40,175.1,M,-34.4,M,,*50
$GPRMC,134418.000,A,4308.4799,N,07726.6137,W,36.46,272.98,071019,,,A*43
$GPGGA,134418.250,4308.4800,N,07726.6173,W,1,07,1.40,175.6,M,-34.4,M,,*5F
$GPGGA,134418.750,4308.4802,N,07726.6243,W,1,07,1.40,176.0,M,-34.4,M,,*5D
$GPRMC,134418.750,A,4308.4802,N,07726.6243,W,36.77,271.99,071019,,,A*4C
$GPRMC,134419.250,A,4308.4802,N,07726.6315,W,36.87,271.05,071019,,,A*40
$GPGGA,134419.500,4308.4802,N,07726.6352,W,1,07,1.40,176.1,M,-34.4,M,,*5B
$GPGGA,134420.000,4308.4801,N,07726.6424,W,1,07,1.40,176.1,M,-34.4,M,,*51
$GPRMC,134420.000,A,4308.4801,N,07726.6424,W,37.21,269.62,0710140,176.1,M,-34.4,M,,*56
$GPGGA,134420.750,4308.4798,N,07726.6534,W,1,07,1.40,176.2,M,-34.4,M,,*5F
$GPRMC,134420.750,A,4308.4798,N,07726.6534,W,37.37,268.34,071019,,,A*46
$GPRMC,134421.250,A,4308.4796,N,07726.6607,W,37.48,267.97,071019,,,A*41
$GPGGA,134421.500,4308.4794,N,07726.6644,W,1,06,1.45,176.1,M,-34.4,M,,*56
$GPGGA,134422.000,4308.4791,N,07726.6718,W,1,06,1.45,176.0,M,-34.4,M,,*5C
$GPRMC,134422.000,A,4308.4791,N,07726.6718,W,37.61,267.05,071019,,,A*4D
$GPRMC,134422.500,A,4308.4787,N,07726.6793,W,37.91,266.36,071019,,,A*42
$GPGGA,134422.750,4308.4785,N,07726.6831,W,1,06,1.36,176.0,M,-34.4,M,,*5B
$GPGGA,134423.250,4308.4781,N,07726.6905,W,1,06,1.45,175.9,M,-34.4,M,,*53
$GPRMC,134423.250,A,4308.4781,N,07726.6905,W,37.89,266.27,071019,,,A*4F
$GPRMC,134423.750,A,4308.4778,N,07726.6978,W,37.86,266.27,071019,,,A*49
$GPGGA,134424.000,4308.4776,N,07726.7015,W,1,06,2.10,175.9,M,-34.4,M,,*51
$GPGGA,134424.500,4308.4773,N,07726.7090,W,1,06,2.10,175.9,M,-34.4,M,,*5C
$GPRMC,134424.500,A,4308.4773,N,07726.7090,W,38.02,266.39,0710154,175.9,M,-34.4,M,,*58
$GPGGA,134425.250,4308.4766,N,07726.7204,W,1,06,2.10,176.0,M,-34.4,M,,*5E
$GPRMC,134425.250,A,4308.4766,N,07726.7204,W,38.79,266.03,071019,,,A*4D
$GPRMC,134425.750,A,4308.4762,N,07726.7279,W,38.88,265.88,071019,,,A*48
$GPGGA,134426.000,4308.4759,N,07726.7317,W,1,06,2.10,176.3,M,-34.4,M,,*56
$GPGGA,134426.500,4308.4755,N,07726.7393,W,1,06,2.10,176.7,M,-34.4,M,,*57
$GPRMC,134426.500,A,4308.4755,N,07726.7393,W,38.92,265.88,071019,,,A*46
$GPRMC,134427.000,A,4308.4750,N,07726.7468,W,38.95,265.63,071019,,,A*46
$GPGGA,134427.250,4308.4748,N,07726.7506,W,1,06,2.10,177.3,M,-34.4,M,,*57
$GPGGA,134427.750,4308.4744,N,07726.7583,W,1,06,1.54,176.6,M,-34.4,M,,*54
$GPRMC,134427.750,A,4308.4744,N,07726.7583,W,38.76,265.90,071019,,,A*44
$GPRMC,134428.250,A,4308.4740,N,07726.7658,W,38.67,265.69,071019,,,A*49
$GPGGA,134428.500,4308.4738,N,07726.7696,W,1,06,2.10,177.1,M,-34.4,M,,*55
$GPRMC,134429.000,A,4308.4733,N,07726.7769,W,38.67,264.73,071019,,,A*42
$GPGGA,134429.250,4308.4730,N,07726.7806,W,1,06,2.10,177.5,M,-34.4,M,,*5D
$GPGGA,134429.750,4308.4726,N,07726.7879,W,1,07,1.39,177.7,M,-34.4,M,,*5C
$GPRMC,134429.750,A,4308.4726,N,07726.7879,W,38.67,264.97,07101,,,A*40
$GPRMC,134430.250,A,4308.4723,N,07726.7954,W,38.67,265.35,071019,,,A*4F
$GPGGA,134430.500,4308.4721,N,07726.7992,W,1,07,1.39,177.5,M,-34.4,M,,*52
$GPGGA,134431.000,4308.4718,N,07726.8066,W,1,07,1.39,177.6,M,-34.4,M,,*52
$GPRMC,134431.000,A,4308.4718,N,07726.8066,W,39.26,266.02,071019,,,A*45
$GPRMC,134431.500,A,4308.4715,N,07726.8140,W,39.03,266.57,071019,,,A*4F
$GPGGA,134431.750,4308.4714,N,07726.8177,W,1,07,1.39,177.5,M,-34.4,M,,*5E
$GPGGA,134432.250,4308.4711,N,07726.8253,W,1,07,1.39,177.5,M,-34.4,M,,*58
$GPRMC,134432.250,A,4308.4711,N,07726.8253,W,39.31,266.46,071019,,,A*4A
$GPRMC,134432.750,A,4308.4707,N,07726.8329,W,39.72,266.14,071019,,,A*44
$GPGGA,134433.000,4308.4706,N,07726.8367,W,1,07,1.39,177.7,M,-34.4,M,,*5C
$GPGGA,134433.500,4308.4703,N,07726.8445,W,1,07,1.39,177.5,M,-34.4,M,,*59
$GPRMC,134433.500,A,4308.4703,N,07726.8445,W,40.52,266.84,07101177.5,M,-34.4,M,,*51
$GPGGA,134434.250,4308.4698,N,07726.8563,W,1,07,1.39,177.6,M,-34.4,M,,*59
$GPRMC,134434.250,A,4308.4698,N,07726.8563,W,40.91,266.67,07101,,,A*4F
$GPRMC,134434.750,A,4308.4696,N,07726.8640,W,40.94,266.63,071019,,,A*47
$GPGGA,134435.000,4308.4694,N,07726.8679,W,1,07,1.39,177.7,M,-34.4,M,,*5A
$GPGGA,134435.500,4308.4690,N,07726.8758,W,1,07,1.39,177.8,M,-34.4,M,,*56
$GPRMC,134435.500,A,4308.4690,N,07726.8758,W,41.05,266.05,071019,,,A*46
$GPRMC,134436.000,A,4308.4686,N,07726.8836,W,40.78,265.87,071019,,,A*42
$GPGGA,134436.250,4308.4683,N,07726.8875,W,1,07,1.39,178.0,M,-34.4,M,,*52
$GPGGA,134436.750,4308.4679,N,07726.8953,W,1,07,1.39,178.2,M,-34.4,M,,*55
$GPRMC,134436.750,A,4308.4679,N,07726.8953,W,40.48,266.01,07101,,,A*4C
$GPRMC,134437.250,A,4308.4675,N,07726.9029,W,40.26,266.30,071019,,,A*4B
$GPGGA,134437.500,4308.4673,N,07726.9068,W,1,07,1.39,178.4,M,-34.4,M,,*5F
$GPGGA,134438.000,4308.4668,N,07726.9145,W,1,07,1.39,178.4,M,-34.4,M,,*51
$GPRMC,134438.000,A,4308.4668,N,07726.9145,W,40.18,266.01,071019,178.3,M,-34.4,M,,*51
$GPGGA,134438.750,4308.4661,N,07726.9260,W,1,07,1.39,178.4,M,-34.4,M,,*5E
$GPRMC,134438.750,A,4308.4661,N,07726.9260,W,39.95,265.40,07101,,,A*49
$GPRMC,134439.250,A,4308.4656,N,07726.9336,W,39.75,265.29,071019,,,A*4A
$GPGGA,134439.500,4308.4653,N,07726.9374,W,1,07,1.39,178.5,M,-34.4,M,,*5C
$GPGGA,134440.000,4308.4648,N,07726.9449,W,1,07,1.39,178.5,M,-34.4,M,,*54
$GPRMC,134440.000,A,4308.4648,N,07726.9449,W,39.73,265.27,07101.39,178.4,M,-34.4,M,,*5E
$GPRMC,134440.250,A,4308.4646,N,07726.9487,W,39.66,265.38,0710171019,,,A*4D
$GPGGA,134440.750,4308.4642,N,07726.9562,W,1,07,1.30,178.4,M,-34.4,M,,*5C
$GPGGA,134441.250,4308.4636,N,07726.9637,W,1,07,1.39,178.3,M,-34.4,M,,*56
$GPRMC,134441.250,A,4308.4636,N,07726.9637,W,39.34,265.17,071019,,,A*4F
$GPRMC,134441.750,A,4308.4633,N,07726.9712,W,39.34,266.02,071019,,,A*4E
$GPGGA,134442.000,4308.4631,N,07726.9749,W,1,07,1.39,178.4,M,-34.4,M,,*5A
$GPRMC,134442.500,A,4308.4628,N,07726.9824,W,39.29,266.86,071019,,,A*4A
$GPGGA,134442.750,4308.4627,N,07726.9861,W,1,07,1.29,178.4,M,-34.4,M,,*5B
$GPGGA,134443.250,4308.4627,N,07726.9935,W,1,07,1.39,178.4,M,-34.4,M,,*5E
$GPRMC,134443.250,A,4308.4627,N,07726.9935,W,39.28,267.90,07101,,,A*40
$GPRMC,134443.750,A,4308.4624,N,07727.0011,W,39.29,267.41,071019,,,A*4C
$GPGGA,134444.000,4308.4622,N,07727.0049,W,1,07,1.39,178.3,M,-34.4,M,,*56
$GPGGA,134444.500,4308.4618,N,07727.0125,W,1,07,1.39,178.3,M,-34.4,M,,*51
$GPRMC,134444.500,A,4308.4618,N,07727.0125,W,39.59,267.14,07101,178.4,M,-34.4,M,,*5D
$GPRMC,134445.250,A,4308.4612,N,07727.0240,W,39.55,267.35,071019,,,A*44
$GPGGA,134445.500,4308.4610,N,07727.0279,W,1,07,1.39,178.2,M,-34.4,M,,*53
$GPGGA,134446.000,4308.4606,N,07727.0358,W,1,06,2.10,177.9,M,-34.4,M,,*5D
$GPRMC,134446.000,A,4308.4606,N,07727.0358,W,39.71,268.15,071019,,,A*46
$GPRMC,134446.500,A,4308.4600,N,07727.0437,W,40.22,268.57,071019,,,A*45
$GPGGA,134446.750,4308.4596,N,07727.0477,W,1,06,1.74,177.3,M,-34.4,M,,*54
$GPRMC,134447.250,A,4308.4594,N,07727.0557,W,40.40,270.64,071019,,,A*42
$GPGGA,134447.500,4308.4594,N,07727.0598,W,1,07,1.39,177.1,M,-34.4,M,,*5A
$GPGGA,134448.000,4308.4595,N,07727.0676,W,1,07,1.39,177.3,M,-34.4,M,,*50
$GPRMC,134448.000,A,4308.4595,N,07727.0676,W,40.41,272.42,07101,,,A*4C
$GPRMC,134448.500,A,4308.4596,N,07727.0757,W,41.19,272.95,071019,,,A*4E
$GPGGA,134448.750,4308.4596,N,07727.0797,W,1,07,1.39,177.1,M,-34.4,M,,*5D
$GPGGA,134449.250,4308.4599,N,07727.0878,W,1,07,1.39,177.2,M,-34.4,M,,*5B
$GPRMC,134449.250,A,4308.4599,N,07727.0878,W,41.39,273.85,0710139,177.2,M,-34.4,M,,*5C
$GPGGA,134450.000,4308.4608,N,07727.0998,W,1,07,1.39,177.1,M,-34.4,M,,*53
$GPRMC,134450.000,A,4308.4608,N,07727.0998,W,41.25,276.37,071019,,,A*48
$GPRMC,134450.500,A,4308.4615,N,07727.1077,W,41.24,277.74,071019,,,A*4F
$GPGGA,134450.750,4308.4618,N,07727.1117,W,1,07,1.39,177.0,M,-34.4,M,,*5F
$GPGGA,134451.250,4308.4627,N,07727.1196,W,1,07,1.39,177.1,M,-34.4,M,,*5F
$GPRMC,134451.250,A,4308.4627,N,07727.1196,W,41.04,278.69,071019,,,A*42
$GPRMC,134451.750,A,4308.4635,N,07727.1274,W,41.01,278.94,071019,,,A*4C
$GPGGA,134452.000,4308.4639,N,07727.1314,W,1,07,1.39,177.1,M,-34.4,M,,*5C
$GPGGA,134452.500,4308.4648,N,07727.1393,W,1,07,1.39,177.1,M,-34.4,M,,*50
$GPRMC,134452.500,A,4308.4648,N,07727.1393,W,41.04,279.78,07101,,,A*4C
$GPRMC,134453.000,A,4308.4658,N,07727.1471,W,41.02,280.30,071019,,,A*4E
$GPGGA,134453.250,4308.4663,N,07727.1510,W,1,06,2.10,177.3,M,-34.4,M,,*5C
$GPGGA,134453.750,4308.4673,N,07727.1587,W,1,06,1.54,177.5,M,-34.4,M,,*53
$GPRMC,134453.750,A,4308.4673,N,07727.1587,W,40.74,280.62,071012.10,177.6,M,-34.4,M,,*56
$GPGGA,134454.500,4308.4689,N,07727.1702,W,1,06,2.10,177.9,M,-34.4,M,,*56
$GPRMC,134454.500,A,4308.4689,N,07727.1702,W,40.77,280.74,071019,,,A*44
$GPRMC,134455.000,A,4308.4699,N,07727.1779,W,40.78,280.56,071019,,,A*42
$GPGGA,134455.250,4308.4704,N,07727.1819,W,1,07,1.39,178.1,M,-34.4,M,,*5A
$GPGGA,134455.750,4308.4713,N,07727.1896,W,1,07,1.39,178.3,M,-34.4,M,,*5C
$GPRMC,134455.750,A,4308.4713,N,07727.1896,W,40.90,279.84,071019,,,A*42
$GPRMC,134456.250,A,4308.4722,N,07727.1974,W,40.65,279.74,071019,,,A*4E
$GPGGA,134456.500,4308.4726,N,07727.2013,W,1,06,2.10,178.4,M,-34.4,M,,*56
$GPGGA,134457.000,4308.4737,N,07727.2089,W,1,06,2.10,178.7,M,-34.4,M,,*52
$GPRMC,134457.000,A,4308.4737,N,07727.2089,W,40.57,280.40,07101,,,A*44
$GPRMC,134457.500,A,4308.4746,N,07727.2167,W,40.53,280.49,071019,,,A*4B
$GPGGA,134457.750,4308.4751,N,07727.2205,W,1,07,1.39,178.6,M,-34.4,M,,*5E
$GPGGA,134458.250,4308.4760,N,07727.2284,W,1,07,1.39,178.5,M,-34.4,M,,*5C
$GPRMC,134458.250,A,4308.4760,N,07727.2284,W,40.84,280.39,07101W,1,07,1.39,178.4,M,-34.4,M,,*50
$GPRMC,134458.500,A,4308.4764,N,07727.2324,W,40.87,280.10,07101
$GPGGA,134459.000,4308.4772,N,07727.2403,W,1,07,1.39,178.4,M,-34.4,M,,*51
$GPGGA,134459.500,4308.4779,N,07727.2484,W,1,07,1.39,178.3,M,-34.4,M,,*57
$GPRMC,134459.500,A,4308.4779,N,07727.2484,W,41.37,279.38,071019,,,A*42
$GPRMC,134500.000,A,4308.4788,N,07727.2565,W,41.47,279.82,071019,,,A*4C
$GPGGA,134500.250,4308.4792,N,07727.2606,W,1,07,1.39,178.1,M,-34.4,M,,*57
$GPRMC,134500.750,A,4308.4801,N,07727.2686,W,41.41,279.83,071019,,,A*49
$GPGGA,134501.000,4308.4804,N,07727.2726,W,1,07,1.39,177.8,M,-34.4,M,,*54
$GPGGA,134501.500,4308.4811,N,07727.2806,W,1,07,1.39,177.6,M,-34.4,M,,*56
$GPRMC,134501.500,A,4308.4811,N,07727.2806,W,41.15,278.63,071019,,,A*46
$GPRMC,134502.000,A,4308.4818,N,07727.2886,W,41.20,278.60,071019,,,A*44
$GPGGA,134502.250,4308.4822,N,07727.2926,W,1,07,1.39,177.4,M,-34.4,M,,*56
$GPGGA,134502.750,4308.4831,N,07727.3005,W,1,07,1.39,177.3,M,-34.4,M,,*5F
$GPRMC,134502.750,A,4308.4831,N,07727.3005,W,40.87,279.21,07101,177.3,M,-34.4,M,,*5E
$GPGGA,134503.500,4308.4846,N,07727.3122,W,1,07,1.39,177.1,M,-34.4,M,,*5F
$GPRMC,134503.500,A,4308.4846,N,07727.3122,W,40.23,279.89,07101,,,A*49
$GPRMC,134504.000,A,4308.4856,N,07727.3198,W,40.14,279.92,071019,,,A*45
$GPGGA,134504.250,4308.4862,N,07727.3236,W,1,07,1.39,176.9,M,-34.4,M,,*53
$GPGGA,134504.750,4308.4872,N,07727.3311,W,1,07,1.39,176.7,M,-34.4,M,,*5D
$GPRMC,134504.750,A,4308.4872,N,07727.3311,W,39.52,280.28,07101,176.6,M,-34.4,M,,*5F
$GPGGA,134505.500,4308.4887,N,07727.3421,W,1,06,2.10,176.3,M,-34.4,M,,*58
$GPRMC,134505.500,A,4308.4887,N,07727.3421,W,38.45,280.34,07101,,,A*4B
$GPRMC,134506.000,A,4308.4898,N,07727.3493,W,38.28,280.87,071019,,,A*49
$GPGGA,134506.250,4308.4903,N,07727.3529,W,1,06,2.10,176.0,M,-34.4,M,,*5E
$GPGGA,134506.750,4308.4913,N,07727.3600,W,1,07,1.39,176.0,M,-34.4,M,,*5B
$GPRMC,134506.750,A,4308.4913,N,07727.3600,W,38.04,280.92,07101,,,A*4B
$GPRMC,134507.250,A,4308.4921,N,07727.3672,W,37.95,280.02,071019,,,A*45
$GPGGA,134507.500,4308.4925,N,07727.3708,W,1,07,1.39,175.7,M,-34.4,M,,*55
$GPGGA,134508.000,4308.4933,N,07727.3780,W,1,07,1.38,175.5,M,-34.4,M,,*5B
$GPRMC,134508.000,A,4308.4933,N,07727.3780,W,37.34,279.12,071019,,,A*4E
$GPRMC,134508.500,A,4308.4939,N,07727.3853,W,36.98,278.37,071019,,,A*41
$GPGGA,134508.750,4308.4942,N,07727.3889,W,1,07,1.38,174.6,M,-34.4,M,,*5B
$GPRMC,134509.250,A,4308.4948,N,07727.3961,W,36.89,277.91,071019,,,A*47
$GPGGA,134509.500,4308.4951,N,07727.3997,W,1,07,1.38,173.9,M,-34.4,M,,*59
$GPGGA,134510.000,4308.4959,N,07727.4067,W,1,07,1.38,173.5,M,-34.4,M,,*51
$GPRMC,134510.000,A,4308.4959,N,07727.4067,W,36.75,279.51,071019,,,A*41
$GPRMC,134510.500,A,4308.4967,N,07727.4137,W,36.12,280.14,071019,,,A*4B
$GPGGA,134510.750,4308.4971,N,07727.4171,W,1,07,1.38,173.1,M,-34.4,M,,*5B
$GPGGA,134511.250,4308.4978,N,07727.4240,W,1,07,1.38,173.1,M,-34.4,M,,*57
$GPRMC,134511.250,A,4308.4978,N,07727.4240,W,36.08,279.42,07101,,,A*4B
$GPRMC,134511.750,A,4308.4986,N,07727.4309,W,36.04,279.18,071019,,,A*40
$GPGGA,134512.000,4308.4989,N,07727.4343,W,1,07,1.38,173.2,M,-34.4,M,,*5C
$GPGGA,134512.500,4308.4997,N,07727.4412,W,1,07,1.38,173.2,M,-34.4,M,,*55
$GPRMC,134512.500,A,4308.4997,N,07727.4412,W,36.04,279.25,07101,,,A*47
$GPRMC,134513.000,A,4308.5005,N,07727.4481,W,36.25,279.49,071019,,,A*43
$GPGGA,134513.250,4308.5009,N,07727.4515,W,1,07,1.38,173.2,M,-34.4,M,,*5F
$GPGGA,134513.750,4308.5017,N,07727.4584,W,1,06,2.10,173.3,M,-34.4,M,,*54
$GPRMC,134513.750,A,4308.5017,N,07727.4584,W,36.21,279.63,07101,1.38,173.5,M,-34.4,M,,*5D
$GPGGA,134514.500,4308.5029,N,07727.4688,W,1,06,2.10,173.8,M,-34.4,M,,*5D
$GPRMC,134514.500,A,4308.5029,N,07727.4688,W,36.55,279.47,07101,,,A*4D
$GPRMC,134515.000,A,4308.5036,N,07727.4757,W,36.53,278.95,071019,,,A*4C
$GPGGA,134515.250,4308.5040,N,07727.4791,W,1,06,2.10,174.2,M,-34.4,M,,*55
$GPGGA,134515.750,4308.5049,N,07727.4859,W,1,07,1.38,174.5,M,-34.4,M,,*5D
$GPRMC,134515.750,A,4308.5049,N,07727.4859,W,36.11,279.39,071019,,,A*46
$GPRMC,134516.250,A,4308.5059,N,07727.4927,W,36.08,280.09,071019,,,A*44
$GPGGA,134516.500,4308.5063,N,07727.4962,W,1,07,1.38,174.5,M,-34.4,M,,*58
$GPRMC,134517.000,A,4308.5072,N,07727.5031,W,36.02,279.98,071019,,,A*40
$GPGGA,134517.250,4308.5076,N,07727.5066,W,1,07,1.38,174.2,M,-34.4,M,,*54
$GPGGA,134517.750,4308.5086,N,07727.5135,W,1,07,1.38,174.2,M,-34.4,M,,*59
$GPRMC,134517.750,A,4308.5086,N,07727.5135,W,36.18,280.17,071019,,,A*46
$GPRMC,134518.250,A,4308.5096,N,07727.5203,W,36.01,281.30,071019,,,A*47
$GPGGA,134518.500,4308.5101,N,07727.5237,W,1,07,1.38,173.8,M,-34.4,M,,*53
$GPGGA,134519.000,4308.5111,N,07727.5305,W,1,06,2.10,173.8,M,-34.4,M,,*5E
$GPRMC,134519.000,A,4308.5111,N,07727.5305,W,36.05,281.04,071019,,,A*4B
$GPRMC,134519.500,A,4308.5119,N,07727.5374,W,36.13,280.36,071019,,,A*47
$GPGGA,134519.750,4308.5123,N,07727.5409,W,1,06,2.10,173.8,M,-34.4,M,,*56
$GPGGA,134520.250,4308.5131,N,07727.5477,W,1,06,2.10,173.9,M,-34.4,M,,*52
$GPRMC,134520.250,A,4308.5131,N,07727.5477,W,36.07,279.71,071019,,,A*41
$GPRMC,134520.750,A,4308.5138,N,07727.5545,W,35.86,279.54,071019,,,A*40
$GPGGA,134521.000,4308.5142,N,07727.5579,W,1,06,2.10,174.0,M,-34.4,M,,*51
$GPGGA,134521.500,4308.5151,N,07727.5649,W,1,06,2.10,174.0,M,-34.4,M,,*56
$GPRMC,134521.500,A,4308.5151,N,07727.5649,W,36.37,279.53,07101,,,A*48
$GPRMC,134522.000,A,4308.5158,N,07727.5719,W,36.44,279.32,071019,,,A*40
$GPGGA,134522.250,4308.5162,N,07727.5754,W,1,06,2.10,174.0,M,-34.4,M,,*5A
$GPGGA,134522.750,4308.5170,N,07727.5823,W,1,06,1.54,173.9,M,-34.4,M,,*5E
$GPRMC,134522.750,A,4308.5170,N,07727.5823,W,36.51,279.27,0710110,173.9,M,-34.4,M,,*50
$GPRMC,134523.000,A,4308.5173,N,07727.5859,W,36.71,278.87,071019,,,A*4A
$GPGGA,134523.500,4308.5181,N,07727.5929,W,1,06,2.10,173.7,M,-34.4,M,,*50
$GPGGA,134524.000,4308.5187,N,07727.5999,W,1,06,2.10,173.5,M,-34.4,M,,*5D
$GPRMC,134524.000,A,4308.5187,N,07727.5999,W,36.50,279.01,071019,,,A*47
$GPRMC,134524.500,A,4308.5194,N,07727.6068,W,36.43,279.15,071019,,,A*43
$GPGGA,134524.750,4308.5199,N,07727.6102,W,1,06,2.10,173.4,M,-34.4,M,,*58
$GPRMC,134525.250,A,4308.5206,N,07727.6171,W,35.91,279.52,071019,,,A*4E
$GPGGA,134525.500,4308.5210,N,07727.6206,W,1,07,1.38,173.2,M,-34.4,M,,*55
$GPGGA,134526.000,4308.5217,N,07727.6274,W,1,07,1.38,173.3,M,-34.4,M,,*50
$GPRMC,134526.000,A,4308.5217,N,07727.6274,W,35.86,278.83,071019,,,A*47
$GPRMC,134526.500,A,4308.5223,N,07727.6342,W,35.56,278.60,071019,,,A*41
$GPGGA,134526.750,4308.5226,N,07727.6376,W,1,07,1.38,173.2,M,-34.4,M,,*52
$GPGGA,134527.250,4308.5233,N,07727.6443,W,1,06,2.10,173.1,M,-34.4,M,,*58
$GPRMC,134527.250,A,4308.5233,N,07727.6443,W,35.06,278.83,07101.10,172.9,M,-34.4,M,,*5D
$GPGGA,134528.000,4308.5246,N,07727.6541,W,1,06,2.10,172.5,M,-34.4,M,,*54
$GPRMC,134528.000,A,4308.5246,N,07727.6541,W,34.07,278.64,071019,,,A*4D
$GPRMC,134528.500,A,4308.5251,N,07727.6605,W,33.81,277.43,071019,,,A*4E
$GPGGA,134528.750,4308.5254,N,07727.6637,W,1,06,2.10,172.2,M,-34.4,M,,*50
$GPGGA,134529.250,4308.5259,N,07727.6701,W,1,07,1.38,172.2,M,-34.4,M,,*55
$GPRMC,134529.250,A,4308.5259,N,07727.6701,W,33.64,276.90,071019,,,A*44
$GPRMC,134529.750,A,4308.5264,N,07727.6766,W,33.65,276.78,071019,,,A*49
$GPGGA,134530.000,4308.5267,N,07727.6797,W,1,07,1.38,172.0,M,-34.4,M,,*5A
$GPGGA,134530.500,4308.5271,N,07727.6860,W,1,07,1.38,171.5,M,-34.4,M,,*59
$GPRMC,134530.500,A,4308.5271,N,07727.6860,W,32.53,276.43,07101,,,A*47
$GPRMC,134531.000,A,4308.5275,N,07727.6922,W,32.33,275.69,071019,,,A*4D
$GPGGA,134531.250,4308.5277,N,07727.6953,W,1,07,1.38,170.9,M,-34.4,M,,*50
$GPGGA,134531.750,4308.5279,N,07727.7014,W,1,07,1.38,170.7,M,-34.4,M,,*5E
$GPRMC,134531.750,A,4308.5279,N,07727.7014,W,31.68,273.88,07101.38,170.6,M,-34.4,M,,*5C
$GPGGA,134532.500,4308.5282,N,07727.7104,W,1,05,2.56,170.5,M,-34.4,M,,*55
$GPRMC,134532.500,A,4308.5282,N,07727.7104,W,31.25,272.66,07101,,,A*42
$GPRMC,134533.000,A,4308.5283,N,07727.7164,W,30.82,272.42,071019,,,A*4B
$GPGGA,134533.250,4308.5284,N,07727.7194,W,1,07,1.38,170.3,M,-34.4,M,,*56
$GPGGA,134533.750,4308.5286,N,07727.7251,W,1,07,1.29,170.3,M,-34.4,M,,*5B
$GPRMC,134533.750,A,4308.5286,N,07727.7251,W,30.11,271.76,07101,,,A*47
$GPRMC,134534.250,A,4308.5286,N,07727.7307,W,28.79,270.39,071019,,,A*4A
$GPGGA,134534.500,4308.5287,N,07727.7333,W,1,06,1.73,170.4,M,-34.4,M,,*56
$GPGGA,134535.000,4308.5288,N,07727.7385,W,1,07,1.38,170.5,M,-34.4,M,,*5F
$GPRMC,134535.000,A,4308.5288,N,07727.7385,W,26.02,270.44,07101,,,A*40
$GPRMC,134535.500,A,4308.5288,N,07727.7434,W,24.94,270.45,071019,,,A*44
$GPGGA,134535.750,4308.5289,N,07727.7458,W,1,07,1.38,170.4,M,-34.4,M,,*5A
$GPGGA,134536.250,4308.5290,N,07727.7504,W,1,07,1.38,170.1,M,-34.4,M,,*59
$GPRMC,134536.250,A,4308.5290,N,07727.7504,W,23.86,270.80,0710138,170.1,M,-34.4,M,,*5A
$GPGGA,134537.000,4308.5291,N,07727.7571,W,1,07,1.38,170.0,M,-34.4,M,,*5D
$GPRMC,134537.000,A,4308.5291,N,07727.7571,W,23.29,271.63,07101,,,A*4F
$GPRMC,134537.500,A,4308.5294,N,07727.7615,W,22.90,273.55,071019,,,A*4A
$GPGGA,134537.750,4308.5296,N,07727.7635,W,1,07,1.38,169.7,M,-34.4,M,,*54
$GPGGA,134538.250,4308.5301,N,07727.7676,W,1,07,1.38,169.6,M,-34.4,M,,*57
$GPRMC,134538.250,A,4308.5301,N,07727.7676,W,21.87,275.88,07101.38,169.5,M,-34.4,M,,*5B
$GPGGA,134539.000,4308.5307,N,07727.7738,W,1,07,1.38,169.5,M,-34.4,M,,*5F
$GPRMC,134539.000,A,4308.5307,N,07727.7738,W,21.53,276.10,07101,,,A*4C
$GPRMC,134539.500,A,4308.5312,N,07727.7779,W,21.19,276.09,071019,,,A*4E
$GPGGA,134539.750,4308.5314,N,07727.7798,W,1,07,1.38,168.9,M,-34.4,M,,*58
$GPGGA,134540.250,4308.5317,N,07727.7835,W,1,07,1.38,168.8,M,-34.4,M,,*59
$GPRMC,134540.250,A,4308.5317,N,07727.7835,W,19.44,275.92,07101,,,A*42
$GPRMC,134540.750,A,4308.5320,N,07727.7869,W,17.63,275.00,071019,,,A*4A
$GPGGA,134541.000,4308.5322,N,07727.7883,W,1,07,1.38,168.4,M,-34.4,M,,*58
$GPGGA,134541.500,4308.5323,N,07727.7908,W,1,07,1.38,167.9,M,-34.4,M,,*5C
$GPRMC,134541.500,A,4308.5323,N,07727.7908,W,12.26,274.72,07101,,,A*49
$GPRMC,134542.000,A,4308.5324,N,07727.7927,W,9.35,275.87,071019,,,A*76
$GPGGA,134542.250,4308.5324,N,07727.7933,W,1,07,1.38,167.6,M,-34.4,M,,*5D
$GPGGA,134542.750,4308.5325,N,07727.7942,W,1,07,1.38,167.4,M,-34.4,M,,*5D
$GPRMC,134542.750,A,4308.5325,N,07727.7942,W,4.87,277.93,0710191.38,167.3,M,-34.4,M,,*5C
$GPGGA,134543.500,4308.5327,N,07727.7947,W,1,07,1.29,167.4,M,-34.4,M,,*5C
$GPRMC,134543.500,A,4308.5327,N,07727.7947,W,1.93,281.87,071019,,,A*78
$GPRMC,134544.000,A,4308.5328,N,07727.7948,W,1.52,281.87,071019,,,A*77
$GPGGA,134544.250,4308.5329,N,07727.7948,W,1,07,1.29,167.5,M,-34.4,M,,*59
$GPGGA,134544.750,4308.5330,N,07727.7951,W,1,07,1.29,167.5,M,-34.4,M,,*5C
$GPRMC,134544.750,A,4308.5330,N,07727.7951,W,2.11,281.87,071019,,,A*70
$GPRMC,134545.250,A,4308.5330,N,07727.7956,W,2.85,281.87,071019,,,A*7E
$GPGGA,134545.500,4308.5330,N,07727.7960,W,1,07,1.29,167.4,M,-34.4,M,,*59
$GPGGA,134546.000,4308.5330,N,07727.7970,W,1,07,1.38,167.1,M,-34.4,M,,*5B
$GPRMC,134546.000,A,4308.5330,N,07727.7970,W,4.59,283.95,071019,,,A*78
$GPRMC,134546.500,A,4308.5331,N,07727.7980,W,5.56,282.37,071019,,,A*74
$GPGGA,134546.750,4308.5332,N,07727.7985,W,1,07,1.38,167.3,M,-34.4,M,,*53
$GPGGA,134547.250,4308.5333,N,07727.7996,W,1,07,1.38,167.4,M,-34.4,M,,*53
$GPRMC,134547.250,A,4308.5333,N,07727.7996,W,5.94,282.79,0710197,1.38,167.4,M,-34.4,M,,*5A
$GPGGA,134548.000,4308.5336,N,07727.8012,W,1,07,1.38,167.7,M,-34.4,M,,*57
$GPRMC,134548.000,A,4308.5336,N,07727.8012,W,5.55,285.03,071019,,,A*76
$GPRMC,134548.500,A,4308.5337,N,07727.8021,W,5.05,283.58,071019,,,A*7F
$GPGGA,134548.750,4308.5338,N,07727.8025,W,1,07,1.38,167.8,M,-34.4,M,,*50
$GPRMC,134549.250,A,4308.5338,N,07727.8034,W,4.53,279.07,071019,,,A*7A
$GPGGA,134549.500,4308.5338,N,07727.8038,W,1,07,1.38,167.9,M,-34.4,M,,*5B
