Vers 81
USE_SERIAL_FEEDBACK=true
DEVELOPMENT_MODE=false
USE_RMC_ONLY=false

$GPRMC,160336.250,A,4308.3068,N,07726.2606,W,0.05,98.28,230919,,,D*45
$GPGGA,160336.500,4308.3068,N,07726.2606,W,2,09,0.87,158.5,M,-34.4,M,0000,0000*5C
$GPRMC,160336.750,A,4308.3068,N,07726.2605,W,0.04,82.09,230919,,,D*4A
$GPGGA,160337.000,4308.3069,N,07726.2605,W,2,09,0.87,158.5,M,-34.4,M,0000,0000*5A
$GPRMC,160337.250,A,4308.3069,N,07726.2604,W,0.05,79.93,230919,,,D*48
$GPGGA,160337.500,4308.3069,N,07726.2604,W,2,09,0.87,158.4,M,-34.4,M,0000,0000*5F
$GPRMC,160337.750,A,4308.3069,N,07726.2604,W,0.04,61.74,230919,,,D*4C
$GPGGA,160338.000,4308.3068,N,07726.2604,W,2,09,0.87,158.3,M,-34.4,M,0000,0000*53
$GPRMC,160338.250,A,4308.3068,N,07726.2603,W,0.04,96.14,230919,,,D*4E
$GPGGA,160338.500,4308.3069,N,07726.2603,W,2,07,1.16,158.3,M,-34.4,M,0000,0000*57
$GPRMC,160338.750,A,4308.3069,N,07726.2603,W,0.04,77.81,230919,,,D*49
$GPGGA,160339.000,4308.3069,N,07726.2602,W,2,08,0.94,158.3,M,-34.4,M,0000,0000*56
$GPRMC,160339.250,A,4308.3070,N,07726.2603,W,0.05,39.83,230919,,,D*4C
$GPGGA,160339.500,4308.3070,N,07726.2603,W,2,08,0.94,158.5,M,-34.4,M,0000,0000*5C
$GPRMC,160339.750,A,4308.3070,N,07726.2603,W,0.05,33.83,230919,,,D*43
$GPGGA,160340.000,4308.3070,N,07726.2603,W,2,08,0.94,158.4,M,-34.4,M,0000,0000*56
$GPRMC,160340.250,A,4308.3070,N,07726.2602,W,0.00,89.98,230919,,,D*47
$GPGGA,160340.500,4308.3070,N,07726.2603,W,2,08,0.94,158.5,M,-34.4,M,0000,0000*52
$GPRMC,160340.750,A,4308.3071,N,07726.2603,W,0.00,342.32,230919,,,D*76
$GPGGA,160341.000,4308.3071,N,07726.2603,W,2,08,0.94,158.7,M,-34.4,M,0000,0000*55
$GPRMC,160341.250,A,4308.3071,N,07726.2603,W,0.00,267.99,230919,,,D*75
$GPGGA,160341.500,4308.3072,N,07726.2603,W,2,08,0.94,158.8,M,-34.4,M,0000,0000*5C
$GPRMC,160341.750,A,4308.3072,N,07726.2603,W,0.01,125.40,230919,,,D*73
$GPGGA,160342.000,4308.3071,N,07726.2603,W,2,08,0.94,158.8,M,-34.4,M,0000,0000*59
$GPRMC,160342.250,A,4308.3071,N,07726.2603,W,0.01,172.66,230919,,,D*70
$GPGGA,160342.500,4308.3071,N,07726.2603,W,2,08,0.94,158.9,M,-34.4,M,0000,0000*5D
$GPRMC,160342.750,A,4308.3072,N,07726.2603,W,0.01,269.72,230919,,,D*7A
$GPGGA,160343.000,4308.3072,N,07726.2603,W,2,07,1.16,159.1,M,-34.4,M,0000,0000*57
$GPRMC,160343.250,A,4308.3073,N,07726.2604,W,0.00,298.93,230919,,,D*78
$GPGGA,160343.500,4308.3073,N,07726.2604,W,2,07,1.16,159.3,M,-34.4,M,0000,0000*56
$GPRMC,160343.750,A,4308.3074,N,07726.2604,W,0.01,12.18,230919,,,D*48
$GPGGA,160344.000,4308.3074,N,07726.2604,W,2,07,1.16,159.4,M,-34.4,M,0000,0000*54
$GPRMC,160344.250,A,4308.3074,N,07726.2604,W,0.01,302.75,230919,,,D*73
$GPGGA,160344.500,4308.3075,N,07726.2604,W,2,07,1.16,159.5,M,-34.4,M,0000,0000*51
$GPRMC,160344.750,A,4308.3075,N,07726.2604,W,0.00,77.54,230919,,,D*44
$GPGGA,160345.000,4308.3075,N,07726.2604,W,2,08,0.94,159.6,M,-34.4,M,0000,0000*52
$GPRMC,160345.250,A,4308.3076,N,07726.2604,W,0.01,307.12,230919,,,D*74
$GPGGA,160345.500,4308.3076,N,07726.2604,W,2,08,0.94,159.7,M,-34.4,M,0000,0000*55
$GPRMC,160345.750,A,4308.3076,N,07726.2604,W,0.00,83.84,230919,,,D*40
$GPGGA,160346.000,4308.3075,N,07726.2604,W,2,08,0.94,159.6,M,-34.4,M,0000,0000*51
$GPRMC,160346.250,A,4308.3075,N,07726.2604,W,0.00,73.95,230919,,,D*4A
$GPGGA,160346.500,4308.3075,N,07726.2604,W,2,08,0.94,159.7,M,-34.4,M,0000,0000*55
$GPRMC,160346.750,A,4308.3075,N,07726.2604,W,0.01,123.58,230919,,,D*7B
$GPGGA,160347.000,4308.3075,N,07726.2604,W,2,08,0.94,159.7,M,-34.4,M,0000,0000*51
$GPRMC,160347.250,A,4308.3075,N,07726.2603,W,0.01,93.07,230919,,,D*48
$GPGGA,160347.500,4308.3075,N,07726.2603,W,2,08,0.94,159.7,M,-34.4,M,0000,0000*53
$GPRMC,160347.750,A,4308.3075,N,07726.2603,W,0.01,255.96,230919,,,D*7D
$GPGGA,160348.000,4308.3074,N,07726.2603,W,2,07,1.16,159.7,M,-34.4,M,0000,0000*5C
$GPRMC,160348.250,A,4308.3074,N,07726.2603,W,0.00,0.00,230919,,,D*7A
$GPGGA,160348.500,4308.3074,N,07726.2603,W,2,08,0.94,159.8,M,-34.4,M,0000,0000*52
$GPRMC,160348.750,A,4308.3074,N,07726.2603,W,0.00,270.85,230919,,,D*77
$GPGGA,160349.000,4308.3074,N,07726.2603,W,2,08,0.94,159.8,M,-34.4,M,0000,0000*56
$GPRMC,160349.250,A,4308.3074,N,07726.2603,W,0.00,169.55,230919,,,D*75
$GPGGA,160349.500,4308.3074,N,07726.2603,W,2,07,1.16,159.7,M,-34.4,M,0000,0000*58
$GPRMC,160349.750,A,4308.3073,N,07726.2603,W,0.01,109.67,230919,,,D*71
$GPGGA,160350.000,4308.3073,N,07726.2603,W,2,08,0.94,159.7,M,-34.4,M,0000,0000*56
$GPRMC,160350.250,A,4308.3073,N,07726.2603,W,0.01,232.94,230919,,,D*7B
$GPGGA,160350.500,4308.3072,N,07726.2604,W,2,08,0.94,159.6,M,-34.4,M,0000,0000*54
$GPRMC,160350.750,A,4308.3071,N,07726.2604,W,0.01,208.19,230919,,,D*77
$GPGGA,160351.000,4308.3071,N,07726.2604,W,2,08,0.94,159.5,M,-34.4,M,0000,0000*50
$GPRMC,160351.250,A,4308.3071,N,07726.2604,W,0.00,289.78,230919,,,D*7C
$GPGGA,160351.500,4308.3071,N,07726.2603,W,2,08,0.94,159.4,M,-34.4,M,0000,0000*53
$GPRMC,160351.750,A,4308.3070,N,07726.2604,W,0.01,235.62,230919,,,D*75
$GPGGA,160352.000,4308.3070,N,07726.2603,W,2,08,0.94,159.4,M,-34.4,M,0000,0000*54
$GPRMC,160352.250,A,4308.3070,N,07726.2603,W,0.01,105.01,230919,,,D*71
$GPGGA,160352.500,4308.3069,N,07726.2603,W,2,07,1.15,159.4,M,-34.4,M,0000,0000*5E
$GPRMC,160352.750,A,4308.3068,N,07726.2603,W,0.01,133.34,230919,,,D*7E
$GPGGA,160353.000,4308.3068,N,07726.2602,W,2,09,0.87,159.2,M,-34.4,M,0000,0000*58
$GPRMC,160353.250,A,4308.3068,N,07726.2602,W,0.00,296.31,230919,,,D*73
$GPGGA,160353.500,4308.3067,N,07726.2603,W,2,09,0.87,159.1,M,-34.4,M,0000,0000*50
$GPRMC,160353.750,A,4308.3067,N,07726.2603,W,0.00,298.51,230919,,,D*70
$GPGGA,160354.000,4308.3067,N,07726.2603,W,2,09,0.87,159.0,M,-34.4,M,0000,0000*53
$GPRMC,160354.250,A,4308.3067,N,07726.2603,W,0.00,293.91,230919,,,D*75
$GPGGA,160354.500,4308.3067,N,07726.2603,W,2,09,0.87,158.9,M,-34.4,M,0000,0000*5E
$GPRMC,160354.750,A,4308.3067,N,07726.2603,W,0.01,259.65,230919,,,D*7C
$GPGGA,160355.000,4308.3067,N,07726.2603,W,2,08,0.92,158.9,M,-34.4,M,0000,0000*5F
$GPRMC,160355.250,A,4308.3066,N,07726.2603,W,0.01,109.56,230919,,,D*7F
$GPGGA,160355.500,4308.3066,N,07726.2603,W,2,08,0.92,158.9,M,-34.4,M,0000,0000*5B
$GPRMC,160355.750,A,4308.3066,N,07726.2603,W,0.00,255.37,230919,,,D*76
$GPGGA,160356.000,4308.3066,N,07726.2603,W,2,08,0.92,158.9,M,-34.4,M,0000,0000*5D
$GPRMC,160356.250,A,4308.3066,N,07726.2603,W,0.00,162.94,230919,,,D*7E
$GPGGA,160356.500,4308.3066,N,07726.2603,W,2,09,0.87,158.9,M,-34.4,M,0000,0000*5D
$GPRMC,160356.750,A,4308.3065,N,07726.2603,W,0.01,147.99,230919,,,D*73
$GPGGA,160357.000,4308.3065,N,07726.2603,W,2,09,0.87,158.9,M,-34.4,M,0000,0000*5A
$GPRMC,160357.250,A,4308.3065,N,07726.2603,W,0.00,237.09,230919,,,D*7B
$GPGGA,160357.500,4308.3065,N,07726.2603,W,2,08,0.92,158.9,M,-34.4,M,0000,0000*5A
$GPRMC,160357.750,A,4308.3065,N,07726.2603,W,0.01,310.73,230919,,,D*76
$GPGGA,160358.000,4308.3065,N,07726.2603,W,2,08,0.92,158.9,M,-34.4,M,0000,0000*50
$GPRMC,160358.250,A,4308.3065,N,07726.2604,W,0.00,295.39,230919,,,D*78
$GPGGA,160358.500,4308.3065,N,07726.2604,W,2,08,0.92,158.9,M,-34.4,M,0000,0000*52
$GPRMC,160358.750,A,4308.3065,N,07726.2604,W,0.00,37.34,230919,,,D*4A
$GPGGA,160359.000,4308.3065,N,07726.2604,W,2,09,0.87,158.9,M,-34.4,M,0000,0000*53
$GPRMC,160359.250,A,4308.3065,N,07726.2604,W,0.00,0.00,230919,,,D*7D
$GPGGA,160359.500,4308.3064,N,07726.2604,W,2,09,0.87,158.9,M,-34.4,M,0000,0000*57
$GPRMC,160359.750,A,4308.3064,N,07726.2604,W,0.01,134.05,230919,,,D*7B
$GPGGA,160400.000,4308.3064,N,07726.2604,W,2,09,0.87,158.9,M,-34.4,M,0000,0000*59
$GPRMC,160400.250,A,4308.3064,N,07726.2604,W,0.00,106.68,230919,,,D*7E
$GPGGA,160400.500,4308.3064,N,07726.2604,W,2,08,0.94,158.9,M,-34.4,M,0000,0000*5F
$GPRMC,160400.750,A,4308.3063,N,07726.2605,W,0.01,231.39,230919,,,D*7F
$GPGGA,160401.000,4308.3063,N,07726.2605,W,2,08,0.94,158.9,M,-34.4,M,0000,0000*5D
$GPRMC,160401.250,A,4308.3063,N,07726.2605,W,0.01,133.74,230919,,,D*73
$GPGGA,160401.500,4308.3063,N,07726.2605,W,2,08,0.94,158.9,M,-34.4,M,0000,0000*58
$GPRMC,160401.750,A,4308.3063,N,07726.2605,W,0.00,160.45,230919,,,D*73
$GPGGA,160402.000,4308.3063,N,07726.2605,W,2,08,0.94,158.9,M,-34.4,M,0000,0000*5E
$GPRMC,160402.250,A,4308.3063,N,07726.2605,W,0.00,205.72,230919,,,D*71
$GPGGA,160402.500,4308.3063,N,07726.2605,W,2,09,0.87,158.9,M,-34.4,M,0000,0000*58
$GPRMC,160402.750,A,4308.3063,N,07726.2605,W,0.01,226.32,230919,,,D*70
$GPGGA,160403.000,4308.3063,N,07726.2605,W,2,08,0.94,158.9,M,-34.4,M,0000,0000*5F
$GPRMC,160403.250,A,4308.3063,N,07726.2605,W,0.00,90.03,230919,,,D*48
$GPGGA,160403.500,4308.3062,N,07726.2605,W,2,08,0.94,158.9,M,-34.4,M,0000,0000*5B
$GPRMC,160403.750,A,4308.3062,N,07726.2605,W,0.01,151.33,230919,,,D*72
$GPGGA,160404.000,4308.3062,N,07726.2605,W,2,08,0.94,158.9,M,-34.4,M,0000,0000*59
$GPRMC,160404.250,A,4308.3062,N,07726.2605,W,0.01,114.15,230919,,,D*75
$GPGGA,160404.500,4308.3062,N,07726.2605,W,2,08,0.94,159.0,M,-34.4,M,0000,0000*54
$GPRMC,160404.750,A,4308.3061,N,07726.2606,W,0.00,295.23,230919,,,D*7E
$GPGGA,160405.000,4308.3061,N,07726.2606,W,2,08,0.94,158.9,M,-34.4,M,0000,0000*58
$GPRMC,160405.250,A,4308.3061,N,07726.2606,W,0.01,224.63,230919,,,D*75
$GPGGA,160405.500,4308.3060,N,07726.2606,W,2,08,0.94,158.9,M,-34.4,M,0000,0000*5C
$GPRMC,160405.750,A,4308.3060,N,07726.2606,W,0.01,243.42,230919,,,D*73
$GPGGA,160406.000,4308.3059,N,07726.2607,W,2,08,0.94,158.9,M,-34.4,M,0000,0000*51
$GPRMC,160406.250,A,4308.3060,N,07726.2607,W,0.01,280.06,230919,,,D*7B
$GPGGA,160406.500,4308.3059,N,07726.2608,W,2,08,0.94,158.9,M,-34.4,M,0000,0000*5B
$GPRMC,160406.750,A,4308.3059,N,07726.2608,W,0.01,228.61,230919,,,D*78
$GPGGA,160407.000,4308.3059,N,07726.2608,W,2,08,0.94,158.9,M,-34.4,M,0000,0000*5F
$GPRMC,160407.250,A,4308.3059,N,07726.2609,W,0.01,221.05,230919,,,D*76
$GPGGA,160407.500,4308.3058,N,07726.2609,W,2,08,0.94,158.8,M,-34.4,M,0000,0000*5B
$GPRMC,160407.750,A,4308.3058,N,07726.2609,W,0.00,196.78,230919,,,D*76
$GPGGA,160408.000,4308.3058,N,07726.2609,W,2,08,0.94,158.8,M,-34.4,M,0000,0000*51
$GPRMC,160408.250,A,4308.3058,N,07726.2609,W,0.00,46.17,230919,,,D*49
$GPGGA,160408.500,4308.3058,N,07726.2610,W,2,08,0.94,158.8,M,-34.4,M,0000,0000*5C
$GPRMC,160408.750,A,4308.3058,N,07726.2610,W,0.01,265.10,230919,,,D*71
$GPGGA,160409.000,4308.3058,N,07726.2610,W,2,08,0.94,158.8,M,-34.4,M,0000,0000*58
$GPRMC,160409.250,A,4308.3057,N,07726.2610,W,0.01,165.06,230919,,,D*7E
$GPGGA,160409.500,4308.3056,N,07726.2611,W,2,08,0.94,158.8,M,-34.4,M,0000,0000*52
$GPRMC,160409.750,A,4308.3056,N,07726.2611,W,0.01,208.15,230919,,,D*71
$GPGGA,160410.000,4308.3055,N,07726.2611,W,2,08,0.94,158.8,M,-34.4,M,0000,0000*5C
$GPRMC,160410.250,A,4308.3055,N,07726.2611,W,0.01,218.48,230919,,,D*76
$GPGGA,160410.500,4308.3055,N,07726.2612,W,2,08,0.94,158.8,M,-34.4,M,0000,0000*5A
$GPRMC,160410.750,A,4308.3054,N,07726.2612,W,0.01,245.51,230919,,,D*71
$GPGGA,160411.000,4308.3054,N,07726.2612,W,2,08,0.94,158.7,M,-34.4,M,0000,0000*50
$GPRMC,160411.250,A,4308.3053,N,07726.2612,W,0.00,176.69,230919,,,D*7B
$GPGGA,160411.500,4308.3053,N,07726.2612,W,2,08,0.94,158.6,M,-34.4,M,0000,0000*53
$GPRMC,160411.750,A,4308.3052,N,07726.2612,W,0.00,134.54,230919,,,D*77
$GPGGA,160412.000,4308.3052,N,07726.2612,W,2,08,0.94,158.6,M,-34.4,M,0000,0000*54
$GPRMC,160412.250,A,4308.3051,N,07726.2612,W,0.00,231.37,230919,,,D*71
$GPGGA,160412.500,4308.3051,N,07726.2612,W,2,08,0.94,158.6,M,-34.4,M,0000,0000*52
$GPRMC,160412.750,A,4308.3051,N,07726.2613,W,0.01,276.85,230919,,,D*7E
$GPGGA,160413.000,4308.3050,N,07726.2613,W,2,08,0.94,158.5,M,-34.4,M,0000,0000*55
$GPRMC,160413.250,A,4308.3050,N,07726.2613,W,0.01,194.58,230919,,,D*74
$GPGGA,160413.500,4308.3049,N,07726.2613,W,2,08,0.94,158.4,M,-34.4,M,0000,0000*59
$GPRMC,160413.750,A,4308.3048,N,07726.2613,W,0.01,162.98,230919,,,D*7D
$GPGGA,160414.000,4308.3047,N,07726.2613,W,2,08,0.94,158.3,M,-34.4,M,0000,0000*52
$GPRMC,160414.250,A,4308.3046,N,07726.2613,W,0.01,170.50,230919,,,D*76
$GPGGA,160414.500,4308.3046,N,07726.2613,W,2,08,0.94,158.3,M,-34.4,M,0000,0000*56
$GPRMC,160414.750,A,4308.3045,N,07726.2613,W,0.01,177.50,230919,,,D*77
$GPGGA,160415.000,4308.3044,N,07726.2613,W,2,08,0.94,158.3,M,-34.4,M,0000,0000*50
$GPRMC,160415.250,A,4308.3044,N,07726.2613,W,0.01,230.49,230919,,,D*7A
$GPGGA,160415.500,4308.3044,N,07726.2613,W,2,08,0.94,158.2,M,-34.4,M,0000,0000*54
$GPRMC,160415.750,A,4308.3043,N,07726.2613,W,0.00,316.97,230919,,,D*7F
$GPGGA,160416.000,4308.3043,N,07726.2614,W,2,08,0.94,158.2,M,-34.4,M,0000,0000*52
$GPRMC,160416.250,A,4308.3042,N,07726.2614,W,0.01,203.96,230919,,,D*7A
$GPGGA,160416.500,4308.3041,N,07726.2614,W,2,08,0.94,158.1,M,-34.4,M,0000,0000*56
$GPRMC,160416.750,A,4308.3041,N,07726.2613,W,0.01,140.61,230919,,,D*77
$GPGGA,160417.000,4308.3040,N,07726.2613,W,2,08,0.94,158.1,M,-34.4,M,0000,0000*54
$GPRMC,160417.250,A,4308.3040,N,07726.2613,W,0.01,208.56,230919,,,D*79
$GPGGA,160417.500,4308.3039,N,07726.2613,W,2,08,0.94,158.0,M,-34.4,M,0000,0000*5E
$GPRMC,160417.750,A,4308.3038,N,07726.2613,W,0.01,231.56,230919,,,D*79
$GPGGA,160418.000,4308.3038,N,07726.2613,W,2,08,0.94,157.9,M,-34.4,M,0000,0000*53
$GPRMC,160418.250,A,4308.3037,N,07726.2613,W,0.01,221.34,230919,,,D*79
$GPGGA,160418.500,4308.3037,N,07726.2614,W,2,08,0.94,157.8,M,-34.4,M,0000,0000*5F
$GPRMC,160418.750,A,4308.3037,N,07726.2614,W,0.01,348.57,230919,,,D*70
$GPGGA,160419.000,4308.3037,N,07726.2613,W,2,08,0.94,157.8,M,-34.4,M,0000,0000*5C
$GPRMC,160419.250,A,4308.3037,N,07726.2613,W,0.01,108.61,230919,,,D*70
$GPGGA,160419.500,4308.3037,N,07726.2613,W,2,08,0.94,157.8,M,-34.4,M,0000,0000*59
$GPRMC,160419.750,A,4308.3036,N,07726.2613,W,0.00,105.00,230919,,,D*7F
$GPGGA,160420.000,4308.3036,N,07726.2613,W,2,08,0.94,157.7,M,-34.4,M,0000,0000*58
$GPRMC,160420.250,A,4308.3036,N,07726.2613,W,0.00,203.67,230919,,,D*74
$GPGGA,160420.500,4308.3036,N,07726.2613,W,2,08,0.94,157.7,M,-34.4,M,0000,0000*5D
$GPRMC,160420.750,A,4308.3036,N,07726.2613,W,0.01,29.28,230919,,,D*41
$GPGGA,160421.000,4308.3036,N,07726.2612,W,2,08,0.94,157.7,M,-34.4,M,0000,0000*58
$GPRMC,160421.250,A,4308.3036,N,07726.2612,W,0.01,51.76,230919,,,D*40
$GPGGA,160421.500,4308.3036,N,07726.2612,W,2,08,0.94,157.6,M,-34.4,M,0000,0000*5C
$GPRMC,160421.750,A,4308.3036,N,07726.2612,W,0.01,163.32,230919,,,D*75
$GPGGA,160422.000,4308.3036,N,07726.2612,W,2,08,0.94,157.6,M,-34.4,M,0000,0000*5A
$GPRMC,160422.250,A,4308.3036,N,07726.2611,W,0.00,54.30,230919,,,D*46
$GPGGA,160422.500,4308.3036,N,07726.2611,W,2,08,0.94,157.6,M,-34.4,M,0000,0000*5C
$GPRMC,160422.750,A,4308.3036,N,07726.2611,W,0.01,56.88,230919,,,D*43
$GPGGA,160423.000,4308.3036,N,07726.2611,W,2,08,0.94,157.6,M,-34.4,M,0000,0000*58
$GPRMC,160423.250,A,4308.3036,N,07726.2611,W,0.00,358.75,230919,,,D*79
$GPGGA,160423.500,4308.3035,N,07726.2611,W,2,08,0.94,157.7,M,-34.4,M,0000,0000*5F
$GPRMC,160423.750,A,4308.3035,N,07726.2612,W,0.00,241.39,230919,,,D*7D
$GPGGA,160424.000,4308.3035,N,07726.2612,W,2,08,0.94,157.7,M,-34.4,M,0000,0000*5E
$GPRMC,160424.250,A,4308.3035,N,07726.2611,W,0.01,84.82,230919,,,D*46
$GPGGA,160424.500,4308.3035,N,07726.2611,W,2,08,0.94,157.7,M,-34.4,M,0000,0000*58
$GPRMC,160424.750,A,4308.3036,N,07726.2611,W,0.00,328.42,230919,,,D*78
$GPGGA,160425.000,4308.3036,N,07726.2611,W,2,08,0.94,157.8,M,-34.4,M,0000,0000*50
$GPRMC,160425.250,A,4308.3036,N,07726.2611,W,0.01,26.35,230919,,,D*40
$GPGGA,160425.500,4308.3036,N,07726.2612,W,2,08,0.94,157.8,M,-34.4,M,0000,0000*56
$GPRMC,160425.750,A,4308.3037,N,07726.2612,W,0.01,293.95,230919,,,D*71
$GPGGA,160426.000,4308.3037,N,07726.2612,W,2,08,0.94,157.9,M,-34.4,M,0000,0000*50
$GPRMC,160426.250,A,4308.3037,N,07726.2612,W,0.00,6.69,230919,,,D*7B
$GPGGA,160426.500,4308.3037,N,07726.2612,W,2,08,0.94,157.9,M,-34.4,M,0000,0000*55
$GPRMC,160426.750,A,4308.3037,N,07726.2612,W,0.01,137.99,230919,,,D*73
$GPGGA,160427.000,4308.3037,N,07726.2612,W,2,08,0.94,158.0,M,-34.4,M,0000,0000*57
$GPRMC,160427.250,A,4308.3037,N,07726.2612,W,0.00,103.15,230919,,,D*75
$GPGGA,160427.500,4308.3037,N,07726.2612,W,2,08,0.94,158.1,M,-34.4,M,0000,0000*53
$GPRMC,160427.750,A,4308.3037,N,07726.2612,W,0.01,279.52,230919,,,D*7C
$GPGGA,160428.000,4308.3037,N,07726.2612,W,2,08,0.94,158.1,M,-34.4,M,0000,0000*59
$GPRMC,160428.250,A,4308.3038,N,07726.2612,W,0.00,89.82,230919,,,D*48
$GPGGA,160428.500,4308.3038,N,07726.2612,W,2,08,0.94,158.2,M,-34.4,M,0000,0000*50
$GPRMC,160428.750,A,4308.3038,N,07726.2612,W,0.01,139.19,230919,,,D*74
$GPGGA,160429.000,4308.3037,N,07726.2612,W,2,08,0.94,158.3,M,-34.4,M,0000,0000*5A
$GPRMC,160429.250,A,4308.3037,N,07726.2612,W,0.00,189.30,230919,,,D*7E
$GPGGA,160429.500,4308.3038,N,07726.2612,W,2,08,0.94,158.3,M,-34.4,M,0000,0000*50
$GPRMC,160429.750,A,4308.3038,N,07726.2612,W,0.00,19.41,230919,,,D*4A
$GPGGA,160430.000,4308.3038,N,07726.2611,W,2,08,0.94,158.3,M,-34.4,M,0000,0000*5E
$GPRMC,160430.250,A,4308.3038,N,07726.2611,W,0.00,355.71,230919,,,D*7C
$GPGGA,160430.500,4308.3038,N,07726.2611,W,2,08,0.94,158.3,M,-34.4,M,0000,0000*5B
$GPRMC,160430.750,A,4308.3038,N,07726.2611,W,0.00,105.53,230919,,,D*7E
$GPGGA,160431.000,4308.3038,N,07726.2610,W,2,08,0.94,158.4,M,-34.4,M,0000,0000*59
$GPRMC,160431.250,A,4308.3038,N,07726.2610,W,0.01,127.19,230919,,,D*74
$GPGGA,160431.500,4308.3038,N,07726.2610,W,2,09,0.87,158.4,M,-34.4,M,0000,0000*5F
$GPRMC,160431.750,A,4308.3038,N,07726.2610,W,0.00,6.71,230919,,,D*7C
$GPGGA,160432.000,4308.3038,N,07726.2610,W,2,09,0.87,158.4,M,-34.4,M,0000,0000*59
$GPRMC,160432.250,A,4308.3038,N,07726.2610,W,0.00,134.18,230919,,,D*75
$GPGGA,160432.500,4308.3038,N,07726.2610,W,2,09,0.87,158.4,M,-34.4,M,0000,0000*5C
$GPRMC,160432.750,A,4308.3038,N,07726.2610,W,0.01,236.33,230919,,,D*79
$GPGGA,160433.000,4308.3038,N,07726.2610,W,2,09,0.87,158.4,M,-34.4,M,0000,0000*58
$GPRMC,160433.250,A,4308.3038,N,07726.2610,W,0.00,0.00,230919,,,D*7B
$GPGGA,160433.500,4308.3038,N,07726.2610,W,2,09,0.87,158.4,M,-34.4,M,0000,0000*5D
$GPRMC,160433.750,A,4308.3038,N,07726.2610,W,0.01,118.11,230919,,,D*77
$GPGGA,160434.000,4308.3038,N,07726.2610,W,2,09,0.87,158.4,M,-34.4,M,0000,0000*5F
$GPRMC,160434.250,A,4308.3038,N,07726.2610,W,0.00,184.29,230919,,,D*7A
$GPGGA,160434.500,4308.3038,N,07726.2610,W,2,09,0.87,158.4,M,-34.4,M,0000,0000*5A
$GPRMC,160434.750,A,4308.3038,N,07726.2610,W,0.01,289.45,230919,,,D*7A
$GPGGA,160435.000,4308.3038,N,07726.2610,W,2,09,0.87,158.4,M,-34.4,M,0000,0000*5E
$GPRMC,160435.250,A,4308.3038,N,07726.2610,W,0.00,313.03,230919,,,D*7F
$GPGGA,160435.500,4308.3038,N,07726.2610,W,2,09,0.87,158.4,M,-34.4,M,0000,0000*5B
$GPRMC,160435.750,A,4308.3038,N,07726.2610,W,0.00,327.08,230919,,,D*76
$GPGGA,160436.000,4308.3038,N,07726.2610,W,2,09,0.87,158.4,M,-34.4,M,0000,0000*5D
$GPRMC,160436.250,A,4308.3038,N,07726.2610,W,0.01,296.66,230919,,,D*72
$GPGGA,160436.500,4308.3038,N,07726.2610,W,2,09,0.87,158.4,M,-34.4,M,0000,0000*58
$GPRMC,160436.750,A,4308.3038,N,07726.2611,W,0.01,319.79,230919,,,D*7E
$GPGGA,160437.000,4308.3038,N,07726.2611,W,2,09,0.87,158.4,M,-34.4,M,0000,0000*5D
$GPRMC,160437.250,A,4308.3038,N,07726.2611,W,0.00,287.50,230919,,,D*76
$GPGGA,160437.500,4308.3038,N,07726.2611,W,2,09,0.87,158.4,M,-34.4,M,0000,0000*58
$GPRMC,160437.750,A,4308.3038,N,07726.2611,W,0.01,247.18,230919,,,D*72
$GPGGA,160438.000,4308.3038,N,07726.2611,W,2,09,0.87,158.4,M,-34.4,M,0000,0000*52
$GPRMC,160438.250,A,4308.3038,N,07726.2611,W,0.00,206.46,230919,,,D*77
$GPGGA,160438.500,4308.3038,N,07726.2611,W,2,09,0.87,158.4,M,-34.4,M,0000,0000*57
$GPRMC,160438.750,A,4308.3038,N,07726.2611,W,0.00,217.11,230919,,,D*70
$GPGGA,160439.000,4308.3038,N,07726.2611,W,2,09,0.87,158.4,M,-34.4,M,0000,0000*53
$GPRMC,160439.250,A,4308.3038,N,07726.2611,W,0.01,315.61,230919,,,D*71
$GPGGA,160439.500,4308.3038,N,07726.2611,W,2,09,0.87,158.4,M,-34.4,M,0000,0000*56
$GPRMC,160439.750,A,4308.3038,N,07726.2611,W,0.00,357.83,230919,,,D*7F
$GPGGA,160440.000,4308.3038,N,07726.2611,W,2,09,0.87,158.4,M,-34.4,M,0000,0000*5D
$GPRMC,160440.250,A,4308.3038,N,07726.2611,W,0.00,267.70,230919,,,D*7A
$GPGGA,160440.500,4308.3038,N,07726.2611,W,2,09,0.87,158.4,M,-34.4,M,0000,0000*58
$GPRMC,160440.750,A,4308.3038,N,07726.2611,W,0.01,175.79,230919,,,D*77
$GPGGA,160441.000,4308.3038,N,07726.2611,W,2,09,0.87,158.4,M,-34.4,M,0000,0000*5C
$GPRMC,160441.250,A,4308.3038,N,07726.2611,W,0.01,245.81,230919,,,D*74
$GPGGA,160441.500,4308.3038,N,07726.2611,W,2,09,0.87,158.4,M,-34.4,M,0000,0000*59
$GPRMC,160441.750,A,4308.3038,N,07726.2611,W,0.01,213.57,230919,,,D*79
$GPGGA,160442.000,4308.3038,N,07726.2611,W,2,09,0.87,158.4,M,-34.4,M,0000,0000*5F
$GPRMC,160442.250,A,4308.3038,N,07726.2611,W,0.01,297.64,230919,,,D*73
$GPGGA,160442.500,4308.3038,N,07726.2611,W,2,09,0.87,158.4,M,-34.4,M,0000,0000*5A
$GPRMC,160442.750,A,4308.3038,N,07726.2611,W,0.01,146.67,230919,,,D*7A
$GPGGA,160443.000,4308.3038,N,07726.2611,W,2,09,0.87,158.4,M,-34.4,M,0000,0000*5E
$GPRMC,160443.250,A,4308.3038,N,07726.2611,W,0.00,144.83,230919,,,D*77
$GPGGA,160443.500,4308.3038,N,07726.2611,W,2,09,0.87,158.4,M,-34.4,M,0000,0000*5B
$GPRMC,160443.750,A,4308.3038,N,07726.2611,W,0.01,332.34,230919,,,D*7C
$GPGGA,160444.000,4308.3039,N,07726.2611,W,2,09,0.87,158.5,M,-34.4,M,0000,0000*59
$GPRMC,160444.250,A,4308.3039,N,07726.2611,W,0.01,303.68,230919,,,D*74
$GPGGA,160444.500,4308.3039,N,07726.2612,W,2,09,0.87,158.5,M,-34.4,M,0000,0000*5F
$GPRMC,160444.750,A,4308.3039,N,07726.2612,W,0.01,143.80,230919,,,D*72
$GPGGA,160445.000,4308.3039,N,07726.2611,W,2,09,0.87,158.7,M,-34.4,M,0000,0000*5A
$GPRMC,160445.250,A,4308.3039,N,07726.2611,W,0.00,0.00,230919,,,D*7A
$GPGGA,160445.500,4308.3039,N,07726.2612,W,2,09,0.87,158.8,M,-34.4,M,0000,0000*53
$GPRMC,160445.750,A,4308.3038,N,07726.2612,W,0.01,223.84,230919,,,D*73
$GPGGA,160446.000,4308.3038,N,07726.2612,W,2,09,0.87,158.9,M,-34.4,M,0000,0000*55
$GPRMC,160446.250,A,4308.3038,N,07726.2612,W,0.01,190.55,230919,,,D*72
$GPGGA,160446.500,4308.3037,N,07726.2613,W,2,09,0.87,159.0,M,-34.4,M,0000,0000*56
$GPRMC,160446.750,A,4308.3037,N,07726.2613,W,0.01,215.45,230919,,,D*76
$GPGGA,160447.000,4308.3037,N,07726.2613,W,2,09,0.87,159.0,M,-34.4,M,0000,0000*52
$GPRMC,160447.250,A,4308.3037,N,07726.2613,W,0.01,190.73,230919,,,D*79
$GPGGA,160447.500,4308.3037,N,07726.2613,W,2,09,0.87,159.1,M,-34.4,M,0000,0000*56
$GPRMC,160447.750,A,4308.3038,N,07726.2612,W,0.00,14.22,230919,,,D*4A
$GPGGA,160448.000,4308.3039,N,07726.2612,W,2,09,0.87,159.2,M,-34.4,M,0000,0000*50
$GPRMC,160448.250,A,4308.3039,N,07726.2612,W,0.01,16.34,230919,,,D*45
$GPGGA,160448.500,4308.3040,N,07726.2612,W,2,09,0.87,159.2,M,-34.4,M,0000,0000*5B
$GPRMC,160448.750,A,4308.3041,N,07726.2612,W,0.01,37.18,230919,,,D*42
$GPGGA,160449.000,4308.3041,N,07726.2612,W,2,09,0.87,159.3,M,-34.4,M,0000,0000*5F
$GPRMC,160449.250,A,4308.3041,N,07726.2612,W,0.00,239.66,230919,,,D*72
$GPGGA,160449.500,4308.3042,N,07726.2612,W,2,09,0.87,159.3,M,-34.4,M,0000,0000*59
$GPRMC,160449.750,A,4308.3042,N,07726.2612,W,0.01,329.99,230919,,,D*75
$GPGGA,160450.000,4308.3042,N,07726.2612,W,2,09,0.87,159.3,M,-34.4,M,0000,0000*54
$GPRMC,160450.250,A,4308.3042,N,07726.2612,W,0.01,1.44,230919,,,D*71
$GPGGA,160450.500,4308.3042,N,07726.2612,W,2,09,0.87,159.3,M,-34.4,M,0000,0000*51
$GPRMC,160450.750,A,4308.3042,N,07726.2612,W,0.00,197.53,230919,,,D*7D
$GPGGA,160451.000,4308.3042,N,07726.2612,W,2,09,0.87,159.3,M,-34.4,M,0000,0000*55
$GPRMC,160451.250,A,4308.3042,N,07726.2612,W,0.00,0.00,230919,,,D*70
$GPGGA,160451.500,4308.3042,N,07726.2612,W,2,09,0.87,159.3,M,-34.4,M,0000,0000*50
$GPRMC,160451.750,A,4308.3042,N,07726.2612,W,0.01,97.38,230919,,,D*41
$GPGGA,160452.000,4308.3042,N,07726.2612,W,2,09,0.87,159.4,M,-34.4,M,0000,0000*51
$GPRMC,160452.250,A,4308.3043,N,07726.2612,W,0.01,3.17,230919,,,D*76
$GPGGA,160452.500,4308.3043,N,07726.2612,W,2,09,0.87,159.4,M,-34.4,M,0000,0000*55
$GPRMC,160452.750,A,4308.3044,N,07726.2613,W,0.01,282.47,230919,,,D*7B
$GPGGA,160453.000,4308.3044,N,07726.2613,W,2,09,0.87,159.6,M,-34.4,M,0000,0000*55
$GPRMC,160453.250,A,4308.3044,N,07726.2613,W,0.00,227.32,230919,,,D*73
$GPGGA,160453.500,4308.3044,N,07726.2613,W,2,09,0.87,159.6,M,-34.4,M,0000,0000*50
$GPRMC,160453.750,A,4308.3045,N,07726.2613,W,0.00,51.19,230919,,,D*4D
$GPGGA,160454.000,4308.3045,N,07726.2614,W,2,09,0.87,159.7,M,-34.4,M,0000,0000*55
$GPRMC,160454.250,A,4308.3045,N,07726.2614,W,0.00,80.34,230919,,,D*4B
$GPGGA,160454.500,4308.3045,N,07726.2614,W,2,09,0.87,159.8,M,-34.4,M,0000,0000*5F
$GPRMC,160454.750,A,4308.3045,N,07726.2614,W,0.01,123.71,230919,,,D*76
$GPGGA,160455.000,4308.3045,N,07726.2614,W,2,09,0.87,159.8,M,-34.4,M,0000,0000*5B
$GPRMC,160455.250,A,4308.3046,N,07726.2614,W,0.01,21.34,230919,,,D*43
$GPGGA,160455.500,4308.3046,N,07726.2614,W,2,09,0.87,159.8,M,-34.4,M,0000,0000*5D
$GPRMC,160455.750,A,4308.3046,N,07726.2614,W,0.01,215.67,230919,,,D*75
$GPGGA,160456.000,4308.3045,N,07726.2614,W,2,09,0.87,159.8,M,-34.4,M,0000,0000*58
$GPRMC,160456.250,A,4308.3046,N,07726.2614,W,0.00,358.75,230919,,,D*79
$GPGGA,160456.500,4308.3046,N,07726.2614,W,2,09,0.87,159.9,M,-34.4,M,0000,0000*5F
$GPRMC,160456.750,A,4308.3046,N,07726.2615,W,0.01,332.30,230919,,,D*71
$GPGGA,160457.000,4308.3047,N,07726.2615,W,2,09,0.87,159.9,M,-34.4,M,0000,0000*5B
$GPRMC,160457.250,A,4308.3047,N,07726.2615,W,0.00,45.69,230919,,,D*4A
$GPGGA,160457.500,4308.3047,N,07726.2615,W,2,09,0.87,159.9,M,-34.4,M,0000,0000*5E
$GPRMC,160457.750,A,4308.3046,N,07726.2615,W,0.01,113.88,230919,,,D*72
$GPGGA,160458.000,4308.3046,N,07726.2615,W,2,09,0.87,159.9,M,-34.4,M,0000,0000*55
$GPRMC,160458.250,A,4308.3046,N,07726.2615,W,0.00,206.45,230919,,,D*7F
$GPGGA,160458.500,4308.3046,N,07726.2615,W,2,09,0.87,159.9,M,-34.4,M,0000,0000*50
$GPRMC,160458.750,A,4308.3046,N,07726.2615,W,0.00,318.62,230919,,,D*71
$GPGGA,160459.000,4308.3046,N,07726.2615,W,2,09,0.87,159.8,M,-34.4,M,0000,0000*55
$GPRMC,160459.250,A,4308.3046,N,07726.2615,W,0.00,0.00,230919,,,D*7B
$GPGGA,160459.500,4308.3046,N,07726.2615,W,2,09,0.87,159.8,M,-34.4,M,0000,0000*50
$GPRMC,160459.750,A,4308.3046,N,07726.2616,W,0.01,316.51,230919,,,D*7C
$GPGGA,160500.000,4308.3046,N,07726.2616,W,2,09,0.87,159.7,M,-34.4,M,0000,0000*54
$GPRMC,160500.250,A,4308.3047,N,07726.2616,W,0.00,2.25,230919,,,D*71
$GPGGA,160500.500,4308.3047,N,07726.2616,W,2,09,0.87,159.7,M,-34.4,M,0000,0000*50
$GPRMC,160500.750,A,4308.3047,N,07726.2616,W,0.00,332.45,230919,,,D*72
$GPGGA,160501.000,4308.3046,N,07726.2616,W,2,09,0.87,159.7,M,-34.4,M,0000,0000*55
$GPRMC,160501.250,A,4308.3046,N,07726.2616,W,0.00,67.62,230919,,,D*41
$GPGGA,160501.500,4308.3047,N,07726.2616,W,2,09,0.87,159.7,M,-34.4,M,0000,0000*51
$GPRMC,160501.750,A,4308.3046,N,07726.2616,W,0.01,182.56,230919,,,D*78
$GPGGA,160502.000,4308.3046,N,07726.2616,W,2,08,0.94,159.7,M,-34.4,M,0000,0000*55
$GPRMC,160502.250,A,4308.3046,N,07726.2616,W,0.01,227.12,230919,,,D*72
$GPGGA,160502.500,4308.3046,N,07726.2616,W,2,08,0.94,159.7,M,-34.4,M,0000,0000*50
$GPRMC,160502.750,A,4308.3046,N,07726.2616,W,0.01,158.28,230919,,,D*75
$GPGGA,160503.000,4308.3046,N,07726.2616,W,2,08,0.94,159.7,M,-34.4,M,0000,0000*54
$GPRMC,160503.250,A,4308.3046,N,07726.2616,W,0.00,23.61,230919,,,D*40
$GPGGA,160503.500,4308.3046,N,07726.2616,W,2,08,0.94,159.7,M,-34.4,M,0000,0000*51
$GPRMC,160503.750,A,4308.3046,N,07726.2615,W,0.01,161.66,230919,,,D*77
$GPGGA,160504.000,4308.3046,N,07726.2616,W,2,08,0.94,159.6,M,-34.4,M,0000,0000*52
$GPRMC,160504.250,A,4308.3046,N,07726.2615,W,0.00,84.98,230919,,,D*4F
$GPGGA,160504.500,4308.3046,N,07726.2616,W,2,08,0.94,159.6,M,-34.4,M,0000,0000*57
$GPRMC,160504.750,A,4308.3046,N,07726.2616,W,0.02,247.63,230919,,,D*72
$GPGGA,160505.000,4308.3046,N,07726.2616,W,2,08,0.94,159.6,M,-34.4,M,0000,0000*53
$GPRMC,160505.250,A,4308.3046,N,07726.2616,W,0.00,125.07,230919,,,D*71
$GPGGA,160505.500,4308.3045,N,07726.2616,W,2,08,0.94,159.5,M,-34.4,M,0000,0000*56
$GPRMC,160505.750,A,4308.3045,N,07726.2616,W,0.01,138.58,230919,,,D*70
$GPGGA,160506.000,4308.3045,N,07726.2616,W,2,08,0.94,159.5,M,-34.4,M,0000,0000*50
$GPRMC,160506.250,A,4308.3045,N,07726.2615,W,0.00,92.91,230919,,,D*40
$GPGGA,160506.500,4308.3045,N,07726.2616,W,2,08,0.94,159.5,M,-34.4,M,0000,0000*55
$GPRMC,160506.750,A,4308.3046,N,07726.2616,W,0.02,278.21,230919,,,D*7A
$GPGGA,160507.000,4308.3046,N,07726.2617,W,2,08,0.92,159.5,M,-34.4,M,0000,0000*55
$GPRMC,160507.250,A,4308.3046,N,07726.2617,W,0.01,266.80,230919,,,D*78
$GPGGA,160507.500,4308.3046,N,07726.2617,W,2,08,0.94,159.6,M,-34.4,M,0000,0000*55
$GPRMC,160507.750,A,4308.3047,N,07726.2617,W,0.00,271.33,230919,,,D*73
$GPGGA,160508.000,4308.3047,N,07726.2617,W,2,08,0.94,159.7,M,-34.4,M,0000,0000*5F
$GPRMC,160508.250,A,4308.3048,N,07726.2617,W,0.01,266.05,230919,,,D*74
$GPGGA,160508.500,4308.3048,N,07726.2618,W,2,08,0.94,159.7,M,-34.4,M,0000,0000*5A
$GPRMC,160508.750,A,4308.3049,N,07726.2618,W,0.02,282.00,230919,,,D*73
$GPGGA,160509.000,4308.3049,N,07726.2619,W,2,08,0.94,159.7,M,-34.4,M,0000,0000*5E
$GPRMC,160509.250,A,4308.3049,N,07726.2619,W,0.00,14.82,230919,,,D*43
$GPGGA,160509.500,4308.3050,N,07726.2619,W,2,08,0.94,159.8,M,-34.4,M,0000,0000*5C
$GPRMC,160509.750,A,4308.3051,N,07726.2619,W,0.01,317.47,230919,,,D*77
$GPGGA,160510.000,4308.3051,N,07726.2619,W,2,08,0.94,159.8,M,-34.4,M,0000,0000*50
$GPRMC,160510.250,A,4308.3051,N,07726.2619,W,0.00,276.88,230919,,,D*7E
$GPGGA,160510.500,4308.3052,N,07726.2619,W,2,08,0.94,159.8,M,-34.4,M,0000,0000*56
$GPRMC,160510.750,A,4308.3052,N,07726.2619,W,0.01,298.02,230919,,,D*7B
$GPGGA,160511.000,4308.3053,N,07726.2620,W,2,08,0.94,159.9,M,-34.4,M,0000,0000*58
$GPRMC,160511.250,A,4308.3053,N,07726.2619,W,0.00,107.03,230919,,,D*7B
$GPGGA,160511.500,4308.3053,N,07726.2619,W,2,08,0.94,159.9,M,-34.4,M,0000,0000*57
$GPRMC,160511.750,A,4308.3054,N,07726.2619,W,0.01,302.61,230919,,,D*7B
$GPGGA,160512.000,4308.3054,N,07726.2619,W,2,08,0.94,159.9,M,-34.4,M,0000,0000*56
$GPRMC,160512.250,A,4308.3054,N,07726.2619,W,0.00,123.27,230919,,,D*7F
$GPGGA,160512.500,4308.3054,N,07726.2619,W,2,08,0.94,159.9,M,-34.4,M,0000,0000*53
$GPRMC,160512.750,A,4308.3054,N,07726.2618,W,0.01,103.46,230919,,,D*7F
$GPGGA,160513.000,4308.3055,N,07726.2618,W,2,08,0.94,159.9,M,-34.4,M,0000,0000*57
$GPRMC,160513.250,A,4308.3055,N,07726.2618,W,0.01,71.06,230919,,,D*4A
$GPGGA,160513.500,4308.3055,N,07726.2618,W,2,08,0.94,159.9,M,-34.4,M,0000,0000*52
$GPRMC,160513.750,A,4308.3055,N,07726.2618,W,0.01,359.61,230919,,,D*77
$GPGGA,160514.000,4308.3055,N,07726.2618,W,2,08,0.94,159.9,M,-34.4,M,0000,0000*50
$GPRMC,160514.250,A,4308.3055,N,07726.2618,W,0.01,284.04,230919,,,D*77
$GPGGA,160514.500,4308.3055,N,07726.2618,W,2,08,0.94,159.9,M,-34.4,M,0000,0000*55
$GPRMC,160514.750,A,4308.3055,N,07726.2618,W,0.00,22.70,230919,,,D*4E
$GPGGA,160515.000,4308.3055,N,07726.2618,W,2,08,0.94,159.9,M,-34.4,M,0000,0000*51
$GPRMC,160515.250,A,4308.3055,N,07726.2618,W,0.00,251.10,230919,,,D*7A
$GPGGA,160515.500,4308.3055,N,07726.2618,W,2,08,0.94,159.9,M,-34.4,M,0000,0000*54
$GPRMC,160515.750,A,4308.3055,N,07726.2618,W,0.01,99.39,230919,,,D*43
$GPGGA,160516.000,4308.3055,N,07726.2618,W,2,08,0.94,159.9,M,-34.4,M,0000,0000*52
$GPRMC,160516.250,A,4308.3055,N,07726.2618,W,0.00,304.02,230919,,,D*7B
$GPGGA,160516.500,4308.3055,N,07726.2618,W,2,08,0.94,159.9,M,-34.4,M,0000,0000*57
$GPRMC,160516.750,A,4308.3055,N,07726.2618,W,0.00,216.67,230919,,,D*7F
$GPGGA,160517.000,4308.3055,N,07726.2618,W,2,08,0.94,159.9,M,-34.4,M,0000,0000*53
$GPRMC,160517.250,A,4308.3055,N,07726.2618,W,0.01,351.79,230919,,,D*77
$GPGGA,160517.500,4308.3055,N,07726.2618,W,2,08,0.94,159.9,M,-34.4,M,0000,0000*56
$GPRMC,160517.750,A,4308.3055,N,07726.2618,W,0.02,49.12,230919,,,D*46
$GPGGA,160518.000,4308.3055,N,07726.2618,W,2,08,0.94,159.9,M,-34.4,M,0000,0000*5C
$GPRMC,160518.250,A,4308.3055,N,07726.2618,W,0.00,350.72,230919,,,D*73
$GPGGA,160518.500,4308.3055,N,07726.2618,W,2,08,0.94,159.9,M,-34.4,M,0000,0000*59
$GPRMC,160518.750,A,4308.3055,N,07726.2618,W,0.01,292.67,230919,,,D*7C
$GPGGA,160519.000,4308.3055,N,07726.2618,W,2,08,0.94,159.9,M,-34.4,M,0000,0000*5D
$GPRMC,160519.250,A,4308.3055,N,07726.2618,W,0.00,314.68,230919,,,D*79
$GPGGA,160519.500,4308.3055,N,07726.2618,W,2,08,0.94,159.9,M,-34.4,M,0000,0000*58
$GPRMC,160519.750,A,4308.3055,N,07726.2618,W,0.01,97.41,230919,,,D*4E
$GPGGA,160520.000,4308.3055,N,07726.2618,W,2,08,0.94,159.9,M,-34.4,M,0000,0000*57
$GPRMC,160520.250,A,4308.3055,N,07726.2618,W,0.00,120.57,230919,,,D*7A
$GPGGA,160520.500,4308.3055,N,07726.2618,W,2,08,0.94,159.9,M,-34.4,M,0000,0000*52
$GPRMC,160520.750,A,4308.3055,N,07726.2618,W,0.01,80.67,230919,,,D*46
$GPGGA,160521.000,4308.3055,N,07726.2618,W,2,08,0.94,159.9,M,-34.4,M,0000,0000*56
$GPRMC,160521.250,A,4308.3055,N,07726.2618,W,0.00,40.88,230919,,,D*4E
$GPGGA,160521.500,4308.3055,N,07726.2618,W,2,08,0.94,159.9,M,-34.4,M,0000,0000*53
$GPRMC,160521.750,A,4308.3055,N,07726.2618,W,0.01,40.74,230919,,,D*49
$GPGGA,160522.000,4308.3055,N,07726.2618,W,2,08,0.94,159.9,M,-34.4,M,0000,0000*55
$GPRMC,160522.250,A,4308.3055,N,07726.2618,W,0.01,352.97,230919,,,D*72
$GPGGA,160522.500,4308.3055,N,07726.2618,W,2,08,0.94,159.9,M,-34.4,M,0000,0000*50
$GPRMC,160522.750,A,4308.3055,N,07726.2618,W,0.01,56.94,230919,,,D*43
$GPGGA,160523.000,4308.3055,N,07726.2618,W,2,08,0.94,159.9,M,-34.4,M,0000,0000*54
$GPRMC,160523.250,A,4308.3055,N,07726.2618,W,0.00,49.09,230919,,,D*4C
$GPGGA,160523.500,4308.3055,N,07726.2618,W,2,08,0.94,159.9,M,-34.4,M,0000,0000*51
$GPRMC,160523.750,A,4308.3055,N,07726.2618,W,0.01,349.41,230919,,,D*77
$GPGGA,160524.000,4308.3055,N,07726.2618,W,2,08,0.94,159.9,M,-34.4,M,0000,0000*53
$GPRMC,160524.250,A,4308.3055,N,07726.2618,W,0.01,340.38,230919,,,D*72
$GPGGA,160524.500,4308.3055,N,07726.2618,W,2,08,0.94,159.9,M,-34.4,M,0000,0000*56
$GPRMC,160524.750,A,4308.3055,N,07726.2618,W,0.01,8.66,230919,,,D*73
$GPGGA,160525.000,4308.3055,N,07726.2618,W,2,08,0.94,159.9,M,-34.4,M,0000,0000*52
$GPRMC,160525.250,A,4308.3055,N,07726.2618,W,0.01,273.44,230919,,,D*79
$GPGGA,160525.500,4308.3055,N,07726.2618,W,2,08,0.94,159.9,M,-34.4,M,0000,0000*57
$GPRMC,160525.750,A,4308.3055,N,07726.2618,W,0.00,0.00,230919,,,D*7B
$GPGGA,160526.000,4308.3055,N,07726.2618,W,2,08,0.94,159.9,M,-34.4,M,0000,0000*51
$GPRMC,160526.250,A,4308.3055,N,07726.2618,W,0.01,309.33,230919,,,D*76
$GPGGA,160526.500,4308.3055,N,07726.2618,W,2,08,0.94,159.9,M,-34.4,M,0000,0000*54
$GPRMC,160526.750,A,4308.3055,N,07726.2618,W,0.01,4.61,230919,,,D*7A
$GPGGA,160527.000,4308.3055,N,07726.2618,W,2,08,0.94,159.9,M,-34.4,M,0000,0000*50
$GPRMC,160527.250,A,4308.3055,N,07726.2618,W,0.00,273.88,230919,,,D*7A
$GPGGA,160527.500,4308.3055,N,07726.2618,W,2,08,0.94,159.9,M,-34.4,M,0000,0000*55
$GPRMC,160527.750,A,4308.3055,N,07726.2618,W,0.01,71.27,230919,,,D*4B
$GPGGA,160528.000,4308.3055,N,07726.2618,W,2,08,0.94,159.9,M,-34.4,M,0000,0000*5F
$GPRMC,160528.250,A,4308.3055,N,07726.2618,W,0.00,101.68,230919,,,D*7D
$GPGGA,160528.500,4308.3055,N,07726.2618,W,2,08,0.94,159.9,M,-34.4,M,0000,0000*5A
$GPRMC,160528.750,A,4308.3055,N,07726.2618,W,0.01,15.18,230919,,,D*4A
$GPGGA,160529.000,4308.3055,N,07726.2618,W,2,08,0.94,159.9,M,-34.4,M,0000,0000*5E
$GPRMC,160529.250,A,4308.3055,N,07726.2618,W,0.00,151.92,230919,,,D*7C
$GPGGA,160529.500,4308.3055,N,07726.2618,W,2,08,0.94,159.9,M,-34.4,M,0000,0000*5B
$GPRMC,160529.750,A,4308.3055,N,07726.2618,W,0.01,83.34,230919,,,D*4A
$GPGGA,160530.000,4308.3055,N,07726.2618,W,2,08,0.94,159.9,M,-34.4,M,0000,0000*56
$GPRMC,160530.250,A,4308.3055,N,07726.2618,W,0.00,68.41,230919,,,D*41
$GPGGA,160530.500,4308.3055,N,07726.2618,W,2,08,0.94,159.9,M,-34.4,M,0000,0000*53
$GPRMC,160530.750,A,4308.3055,N,07726.2618,W,0.01,33.01,230919,,,D*4F
$GPGGA,160531.000,4308.3055,N,07726.2618,W,2,08,0.94,159.9,M,-34.4,M,0000,0000*57
$GPRMC,160531.250,A,4308.3055,N,07726.2618,W,0.01,337.91,230919,,,D*75
$GPGGA,160531.500,4308.3055,N,07726.2618,W,2,08,0.94,159.9,M,-34.4,M,0000,0000*52
$GPRMC,160531.750,A,4308.3055,N,07726.2618,W,0.01,6.86,230919,,,D*77
$GPGGA,160532.000,4308.3055,N,07726.2618,W,2,08,0.94,159.9,M,-34.4,M,0000,0000*54
$GPRMC,160532.250,A,4308.3055,N,07726.2618,W,0.01,357.46,230919,,,D*7A
$GPGGA,160532.500,4308.3055,N,07726.2618,W,2,08,0.94,159.9,M,-34.4,M,0000,0000*51
$GPRMC,160532.750,A,4308.3056,N,07726.2618,W,0.00,317.57,230919,,,D*79
$GPGGA,160533.000,4308.3056,N,07726.2618,W,2,08,0.94,159.9,M,-34.4,M,0000,0000*56
$GPRMC,160533.250,A,4308.3056,N,07726.2618,W,0.01,342.68,230919,,,D*70
$GPGGA,160533.500,4308.3057,N,07726.2618,W,2,08,0.94,159.9,M,-34.4,M,0000,0000*52
$GPRMC,160533.750,A,4308.3057,N,07726.2617,W,0.01,93.00,230919,,,D*4A
$GPGGA,160534.000,4308.3058,N,07726.2617,W,2,08,0.94,159.9,M,-34.4,M,0000,0000*50
$GPRMC,160534.250,A,4308.3058,N,07726.2617,W,0.00,76.48,230919,,,D*41
$GPGGA,160534.500,4308.3059,N,07726.2617,W,2,08,0.94,160.0,M,-34.4,M,0000,0000*57
$GPRMC,160534.750,A,4308.3059,N,07726.2617,W,0.01,332.37,230919,,,D*7F
$GPGGA,160535.000,4308.3060,N,07726.2617,W,2,08,0.94,160.0,M,-34.4,M,0000,0000*59
$GPRMC,160535.250,A,4308.3061,N,07726.2617,W,0.01,12.89,230919,,,D*44
$GPGGA,160535.500,4308.3061,N,07726.2617,W,2,08,0.94,160.0,M,-34.4,M,0000,0000*5D
$GPRMC,160535.750,A,4308.3061,N,07726.2617,W,0.01,313.74,230919,,,D*71
$GPGGA,160536.000,4308.3062,N,07726.2617,W,2,08,0.94,160.1,M,-34.4,M,0000,0000*59
$GPRMC,160536.250,A,4308.3062,N,07726.2617,W,0.00,95.42,230919,,,D*4D
$GPGGA,160536.500,4308.3062,N,07726.2617,W,2,08,0.94,160.1,M,-34.4,M,0000,0000*5C
$GPRMC,160536.750,A,4308.3062,N,07726.2616,W,0.01,98.78,230919,,,D*4C
$GPGGA,160537.000,4308.3061,N,07726.2616,W,2,08,0.94,160.1,M,-34.4,M,0000,0000*5A
$GPRMC,160537.250,A,4308.3061,N,07726.2616,W,0.00,149.92,230919,,,D*73
$GPGGA,160537.500,4308.3061,N,07726.2616,W,2,08,0.94,160.0,M,-34.4,M,0000,0000*5E
$GPRMC,160537.750,A,4308.3061,N,07726.2616,W,0.00,227.08,230919,,,D*7E
$GPGGA,160538.000,4308.3061,N,07726.2616,W,2,08,0.94,160.0,M,-34.4,M,0000,0000*54
$GPRMC,160538.250,A,4308.3060,N,07726.2616,W,0.01,268.59,230919,,,D*7B
$GPGGA,160538.500,4308.3060,N,07726.2616,W,2,08,0.94,159.9,M,-34.4,M,0000,0000*53
$GPRMC,160538.750,A,4308.3061,N,07726.2616,W,0.01,319.61,230919,,,D*73
$GPGGA,160539.000,4308.3061,N,07726.2616,W,2,08,0.94,159.9,M,-34.4,M,0000,0000*56
$GPRMC,160539.250,A,4308.3061,N,07726.2616,W,0.01,61.58,230919,,,D*41
$GPGGA,160539.500,4308.3060,N,07726.2616,W,2,08,0.94,159.9,M,-34.4,M,0000,0000*52
$GPRMC,160539.750,A,4308.3060,N,07726.2615,W,0.01,134.42,230919,,,D*7C
$GPGGA,160540.000,4308.3060,N,07726.2615,W,2,08,0.94,159.9,M,-34.4,M,0000,0000*5A
$GPRMC,160540.250,A,4308.3060,N,07726.2615,W,0.01,170.02,230919,,,D*73
$GPGGA,160540.500,4308.3060,N,07726.2615,W,2,08,0.94,159.9,M,-34.4,M,0000,0000*5F
$GPRMC,160540.750,A,4308.3060,N,07726.2615,W,0.01,105.15,230919,,,D*72
$GPGGA,160541.000,4308.3060,N,07726.2615,W,2,08,0.94,159.9,M,-34.4,M,0000,0000*5B
$GPRMC,160541.250,A,4308.3060,N,07726.2615,W,0.01,46.90,230919,,,D*4D
$GPGGA,160541.500,4308.3060,N,07726.2615,W,2,08,0.94,159.9,M,-34.4,M,0000,0000*5E
$GPRMC,160541.750,A,4308.3060,N,07726.2615,W,0.00,146.31,230919,,,D*73
$GPGGA,160542.000,4308.3060,N,07726.2615,W,2,08,0.94,159.9,M,-34.4,M,0000,0000*58
$GPRMC,160542.250,A,4308.3060,N,07726.2615,W,0.01,13.33,230919,,,D*47
$GPGGA,160542.500,4308.3060,N,07726.2615,W,2,08,0.94,159.9,M,-34.4,M,0000,0000*5D
$GPRMC,160542.750,A,4308.3060,N,07726.2615,W,0.01,187.47,230919,,,D*7D
$GPGGA,160543.000,4308.3060,N,07726.2615,W,2,08,0.94,159.9,M,-34.4,M,0000,0000*59
$GPRMC,160543.250,A,4308.3060,N,07726.2615,W,0.01,285.91,230919,,,D*73
$GPGGA,160543.500,4308.3060,N,07726.2615,W,2,08,0.94,159.9,M,-34.4,M,0000,0000*5C
$GPRMC,160543.750,A,4308.3060,N,07726.2614,W,0.01,100.13,230919,,,D*73
$GPGGA,160544.000,4308.3060,N,07726.2614,W,2,08,0.94,159.8,M,-34.4,M,0000,0000*5E
$GPRMC,160544.250,A,4308.3060,N,07726.2614,W,0.01,49.30,230919,,,D*4C
$GPGGA,160544.500,4308.3060,N,07726.2613,W,2,08,0.94,159.8,M,-34.4,M,0000,0000*5C
$GPRMC,160544.750,A,4308.3060,N,07726.2613,W,0.01,73.74,230919,,,D*47
$GPGGA,160545.000,4308.3060,N,07726.2613,W,2,08,0.94,159.9,M,-34.4,M,0000,0000*59
$GPRMC,160545.250,A,4308.3060,N,07726.2613,W,0.00,183.36,230919,,,D*7A
$GPGGA,160545.500,4308.3060,N,07726.2613,W,2,08,0.94,159.9,M,-34.4,M,0000,0000*5C
$GPRMC,160545.750,A,4308.3060,N,07726.2613,W,0.01,285.04,230919,,,D*7A
$GPGGA,160546.000,4308.3060,N,07726.2613,W,2,08,0.94,159.9,M,-34.4,M,0000,0000*5A
$GPRMC,160546.250,A,4308.3060,N,07726.2612,W,0.00,77.03,230919,,,D*44
$GPGGA,160546.500,4308.3060,N,07726.2612,W,2,08,0.94,159.9,M,-34.4,M,0000,0000*5E
$GPRMC,160546.750,A,4308.3060,N,07726.2612,W,0.00,174.57,230919,,,D*72
$GPGGA,160547.000,4308.3060,N,07726.2612,W,2,08,0.94,160.0,M,-34.4,M,0000,0000*59
$GPRMC,160547.250,A,4308.3060,N,07726.2612,W,0.00,14.34,230919,,,D*44
$GPGGA,160547.500,4308.3061,N,07726.2611,W,2,08,0.94,160.0,M,-34.4,M,0000,0000*5E
$GPRMC,160547.750,A,4308.3061,N,07726.2611,W,0.00,0.00,230919,,,D*71
$GPGGA,160548.000,4308.3061,N,07726.2611,W,2,08,0.94,160.0,M,-34.4,M,0000,0000*54
$GPRMC,160548.250,A,4308.3061,N,07726.2610,W,0.01,64.66,230919,,,D*49
$GPGGA,160548.500,4308.3061,N,07726.2610,W,2,08,0.94,160.0,M,-34.4,M,0000,0000*50
$GPRMC,160548.750,A,4308.3062,N,07726.2610,W,0.02,323.38,230919,,,D*77
$GPGGA,160549.000,4308.3062,N,07726.2610,W,2,08,0.94,160.0,M,-34.4,M,0000,0000*57
$GPRMC,160549.250,A,4308.3062,N,07726.2610,W,0.01,63.56,230919,,,D*4F
$GPGGA,160549.500,4308.3062,N,07726.2609,W,2,08,0.94,160.0,M,-34.4,M,0000,0000*5A
$GPRMC,160549.750,A,4308.3062,N,07726.2609,W,0.01,54.66,230919,,,D*45
$GPGGA,160550.000,4308.3063,N,07726.2608,W,2,08,0.94,160.0,M,-34.4,M,0000,0000*57
$GPRMC,160550.250,A,4308.3063,N,07726.2608,W,0.01,47.56,230919,,,D*49
$GPGGA,160550.500,4308.3063,N,07726.2608,W,2,08,0.94,160.0,M,-34.4,M,0000,0000*52
$GPRMC,160550.750,A,4308.3063,N,07726.2608,W,0.01,281.83,230919,,,D*7C
$GPGGA,160551.000,4308.3063,N,07726.2608,W,2,08,0.94,160.0,M,-34.4,M,0000,0000*56
$GPRMC,160551.250,A,4308.3063,N,07726.2608,W,0.01,243.12,230919,,,D*7E
$GPGGA,160551.500,4308.3063,N,07726.2608,W,2,08,0.94,160.0,M,-34.4,M,0000,0000*53
$GPRMC,160551.750,A,4308.3063,N,07726.2608,W,0.01,134.96,230919,,,D*74
$GPGGA,160552.000,4308.3063,N,07726.2608,W,2,08,0.94,160.0,M,-34.4,M,0000,0000*55
$GPRMC,160552.250,A,4308.3063,N,07726.2608,W,0.01,91.36,230919,,,D*46
$GPGGA,160552.500,4308.3063,N,07726.2607,W,2,08,0.94,160.0,M,-34.4,M,0000,0000*5F
$GPRMC,160552.750,A,4308.3063,N,07726.2607,W,0.00,342.62,230919,,,D*71
$GPGGA,160553.000,4308.3063,N,07726.2607,W,2,08,0.94,160.0,M,-34.4,M,0000,0000*5B
$GPRMC,160553.250,A,4308.3063,N,07726.2607,W,0.00,24.00,230919,,,D*42
$GPGGA,160553.500,4308.3063,N,07726.2607,W,2,08,0.94,160.0,M,-34.4,M,0000,0000*5E
$GPRMC,160553.750,A,4308.3063,N,07726.2607,W,0.00,121.34,230919,,,D*74
$GPGGA,160554.000,4308.3063,N,07726.2606,W,2,08,0.94,160.0,M,-34.4,M,0000,0000*5D
$GPRMC,160554.250,A,4308.3063,N,07726.2606,W,0.00,14.31,230919,,,D*45
$GPGGA,160554.500,4308.3063,N,07726.2606,W,2,08,0.94,160.0,M,-34.4,M,0000,0000*58
$GPRMC,160554.750,A,4308.3063,N,07726.2606,W,0.01,152.36,230919,,,D*75
$GPGGA,160555.000,4308.3063,N,07726.2606,W,2,08,0.94,159.9,M,-34.4,M,0000,0000*5F
$GPRMC,160555.250,A,4308.3063,N,07726.2605,W,0.01,61.90,230919,,,D*4F
$GPGGA,160555.500,4308.3063,N,07726.2605,W,2,08,0.94,159.9,M,-34.4,M,0000,0000*59
$GPRMC,160555.750,A,4308.3063,N,07726.2605,W,0.00,64.07,230919,,,D*40
$GPGGA,160556.000,4308.3063,N,07726.2605,W,2,08,0.94,159.9,M,-34.4,M,0000,0000*5F
$GPRMC,160556.250,A,4308.3063,N,07726.2605,W,0.01,280.76,230919,,,D*79
$GPGGA,160556.500,4308.3063,N,07726.2605,W,2,08,0.94,159.9,M,-34.4,M,0000,0000*5A
$GPRMC,160556.750,A,4308.3062,N,07726.2604,W,0.01,164.53,230919,,,D*72
$GPGGA,160557.000,4308.3062,N,07726.2604,W,2,08,0.94,159.8,M,-34.4,M,0000,0000*5F
$GPRMC,160557.250,A,4308.3062,N,07726.2603,W,0.00,88.68,230919,,,D*4B
$GPGGA,160557.500,4308.3062,N,07726.2603,W,2,08,0.94,159.8,M,-34.4,M,0000,0000*5D
$GPRMC,160557.750,A,4308.3061,N,07726.2602,W,0.01,99.32,230919,,,D*42
$GPGGA,160558.000,4308.3061,N,07726.2602,W,2,08,0.94,159.7,M,-34.4,M,0000,0000*5A
$GPRMC,160558.250,A,4308.3061,N,07726.2601,W,0.00,183.22,230919,,,D*71
$GPGGA,160558.500,4308.3061,N,07726.2601,W,2,08,0.94,159.7,M,-34.4,M,0000,0000*5C
$GPRMC,160558.750,A,4308.3061,N,07726.2601,W,0.00,94.40,230919,,,D*47
$GPGGA,160559.000,4308.3061,N,07726.2600,W,2,08,0.94,159.6,M,-34.4,M,0000,0000*58
$GPRMC,160559.250,A,4308.3061,N,07726.2600,W,0.00,127.11,230919,,,D*7F
$GPGGA,160559.500,4308.3061,N,07726.2600,W,2,08,0.94,159.6,M,-34.4,M,0000,0000*5D
$GPRMC,160559.750,A,4308.3061,N,07726.2599,W,0.01,43.57,230919,,,D*49
$GPGGA,160600.000,4308.3061,N,07726.2599,W,2,08,0.94,159.5,M,-34.4,M,0000,0000*57
$GPRMC,160600.250,A,4308.3061,N,07726.2598,W,0.01,37.43,230919,,,D*44
$GPGGA,160600.500,4308.3060,N,07726.2598,W,2,08,0.94,159.5,M,-34.4,M,0000,0000*52
$GPRMC,160600.750,A,4308.3060,N,07726.2598,W,0.01,259.04,230919,,,D*79
$GPGGA,160601.000,4308.3060,N,07726.2598,W,2,08,0.94,159.5,M,-34.4,M,0000,0000*56
$GPRMC,160601.250,A,4308.3060,N,07726.2597,W,0.01,39.08,230919,,,D*4A
$GPGGA,160601.500,4308.3060,N,07726.2597,W,2,08,0.94,159.5,M,-34.4,M,0000,0000*5C
$GPRMC,160601.750,A,4308.3060,N,07726.2597,W,0.01,136.78,230919,,,D*76
$GPGGA,160602.000,4308.3060,N,07726.2596,W,2,08,0.94,159.4,M,-34.4,M,0000,0000*5A
$GPRMC,160602.250,A,4308.3060,N,07726.2596,W,0.01,121.76,230919,,,D*79
$GPGGA,160602.500,4308.3059,N,07726.2595,W,2,08,0.94,159.4,M,-34.4,M,0000,0000*56
$GPRMC,160602.750,A,4308.3059,N,07726.2595,W,0.00,211.97,230919,,,D*7B
$GPGGA,160603.000,4308.3059,N,07726.2595,W,2,08,0.94,159.4,M,-34.4,M,0000,0000*52
$GPRMC,160603.250,A,4308.3059,N,07726.2595,W,0.01,66.46,230919,,,D*40
$GPGGA,160603.500,4308.3059,N,07726.2595,W,2,08,0.94,159.4,M,-34.4,M,0000,0000*57
$GPRMC,160603.750,A,4308.3059,N,07726.2594,W,0.01,143.56,230919,,,D*73
$GPGGA,160604.000,4308.3059,N,07726.2594,W,2,08,0.94,159.4,M,-34.4,M,0000,0000*54
$GPRMC,160604.250,A,4308.3059,N,07726.2594,W,0.01,322.53,230919,,,D*71
$GPGGA,160604.500,4308.3058,N,07726.2594,W,2,08,0.94,159.4,M,-34.4,M,0000,0000*50
$GPRMC,160604.750,A,4308.3058,N,07726.2594,W,0.01,247.32,230919,,,D*70
$GPGGA,160605.000,4308.3058,N,07726.2593,W,2,08,0.94,159.3,M,-34.4,M,0000,0000*54
$GPRMC,160605.250,A,4308.3058,N,07726.2593,W,0.01,71.77,230919,,,D*45
$GPGGA,160605.500,4308.3058,N,07726.2593,W,2,08,0.94,159.3,M,-34.4,M,0000,0000*51
$GPRMC,160605.750,A,4308.3058,N,07726.2593,W,0.01,107.06,230919,,,D*76
$GPGGA,160606.000,4308.3058,N,07726.2593,W,2,08,0.94,159.3,M,-34.4,M,0000,0000*57
$GPRMC,160606.250,A,4308.3058,N,07726.2593,W,0.00,342.98,230919,,,D*75
$GPGGA,160606.500,4308.3058,N,07726.2593,W,2,08,0.94,159.3,M,-34.4,M,0000,0000*52
$GPRMC,160606.750,A,4308.3058,N,07726.2593,W,0.01,115.59,230919,,,D*7C
$GPGGA,160607.000,4308.3058,N,07726.2593,W,2,08,0.94,159.3,M,-34.4,M,0000,0000*56
$GPRMC,160607.250,A,4308.3058,N,07726.2593,W,0.00,114.56,230919,,,D*77
$GPGGA,160607.500,4308.3058,N,07726.2593,W,2,08,0.94,159.3,M,-34.4,M,0000,0000*53
$GPRMC,160607.750,A,4308.3058,N,07726.2593,W,0.00,0.00,230919,,,D*75
$GPGGA,160608.000,4308.3058,N,07726.2593,W,2,08,0.94,159.3,M,-34.4,M,0000,0000*59
$GPRMC,160608.250,A,4308.3058,N,07726.2593,W,0.00,5.73,230919,,,D*7E
$GPGGA,160608.500,4308.3058,N,07726.2593,W,2,08,0.94,159.3,M,-34.4,M,0000,0000*5C
$GPRMC,160608.750,A,4308.3058,N,07726.2593,W,0.00,269.48,230919,,,D*7B
$GPGGA,160609.000,4308.3058,N,07726.2593,W,2,08,0.94,159.3,M,-34.4,M,0000,0000*58
$GPRMC,160609.250,A,4308.3058,N,07726.2593,W,0.00,194.97,230919,,,D*7C
$GPGGA,160609.500,4308.3058,N,07726.2593,W,2,08,0.94,159.3,M,-34.4,M,0000,0000*5D
$GPRMC,160609.750,A,4308.3058,N,07726.2593,W,0.01,54.30,230919,,,D*48
$GPGGA,160610.000,4308.3058,N,07726.2593,W,2,08,0.94,159.3,M,-34.4,M,0000,0000*50
$GPRMC,160610.250,A,4308.3058,N,07726.2593,W,0.01,56.34,230919,,,D*43
$GPGGA,160610.500,4308.3058,N,07726.2593,W,2,08,0.94,159.3,M,-34.4,M,0000,0000*55
$GPRMC,160610.750,A,4308.3058,N,07726.2593,W,0.01,74.35,230919,,,D*47
$GPGGA,160611.000,4308.3058,N,07726.2593,W,2,08,0.94,159.3,M,-34.4,M,0000,0000*51
$GPRMC,160611.250,A,4308.3058,N,07726.2593,W,0.01,96.47,230919,,,D*4A
$GPGGA,160611.500,4308.3058,N,07726.2593,W,2,08,0.94,159.3,M,-34.4,M,0000,0000*54
$GPRMC,160611.750,A,4308.3058,N,07726.2593,W,0.01,113.99,230919,,,D*70
$GPGGA,160612.000,4308.3058,N,07726.2593,W,2,08,0.94,159.3,M,-34.4,M,0000,0000*52
$GPRMC,160612.250,A,4308.3058,N,07726.2593,W,0.00,88.76,230919,,,D*45
$GPGGA,160612.500,4308.3058,N,07726.2593,W,2,08,0.94,159.3,M,-34.4,M,0000,0000*57
$GPRMC,160612.750,A,4308.3058,N,07726.2593,W,0.01,116.74,230919,,,D*75
$GPGGA,160613.000,4308.3058,N,07726.2593,W,2,08,0.94,159.3,M,-34.4,M,0000,0000*53
$GPRMC,160613.250,A,4308.3058,N,07726.2593,W,0.00,61.34,230919,,,D*45
$GPGGA,160613.500,4308.3058,N,07726.2593,W,2,08,0.94,159.3,M,-34.4,M,0000,0000*56
$GPRMC,160613.750,A,4308.3058,N,07726.2593,W,0.01,330.20,230919,,,D*73
$GPGGA,160614.000,4308.3058,N,07726.2593,W,2,08,0.94,159.3,M,-34.4,M,0000,0000*54
$GPRMC,160614.250,A,4308.3058,N,07726.2593,W,0.01,74.02,230919,,,D*42
$GPGGA,160614.500,4308.3058,N,07726.2593,W,2,08,0.94,159.3,M,-34.4,M,0000,0000*51
$GPRMC,160614.750,A,4308.3058,N,07726.2593,W,0.01,92.25,230919,,,D*4A
$GPGGA,160615.000,4308.3058,N,07726.2593,W,2,08,0.94,159.3,M,-34.4,M,0000,0000*55
$GPRMC,160615.250,A,4308.3058,N,07726.2593,W,0.00,99.65,230919,,,D*40
$GPGGA,160615.500,4308.3058,N,07726.2593,W,2,08,0.94,159.3,M,-34.4,M,0000,0000*50
$GPRMC,160615.750,A,4308.3058,N,07726.2593,W,0.00,347.57,230919,,,D*74
$GPGGA,160616.000,4308.3058,N,07726.2593,W,2,08,0.94,159.3,M,-34.4,M,0000,0000*56
$GPRMC,160616.250,A,4308.3058,N,07726.2593,W,0.00,0.00,230919,,,D*70
$GPGGA,160616.500,4308.3058,N,07726.2593,W,2,08,0.94,159.3,M,-34.4,M,0000,0000*53
$GPRMC,160616.750,A,4308.3058,N,07726.2593,W,0.01,86.22,230919,,,D*4A
$GPGGA,160617.000,4308.3058,N,07726.2593,W,2,08,0.94,159.3,M,-34.4,M,0000,0000*57
$GPRMC,160617.250,A,4308.3058,N,07726.2593,W,0.00,96.91,230919,,,D*46
$GPGGA,160617.500,4308.3058,N,07726.2593,W,2,08,0.94,159.3,M,-34.4,M,0000,0000*52
$GPRMC,160617.750,A,4308.3058,N,07726.2593,W,0.00,322.30,230919,,,D*74
$GPGGA,160618.000,4308.3058,N,07726.2593,W,2,08,0.94,159.3,M,-34.4,M,0000,0000*58
$GPRMC,160618.250,A,4308.3058,N,07726.2593,W,0.01,95.24,230919,,,D*45
$GPGGA,160618.500,4308.3058,N,07726.2593,W,2,08,0.94,159.3,M,-34.4,M,0000,0000*5D
$GPRMC,160618.750,A,4308.3058,N,07726.2593,W,0.00,331.60,230919,,,D*7C
$GPGGA,160619.000,4308.3058,N,07726.2593,W,2,08,0.94,159.3,M,-34.4,M,0000,0000*59
$GPRMC,160619.250,A,4308.3058,N,07726.2593,W,0.00,225.19,230919,,,D*72
$GPGGA,160619.500,4308.3058,N,07726.2593,W,2,08,0.94,159.3,M,-34.4,M,0000,0000*5C
$GPRMC,160619.750,A,4308.3058,N,07726.2593,W,0.00,225.79,230919,,,D*71
$GPGGA,160620.000,4308.3058,N,07726.2593,W,2,08,0.94,159.3,M,-34.4,M,0000,0000*53
$GPRMC,160620.250,A,4308.3058,N,07726.2593,W,0.00,171.52,230919,,,D*75
$GPGGA,160620.500,4308.3058,N,07726.2593,W,2,08,0.94,159.3,M,-34.4,M,0000,0000*56
$GPRMC,160620.750,A,4308.3058,N,07726.2593,W,0.01,298.27,230919,,,D*77
$GPGGA,160621.000,4308.3058,N,07726.2593,W,2,08,0.94,159.3,M,-34.4,M,0000,0000*52
$GPRMC,160621.250,A,4308.3058,N,07726.2593,W,0.01,48.12,230919,,,D*4A
$GPGGA,160621.500,4308.3058,N,07726.2593,W,2,08,0.94,159.3,M,-34.4,M,0000,0000*57
$GPRMC,160621.750,A,4308.3058,N,07726.2593,W,0.01,355.29,230919,,,D*78
$GPGGA,160622.000,4308.3058,N,07726.2593,W,2,08,0.94,159.3,M,-34.4,M,0000,0000*51
$GPRMC,160622.250,A,4308.3058,N,07726.2593,W,0.00,254.87,230919,,,D*7B
$GPGGA,160622.500,4308.3058,N,07726.2593,W,2,08,0.94,159.3,M,-34.4,M,0000,0000*54
$GPRMC,160622.750,A,4308.3058,N,07726.2593,W,0.00,321.76,230919,,,D*73
$GPGGA,160623.000,4308.3058,N,07726.2593,W,2,08,0.94,159.3,M,-34.4,M,0000,0000*50
$GPRMC,160623.250,A,4308.3058,N,07726.2593,W,0.00,352.71,230919,,,D*74
$GPGGA,160623.500,4308.3058,N,07726.2593,W,2,08,0.94,159.3,M,-34.4,M,0000,0000*55
$GPRMC,160623.750,A,4308.3058,N,07726.2593,W,0.00,0.00,230919,,,D*73
$GPGGA,160624.000,4308.3058,N,07726.2593,W,2,08,0.94,159.3,M,-34.4,M,0000,0000*57
$GPRMC,160624.250,A,4308.3058,N,07726.2593,W,0.00,350.90,230919,,,D*7E
$GPGGA,160624.500,4308.3058,N,07726.2593,W,2,08,0.94,159.3,M,-34.4,M,0000,0000*52
$GPRMC,160624.750,A,4308.3058,N,07726.2593,W,0.01,354.29,230919,,,D*7C
$GPGGA,160625.000,4308.3058,N,07726.2593,W,2,08,0.94,159.3,M,-34.4,M,0000,0000*56
$GPRMC,160625.250,A,4308.3059,N,07726.2593,W,0.01,339.50,230919,,,D*7C
$GPGGA,160625.500,4308.3059,N,07726.2593,W,2,08,0.94,159.3,M,-34.4,M,0000,0000*52
$GPRMC,160625.750,A,4308.3059,N,07726.2593,W,0.02,178.27,230919,,,D*7D
$GPGGA,160626.000,4308.3058,N,07726.2593,W,2,08,0.94,159.3,M,-34.4,M,0000,0000*55
$GPRMC,160626.250,A,4308.3059,N,07726.2593,W,0.00,0.00,230919,,,D*72
$GPGGA,160626.500,4308.3059,N,07726.2593,W,2,08,0.94,159.4,M,-34.4,M,0000,0000*56
$GPRMC,160626.750,A,4308.3059,N,07726.2593,W,0.00,127.32,230919,,,D*72
$GPGGA,160627.000,4308.3059,N,07726.2593,W,2,08,0.94,159.5,M,-34.4,M,0000,0000*53
$GPRMC,160627.250,A,4308.3060,N,07726.2593,W,0.01,36.14,230919,,,D*48
$GPGGA,160627.500,4308.3060,N,07726.2593,W,2,08,0.94,159.6,M,-34.4,M,0000,0000*5F
$GPRMC,160627.750,A,4308.3061,N,07726.2594,W,0.01,288.81,230919,,,D*70
$GPGGA,160628.000,4308.3061,N,07726.2594,W,2,08,0.94,159.8,M,-34.4,M,0000,0000*5D
$GPRMC,160628.250,A,4308.3062,N,07726.2594,W,0.01,28.43,230919,,,D*4F
$GPGGA,160628.500,4308.3062,N,07726.2594,W,2,08,0.94,159.9,M,-34.4,M,0000,0000*5A
$GPRMC,160628.750,A,4308.3063,N,07726.2595,W,0.01,9.29,230919,,,D*75
$GPGGA,160629.000,4308.3063,N,07726.2595,W,2,08,0.94,160.0,M,-34.4,M,0000,0000*5D
$GPRMC,160629.250,A,4308.3064,N,07726.2596,W,0.01,309.16,230919,,,D*7A
$GPGGA,160629.500,4308.3064,N,07726.2596,W,2,08,0.94,160.2,M,-34.4,M,0000,0000*5E
$GPRMC,160629.750,A,4308.3065,N,07726.2596,W,0.00,355.80,230919,,,D*79
$GPGGA,160630.000,4308.3065,N,07726.2596,W,2,08,0.94,160.3,M,-34.4,M,0000,0000*53
$GPRMC,160630.250,A,4308.3065,N,07726.2597,W,0.01,285.46,230919,,,D*72
$GPGGA,160630.500,4308.3065,N,07726.2597,W,2,08,0.94,160.3,M,-34.4,M,0000,0000*57
$GPRMC,160630.750,A,4308.3065,N,07726.2597,W,0.00,249.68,230919,,,D*7A
$GPGGA,160631.000,4308.3065,N,07726.2597,W,2,08,0.94,160.3,M,-34.4,M,0000,0000*53
$GPRMC,160631.250,A,4308.3065,N,07726.2597,W,0.00,351.67,230919,,,D*79
$GPGGA,160631.500,4308.3065,N,07726.2597,W,2,08,0.94,160.3,M,-34.4,M,0000,0000*56
$GPRMC,160631.750,A,4308.3065,N,07726.2597,W,0.00,156.01,230919,,,D*79
$GPGGA,160632.000,4308.3065,N,07726.2597,W,2,08,0.94,160.4,M,-34.4,M,0000,0000*57
$GPRMC,160632.250,A,4308.3065,N,07726.2597,W,0.00,126.42,230919,,,D*7F
$GPGGA,160632.500,4308.3066,N,07726.2597,W,2,08,0.94,160.5,M,-34.4,M,0000,0000*50
$GPRMC,160632.750,A,4308.3066,N,07726.2597,W,0.01,231.48,230919,,,D*77
$GPGGA,160633.000,4308.3066,N,07726.2597,W,2,08,0.94,160.8,M,-34.4,M,0000,0000*59
$GPRMC,160633.250,A,4308.3066,N,07726.2597,W,0.01,121.37,230919,,,D*79
$GPGGA,160633.500,4308.3066,N,07726.2597,W,2,08,0.94,160.9,M,-34.4,M,0000,0000*5D
$GPRMC,160633.750,A,4308.3067,N,07726.2597,W,0.00,112.09,230919,,,D*71
$GPGGA,160634.000,4308.3067,N,07726.2598,W,2,08,0.94,161.0,M,-34.4,M,0000,0000*59
$GPRMC,160634.250,A,4308.3067,N,07726.2598,W,0.00,25.28,230919,,,D*4A
$GPGGA,160634.500,4308.3067,N,07726.2598,W,2,08,0.94,161.1,M,-34.4,M,0000,0000*5D
$GPRMC,160634.750,A,4308.3067,N,07726.2598,W,0.00,224.27,230919,,,D*73
$GPGGA,160635.000,4308.3067,N,07726.2599,W,2,08,0.94,161.2,M,-34.4,M,0000,0000*5B
$GPRMC,160635.250,A,4308.3067,N,07726.2599,W,0.00,205.93,230919,,,D*7A
$GPGGA,160635.500,4308.3067,N,07726.2600,W,2,08,0.94,161.3,M,-34.4,M,0000,0000*5C
$GPRMC,160635.750,A,4308.3067,N,07726.2600,W,0.00,356.33,230919,,,D*71
$GPGGA,160636.000,4308.3068,N,07726.2600,W,2,08,0.94,161.4,M,-34.4,M,0000,0000*52
$GPRMC,160636.250,A,4308.3068,N,07726.2600,W,0.01,157.33,230919,,,D*7A
$GPGGA,160636.500,4308.3067,N,07726.2600,W,2,08,0.94,161.4,M,-34.4,M,0000,0000*58
$GPRMC,160636.750,A,4308.3068,N,07726.2601,W,0.01,308.21,230919,,,D*75
$GPGGA,160637.000,4308.3069,N,07726.2601,W,2,08,0.94,161.6,M,-34.4,M,0000,0000*51
$GPRMC,160637.250,A,4308.3070,N,07726.2602,W,0.01,328.54,230919,,,D*7B
$GPGGA,160637.500,4308.3070,N,07726.2602,W,2,08,0.94,161.8,M,-34.4,M,0000,0000*51
$GPRMC,160637.750,A,4308.3070,N,07726.2603,W,0.01,241.76,230919,,,D*71
$GPGGA,160638.000,4308.3070,N,07726.2604,W,2,08,0.94,161.9,M,-34.4,M,0000,0000*5C
$GPRMC,160638.250,A,4308.3070,N,07726.2604,W,0.01,100.61,230919,,,D*7C
$GPGGA,160638.500,4308.3070,N,07726.2604,W,2,08,0.94,162.0,M,-34.4,M,0000,0000*53
$GPRMC,160638.750,A,4308.3070,N,07726.2604,W,0.00,268.52,230919,,,D*75
$GPGGA,160639.000,4308.3071,N,07726.2604,W,2,08,0.94,162.0,M,-34.4,M,0000,0000*56
$GPRMC,160639.250,A,4308.3071,N,07726.2604,W,0.00,0.00,230919,,,D*7B
$GPGGA,160639.500,4308.3071,N,07726.2604,W,2,08,0.94,162.0,M,-34.4,M,0000,0000*53
$GPRMC,160639.750,A,4308.3071,N,07726.2605,W,0.01,258.69,230919,,,D*7E
$GPGGA,160640.000,4308.3071,N,07726.2605,W,2,08,0.94,162.1,M,-34.4,M,0000,0000*58
$GPRMC,160640.250,A,4308.3071,N,07726.2605,W,0.00,299.79,230919,,,D*78
$GPGGA,160640.500,4308.3072,N,07726.2606,W,2,08,0.94,162.1,M,-34.4,M,0000,0000*5D
$GPRMC,160640.750,A,4308.3072,N,07726.2606,W,0.00,0.00,230919,,,D*71
$GPGGA,160641.000,4308.3072,N,07726.2606,W,2,08,0.94,162.1,M,-34.4,M,0000,0000*59
$GPRMC,160641.250,A,4308.3072,N,07726.2606,W,0.00,268.24,230919,,,D*7F
$GPGGA,160641.500,4308.3072,N,07726.2606,W,2,08,0.94,162.1,M,-34.4,M,0000,0000*5C
$GPRMC,160641.750,A,4308.3072,N,07726.2606,W,0.01,212.97,230919,,,D*7E
$GPGGA,160642.000,4308.3072,N,07726.2606,W,2,08,0.94,162.1,M,-34.4,M,0000,0000*5A
$GPRMC,160642.250,A,4308.3072,N,07726.2605,W,0.01,47.43,230919,,,D*40
$GPGGA,160642.500,4308.3072,N,07726.2605,W,2,08,0.94,162.2,M,-34.4,M,0000,0000*5F
$GPRMC,160642.750,A,4308.3073,N,07726.2606,W,0.01,310.10,230919,,,D*70
$GPGGA,160643.000,4308.3073,N,07726.2606,W,2,08,0.94,162.2,M,-34.4,M,0000,0000*59
$GPRMC,160643.250,A,4308.3074,N,07726.2606,W,0.01,303.53,230919,,,D*76
$GPGGA,160643.500,4308.3074,N,07726.2606,W,2,08,0.94,162.2,M,-34.4,M,0000,0000*5B
$GPRMC,160643.750,A,4308.3074,N,07726.2606,W,0.01,71.72,230919,,,D*46
$GPGGA,160644.000,4308.3075,N,07726.2606,W,2,08,0.94,162.2,M,-34.4,M,0000,0000*58
$GPRMC,160644.250,A,4308.3075,N,07726.2606,W,0.00,69.42,230919,,,D*4E
$GPGGA,160644.500,4308.3075,N,07726.2606,W,2,08,0.94,162.3,M,-34.4,M,0000,0000*5C
$GPRMC,160644.750,A,4308.3076,N,07726.2606,W,0.00,232.90,230919,,,D*7B
$GPGGA,160645.000,4308.3076,N,07726.2607,W,2,08,0.94,162.3,M,-34.4,M,0000,0000*5A
$GPRMC,160645.250,A,4308.3076,N,07726.2607,W,0.01,307.01,230919,,,D*70
$GPGGA,160645.500,4308.3077,N,07726.2607,W,2,08,0.94,162.4,M,-34.4,M,0000,0000*59
$GPRMC,160645.750,A,4308.3077,N,07726.2607,W,0.00,26.85,230919,,,D*49
$GPGGA,160646.000,4308.3078,N,07726.2607,W,2,08,0.94,162.4,M,-34.4,M,0000,0000*50
$GPRMC,160646.250,A,4308.3078,N,07726.2607,W,0.00,41.41,230919,,,D*49
$GPGGA,160646.500,4308.3078,N,07726.2607,W,2,08,0.94,162.4,M,-34.4,M,0000,0000*55
$GPRMC,160646.750,A,4308.3078,N,07726.2607,W,0.01,313.18,230919,,,D*75
$GPGGA,160647.000,4308.3078,N,07726.2607,W,2,08,0.94,162.4,M,-34.4,M,0000,0000*51
$GPRMC,160647.250,A,4308.3078,N,07726.2607,W,0.01,329.12,230919,,,D*72
$GPGGA,160647.500,4308.3078,N,07726.2607,W,2,08,0.94,162.4,M,-34.4,M,0000,0000*54
$GPRMC,160647.750,A,4308.3078,N,07726.2607,W,0.01,317.35,230919,,,D*7F
$GPGGA,160648.000,4308.3078,N,07726.2608,W,2,08,0.94,162.4,M,-34.4,M,0000,0000*51
$GPRMC,160648.250,A,4308.3078,N,07726.2608,W,0.01,279.10,230919,,,D*74
$GPGGA,160648.500,4308.3078,N,07726.2608,W,2,08,0.94,162.4,M,-34.4,M,0000,0000*54
$GPRMC,160648.750,A,4308.3078,N,07726.2608,W,0.01,346.21,230919,,,D*7E
$GPGGA,160649.000,4308.3078,N,07726.2608,W,2,08,0.94,162.4,M,-34.4,M,0000,0000*50
$GPRMC,160649.250,A,4308.3078,N,07726.2608,W,0.01,350.37,230919,,,D*7A
$GPGGA,160649.500,4308.3078,N,07726.2608,W,2,08,0.94,162.4,M,-34.4,M,0000,0000*55
$GPRMC,160649.750,A,4308.3078,N,07726.2608,W,0.01,359.79,230919,,,D*7C
$GPGGA,160650.000,4308.3078,N,07726.2608,W,2,08,0.94,162.4,M,-34.4,M,0000,0000*58
$GPRMC,160650.250,A,4308.3078,N,07726.2608,W,0.01,347.61,230919,,,D*77
$GPGGA,160650.500,4308.3078,N,07726.2608,W,2,08,0.94,162.4,M,-34.4,M,0000,0000*5D
$GPRMC,160650.750,A,4308.3078,N,07726.2608,W,0.01,304.13,230919,,,D*70
$GPGGA,160651.000,4308.3078,N,07726.2608,W,2,08,0.94,162.4,M,-34.4,M,0000,0000*59
$GPRMC,160651.250,A,4308.3078,N,07726.2608,W,0.01,310.74,230919,,,D*70
$GPGGA,160651.500,4308.3078,N,07726.2608,W,2,08,0.94,162.4,M,-34.4,M,0000,0000*5C
$GPRMC,160651.750,A,4308.3078,N,07726.2608,W,0.01,352.41,230919,,,D*75
$GPGGA,160652.000,4308.3078,N,07726.2608,W,2,08,0.94,162.4,M,-34.4,M,0000,0000*5A
$GPRMC,160652.250,A,4308.3078,N,07726.2608,W,0.00,357.08,230919,,,D*7A
