Vers 81
USE_SERIAL_FEEDBACK=true
DEVELOPMENT_MODE=false
USE_RMC_ONLY=false

$GPRMC,165834.250,A,4308.3073,N,07726.1957,W,22.82,95.49,110819,,,A*7B
$GPGGA,165834.500,4308.3068,N,07726.1937,W,1,05,4.13,156.8,M,-34.4,M,,*5B
$GPRMC,165834.750,A,4308.3065,N,07726.1916,W,22.77,95.26,110819,,,A*7F
$GPGGA,165835.000,4308.3063,N,07726.1894,W,1,05,4.13,158.2,M,-34.4,M,,*58
$GPRMC,165835.250,A,4308.3061,N,07726.1873,W,22.54,94.90,110819,,,A*70
$GPGGA,165835.500,4308.3061,N,07726.1852,W,1,05,4.13,158.3,M,-34.4,M,,*54
$GPRMC,165835.750,A,4308.3061,N,07726.1831,W,21.98,93.83,110819,,,A*75
$GPGGA,165836.000,4308.3061,N,07726.1809,W,1,05,4.13,158.0,M,-34.4,M,,*5F
$GPRMC,165836.250,A,4308.3061,N,07726.1788,W,22.10,92.42,110819,,,A*71
$GPGGA,165836.500,4308.3062,N,07726.1766,W,1,05,4.13,157.5,M,-34.4,M,,*55
$GPRMC,165836.750,A,4308.3061,N,07726.1744,W,22.43,92.24,110819,,,A*72
$GPGGA,165837.000,4308.3061,N,07726.1722,W,1,05,4.13,156.9,M,-34.4,M,,*5F
$GPRMC,165837.250,A,4308.3061,N,07726.1700,W,22.25,92.41,110819,,,A*75
$GPGGA,165837.500,4308.3061,N,07726.1679,W,1,05,4.13,156.5,M,-34.4,M,,*59
$GPRMC,165837.750,A,4308.3062,N,07726.1657,W,22.10,91.58,110819,,,A*7D
$GPGGA,165838.000,4308.3062,N,07726.1635,W,1,05,4.13,156.0,M,-34.4,M,,*5D
$GPRMC,165838.250,A,4308.3062,N,07726.1614,W,22.18,91.66,110819,,,A*75
$GPGGA,165838.500,4308.3063,N,07726.1593,W,1,05,4.13,155.8,M,-34.4,M,,*5D
$GPRMC,165838.750,A,4308.3064,N,07726.1573,W,21.78,86.09,110819,,,A*7E
$GPGGA,165839.000,4308.3066,N,07726.1552,W,1,05,4.13,155.8,M,-34.4,M,,*51
$GPRMC,165839.250,A,4308.3068,N,07726.1532,W,21.77,84.06,110819,,,A*71
$GPGGA,165839.500,4308.3070,N,07726.1512,W,1,05,4.13,155.6,M,-34.4,M,,*59
$GPRMC,165839.750,A,4308.3073,N,07726.1492,W,21.08,79.33,110819,,,A*79
$GPGGA,165840.000,4308.3078,N,07726.1473,W,1,05,4.13,156.3,M,-34.4,M,,*5A
$GPRMC,165840.250,A,4308.3082,N,07726.1454,W,20.93,73.68,110819,,,A*71
$GPGGA,165840.500,4308.3087,N,07726.1436,W,1,05,4.13,156.5,M,-34.4,M,,*58
$GPRMC,165840.750,A,4308.3093,N,07726.1418,W,20.73,68.00,110819,,,A*76
$GPGGA,165841.000,4308.3099,N,07726.1400,W,1,05,4.13,156.6,M,-34.4,M,,*55
$GPRMC,165841.250,A,4308.3105,N,07726.1383,W,20.23,63.90,110819,,,A*7E
$GPGGA,165841.500,4308.3113,N,07726.1366,W,1,05,4.13,156.4,M,-34.4,M,,*56
$GPRMC,165841.750,A,4308.3121,N,07726.1349,W,20.25,58.21,110819,,,A*7F
$GPGGA,165842.000,4308.3130,N,07726.1334,W,1,05,4.13,156.4,M,-34.4,M,,*56
$GPRMC,165842.250,A,4308.3139,N,07726.1318,W,19.87,53.84,110819,,,A*72
$GPGGA,165842.500,4308.3148,N,07726.1304,W,1,05,4.14,156.5,M,-34.4,M,,*59
$GPRMC,165842.750,A,4308.3157,N,07726.1289,W,19.93,50.80,110819,,,A*74
$GPGGA,165843.000,4308.3168,N,07726.1277,W,1,05,3.06,155.8,M,-34.4,M,,*50
$GPRMC,165843.250,A,4308.3181,N,07726.1263,W,19.24,45.89,110819,,,A*7E
$GPGGA,165843.500,4308.3192,N,07726.1251,W,1,05,3.06,155.0,M,-34.4,M,,*5C
$GPRMC,165843.750,A,4308.3204,N,07726.1238,W,19.27,43.41,110819,,,A*7A
$GPGGA,165844.000,4308.3217,N,07726.1227,W,1,05,3.06,154.1,M,-34.4,M,,*51
$GPRMC,165844.250,A,4308.3229,N,07726.1215,W,19.15,40.18,110819,,,A*76
$GPGGA,165844.500,4308.3240,N,07726.1204,W,1,05,3.06,153.9,M,-34.4,M,,*58
$GPRMC,165844.750,A,4308.3251,N,07726.1193,W,19.14,38.73,110819,,,A*72
$GPGGA,165845.000,4308.3263,N,07726.1183,W,1,05,3.06,154.1,M,-34.4,M,,*5E
$GPRMC,165845.250,A,4308.3278,N,07726.1177,W,19.10,32.45,110819,,,A*7C
$GPGGA,165845.500,4308.3292,N,07726.1171,W,1,05,3.06,154.9,M,-34.4,M,,*50
$GPRMC,165845.750,A,4308.3308,N,07726.1166,W,19.47,24.90,110819,,,A*72
$GPGGA,165846.000,4308.3323,N,07726.1162,W,1,05,3.06,155.6,M,-34.4,M,,*51
$GPRMC,165846.250,A,4308.3338,N,07726.1157,W,19.84,19.09,110819,,,A*74
$GPGGA,165846.500,4308.3354,N,07726.1153,W,1,05,3.06,155.9,M,-34.4,M,,*59
$GPRMC,165846.750,A,4308.3370,N,07726.1151,W,20.41,13.47,110819,,,A*78
$GPGGA,165847.000,4308.3385,N,07726.1150,W,1,05,4.14,156.3,M,-34.4,M,,*5F
$GPRMC,165847.250,A,4308.3400,N,07726.1148,W,20.59,9.56,110819,,,A*46
$GPGGA,165847.500,4308.3414,N,07726.1148,W,1,05,4.14,156.2,M,-34.4,M,,*5D
$GPRMC,165847.750,A,4308.3430,N,07726.1148,W,20.64,5.78,110819,,,A*4E
$GPGGA,165848.000,4308.3447,N,07726.1150,W,1,05,4.14,156.3,M,-34.4,M,,*59
$GPRMC,165848.250,A,4308.3464,N,07726.1151,W,21.40,2.07,110819,,,A*45
$GPGGA,165848.500,4308.3482,N,07726.1152,W,1,05,4.14,156.5,M,-34.4,M,,*51
$GPRMC,165848.750,A,4308.3499,N,07726.1154,W,22.00,0.11,110819,,,A*45
$GPGGA,165849.000,4308.3516,N,07726.1155,W,1,05,4.14,156.5,M,-34.4,M,,*5E
$GPRMC,165849.250,A,4308.3533,N,07726.1157,W,22.44,359.21,110819,,,A*4F
$GPGGA,165849.500,4308.3550,N,07726.1158,W,1,05,4.14,156.7,M,-34.4,M,,*56
$GPRMC,165849.750,A,4308.3567,N,07726.1160,W,22.78,358.66,110819,,,A*42
$GPGGA,165850.000,4308.3584,N,07726.1162,W,1,05,4.14,156.9,M,-34.4,M,,*55
$GPRMC,165850.250,A,4308.3601,N,07726.1164,W,23.12,358.57,110819,,,A*47
$GPGGA,165850.500,4308.3619,N,07726.1165,W,1,05,4.14,157.1,M,-34.4,M,,*59
$GPRMC,165850.750,A,4308.3636,N,07726.1166,W,23.48,358.81,110819,,,A*40
$GPGGA,165851.000,4308.3654,N,07726.1167,W,1,05,4.14,157.4,M,-34.4,M,,*53
$GPRMC,165851.250,A,4308.3671,N,07726.1168,W,23.87,359.10,110819,,,A*43
$GPGGA,165851.500,4308.3690,N,07726.1169,W,1,05,4.15,157.7,M,-34.4,M,,*52
$GPRMC,165851.750,A,4308.3707,N,07726.1170,W,24.23,359.53,110819,,,A*41
$GPGGA,165852.000,4308.3725,N,07726.1170,W,1,05,4.14,157.8,M,-34.4,M,,*5D
$GPRMC,165852.250,A,4308.3743,N,07726.1172,W,24.56,359.85,110819,,,A*4C
$GPGGA,165852.500,4308.3761,N,07726.1173,W,1,05,4.14,158.1,M,-34.4,M,,*5D
$GPRMC,165852.750,A,4308.3779,N,07726.1173,W,24.91,359.94,110819,,,A*4A
$GPGGA,165853.000,4308.3798,N,07726.1174,W,1,05,4.15,158.4,M,-34.4,M,,*5C
$GPRMC,165853.250,A,4308.3816,N,07726.1174,W,25.27,0.22,110819,,,A*41
$GPGGA,165853.500,4308.3835,N,07726.1174,W,1,05,4.15,158.6,M,-34.4,M,,*53
$GPRMC,165853.750,A,4308.3854,N,07726.1174,W,25.58,0.61,110819,,,A*4D
$GPGGA,165854.000,4308.3872,N,07726.1174,W,1,05,4.15,158.8,M,-34.4,M,,*5C
$GPRMC,165854.250,A,4308.3891,N,07726.1174,W,25.67,0.72,110819,,,A*48
$GPGGA,165854.500,4308.3909,N,07726.1174,W,1,05,4.15,159.0,M,-34.4,M,,*5D
$GPRMC,165854.750,A,4308.3927,N,07726.1174,W,25.78,0.85,110819,,,A*47
$GPGGA,165855.000,4308.3944,N,07726.1175,W,1,05,4.15,159.2,M,-34.4,M,,*53
$GPRMC,165855.250,A,4308.3962,N,07726.1175,W,25.75,1.16,110819,,,A*45
$GPGGA,165855.500,4308.3980,N,07726.1175,W,1,05,4.15,159.4,M,-34.4,M,,*58
$GPRMC,165855.750,A,4308.3996,N,07726.1175,W,25.36,1.43,110819,,,A*4C
$GPGGA,165856.000,4308.4013,N,07726.1176,W,1,05,4.15,159.6,M,-34.4,M,,*5B
$GPRMC,165856.250,A,4308.4029,N,07726.1176,W,25.03,1.37,110819,,,A*46
$GPGGA,165856.500,4308.4045,N,07726.1176,W,1,05,4.15,159.9,M,-34.4,M,,*52
$GPRMC,165856.750,A,4308.4061,N,07726.1177,W,24.49,1.43,110819,,,A*42
$GPGGA,165857.000,4308.4077,N,07726.1176,W,1,05,4.15,160.1,M,-34.4,M,,*55
$GPRMC,165857.250,A,4308.4093,N,07726.1176,W,23.91,1.62,110819,,,A*4B
$GPGGA,165857.500,4308.4108,N,07726.1176,W,1,05,4.15,160.3,M,-34.4,M,,*5B
$GPRMC,165857.750,A,4308.4122,N,07726.1176,W,22.94,1.80,110819,,,A*4D
$GPGGA,165858.000,4308.4116,N,07726.1181,W,1,05,4.15,160.2,M,-34.4,M,,*57
$GPRMC,165858.250,A,4308.4123,N,07726.1183,W,16.70,1.66,110819,,,A*49
$GPGGA,165858.500,4308.4135,N,07726.1183,W,1,05,4.15,160.4,M,-34.4,M,,*57
$GPRMC,165858.750,A,4308.4147,N,07726.1183,W,16.29,0.55,110819,,,A*43
$GPGGA,165859.000,4308.4158,N,07726.1183,W,1,05,4.15,160.5,M,-34.4,M,,*59
$GPRMC,165859.250,A,4308.4170,N,07726.1182,W,16.15,0.68,110819,,,A*43
$GPGGA,165859.500,4308.4182,N,07726.1181,W,1,05,4.15,160.6,M,-34.4,M,,*5A
$GPRMC,165859.750,A,4308.4193,N,07726.1181,W,15.74,1.60,110819,,,A*45
$GPGGA,165900.000,4308.4204,N,07726.1180,W,1,05,4.15,160.6,M,-34.4,M,,*5E
$GPRMC,165900.250,A,4308.4214,N,07726.1179,W,15.22,1.93,110819,,,A*49
$GPGGA,165900.500,4308.4225,N,07726.1179,W,1,05,4.15,160.5,M,-34.4,M,,*5D
$GPRMC,165900.750,A,4308.4235,N,07726.1178,W,14.40,2.53,110819,,,A*44
$GPGGA,165901.000,4308.4244,N,07726.1177,W,1,05,4.15,160.3,M,-34.4,M,,*56
$GPRMC,165901.250,A,4308.4252,N,07726.1175,W,13.57,4.45,110819,,,A*4C
$GPGGA,165901.500,4308.4260,N,07726.1173,W,1,05,4.15,160.5,M,-34.4,M,,*57
$GPRMC,165901.750,A,4308.4266,N,07726.1168,W,12.48,9.05,110819,,,A*44
$GPGGA,165902.000,4308.4270,N,07726.1163,W,1,05,4.16,161.0,M,-34.4,M,,*56
$GPRMC,165902.250,A,4308.4275,N,07726.1159,W,11.27,16.69,110819,,,A*7C
$GPGGA,165902.500,4308.4281,N,07726.1154,W,1,05,3.06,161.1,M,-34.4,M,,*5E
$GPRMC,165902.750,A,4308.4285,N,07726.1149,W,10.42,23.10,110819,,,A*7D
$GPGGA,165903.000,4308.4285,N,07726.1142,W,1,05,3.05,161.0,M,-34.4,M,,*5B
$GPRMC,165903.250,A,4308.4289,N,07726.1136,W,9.33,33.55,110819,,,A*43
$GPGGA,165903.500,4308.4291,N,07726.1129,W,1,05,3.05,160.9,M,-34.4,M,,*5E
$GPRMC,165903.750,A,4308.4296,N,07726.1120,W,9.42,44.92,110819,,,A*42
$GPGGA,165904.000,4308.4296,N,07726.1110,W,1,05,3.05,160.6,M,-34.4,M,,*5E
$GPRMC,165904.250,A,4308.4298,N,07726.1099,W,9.93,59.96,110819,,,A*49
$GPGGA,165904.500,4308.4301,N,07726.1087,W,1,05,3.05,160.4,M,-34.4,M,,*59
$GPRMC,165904.750,A,4308.4304,N,07726.1075,W,10.91,67.58,110819,,,A*7F
$GPGGA,165905.000,4308.4306,N,07726.1062,W,1,05,3.05,160.2,M,-34.4,M,,*57
$GPRMC,165905.250,A,4308.4308,N,07726.1048,W,12.19,73.62,110819,,,A*77
$GPGGA,165905.500,4308.4309,N,07726.1033,W,1,05,3.05,160.2,M,-34.4,M,,*59
$GPRMC,165905.750,A,4308.4310,N,07726.1017,W,13.62,78.82,110819,,,A*79
$GPGGA,165906.000,4308.4312,N,07726.1001,W,1,05,3.06,159.9,M,-34.4,M,,*56
$GPRMC,165906.250,A,4308.4313,N,07726.0984,W,15.15,81.71,110819,,,A*72
$GPGGA,165906.500,4308.4314,N,07726.0965,W,1,05,3.05,159.7,M,-34.4,M,,*52
$GPRMC,165906.750,A,4308.4317,N,07726.0947,W,16.78,82.95,110819,,,A*7D
$GPGGA,165907.000,4308.4320,N,07726.0927,W,1,05,3.05,159.4,M,-34.4,M,,*54
$GPRMC,165907.250,A,4308.4324,N,07726.0907,W,18.28,82.26,110819,,,A*7E
$GPGGA,165907.500,4308.4328,N,07726.0887,W,1,05,3.05,159.3,M,-34.4,M,,*55
$GPRMC,165907.750,A,4308.4332,N,07726.0865,W,20.01,80.60,110819,,,A*79
$GPGGA,165908.000,4308.4336,N,07726.0843,W,1,05,3.05,159.4,M,-34.4,M,,*5F
$GPRMC,165908.250,A,4308.4340,N,07726.0820,W,21.55,80.04,110819,,,A*75
$GPGGA,165908.500,4308.4344,N,07726.0797,W,1,05,3.05,159.4,M,-34.4,M,,*59
$GPRMC,165908.750,A,4308.4349,N,07726.0773,W,23.24,78.54,110819,,,A*76
$GPGGA,165909.000,4308.4353,N,07726.0748,W,1,05,3.05,159.5,M,-34.4,M,,*58
$GPRMC,165909.250,A,4308.4357,N,07726.0724,W,24.53,78.13,110819,,,A*7B
$GPGGA,165909.500,4308.4362,N,07726.0699,W,1,05,3.05,159.7,M,-34.4,M,,*50
$GPRMC,165909.750,A,4308.4367,N,07726.0672,W,26.19,76.81,110819,,,A*76
$GPGGA,165910.000,4308.4372,N,07726.0646,W,1,05,3.05,159.9,M,-34.4,M,,*50
$GPRMC,165910.250,A,4308.4377,N,07726.0619,W,27.25,76.31,110819,,,A*72
$GPGGA,165910.500,4308.4382,N,07726.0592,W,1,05,3.05,160.2,M,-34.4,M,,*51
$GPRMC,165910.750,A,4308.4387,N,07726.0565,W,28.51,74.99,110819,,,A*7C
$GPGGA,165911.000,4308.4392,N,07726.0537,W,1,05,3.05,160.5,M,-34.4,M,,*5C
$GPRMC,165911.250,A,4308.4397,N,07726.0509,W,29.28,74.88,110819,,,A*7C
$GPGGA,165911.500,4308.4402,N,07726.0481,W,1,05,3.05,160.8,M,-34.4,M,,*56
$GPRMC,165911.750,A,4308.4407,N,07726.0453,W,29.56,74.82,110819,,,A*7A
$GPGGA,165912.000,4308.4412,N,07726.0426,W,1,05,3.05,161.1,M,-34.4,M,,*54
$GPRMC,165912.250,A,4308.4417,N,07726.0398,W,29.78,74.40,110819,,,A*7F
$GPGGA,165912.500,4308.4424,N,07726.0371,W,1,05,3.05,161.3,M,-34.4,M,,*53
$GPRMC,165912.750,A,4308.4430,N,07726.0343,W,30.02,73.52,110819,,,A*78
$GPGGA,165913.000,4308.4436,N,07726.0315,W,1,05,3.05,161.5,M,-34.4,M,,*50
$GPRMC,165913.250,A,4308.4443,N,07726.0288,W,30.28,72.99,110819,,,A*70
$GPGGA,165913.500,4308.4448,N,07726.0260,W,1,05,3.05,161.7,M,-34.4,M,,*5D
$GPRMC,165913.750,A,4308.4455,N,07726.0232,W,30.54,71.83,110819,,,A*70
$GPGGA,165914.000,4308.4462,N,07726.0205,W,1,05,3.05,162.0,M,-34.4,M,,*50
$GPRMC,165914.250,A,4308.4469,N,07726.0177,W,30.61,70.94,110819,,,A*7E
$GPGGA,165914.500,4308.4476,N,07726.0149,W,1,05,3.05,162.2,M,-34.4,M,,*59
$GPRMC,165914.750,A,4308.4485,N,07726.0120,W,30.71,70.13,110819,,,A*75
$GPGGA,165915.000,4308.4494,N,07726.0091,W,1,05,3.05,162.3,M,-34.4,M,,*54
$GPRMC,165915.250,A,4308.4503,N,07726.0063,W,30.92,69.22,110819,,,A*7F
$GPGGA,165915.500,4308.4512,N,07726.0034,W,1,05,3.05,162.5,M,-34.4,M,,*57
$GPRMC,165915.750,A,4308.4522,N,07726.0007,W,30.97,67.15,110819,,,A*74
$GPGGA,165916.000,4308.4532,N,07725.9979,W,1,05,3.05,162.7,M,-34.4,M,,*5B
$GPRMC,165916.250,A,4308.4544,N,07725.9951,W,30.96,64.90,110819,,,A*7D
$GPGGA,165916.500,4308.4556,N,07725.9924,W,1,05,3.05,162.8,M,-34.4,M,,*5B
$GPRMC,165916.750,A,4308.4569,N,07725.9897,W,31.34,61.38,110819,,,A*72
$GPGGA,165917.000,4308.4583,N,07725.9872,W,1,05,3.05,162.9,M,-34.4,M,,*54
$GPRMC,165917.250,A,4308.4598,N,07725.9847,W,31.23,57.18,110819,,,A*74
$GPGGA,165917.500,4308.4613,N,07725.9823,W,1,05,3.05,162.9,M,-34.4,M,,*5F
$GPRMC,165917.750,A,4308.4629,N,07725.9799,W,31.20,52.81,110819,,,A*72
$GPGGA,165918.000,4308.4646,N,07725.9775,W,1,05,3.05,163.0,M,-34.4,M,,*51
$GPRMC,165918.250,A,4308.4662,N,07725.9751,W,31.94,50.25,110819,,,A*70
$GPGGA,165918.500,4308.4678,N,07725.9728,W,1,05,3.05,163.1,M,-34.4,M,,*50
$GPRMC,165918.750,A,4308.4695,N,07725.9705,W,32.62,48.47,110819,,,A*7B
$GPGGA,165919.000,4308.4712,N,07725.9680,W,1,05,3.05,163.1,M,-34.4,M,,*5A
$GPRMC,165919.250,A,4308.4728,N,07725.9656,W,33.58,47.80,110819,,,A*73
$GPGGA,165919.500,4308.4746,N,07725.9632,W,1,05,3.05,163.1,M,-34.4,M,,*57
$GPRMC,165919.750,A,4308.4763,N,07725.9607,W,34.71,47.42,110819,,,A*7F
$GPGGA,165920.000,4308.4781,N,07725.9581,W,1,05,3.05,163.2,M,-34.4,M,,*5B
$GPRMC,165920.250,A,4308.4799,N,07725.9555,W,35.94,47.05,110819,,,A*78
$GPGGA,165920.500,4308.4818,N,07725.9529,W,1,05,3.05,163.3,M,-34.4,M,,*52
$GPRMC,165920.750,A,4308.4836,N,07725.9503,W,36.94,46.79,110819,,,A*7D
$GPGGA,165921.000,4308.4855,N,07725.9475,W,1,05,3.05,163.4,M,-34.4,M,,*50
$GPRMC,165921.250,A,4308.4873,N,07725.9449,W,37.44,47.08,110819,,,A*7C
$GPGGA,165921.500,4308.4892,N,07725.9422,W,1,05,3.05,163.4,M,-34.4,M,,*5C
$GPRMC,165921.750,A,4308.4911,N,07725.9395,W,37.92,47.29,110819,,,A*72
$GPGGA,165922.000,4308.4930,N,07725.9367,W,1,05,3.05,163.5,M,-34.4,M,,*54
$GPRMC,165922.250,A,4308.4948,N,07725.9340,W,38.22,47.38,110819,,,A*74
$GPGGA,165922.500,4308.4967,N,07725.9313,W,1,05,3.05,163.5,M,-34.4,M,,*50
$GPRMC,165922.750,A,4308.4986,N,07725.9285,W,38.70,47.33,110819,,,A*77
$GPGGA,165923.000,4308.5005,N,07725.9258,W,1,05,3.05,163.7,M,-34.4,M,,*54
$GPRMC,165923.250,A,4308.5025,N,07725.9230,W,39.10,46.95,110819,,,A*76
$GPGGA,165923.500,4308.5045,N,07725.9203,W,1,05,3.05,163.8,M,-34.4,M,,*54
$GPRMC,165923.750,A,4308.5064,N,07725.9175,W,39.29,46.56,110819,,,A*71
$GPGGA,165924.000,4308.5084,N,07725.9148,W,1,05,3.05,164.1,M,-34.4,M,,*59
$GPRMC,165924.250,A,4308.5103,N,07725.9120,W,39.37,46.51,110819,,,A*7B
$GPGGA,165924.500,4308.5122,N,07725.9093,W,1,05,3.05,164.3,M,-34.4,M,,*54
$GPRMC,165924.750,A,4308.5141,N,07725.9066,W,39.54,46.29,110819,,,A*71
$GPGGA,165925.000,4308.5161,N,07725.9039,W,1,05,3.05,164.6,M,-34.4,M,,*52
$GPRMC,165925.250,A,4308.5180,N,07725.9011,W,39.57,46.10,110819,,,A*71
$GPGGA,165925.500,4308.5200,N,07725.8984,W,1,05,3.05,164.9,M,-34.4,M,,*52
$GPRMC,165925.750,A,4308.5220,N,07725.8957,W,39.62,46.00,110819,,,A*70
$GPGGA,165926.000,4308.5239,N,07725.8930,W,1,05,3.05,165.1,M,-34.4,M,,*58
$GPRMC,165926.250,A,4308.5258,N,07725.8903,W,39.67,46.03,110819,,,A*7E
$GPGGA,165926.500,4308.5278,N,07725.8875,W,1,05,3.05,165.3,M,-34.4,M,,*5A
$GPRMC,165926.750,A,4308.5297,N,07725.8847,W,39.89,46.27,110819,,,A*7F
$GPGGA,165927.000,4308.5317,N,07725.8820,W,1,05,3.05,165.5,M,-34.4,M,,*50
$GPRMC,165927.250,A,4308.5336,N,07725.8793,W,39.92,46.36,110819,,,A*7D
$GPGGA,165927.500,4308.5356,N,07725.8765,W,1,05,3.05,165.9,M,-34.4,M,,*52
$GPRMC,165927.750,A,4308.5376,N,07725.8737,W,39.98,46.45,110819,,,A*7C
$GPGGA,165928.000,4308.5396,N,07725.8710,W,1,05,3.05,166.3,M,-34.4,M,,*5F
$GPRMC,165928.250,A,4308.5415,N,07725.8682,W,40.03,46.56,110819,,,A*75
$GPGGA,165928.500,4308.5435,N,07725.8655,W,1,05,3.05,166.7,M,-34.4,M,,*50
$GPRMC,165928.750,A,4308.5455,N,07725.8627,W,40.09,46.61,110819,,,A*75
$GPGGA,165929.000,4308.5476,N,07725.8600,W,1,05,3.05,167.1,M,-34.4,M,,*54
$GPRMC,165929.250,A,4308.5495,N,07725.8572,W,40.15,46.44,110819,,,A*74
$GPGGA,165929.500,4308.5514,N,07725.8544,W,1,05,3.05,167.3,M,-34.4,M,,*55
$GPRMC,165929.750,A,4308.5534,N,07725.8516,W,39.93,46.71,110819,,,A*7F
$GPGGA,165930.000,4308.5554,N,07725.8488,W,1,05,3.05,167.7,M,-34.4,M,,*59
$GPRMC,165930.250,A,4308.5573,N,07725.8460,W,39.95,46.92,110819,,,A*7A
$GPGGA,165930.500,4308.5593,N,07725.8432,W,1,05,3.05,168.0,M,-34.4,M,,*5E
$GPRMC,165930.750,A,4308.5614,N,07725.8405,W,39.88,47.11,110819,,,A*78
$GPGGA,165931.000,4308.5633,N,07725.8378,W,1,05,3.05,168.6,M,-34.4,M,,*5C
$GPRMC,165931.250,A,4308.5652,N,07725.8351,W,39.63,47.09,110819,,,A*74
$GPGGA,165931.500,4308.5671,N,07725.8324,W,1,05,3.05,169.1,M,-34.4,M,,*50
$GPRMC,165931.750,A,4308.5690,N,07725.8297,W,39.34,47.03,110819,,,A*7C
$GPGGA,165932.000,4308.5708,N,07725.8270,W,1,05,3.05,169.6,M,-34.4,M,,*5E
$GPRMC,165932.250,A,4308.5727,N,07725.8243,W,39.19,47.19,110819,,,A*7A
$GPGGA,165932.500,4308.5746,N,07725.8216,W,1,05,3.05,170.1,M,-34.4,M,,*5E
$GPRMC,165932.750,A,4308.5764,N,07725.8190,W,38.93,46.96,110819,,,A*70
$GPGGA,165933.000,4308.5782,N,07725.8164,W,1,05,3.05,170.5,M,-34.4,M,,*50
$GPRMC,165933.250,A,4308.5800,N,07725.8138,W,37.89,46.70,110819,,,A*77
$GPGGA,165933.500,4308.5817,N,07725.8112,W,1,05,3.05,170.8,M,-34.4,M,,*5A
$GPRMC,165933.750,A,4308.5835,N,07725.8086,W,37.55,46.64,110819,,,A*74
$GPGGA,165934.000,4308.5852,N,07725.8060,W,1,05,3.05,171.1,M,-34.4,M,,*55
$GPRMC,165934.250,A,4308.5869,N,07725.8035,W,37.02,46.70,110819,,,A*70
$GPGGA,165934.500,4308.5886,N,07725.8009,W,1,05,3.05,171.3,M,-34.4,M,,*54
$GPRMC,165934.750,A,4308.5903,N,07725.7984,W,36.46,47.26,110819,,,A*77
$GPGGA,165935.000,4308.5919,N,07725.7958,W,1,05,3.05,171.6,M,-34.4,M,,*50
$GPRMC,165935.250,A,4308.5936,N,07725.7933,W,36.37,47.61,110819,,,A*7C
$GPGGA,165935.500,4308.5953,N,07725.7907,W,1,05,3.05,171.7,M,-34.4,M,,*50
$GPRMC,165935.750,A,4308.5969,N,07725.7882,W,36.19,48.48,110819,,,A*70
$GPGGA,165936.000,4308.5985,N,07725.7855,W,1,05,3.05,171.9,M,-34.4,M,,*55
$GPRMC,165936.250,A,4308.6001,N,07725.7829,W,36.00,49.57,110819,,,A*74
$GPGGA,165936.500,4308.6016,N,07725.7803,W,1,05,3.05,172.0,M,-34.4,M,,*59
$GPRMC,165936.750,A,4308.6029,N,07725.7776,W,35.65,51.56,110819,,,A*76
$GPGGA,165937.000,4308.6042,N,07725.7749,W,1,05,3.05,172.2,M,-34.4,M,,*5F
$GPRMC,165937.250,A,4308.6056,N,07725.7721,W,35.64,53.49,110819,,,A*75
$GPGGA,165937.500,4308.6065,N,07725.7693,W,1,05,3.05,172.3,M,-34.4,M,,*58
$GPRMC,165937.750,A,4308.6071,N,07725.7663,W,34.56,58.88,110819,,,A*74
$GPGGA,165938.000,4308.6076,N,07725.7631,W,1,05,3.05,172.4,M,-34.4,M,,*5F
$GPRMC,165938.250,A,4308.6083,N,07725.7601,W,34.48,64.38,110819,,,A*7C
$GPGGA,165938.500,4308.6090,N,07725.7570,W,1,05,3.05,172.6,M,-34.4,M,,*56
$GPRMC,165938.750,A,4308.6097,N,07725.7540,W,33.97,67.72,110819,,,A*72
$GPGGA,165939.000,4308.6101,N,07725.7508,W,1,05,3.05,172.6,M,-34.4,M,,*54
$GPRMC,165939.250,A,4308.6105,N,07725.7476,W,34.16,72.97,110819,,,A*79
$GPGGA,165939.500,4308.6107,N,07725.7444,W,1,05,3.05,172.7,M,-34.4,M,,*5F
$GPRMC,165939.750,A,4308.6110,N,07725.7411,W,34.04,77.37,110819,,,A*75
$GPGGA,165940.000,4308.6113,N,07725.7378,W,1,05,3.05,172.8,M,-34.4,M,,*56
$GPRMC,165940.250,A,4308.6115,N,07725.7345,W,34.41,80.59,110819,,,A*7C
$GPGGA,165940.500,4308.6115,N,07725.7312,W,1,05,3.04,172.8,M,-34.4,M,,*58
$GPRMC,165940.750,A,4308.6115,N,07725.7278,W,34.41,84.87,110819,,,A*71
$GPGGA,165941.000,4308.6113,N,07725.7244,W,1,05,3.05,172.8,M,-34.4,M,,*59
$GPRMC,165941.250,A,4308.6112,N,07725.7210,W,34.55,87.82,110819,,,A*7F
$GPGGA,165941.500,4308.6110,N,07725.7176,W,1,05,3.05,172.7,M,-34.4,M,,*52
$GPRMC,165941.750,A,4308.6108,N,07725.7142,W,34.64,89.39,110819,,,A*79
$GPGGA,165942.000,4308.6107,N,07725.7108,W,1,05,3.04,172.7,M,-34.4,M,,*5A
$GPRMC,165942.250,A,4308.6106,N,07725.7074,W,34.77,89.97,110819,,,A*73
$GPGGA,165942.500,4308.6105,N,07725.7040,W,1,05,3.05,172.8,M,-34.4,M,,*5E
$GPRMC,165942.750,A,4308.6103,N,07725.7005,W,35.39,89.89,110819,,,A*71
$GPGGA,165943.000,4308.6102,N,07725.6971,W,1,05,3.05,172.8,M,-34.4,M,,*57
$GPRMC,165943.250,A,4308.6100,N,07725.6937,W,35.37,90.19,110819,,,A*70
$GPGGA,165943.500,4308.6098,N,07725.6902,W,1,05,3.05,172.8,M,-34.4,M,,*54
$GPRMC,165943.750,A,4308.6097,N,07725.6868,W,35.33,90.45,110819,,,A*7C
$GPGGA,165944.000,4308.6095,N,07725.6834,W,1,05,3.05,172.9,M,-34.4,M,,*5E
$GPRMC,165944.250,A,4308.6094,N,07725.6800,W,35.03,90.65,110819,,,A*72
$GPGGA,165944.500,4308.6092,N,07725.6766,W,1,05,3.05,173.0,M,-34.4,M,,*5C
$GPRMC,165944.750,A,4308.6091,N,07725.6733,W,34.66,90.71,110819,,,A*7A
$GPGGA,165945.000,4308.6089,N,07725.6700,W,1,05,3.05,173.1,M,-34.4,M,,*53
$GPRMC,165945.250,A,4308.6088,N,07725.6667,W,34.26,90.53,110819,,,A*72
$GPGGA,165945.500,4308.6087,N,07725.6635,W,1,05,3.05,173.2,M,-34.4,M,,*5C
$GPRMC,165945.750,A,4308.6086,N,07725.6602,W,33.80,90.58,110819,,,A*7A
$GPGGA,165946.000,4308.6085,N,07725.6570,W,1,05,3.05,173.3,M,-34.4,M,,*5B
$GPRMC,165946.250,A,4308.6084,N,07725.6538,W,33.40,90.53,110819,,,A*73
$GPGGA,165946.500,4308.6083,N,07725.6506,W,1,05,3.04,173.5,M,-34.4,M,,*5E
$GPRMC,165946.750,A,4308.6082,N,07725.6475,W,32.93,90.66,110819,,,A*71
$GPGGA,165947.000,4308.6081,N,07725.6444,W,1,05,3.04,173.6,M,-34.4,M,,*5C
$GPRMC,165947.250,A,4308.6081,N,07725.6412,W,32.63,90.73,110819,,,A*7C
$GPGGA,165947.500,4308.6080,N,07725.6381,W,1,05,3.05,173.7,M,-34.4,M,,*56
$GPRMC,165947.750,A,4308.6078,N,07725.6351,W,32.13,91.02,110819,,,A*7F
$GPGGA,165948.000,4308.6077,N,07725.6321,W,1,05,3.05,173.9,M,-34.4,M,,*50
$GPRMC,165948.250,A,4308.6076,N,07725.6291,W,31.68,90.94,110819,,,A*77
$GPGGA,165948.500,4308.6075,N,07725.6261,W,1,05,3.05,174.0,M,-34.4,M,,*5C
$GPRMC,165948.750,A,4308.6075,N,07725.6232,W,31.19,90.84,110819,,,A*7F
$GPGGA,165949.000,4308.6073,N,07725.6203,W,1,05,3.05,174.2,M,-34.4,M,,*58
$GPRMC,165949.250,A,4308.6073,N,07725.6175,W,30.74,90.97,110819,,,A*75
$GPGGA,165949.500,4308.6072,N,07725.6147,W,1,05,3.05,174.4,M,-34.4,M,,*59
$GPRMC,165949.750,A,4308.6071,N,07725.6118,W,30.39,90.88,110819,,,A*7E
$GPGGA,165950.000,4308.6070,N,07725.6091,W,1,05,3.04,174.5,M,-34.4,M,,*5C
$GPRMC,165950.250,A,4308.6070,N,07725.6063,W,30.10,90.69,110819,,,A*7B
$GPGGA,165950.500,4308.6070,N,07725.6036,W,1,05,3.05,174.6,M,-34.4,M,,*56
$GPRMC,165950.750,A,4308.6069,N,07725.6011,W,28.54,90.68,110819,,,A*7B
$GPGGA,165951.000,4308.6069,N,07725.5986,W,1,05,3.04,174.8,M,-34.4,M,,*54
$GPRMC,165951.250,A,4308.6068,N,07725.5964,W,26.51,91.04,110819,,,A*76
$GPGGA,165951.500,4308.6067,N,07725.5944,W,1,05,3.04,174.8,M,-34.4,M,,*51
$GPRMC,165951.750,A,4308.6066,N,07725.5926,W,23.19,92.22,110819,,,A*75
$GPGGA,165952.000,4308.6064,N,07725.5909,W,1,05,3.04,174.7,M,-34.4,M,,*52
$GPRMC,165952.250,A,4308.6063,N,07725.5893,W,20.24,93.35,110819,,,A*73
$GPGGA,165952.500,4308.6061,N,07725.5879,W,1,05,3.04,174.8,M,-34.4,M,,*5B
$GPRMC,165952.750,A,4308.6059,N,07725.5867,W,17.18,96.61,110819,,,A*7B
$GPGGA,165953.000,4308.6058,N,07725.5857,W,1,05,3.05,174.8,M,-34.4,M,,*58
$GPRMC,165953.250,A,4308.6057,N,07725.5850,W,13.60,98.22,110819,,,A*77
$GPGGA,165953.500,4308.6056,N,07725.5844,W,1,05,3.04,174.8,M,-34.4,M,,*50
$GPRMC,165953.750,A,4308.6053,N,07725.5841,W,8.69,107.64,110819,,,A*70
$GPGGA,165954.000,4308.6049,N,07725.5842,W,1,05,3.04,174.7,M,-34.4,M,,*55
$GPRMC,165954.250,A,4308.6046,N,07725.5840,W,5.66,126.73,110819,,,A*70
$GPGGA,165954.500,4308.6042,N,07725.5840,W,1,05,3.04,174.7,M,-34.4,M,,*59
$GPRMC,165954.750,A,4308.6037,N,07725.5841,W,4.56,150.19,110819,,,A*7D
$GPGGA,165955.000,4308.6034,N,07725.5841,W,1,05,3.04,174.7,M,-34.4,M,,*5D
$GPRMC,165955.250,A,4308.6030,N,07725.5840,W,4.47,156.39,110819,,,A*7B
$GPGGA,165955.500,4308.6027,N,07725.5839,W,1,05,3.04,174.8,M,-34.4,M,,*5A
$GPRMC,165955.750,A,4308.6024,N,07725.5838,W,4.45,156.37,110819,,,A*78
$GPGGA,165956.000,4308.6021,N,07725.5836,W,1,05,3.04,174.8,M,-34.4,M,,*55
$GPRMC,165956.250,A,4308.6017,N,07725.5834,W,5.04,153.81,110819,,,A*7E
$GPGGA,165956.500,4308.6013,N,07725.5831,W,1,05,3.04,174.9,M,-34.4,M,,*57
$GPRMC,165956.750,A,4308.6008,N,07725.5827,W,6.10,150.04,110819,,,A*7F
$GPGGA,165957.000,4308.6003,N,07725.5823,W,1,05,3.04,175.0,M,-34.4,M,,*59
$GPRMC,165957.250,A,4308.5998,N,07725.5819,W,6.84,148.36,110819,,,A*70
$GPGGA,165957.500,4308.5993,N,07725.5815,W,1,05,3.04,175.1,M,-34.4,M,,*5B
$GPRMC,165957.750,A,4308.5988,N,07725.5811,W,7.57,150.36,110819,,,A*7A
$GPGGA,165958.000,4308.5980,N,07725.5808,W,1,05,3.04,175.1,M,-34.4,M,,*5F
$GPRMC,165958.250,A,4308.5974,N,07725.5804,W,8.64,155.65,110819,,,A*7B
$GPGGA,165958.500,4308.5966,N,07725.5801,W,1,05,3.04,175.3,M,-34.4,M,,*59
$GPRMC,165958.750,A,4308.5959,N,07725.5799,W,9.54,159.77,110819,,,A*77
$GPGGA,165959.000,4308.5949,N,07725.5797,W,1,05,3.04,175.4,M,-34.4,M,,*57
$GPRMC,165959.250,A,4308.5940,N,07725.5795,W,10.86,164.83,110819,,,A*45
$GPGGA,165959.500,4308.5930,N,07725.5794,W,1,05,3.04,175.5,M,-34.4,M,,*5E
$GPRMC,165959.750,A,4308.5919,N,07725.5792,W,12.44,168.30,110819,,,A*43
$GPGGA,170000.000,4308.5908,N,07725.5791,W,1,05,3.04,175.6,M,-34.4,M,,*57
$GPRMC,170000.250,A,4308.5897,N,07725.5790,W,13.73,170.62,110819,,,A*49
$GPGGA,170000.500,4308.5885,N,07725.5789,W,1,05,3.04,175.8,M,-34.4,M,,*51
$GPRMC,170000.750,A,4308.5872,N,07725.5789,W,15.26,172.44,110819,,,A*4F
$GPGGA,170001.000,4308.5858,N,07725.5789,W,1,05,3.04,175.8,M,-34.4,M,,*55
$GPRMC,170001.250,A,4308.5845,N,07725.5788,W,16.75,173.22,110819,,,A*4A
$GPGGA,170001.500,4308.5830,N,07725.5787,W,1,05,3.05,176.0,M,-34.4,M,,*5A
$GPRMC,170001.750,A,4308.5815,N,07725.5787,W,18.39,173.91,110819,,,A*4B
$GPGGA,170002.000,4308.5798,N,07725.5786,W,1,05,3.04,176.1,M,-34.4,M,,*50
$GPRMC,170002.250,A,4308.5782,N,07725.5787,W,19.97,174.81,110819,,,A*4F
$GPGGA,170002.500,4308.5765,N,07725.5787,W,1,05,3.04,176.3,M,-34.4,M,,*54
$GPRMC,170002.750,A,4308.5747,N,07725.5789,W,21.73,176.29,110819,,,A*4C
$GPGGA,170003.000,4308.5729,N,07725.5789,W,1,05,3.04,176.3,M,-34.4,M,,*56
$GPRMC,170003.250,A,4308.5712,N,07725.5790,W,22.93,176.90,110819,,,A*4F
$GPGGA,170003.500,4308.5694,N,07725.5791,W,1,05,3.04,176.4,M,-34.4,M,,*5A
$GPRMC,170003.750,A,4308.5676,N,07725.5791,W,23.54,176.99,110819,,,A*4B
$GPGGA,170004.000,4308.5657,N,07725.5792,W,1,05,3.04,176.5,M,-34.4,M,,*55
$GPRMC,170004.250,A,4308.5637,N,07725.5792,W,25.14,177.84,110819,,,A*40
$GPGGA,170004.500,4308.5614,N,07725.5793,W,1,05,3.04,176.6,M,-34.4,M,,*55
$GPRMC,170004.750,A,4308.5594,N,07725.5793,W,27.47,178.81,110819,,,A*40
$GPGGA,170005.000,4308.5574,N,07725.5795,W,1,05,3.04,176.6,M,-34.4,M,,*52
$GPRMC,170005.250,A,4308.5554,N,07725.5795,W,28.07,179.10,110819,,,A*4C
$GPGGA,170005.500,4308.5533,N,07725.5795,W,1,05,3.04,176.7,M,-34.4,M,,*55
$GPRMC,170005.750,A,4308.5513,N,07725.5795,W,28.67,178.91,110819,,,A*44
$GPGGA,170006.000,4308.5490,N,07725.5795,W,1,05,3.04,176.7,M,-34.4,M,,*5B
$GPRMC,170006.250,A,4308.5468,N,07725.5796,W,30.35,180.33,110819,,,A*4D
$GPGGA,170006.500,4308.5445,N,07725.5796,W,1,05,3.04,176.8,M,-34.4,M,,*5A
$GPRMC,170006.750,A,4308.5422,N,07725.5797,W,31.88,181.28,110819,,,A*4B
$GPGGA,170007.000,4308.5397,N,07725.5800,W,1,05,3.04,176.7,M,-34.4,M,,*59
$GPRMC,170007.250,A,4308.5373,N,07725.5800,W,33.57,181.23,110819,,,A*46
$GPGGA,170007.500,4308.5349,N,07725.5800,W,1,05,3.04,176.7,M,-34.4,M,,*5F
$GPRMC,170007.750,A,4308.5324,N,07725.5800,W,35.23,181.50,110819,,,A*40
$GPGGA,170008.000,4308.5298,N,07725.5802,W,1,05,3.04,176.8,M,-34.4,M,,*55
$GPRMC,170008.250,A,4308.5273,N,07725.5802,W,35.88,181.51,110819,,,A*4B
$GPGGA,170008.500,4308.5248,N,07725.5803,W,1,05,3.04,176.8,M,-34.4,M,,*5C
$GPRMC,170008.750,A,4308.5222,N,07725.5805,W,36.60,181.22,110819,,,A*4C
$GPGGA,170009.000,4308.5195,N,07725.5807,W,1,05,3.04,176.7,M,-34.4,M,,*50
$GPRMC,170009.250,A,4308.5169,N,07725.5808,W,37.23,181.12,110819,,,A*4C
$GPGGA,170009.500,4308.5142,N,07725.5809,W,1,05,3.04,176.8,M,-34.4,M,,*5E
$GPRMC,170009.750,A,4308.5115,N,07725.5810,W,37.96,181.05,110819,,,A*43
$GPGGA,170010.000,4308.5088,N,07725.5811,W,1,05,3.04,176.7,M,-34.4,M,,*52
$GPRMC,170010.250,A,4308.5061,N,07725.5812,W,38.18,180.89,110819,,,A*42
$GPGGA,170010.500,4308.5034,N,07725.5813,W,1,05,3.04,176.8,M,-34.4,M,,*5D
$GPRMC,170010.750,A,4308.5007,N,07725.5814,W,38.45,180.77,110819,,,A*48
$GPGGA,170011.000,4308.4979,N,07725.5815,W,1,05,3.04,176.8,M,-34.4,M,,*5E
$GPRMC,170011.250,A,4308.4952,N,07725.5816,W,38.83,180.99,110819,,,A*4C
$GPGGA,170011.500,4308.4924,N,07725.5817,W,1,05,3.04,176.8,M,-34.4,M,,*51
$GPRMC,170011.750,A,4308.4897,N,07725.5818,W,39.23,180.99,110819,,,A*44
$GPGGA,170012.000,4308.4868,N,07725.5820,W,1,05,3.04,176.7,M,-34.4,M,,*55
$GPRMC,170012.250,A,4308.4839,N,07725.5821,W,39.82,180.31,110819,,,A*45
$GPGGA,170012.500,4308.4810,N,07725.5823,W,1,05,3.04,176.7,M,-34.4,M,,*5C
$GPRMC,170012.750,A,4308.4782,N,07725.5824,W,40.13,180.59,110819,,,A*42
$GPGGA,170013.000,4308.4754,N,07725.5825,W,1,05,3.04,176.7,M,-34.4,M,,*51
$GPRMC,170013.250,A,4308.4726,N,07725.5826,W,40.25,181.13,110819,,,A*40
$GPGGA,170013.500,4308.4697,N,07725.5828,W,1,05,3.04,176.7,M,-34.4,M,,*57
$GPRMC,170013.750,A,4308.4669,N,07725.5831,W,40.36,181.80,110819,,,A*41
$GPGGA,170014.000,4308.4641,N,07725.5832,W,1,05,3.04,176.6,M,-34.4,M,,*54
$GPRMC,170014.250,A,4308.4614,N,07725.5834,W,40.51,182.51,110819,,,A*42
$GPGGA,170014.500,4308.4586,N,07725.5836,W,1,05,3.03,176.7,M,-34.4,M,,*5B
$GPRMC,170014.750,A,4308.4558,N,07725.5838,W,40.45,182.95,110819,,,A*4D
$GPGGA,170015.000,4308.4531,N,07725.5839,W,1,05,3.04,176.8,M,-34.4,M,,*54
$GPRMC,170015.250,A,4308.4503,N,07725.5841,W,40.51,182.87,110819,,,A*4F
$GPGGA,170015.500,4308.4475,N,07725.5842,W,1,05,3.04,176.8,M,-34.4,M,,*5C
$GPRMC,170015.750,A,4308.4447,N,07725.5843,W,40.48,182.64,110819,,,A*4C
$GPGGA,170016.000,4308.4419,N,07725.5845,W,1,05,3.04,176.8,M,-34.4,M,,*57
$GPRMC,170016.250,A,4308.4391,N,07725.5846,W,40.41,182.47,110819,,,A*4B
$GPGGA,170016.500,4308.4363,N,07725.5848,W,1,05,3.04,176.8,M,-34.4,M,,*55
$GPRMC,170016.750,A,4308.4336,N,07725.5849,W,40.33,182.37,110819,,,A*4E
$GPGGA,170017.000,4308.4308,N,07725.5850,W,1,05,3.04,176.8,M,-34.4,M,,*55
$GPRMC,170017.250,A,4308.4281,N,07725.5851,W,40.24,182.13,110819,,,A*4E
$GPGGA,170017.500,4308.4253,N,07725.5851,W,1,05,3.04,176.8,M,-34.4,M,,*5E
$GPRMC,170017.750,A,4308.4226,N,07725.5852,W,40.00,181.91,110819,,,A*4A
$GPGGA,170018.000,4308.4198,N,07725.5854,W,1,05,3.04,176.6,M,-34.4,M,,*5B
$GPRMC,170018.250,A,4308.4170,N,07725.5855,W,39.81,181.53,110819,,,A*4E
$GPGGA,170018.500,4308.4142,N,07725.5856,W,1,05,3.04,176.6,M,-34.4,M,,*5B
$GPRMC,170018.750,A,4308.4115,N,07725.5858,W,39.62,181.01,110819,,,A*4F
$GPGGA,170019.000,4308.4088,N,07725.5858,W,1,05,3.04,176.6,M,-34.4,M,,*56
$GPRMC,170019.250,A,4308.4060,N,07725.5858,W,39.07,180.67,110819,,,A*4A
$GPGGA,170019.500,4308.4033,N,07725.5858,W,1,05,3.04,176.7,M,-34.4,M,,*52
$GPRMC,170019.750,A,4308.4006,N,07725.5858,W,39.01,180.22,110819,,,A*48
$GPGGA,170020.000,4308.3979,N,07725.5858,W,1,05,3.03,176.7,M,-34.4,M,,*5A
$GPRMC,170020.250,A,4308.3951,N,07725.5858,W,39.21,180.07,110819,,,A*4E
$GPGGA,170020.500,4308.3924,N,07725.5858,W,1,05,3.04,176.8,M,-34.4,M,,*5F
$GPRMC,170020.750,A,4308.3896,N,07725.5858,W,39.16,179.71,110819,,,A*42
$GPGGA,170021.000,4308.3868,N,07725.5858,W,1,05,3.03,176.9,M,-34.4,M,,*54
$GPRMC,170021.250,A,4308.3840,N,07725.5858,W,39.44,179.67,110819,,,A*4D
$GPGGA,170021.500,4308.3812,N,07725.5859,W,1,05,3.03,177.0,M,-34.4,M,,*55
$GPRMC,170021.750,A,4308.3784,N,07725.5861,W,39.42,180.08,110819,,,A*4C
$GPGGA,170022.000,4308.3756,N,07725.5863,W,1,05,3.04,177.0,M,-34.4,M,,*52
$GPRMC,170022.250,A,4308.3729,N,07725.5864,W,39.13,180.50,110819,,,A*41
$GPGGA,170022.500,4308.3701,N,07725.5865,W,1,05,3.03,177.0,M,-34.4,M,,*54
$GPRMC,170022.750,A,4308.3673,N,07725.5868,W,39.01,180.46,110819,,,A*42
$GPGGA,170023.000,4308.3645,N,07725.5870,W,1,05,3.03,176.9,M,-34.4,M,,*5D
$GPRMC,170023.250,A,4308.3617,N,07725.5870,W,39.23,180.30,110819,,,A*4C
$GPGGA,170023.500,4308.3589,N,07725.5871,W,1,05,3.03,176.9,M,-34.3,M,,*5D
$GPRMC,170023.750,A,4308.3560,N,07725.5873,W,39.34,180.51,110819,,,A*48
$GPGGA,170024.000,4308.3532,N,07725.5875,W,1,05,3.03,176.8,M,-34.3,M,,*5A
$GPRMC,170024.250,A,4308.3504,N,07725.5875,W,39.72,180.60,110819,,,A*4E
$GPGGA,170024.500,4308.3477,N,07725.5876,W,1,05,3.03,176.8,M,-34.3,M,,*5C
$GPRMC,170024.750,A,4308.3448,N,07725.5876,W,40.13,180.58,110819,,,A*43
$GPGGA,170025.000,4308.3420,N,07725.5877,W,1,05,3.04,176.8,M,-34.3,M,,*5C
$GPRMC,170025.250,A,4308.3391,N,07725.5878,W,40.45,180.53,110819,,,A*42
$GPGGA,170025.500,4308.3362,N,07725.5880,W,1,05,3.04,176.8,M,-34.3,M,,*50
$GPRMC,170025.750,A,4308.3333,N,07725.5883,W,40.66,180.67,110819,,,A*4D
$GPGGA,170026.000,4308.3304,N,07725.5884,W,1,05,3.03,176.7,M,-34.3,M,,*5A
$GPRMC,170026.250,A,4308.3276,N,07725.5885,W,40.61,180.72,110819,,,A*4E
$GPGGA,170026.500,4308.3247,N,07725.5885,W,1,05,3.03,176.9,M,-34.3,M,,*56
$GPRMC,170026.750,A,4308.3219,N,07725.5886,W,40.64,180.91,110819,,,A*49
$GPGGA,170027.000,4308.3190,N,07725.5887,W,1,05,3.03,177.0,M,-34.3,M,,*51
$GPRMC,170027.250,A,4308.3161,N,07725.5888,W,40.62,180.83,110819,,,A*4A
$GPGGA,170027.500,4308.3132,N,07725.5890,W,1,05,3.03,177.1,M,-34.3,M,,*5B
$GPRMC,170027.750,A,4308.3103,N,07725.5891,W,40.83,181.18,110819,,,A*4F
$GPGGA,170028.000,4308.3074,N,07725.5893,W,1,05,3.03,177.2,M,-34.3,M,,*52
$GPRMC,170028.250,A,4308.3045,N,07725.5894,W,40.81,181.51,110819,,,A*4C
$GPGGA,170028.500,4308.3016,N,07725.5896,W,1,05,3.04,177.3,M,-34.3,M,,*50
$GPRMC,170028.750,A,4308.2987,N,07725.5898,W,40.83,181.60,110819,,,A*43
$GPGGA,170029.000,4308.2957,N,07725.5901,W,1,05,3.04,177.3,M,-34.3,M,,*56
$GPRMC,170029.250,A,4308.2928,N,07725.5902,W,40.88,181.57,110819,,,A*4F
$GPGGA,170029.500,4308.2899,N,07725.5903,W,1,05,3.03,177.4,M,-34.3,M,,*52
$GPRMC,170029.750,A,4308.2870,N,07725.5904,W,40.94,181.06,110819,,,A*49
$GPGGA,170030.000,4308.2841,N,07725.5908,W,1,05,3.03,177.5,M,-34.3,M,,*50
$GPRMC,170030.250,A,4308.2811,N,07725.5911,W,40.89,180.92,110819,,,A*47
$GPGGA,170030.500,4308.2781,N,07725.5913,W,1,05,3.03,177.6,M,-34.3,M,,*5F
$GPRMC,170030.750,A,4308.2752,N,07725.5916,W,40.71,180.75,110819,,,A*43
$GPGGA,170031.000,4308.2722,N,07725.5918,W,1,05,3.03,177.6,M,-34.3,M,,*59
$GPRMC,170031.250,A,4308.2692,N,07725.5920,W,40.81,180.63,110819,,,A*47
$GPGGA,170031.500,4308.2663,N,07725.5922,W,1,05,3.03,177.8,M,-34.3,M,,*5F
$GPRMC,170031.750,A,4308.2633,N,07725.5924,W,41.05,180.70,110819,,,A*42
$GPGGA,170032.000,4308.2603,N,07725.5926,W,1,05,3.03,177.9,M,-34.3,M,,*5A
$GPRMC,170032.250,A,4308.2574,N,07725.5927,W,41.54,180.79,110819,,,A*4A
$GPGGA,170032.500,4308.2544,N,07725.5929,W,1,05,3.03,178.1,M,-34.3,M,,*57
$GPRMC,170032.750,A,4308.2514,N,07725.5930,W,41.80,181.13,110819,,,A*4B
$GPGGA,170033.000,4308.2484,N,07725.5931,W,1,05,3.03,178.3,M,-34.3,M,,*55
$GPRMC,170033.250,A,4308.2455,N,07725.5931,W,42.03,180.86,110819,,,A*4F
$GPGGA,170033.500,4308.2424,N,07725.5931,W,1,05,3.03,178.5,M,-34.3,M,,*5C
$GPRMC,170033.750,A,4308.2394,N,07725.5932,W,42.23,180.64,110819,,,A*4D
$GPGGA,170034.000,4308.2364,N,07725.5933,W,1,05,3.03,178.7,M,-34.3,M,,*5D
$GPRMC,170034.250,A,4308.2334,N,07725.5935,W,42.42,181.36,110819,,,A*43
$GPGGA,170034.500,4308.2303,N,07725.5937,W,1,05,3.03,178.8,M,-34.3,M,,*52
$GPRMC,170034.750,A,4308.2273,N,07725.5939,W,42.63,182.25,110819,,,A*4A
$GPGGA,170035.000,4308.2243,N,07725.5940,W,1,05,3.03,179.0,M,-34.3,M,,*5A
$GPRMC,170035.250,A,4308.2213,N,07725.5942,W,42.85,182.68,110819,,,A*45
$GPGGA,170035.500,4308.2183,N,07725.5944,W,1,05,3.03,179.2,M,-34.3,M,,*56
$GPRMC,170035.750,A,4308.2154,N,07725.5946,W,43.01,183.22,110819,,,A*46
$GPGGA,170036.000,4308.2125,N,07725.5948,W,1,05,3.03,179.3,M,-34.3,M,,*51
$GPRMC,170036.250,A,4308.2096,N,07725.5949,W,43.15,183.41,110819,,,A*40
$GPGGA,170036.500,4308.2067,N,07725.5951,W,1,05,3.03,179.4,M,-34.3,M,,*5C
$GPRMC,170036.750,A,4308.2038,N,07725.5952,W,42.92,183.64,110819,,,A*42
$GPGGA,170037.000,4308.2009,N,07725.5954,W,1,05,3.03,179.6,M,-34.3,M,,*57
$GPRMC,170037.250,A,4308.1979,N,07725.5956,W,42.87,183.35,110819,,,A*4D
$GPGGA,170037.500,4308.1950,N,07725.5958,W,1,05,3.03,179.8,M,-34.3,M,,*56
$GPRMC,170037.750,A,4308.1921,N,07725.5958,W,42.81,183.10,110819,,,A*4A
$GPGGA,170038.000,4308.1892,N,07725.5959,W,1,05,3.03,179.9,M,-34.3,M,,*53
$GPRMC,170038.250,A,4308.1864,N,07725.5960,W,42.83,182.70,110819,,,A*4E
$GPGGA,170038.500,4308.1835,N,07725.5960,W,1,05,3.03,180.1,M,-34.3,M,,*5F
$GPRMC,170038.750,A,4308.1805,N,07725.5962,W,42.92,182.29,110819,,,A*42
$GPGGA,170039.000,4308.1776,N,07725.5962,W,1,05,3.03,180.3,M,-34.3,M,,*53
$GPRMC,170039.250,A,4308.1747,N,07725.5962,W,42.98,181.73,110819,,,A*49
$GPGGA,170039.500,4308.1717,N,07725.5963,W,1,05,3.03,180.4,M,-34.3,M,,*57
$GPRMC,170039.750,A,4308.1688,N,07725.5963,W,42.66,181.11,110819,,,A*4A
$GPGGA,170040.000,4308.1659,N,07725.5964,W,1,05,3.03,180.5,M,-34.3,M,,*51
$GPRMC,170040.250,A,4308.1630,N,07725.5964,W,42.65,181.46,110819,,,A*44
$GPGGA,170040.500,4308.1600,N,07725.5965,W,1,05,3.03,180.6,M,-34.3,M,,*5A
$GPRMC,170040.750,A,4308.1571,N,07725.5966,W,42.67,181.76,110819,,,A*44
$GPGGA,170041.000,4308.1542,N,07725.5967,W,1,05,3.03,180.7,M,-34.3,M,,*58
$GPRMC,170041.250,A,4308.1513,N,07725.5967,W,42.64,181.66,110819,,,A*47
$GPGGA,170041.500,4308.1483,N,07725.5968,W,1,05,3.03,180.9,M,-34.3,M,,*50
$GPRMC,170041.750,A,4308.1454,N,07725.5970,W,42.30,181.62,110819,,,A*43
$GPGGA,170042.000,4308.1425,N,07725.5971,W,1,05,3.03,180.9,M,-34.3,M,,*52
$GPRMC,170042.250,A,4308.1396,N,07725.5972,W,42.17,181.92,110819,,,A*44
$GPGGA,170042.500,4308.1367,N,07725.5973,W,1,05,3.03,181.1,M,-34.3,M,,*5D
$GPRMC,170042.750,A,4308.1338,N,07725.5974,W,41.87,182.07,110819,,,A*46
$GPGGA,170043.000,4308.1310,N,07725.5974,W,1,05,3.03,181.1,M,-34.3,M,,*5E
$GPRMC,170043.250,A,4308.1282,N,07725.5974,W,41.90,182.26,110819,,,A*47
$GPGGA,170043.500,4308.1253,N,07725.5974,W,1,05,3.03,181.2,M,-34.3,M,,*5E
$GPRMC,170043.750,A,4308.1225,N,07725.5975,W,41.84,182.80,110819,,,A*47
$GPGGA,170044.000,4308.1196,N,07725.5976,W,1,05,3.03,181.2,M,-34.3,M,,*54
$GPRMC,170044.250,A,4308.1167,N,07725.5977,W,41.94,183.11,110819,,,A*4A
$GPGGA,170044.500,4308.1138,N,07725.5978,W,1,05,3.03,181.3,M,-34.3,M,,*5A
$GPRMC,170044.750,A,4308.1109,N,07725.5980,W,42.02,183.06,110819,,,A*45
$GPGGA,170045.000,4308.1080,N,07725.5981,W,1,05,3.03,181.3,M,-34.3,M,,*5A
$GPRMC,170045.250,A,4308.1050,N,07725.5983,W,42.13,182.89,110819,,,A*49
$GPGGA,170045.500,4308.1021,N,07725.5985,W,1,05,3.03,181.4,M,-34.3,M,,*57
$GPRMC,170045.750,A,4308.0992,N,07725.5986,W,42.22,182.74,110819,,,A*4F
$GPGGA,170046.000,4308.0963,N,07725.5986,W,1,05,3.03,181.5,M,-34.3,M,,*5D
$GPRMC,170046.250,A,4308.0934,N,07725.5987,W,42.52,182.70,110819,,,A*47
$GPGGA,170046.500,4308.0906,N,07725.5988,W,1,05,3.03,181.5,M,-34.3,M,,*55
$GPRMC,170046.750,A,4308.0878,N,07725.5989,W,42.44,182.21,110819,,,A*46
$GPGGA,170047.000,4308.0849,N,07725.5990,W,1,05,3.03,181.6,M,-34.3,M,,*51
$GPRMC,170047.250,A,4308.0821,N,07725.5991,W,42.32,181.61,110819,,,A*41
$GPGGA,170047.500,4308.0793,N,07725.5992,W,1,05,3.03,181.7,M,-34.3,M,,*5F
$GPRMC,170047.750,A,4308.0765,N,07725.5992,W,41.31,180.61,110819,,,A*49
$GPGGA,170048.000,4308.0737,N,07725.5993,W,1,05,3.03,181.8,M,-34.3,M,,*55
$GPRMC,170048.250,A,4308.0709,N,07725.5993,W,39.76,180.34,110819,,,A*44
$GPGGA,170048.500,4308.0681,N,07725.5994,W,1,05,3.03,181.9,M,-34.3,M,,*5A
$GPRMC,170048.750,A,4308.0653,N,07725.5995,W,39.49,180.65,110819,,,A*41
$GPGGA,170049.000,4308.0625,N,07725.5997,W,1,05,3.03,182.0,M,-34.3,M,,*59
$GPRMC,170049.250,A,4308.0598,N,07725.5998,W,39.60,181.31,110819,,,A*47
$GPGGA,170049.500,4308.0570,N,07725.5999,W,1,05,3.03,182.1,M,-34.3,M,,*50
$GPRMC,170049.750,A,4308.0543,N,07725.5999,W,39.77,181.69,110819,,,A*4E
$GPGGA,170050.000,4308.0515,N,07725.6000,W,1,05,3.03,182.1,M,-34.3,M,,*54
$GPRMC,170050.250,A,4308.0487,N,07725.6002,W,39.68,181.84,110819,,,A*4F
$GPGGA,170050.500,4308.0460,N,07725.6003,W,1,05,3.03,182.2,M,-34.3,M,,*52
$GPRMC,170050.750,A,4308.0433,N,07725.6003,W,39.65,182.09,110819,,,A*4F
$GPGGA,170051.000,4308.0406,N,07725.6004,W,1,05,3.03,182.3,M,-34.3,M,,*50
$GPRMC,170051.250,A,4308.0379,N,07725.6005,W,39.59,182.10,110819,,,A*43
$GPGGA,170051.500,4308.0353,N,07725.6005,W,1,05,3.03,182.3,M,-34.3,M,,*53
$GPRMC,170051.750,A,4308.0326,N,07725.6006,W,39.20,181.96,110819,,,A*4C
$GPGGA,170052.000,4308.0299,N,07725.6006,W,1,05,3.03,182.4,M,-34.3,M,,*56
$GPRMC,170052.250,A,4308.0272,N,07725.6008,W,39.15,181.64,110819,,,A*4F
$GPGGA,170052.500,4308.0245,N,07725.6009,W,1,05,3.03,182.5,M,-34.3,M,,*5C
$GPRMC,170052.750,A,4308.0218,N,07725.6010,W,38.21,180.55,110819,,,A*4A
$GPGGA,170053.000,4308.0191,N,07725.6010,W,1,05,3.03,182.6,M,-34.3,M,,*59
$GPRMC,170053.250,A,4308.0164,N,07725.6011,W,38.22,180.63,110819,,,A*41
$GPGGA,170053.500,4308.0137,N,07725.6011,W,1,05,3.03,182.8,M,-34.3,M,,*5F
$GPRMC,170053.750,A,4308.0110,N,07725.6012,W,38.42,180.76,110819,,,A*46
$GPGGA,170054.000,4308.0083,N,07725.6012,W,1,05,3.03,182.9,M,-34.3,M,,*51
$GPRMC,170054.250,A,4308.0056,N,07725.6013,W,38.42,180.46,110819,,,A*45
$GPGGA,170054.500,4308.0029,N,07725.6014,W,1,05,3.03,183.1,M,-34.3,M,,*5B
$GPRMC,170054.750,A,4308.0002,N,07725.6015,W,38.43,180.39,110819,,,A*4E
$GPGGA,170055.000,4307.9975,N,07725.6016,W,1,05,3.03,183.1,M,-34.3,M,,*5B
$GPRMC,170055.250,A,4307.9949,N,07725.6017,W,38.42,180.45,110819,,,A*42
$GPGGA,170055.500,4307.9922,N,07725.6017,W,1,05,3.03,183.2,M,-34.3,M,,*5E
$GPRMC,170055.750,A,4307.9895,N,07725.6016,W,38.57,180.38,110819,,,A*48
$GPGGA,170056.000,4307.9868,N,07725.6016,W,1,05,3.03,183.4,M,-34.3,M,,*50
$GPRMC,170056.250,A,4307.9841,N,07725.6017,W,38.78,180.69,110819,,,A*4F
$GPGGA,170056.500,4307.9814,N,07725.6018,W,1,05,3.02,183.5,M,-34.3,M,,*50
$GPRMC,170056.750,A,4307.9788,N,07725.6018,W,38.41,180.81,110819,,,A*43
$GPGGA,170057.000,4307.9761,N,07725.6019,W,1,05,3.02,183.6,M,-34.3,M,,*5B
$GPRMC,170057.250,A,4307.9734,N,07725.6019,W,38.36,180.93,110819,,,A*42
$GPGGA,170057.500,4307.9707,N,07725.6020,W,1,05,3.03,183.8,M,-34.3,M,,*5B
$GPRMC,170057.750,A,4307.9680,N,07725.6021,W,38.42,181.18,110819,,,A*43
$GPGGA,170058.000,4307.9653,N,07725.6022,W,1,05,3.03,183.9,M,-34.3,M,,*52
$GPRMC,170058.250,A,4307.9626,N,07725.6023,W,38.46,181.42,110819,,,A*4C
$GPGGA,170058.500,4307.9599,N,07725.6025,W,1,05,3.03,184.1,M,-34.3,M,,*5A
$GPRMC,170058.750,A,4307.9571,N,07725.6027,W,38.47,181.24,110819,,,A*4D
$GPGGA,170059.000,4307.9544,N,07725.6029,W,1,05,3.02,184.1,M,-34.3,M,,*53
$GPRMC,170059.250,A,4307.9517,N,07725.6030,W,38.07,180.76,110819,,,A*4D
$GPGGA,170059.500,4307.9490,N,07725.6031,W,1,05,3.02,184.3,M,-34.3,M,,*55
$GPRMC,170059.750,A,4307.9464,N,07725.6032,W,37.47,180.61,110819,,,A*42
$GPGGA,170100.000,4307.9436,N,07725.6034,W,1,05,3.02,184.4,M,-34.3,M,,*53
$GPRMC,170100.250,A,4307.9410,N,07725.6035,W,37.53,181.02,110819,,,A*4F
$GPGGA,170100.500,4307.9383,N,07725.6036,W,1,05,3.02,184.6,M,-34.3,M,,*5F
$GPRMC,170100.750,A,4307.9356,N,07725.6037,W,37.80,181.57,110819,,,A*43
$GPGGA,170101.000,4307.9329,N,07725.6039,W,1,05,3.03,184.8,M,-34.3,M,,*5B
$GPRMC,170101.250,A,4307.9303,N,07725.6040,W,37.77,182.41,110819,,,A*4B
$GPGGA,170101.500,4307.9276,N,07725.6042,W,1,05,3.02,184.9,M,-34.3,M,,*59
$GPRMC,170101.750,A,4307.9249,N,07725.6044,W,37.91,183.14,110819,,,A*4C
$GPGGA,170102.000,4307.9223,N,07725.6046,W,1,05,3.02,185.1,M,-34.3,M,,*52
$GPRMC,170102.250,A,4307.9196,N,07725.6047,W,38.45,183.10,110819,,,A*4A
$GPGGA,170102.500,4307.9170,N,07725.6049,W,1,05,3.02,185.2,M,-34.3,M,,*5E
$GPRMC,170102.750,A,4307.9143,N,07725.6050,W,38.25,183.29,110819,,,A*4D
$GPGGA,170103.000,4307.9117,N,07725.6052,W,1,05,3.02,185.3,M,-34.3,M,,*50
$GPRMC,170103.250,A,4307.9091,N,07725.6054,W,38.04,183.24,110819,,,A*4D
$GPGGA,170103.500,4307.9066,N,07725.6054,W,1,05,3.02,185.4,M,-34.3,M,,*53
$GPRMC,170103.750,A,4307.9039,N,07725.6056,W,37.52,182.91,110819,,,A*4B
$GPGGA,170104.000,4307.9014,N,07725.6058,W,1,05,3.03,185.4,M,-34.3,M,,*59
$GPRMC,170104.250,A,4307.8989,N,07725.6058,W,37.16,182.15,110819,,,A*48
$GPGGA,170104.500,4307.8963,N,07725.6059,W,1,05,3.02,185.5,M,-34.3,M,,*55
$GPRMC,170104.750,A,4307.8937,N,07725.6060,W,36.89,181.42,110819,,,A*45
$GPGGA,170105.000,4307.8912,N,07725.6061,W,1,05,3.02,185.6,M,-34.3,M,,*5F
$GPRMC,170105.250,A,4307.8886,N,07725.6062,W,36.81,181.25,110819,,,A*41
$GPGGA,170105.500,4307.8861,N,07725.6062,W,1,05,3.02,185.7,M,-34.3,M,,*5D
$GPRMC,170105.750,A,4307.8835,N,07725.6063,W,36.83,181.46,110819,,,A*4A
$GPGGA,170106.000,4307.8809,N,07725.6065,W,1,05,3.02,185.8,M,-34.3,M,,*5D
$GPRMC,170106.250,A,4307.8784,N,07725.6065,W,36.80,181.39,110819,,,A*44
$GPGGA,170106.500,4307.8759,N,07725.6065,W,1,05,3.02,185.9,M,-34.3,M,,*53
$GPRMC,170106.750,A,4307.8734,N,07725.6067,W,36.31,181.50,110819,,,A*4D
$GPGGA,170107.000,4307.8709,N,07725.6069,W,1,05,3.02,186.0,M,-34.3,M,,*54
$GPRMC,170107.250,A,4307.8684,N,07725.6070,W,35.99,181.79,110819,,,A*4F
$GPGGA,170107.500,4307.8659,N,07725.6071,W,1,05,3.02,186.1,M,-34.3,M,,*5D
$GPRMC,170107.750,A,4307.8635,N,07725.6072,W,35.57,182.44,110819,,,A*4D
$GPGGA,170108.000,4307.8611,N,07725.6073,W,1,05,3.02,186.3,M,-34.3,M,,*5B
$GPRMC,170106.250,A,4307.8587,N,07725.6074,W,35.05,183.15,110819,,,A*47
$GPGGA,170106.500,4307.8563,N,07725.6075,W,1,05,3.02,186.5,M,-34.3,M,,*56
$GPRMC,170106.750,A,4307.8540,N,07725.6076,W,33.96,183.66,110819,,,A*43
$GPGGA,170107.000,4307.8518,N,07725.6078,W,1,05,3.02,186.7,M,-34.3,M,,*51
$GPRMC,170107.250,A,4307.8496,N,07725.6079,W,32.67,183.83,110819,,,A*46
$GPGGA,170107.500,4307.8475,N,07725.6081,W,1,05,3.02,186.7,M,-34.3,M,,*58
$GPRMC,170107.750,A,4307.8454,N,07725.6082,W,32.14,183.24,110819,,,A*40
$GPGGA,170108.000,4307.8435,N,07725.6083,W,1,05,3.02,186.8,M,-34.3,M,,*5B
$GPRMC,170108.250,A,4307.8416,N,07725.6084,W,28.53,183.40,110819,,,A*40
$GPGGA,170108.500,4307.8397,N,07725.6085,W,1,05,3.02,186.8,M,-34.3,M,,*57
$GPRMC,170108.750,A,4307.8380,N,07725.6086,W,25.73,183.47,110819,,,A*47
$GPGGA,170109.000,4307.8364,N,07725.6087,W,1,05,3.02,186.9,M,-34.3,M,,*5C
$GPRMC,170109.250,A,4307.8348,N,07725.6089,W,23.68,183.47,110819,,,A*44
$GPGGA,170109.500,4307.8334,N,07725.6090,W,1,05,3.02,186.9,M,-34.3,M,,*5A
$GPRMC,170109.750,A,4307.8321,N,07725.6091,W,21.60,186.62,110819,,,A*4F
$GPGGA,170110.000,4307.8309,N,07725.6091,W,1,05,3.02,187.0,M,-34.3,M,,*50
$GPRMC,170110.250,A,4307.8297,N,07725.6091,W,20.00,187.77,110819,,,A*4C
$GPGGA,170110.500,4307.8286,N,07725.6092,W,1,05,3.02,187.1,M,-34.3,M,,*51
$GPRMC,170110.750,A,4307.8277,N,07725.6093,W,16.73,188.17,110819,,,A*4D
$GPGGA,170111.000,4307.8268,N,07725.6094,W,1,05,3.02,187.2,M,-34.3,M,,*50
$GPRMC,170111.250,A,4307.8259,N,07725.6097,W,14.33,189.27,110819,,,A*45
$GPGGA,170111.500,4307.8254,N,07725.6097,W,1,05,3.02,187.3,M,-34.3,M,,*58
$GPRMC,170111.750,A,4307.8248,N,07725.6098,W,10.24,192.14,110819,,,A*47
$GPGGA,170112.000,4307.8243,N,07725.6099,W,1,05,3.02,187.3,M,-34.3,M,,*56
$GPRMC,170112.250,A,4307.8237,N,07725.6101,W,9.16,192.43,110819,,,A*73
$GPGGA,170112.500,4307.8232,N,07725.6103,W,1,05,3.02,187.4,M,-34.3,M,,*50
$GPRMC,170112.750,A,4307.8227,N,07725.6104,W,8.78,193.26,110819,,,A*79
$GPGGA,170113.000,4307.8222,N,07725.6105,W,1,05,3.02,187.5,M,-34.3,M,,*52
$GPRMC,170113.250,A,4307.8217,N,07725.6107,W,8.28,193.31,110819,,,A*7E
$GPGGA,170113.500,4307.8214,N,07725.6109,W,1,05,3.02,187.6,M,-34.3,M,,*5D
$GPRMC,170113.750,A,4307.8211,N,07725.6109,W,6.94,195.10,110819,,,A*7F
$GPGGA,170114.000,4307.8208,N,07725.6111,W,1,05,3.02,187.7,M,-34.3,M,,*5A
$GPRMC,170114.250,A,4307.8204,N,07725.6113,W,6.83,197.19,110819,,,A*7F
$GPGGA,170114.500,4307.8199,N,07725.6116,W,1,05,3.02,187.7,M,-34.3,M,,*53
$GPRMC,170114.750,A,4307.8196,N,07725.6118,W,6.79,201.12,110819,,,A*7B
$GPGGA,170115.000,4307.8192,N,07725.6121,W,1,05,3.02,187.8,M,-34.3,M,,*57
$GPRMC,170115.250,A,4307.8188,N,07725.6124,W,6.79,208.30,110819,,,A*76
$GPGGA,170115.500,4307.8184,N,07725.6129,W,1,05,3.02,187.9,M,-34.3,M,,*5C
$GPRMC,170115.750,A,4307.8182,N,07725.6134,W,6.83,218.24,110819,,,A*79
$GPGGA,170116.000,4307.8178,N,07725.6140,W,1,05,3.02,187.9,M,-34.3,M,,*56
$GPRMC,170116.250,A,4307.8177,N,07725.6149,W,7.87,237.76,110819,,,A*70
$GPGGA,170116.500,4307.8179,N,07725.6160,W,1,05,3.02,188.1,M,-34.3,M,,*57
$GPRMC,170116.750,A,4307.8177,N,07725.6170,W,9.75,254.51,110819,,,A*7C
$GPGGA,170117.000,4307.8175,N,07725.6182,W,1,05,3.02,188.2,M,-34.3,M,,*50
$GPRMC,170117.250,A,4307.8173,N,07725.6194,W,11.32,258.89,110819,,,A*45
$GPGGA,170117.500,4307.8172,N,07725.6207,W,1,05,3.02,188.3,M,-34.3,M,,*5D
$GPRMC,170117.750,A,4307.8170,N,07725.6222,W,13.24,261.52,110819,,,A*44
$GPGGA,170118.000,4307.8169,N,07725.6239,W,1,05,3.02,188.4,M,-34.3,M,,*57
$GPRMC,170118.250,A,4307.8168,N,07725.6256,W,15.52,264.42,110819,,,A*47
$GPGGA,170118.500,4307.8173,N,07725.6273,W,1,05,3.02,188.3,M,-34.3,M,,*50
$GPRMC,170118.750,A,4307.8165,N,07725.6309,W,20.93,269.83,110819,,,A*4F
$GPGGA,170119.000,4307.8164,N,07725.6330,W,1,05,3.02,188.0,M,-34.3,M,,*57
$GPRMC,170119.250,A,4307.8165,N,07725.6351,W,22.73,269.92,110819,,,A*4A
$GPGGA,170119.500,4307.8165,N,07725.6373,W,1,05,3.02,187.8,M,-34.3,M,,*53
$GPRMC,170119.750,A,4307.8166,N,07725.6397,W,24.43,269.63,110819,,,A*4D
$GPGGA,170120.000,4307.8166,N,07725.6420,W,1,05,3.02,187.7,M,-34.3,M,,*51
$GPRMC,170120.250,A,4307.8167,N,07725.6445,W,26.04,270.29,110819,,,A*4C
$GPGGA,170120.500,4307.8167,N,07725.6471,W,1,05,3.02,187.7,M,-34.3,M,,*51
$GPRMC,170120.750,A,4307.8168,N,07725.6497,W,27.68,270.39,110819,,,A*43
$GPGGA,170121.000,4307.8168,N,07725.6524,W,1,05,3.02,187.3,M,-34.3,M,,*5F
$GPRMC,170121.250,A,4307.8168,N,07725.6552,W,29.25,270.13,110819,,,A*40
$GPGGA,170121.500,4307.8169,N,07725.6580,W,1,05,3.02,187.2,M,-34.3,M,,*54
$GPRMC,170121.750,A,4307.8169,N,07725.6609,W,30.52,269.68,110819,,,A*45
$GPGGA,170122.000,4307.8170,N,07725.6638,W,1,05,3.02,187.1,M,-34.3,M,,*59
$GPRMC,170122.250,A,4307.8170,N,07725.6668,W,31.40,270.14,110819,,,A*4D
$GPGGA,170122.500,4307.8171,N,07725.6698,W,1,05,3.02,187.0,M,-34.3,M,,*56
$GPRMC,170122.750,A,4307.8172,N,07725.6728,W,32.10,270.16,110819,,,A*4B
$GPGGA,170123.000,4307.8172,N,07725.6759,W,1,05,3.02,186.8,M,-34.3,M,,*54
$GPRMC,170123.250,A,4307.8173,N,07725.6790,W,32.89,269.75,110819,,,A*40
$GPGGA,170123.500,4307.8173,N,07725.6821,W,1,05,3.02,186.8,M,-34.3,M,,*50
$GPRMC,170123.750,A,4307.8174,N,07725.6853,W,33.86,269.79,110819,,,A*40
$GPGGA,170124.000,4307.8174,N,07725.6885,W,1,05,3.02,186.8,M,-34.3,M,,*5B
$GPRMC,170124.250,A,4307.8175,N,07725.6917,W,34.47,270.00,110819,,,A*4E
$GPGGA,170124.500,4307.8175,N,07725.6951,W,1,05,3.02,186.8,M,-34.3,M,,*57
$GPRMC,170124.750,A,4307.8176,N,07725.6984,W,34.71,270.60,110819,,,A*41
$GPGGA,170125.000,4307.8176,N,07725.7017,W,1,05,3.01,187.0,M,-34.3,M,,*50
$GPRMC,170125.250,A,4307.8177,N,07725.7049,W,34.74,270.71,110819,,,A*48
$GPGGA,170125.500,4307.8178,N,07725.7082,W,1,05,3.02,187.1,M,-34.3,M,,*55
$GPRMC,170125.750,A,4307.8179,N,07725.7114,W,34.40,271.16,110819,,,A*4D
$GPGGA,170126.000,4307.8180,N,07725.7147,W,1,05,3.02,187.2,M,-34.3,M,,*5F
$GPRMC,170126.250,A,4307.8181,N,07725.7179,W,34.15,271.70,110819,,,A*47
$GPGGA,170126.500,4307.8183,N,07725.7212,W,1,05,3.01,187.3,M,-34.3,M,,*58
$GPRMC,170126.750,A,4307.8184,N,07725.7244,W,34.20,272.25,110819,,,A*4F
$GPGGA,170127.000,4307.8185,N,07725.7277,W,1,05,3.02,187.6,M,-34.3,M,,*5F
$GPRMC,170127.250,A,4307.8187,N,07725.7309,W,34.06,272.49,110819,,,A*4E
$GPGGA,170127.500,4307.8188,N,07725.7341,W,1,05,3.01,187.8,M,-34.3,M,,*5E
$GPRMC,170127.750,A,4307.8189,N,07725.7373,W,33.77,272.52,110819,,,A*43
$GPGGA,170128.000,4307.8190,N,07725.7405,W,1,05,3.02,188.1,M,-34.3,M,,*5F
$GPRMC,170128.250,A,4307.8191,N,07725.7437,W,33.31,272.22,110819,,,A*42
$GPGGA,170128.500,4307.8192,N,07725.7470,W,1,05,3.02,188.4,M,-34.3,M,,*5F
$GPRMC,170128.750,A,4307.8193,N,07725.7502,W,32.85,269.63,110819,,,A*43
$GPGGA,170129.000,4307.8193,N,07725.7534,W,1,05,3.02,188.3,M,-34.3,M,,*5C
$GPRMC,170129.250,A,4307.8193,N,07725.7566,W,32.49,269.85,110819,,,A*4D
$GPGGA,170129.500,4307.8193,N,07725.7597,W,1,05,3.01,188.3,M,-34.3,M,,*53
$GPRMC,170129.750,A,4307.8193,N,07725.7628,W,32.26,269.34,110819,,,A*42
$GPGGA,170130.000,4307.8193,N,07725.7659,W,1,05,3.01,188.2,M,-34.3,M,,*5E
$GPRMC,170130.250,A,4307.8193,N,07725.7689,W,31.99,269.37,110819,,,A*40
$GPGGA,170130.500,4307.8193,N,07725.7719,W,1,05,3.02,188.1,M,-34.3,M,,*5E
$GPRMC,170130.750,A,4307.8193,N,07725.7750,W,31.72,269.33,110819,,,A*41
$GPGGA,170131.000,4307.8192,N,07725.7780,W,1,05,3.02,188.0,M,-34.3,M,,*5A
$GPRMC,170131.250,A,4307.8192,N,07725.7809,W,31.57,269.37,110819,,,A*44
$GPGGA,170131.500,4307.8192,N,07725.7838,W,1,05,3.01,187.9,M,-34.3,M,,*56
$GPRMC,170131.750,A,4307.8192,N,07725.7868,W,31.50,269.39,110819,,,A*4F
$GPGGA,170132.000,4307.8192,N,07725.7897,W,1,05,3.01,187.8,M,-34.3,M,,*54
$GPRMC,170132.250,A,4307.8192,N,07725.7927,W,31.49,269.50,110819,,,A*44
$GPGGA,170132.500,4307.8193,N,07725.7956,W,1,05,3.01,187.7,M,-34.3,M,,*53
$GPRMC,170132.750,A,4307.8193,N,07725.7986,W,31.53,269.81,110819,,,A*4C
$GPGGA,170133.000,4307.8194,N,07725.8016,W,1,05,3.01,187.6,M,-34.3,M,,*53
$GPRMC,170133.250,A,4307.8194,N,07725.8046,W,31.56,269.92,110819,,,A*42
$GPGGA,170133.500,4307.8195,N,07725.8075,W,1,05,3.01,187.5,M,-34.3,M,,*51
$GPRMC,170133.750,A,4307.8195,N,07725.8106,W,31.77,270.03,110819,,,A*40
$GPGGA,170134.000,4307.8196,N,07725.8136,W,1,05,3.01,187.4,M,-34.3,M,,*57
$GPRMC,170134.250,A,4307.8196,N,07725.8166,W,31.80,269.86,110819,,,A*4A
$GPGGA,170134.500,4307.8196,N,07725.8195,W,1,05,3.01,187.3,M,-34.3,M,,*5C
$GPRMC,170134.750,A,4307.8197,N,07725.8226,W,31.75,269.54,110819,,,A*4C
$GPGGA,170135.000,4307.8197,N,07725.8255,W,1,05,3.01,187.2,M,-34.3,M,,*57
$GPRMC,170135.250,A,4307.8196,N,07725.8284,W,31.48,269.18,110819,,,A*47
$GPGGA,170135.500,4307.8196,N,07725.8314,W,1,05,3.01,187.1,M,-34.3,M,,*54
$GPRMC,170135.750,A,4307.8195,N,07725.8343,W,31.24,268.57,110819,,,A*4B
$GPGGA,170136.000,4307.8194,N,07725.8373,W,1,05,3.01,186.9,M,-34.3,M,,*58
$GPRMC,170136.250,A,4307.8194,N,07725.8402,W,31.13,268.45,110819,,,A*49
$GPGGA,170136.500,4307.8194,N,07725.8430,W,1,05,3.02,186.8,M,-34.3,M,,*5F
$GPRMC,170136.750,A,4307.8193,N,07725.8459,W,31.04,267.81,110819,,,A*44
$GPGGA,170137.000,4307.8193,N,07725.8489,W,1,05,3.01,186.7,M,-34.3,M,,*52
$GPRMC,170137.250,A,4307.8192,N,07725.8517,W,31.04,267.36,110819,,,A*46
$GPGGA,170137.500,4307.8193,N,07725.8545,W,1,05,3.01,186.5,M,-34.3,M,,*54
$GPRMC,170137.750,A,4307.8193,N,07725.8574,W,31.05,267.38,110819,,,A*48
$GPGGA,170138.000,4307.8193,N,07725.8603,W,1,05,3.01,186.3,M,-34.3,M,,*59
$GPRMC,170138.250,A,4307.8194,N,07725.8631,W,30.70,267.39,110819,,,A*45
$GPGGA,170138.500,4307.8194,N,07725.8657,W,1,05,3.01,186.1,M,-34.3,M,,*58
$GPRMC,170138.750,A,4307.8195,N,07725.8685,W,30.73,267.72,110819,,,A*42
$GPGGA,170139.000,4307.8197,N,07725.8712,W,1,05,3.01,185.8,M,-34.3,M,,*55
$GPRMC,170139.250,A,4307.8199,N,07725.8739,W,29.60,268.59,110819,,,A*40
$GPGGA,170139.500,4307.8201,N,07725.8766,W,1,05,3.01,185.5,M,-34.3,M,,*52
$GPRMC,170139.750,A,4307.8202,N,07725.8792,W,29.79,269.12,110819,,,A*43
$GPGGA,170140.000,4307.8203,N,07725.8818,W,1,05,3.01,185.1,M,-34.3,M,,*59
$GPRMC,170140.250,A,4307.8205,N,07725.8842,W,27.50,269.38,110819,,,A*40
$GPGGA,170140.500,4307.8208,N,07725.8866,W,1,05,3.01,184.8,M,-34.3,M,,*56
$GPRMC,170140.750,A,4307.8210,N,07725.8889,W,25.83,269.74,110819,,,A*42
$GPGGA,170141.000,4307.8213,N,07725.8911,W,1,05,3.01,184.4,M,-34.3,M,,*55
$GPRMC,170141.250,A,4307.8213,N,07725.8932,W,23.96,269.32,110819,,,A*44
$GPGGA,170141.500,4307.8215,N,07725.8952,W,1,05,3.01,184.0,M,-34.3,M,,*55
$GPRMC,170141.750,A,4307.8217,N,07725.8971,W,21.91,268.86,110819,,,A*49
$GPGGA,170142.000,4307.8218,N,07725.8989,W,1,05,3.01,183.7,M,-34.3,M,,*58
$GPRMC,170142.250,A,4307.8220,N,07725.9006,W,20.04,268.23,110819,,,A*41
$GPGGA,170142.500,4307.8221,N,07725.9022,W,1,05,3.01,183.3,M,-34.3,M,,*5A
$GPRMC,170142.750,A,4307.8221,N,07725.9037,W,17.91,266.67,110819,,,A*41
$GPGGA,170143.000,4307.8221,N,07725.9051,W,1,05,3.01,182.8,M,-34.3,M,,*50
$GPRMC,170143.250,A,4307.8222,N,07725.9064,W,16.13,265.99,110819,,,A*49
$GPGGA,170143.500,4307.8223,N,07725.9076,W,1,05,3.01,182.5,M,-34.3,M,,*5F
$GPRMC,170143.750,A,4307.8223,N,07725.9088,W,14.48,264.72,110819,,,A*47
$GPGGA,170144.000,4307.8225,N,07725.9098,W,1,05,3.01,182.2,M,-34.3,M,,*5C
$GPRMC,170144.250,A,4307.8227,N,07725.9107,W,12.63,264.35,110819,,,A*4B
$GPGGA,170144.500,4307.8229,N,07725.9116,W,1,05,3.01,181.9,M,-34.3,M,,*5A
$GPRMC,170144.750,A,4307.8232,N,07725.9123,W,10.87,263.78,110819,,,A*4A
$GPGGA,170145.000,4307.8234,N,07725.9131,W,1,05,3.01,181.5,M,-34.3,M,,*5B
$GPRMC,170145.250,A,4307.8233,N,07725.9136,W,8.58,260.55,110819,,,A*7C
$GPGGA,170145.500,4307.8234,N,07725.9142,W,1,05,3.01,181.2,M,-34.3,M,,*5D
$GPRMC,170145.750,A,4307.8236,N,07725.9148,W,7.96,260.32,110819,,,A*79
$GPGGA,170146.000,4307.8239,N,07725.9154,W,1,05,3.01,180.8,M,-34.3,M,,*5A
$GPRMC,170146.250,A,4307.8241,N,07725.9159,W,6.57,259.60,110819,,,A*7E
$GPGGA,170146.500,4307.8244,N,07725.9163,W,1,05,3.01,180.6,M,-34.3,M,,*5F
$GPRMC,170146.750,A,4307.8246,N,07725.9167,W,5.79,261.55,110819,,,A*73
$GPGGA,170147.000,4307.8248,N,07725.9172,W,1,05,3.01,180.3,M,-34.3,M,,*52
$GPRMC,170147.250,A,4307.8249,N,07725.9176,W,5.47,263.31,110819,,,A*75
$GPGGA,170147.500,4307.8250,N,07725.9180,W,1,05,3.01,180.0,M,-34.3,M,,*50
$GPRMC,170147.750,A,4307.8251,N,07725.9184,W,4.81,263.59,110819,,,A*71
$GPGGA,170148.000,4307.8253,N,07725.9188,W,1,05,3.01,179.8,M,-34.3,M,,*5F
$GPRMC,170148.250,A,4307.8253,N,07725.9192,W,4.16,259.95,110819,,,A*79
$GPGGA,170148.500,4307.8253,N,07725.9194,W,1,05,3.01,179.5,M,-34.3,M,,*5A
$GPRMC,170148.750,A,4307.8254,N,07725.9197,W,3.58,257.67,110819,,,A*70
$GPGGA,170149.000,4307.8254,N,07725.9200,W,1,05,3.01,179.2,M,-34.3,M,,*50
$GPRMC,170149.250,A,4307.8254,N,07725.9202,W,3.21,255.88,110819,,,A*76
$GPGGA,170149.500,4307.8253,N,07725.9203,W,1,05,3.01,179.0,M,-34.3,M,,*53
$GPRMC,170149.750,A,4307.8253,N,07725.9205,W,2.86,253.86,110819,,,A*77
$GPGGA,170150.000,4307.8254,N,07725.9207,W,1,05,3.01,178.7,M,-34.3,M,,*5B
$GPRMC,170150.250,A,4307.8254,N,07725.9208,W,2.35,253.86,110819,,,A*78
$GPGGA,170150.500,4307.8254,N,07725.9208,W,1,05,3.01,178.4,M,-34.3,M,,*52
$GPRMC,170150.750,A,4307.8254,N,07725.9209,W,1.69,253.86,110819,,,A*76
$GPGGA,170151.000,4307.8255,N,07725.9210,W,1,05,3.01,178.2,M,-34.3,M,,*58
$GPRMC,170151.250,A,4307.8254,N,07725.9210,W,1.26,253.86,110819,,,A*71
$GPGGA,170151.500,4307.8254,N,07725.9210,W,1,05,3.01,177.9,M,-34.3,M,,*58
$GPRMC,170151.750,A,4307.8254,N,07725.9210,W,0.83,253.86,110819,,,A*7A
$GPGGA,170152.000,4307.8254,N,07725.9211,W,1,05,3.01,177.6,M,-34.3,M,,*50
$GPRMC,170152.250,A,4307.8254,N,07725.9211,W,0.55,253.86,110819,,,A*76
$GPGGA,170152.500,4307.8253,N,07725.9212,W,1,05,3.01,177.4,M,-34.3,M,,*53
$GPRMC,170152.750,A,4307.8253,N,07725.9212,W,0.60,253.86,110819,,,A*71
$GPGGA,170153.000,4307.8254,N,07725.9213,W,1,05,3.01,177.2,M,-34.3,M,,*57
$GPRMC,170153.250,A,4307.8254,N,07725.9213,W,0.63,253.86,110819,,,A*70
$GPGGA,170153.500,4307.8254,N,07725.9215,W,1,05,3.00,176.8,M,-34.3,M,,*5E
$GPRMC,170153.750,A,4307.8255,N,07725.9215,W,0.85,253.86,110819,,,A*7A
$GPGGA,170154.000,4307.8255,N,07725.9216,W,1,05,3.01,176.6,M,-34.3,M,,*51
$GPRMC,170154.250,A,4307.8255,N,07725.9217,W,1.10,253.86,110819,,,A*77
$GPGGA,170154.500,4307.8255,N,07725.9218,W,1,05,3.01,176.4,M,-34.3,M,,*58
$GPRMC,170154.750,A,4307.8255,N,07725.9219,W,1.41,253.86,110819,,,A*78
$GPGGA,170155.000,4307.8255,N,07725.9221,W,1,05,3.01,176.2,M,-34.3,M,,*50
$GPRMC,170155.250,A,4307.8255,N,07725.9222,W,1.80,253.86,110819,,,A*79
$GPGGA,170155.500,4307.8255,N,07725.9224,W,1,05,3.01,176.0,M,-34.3,M,,*52
$GPRMC,170155.750,A,4307.8253,N,07725.9227,W,2.44,261.37,110819,,,A*7F
$GPGGA,170156.000,4307.8253,N,07725.9229,W,1,05,3.01,175.8,M,-34.3,M,,*54
$GPRMC,170156.250,A,4307.8252,N,07725.9232,W,2.71,261.46,110819,,,A*7C
$GPGGA,170156.500,4307.8253,N,07725.9234,W,1,05,3.01,175.5,M,-34.3,M,,*50
$GPRMC,170156.750,A,4307.8253,N,07725.9237,W,3.15,268.77,110819,,,A*75
$GPGGA,170157.000,4307.8254,N,07725.9239,W,1,05,3.01,175.2,M,-34.3,M,,*59
$GPRMC,170157.250,A,4307.8253,N,07725.9242,W,3.11,268.44,110819,,,A*77
$GPGGA,170157.500,4307.8254,N,07725.9245,W,1,05,3.01,174.9,M,-34.3,M,,*5D
$GPRMC,170157.750,A,4307.8254,N,07725.9249,W,3.36,269.42,110819,,,A*7C
