Vers 81
USE_SERIAL_FEEDBACK=true
DEVELOPMENT_MODE=false
USE_RMC_ONLY=false

$GPRMC,142103.750,A,4308.3017,N,07726.2666,W,0.27,304.92,050919,,,A*7C
$GPGGA,142104.000,4308.3017,N,07726.2667,W,1,05,1.35,156.8,M,-34.4,M,,*51
$GPRMC,142104.250,A,4308.3017,N,07726.2668,W,0.26,302.94,050919,,,A*71
$GPGGA,142104.500,4308.3018,N,07726.2669,W,1,05,1.35,157.2,M,-34.4,M,,*5E
$GPRMC,142104.750,A,4308.3018,N,07726.2670,W,0.17,304.68,050919,,,A*75
$GPGGA,142105.000,4308.3017,N,07726.2671,W,1,05,1.35,157.6,M,-34.4,M,,*58
$GPRMC,142105.250,A,4308.3017,N,07726.2672,W,0.07,292.35,050919,,,A*7B
$GPGGA,142105.500,4308.3018,N,07726.2672,W,1,05,1.35,157.9,M,-34.4,M,,*5E
$GPRMC,142105.750,A,4308.3017,N,07726.2673,W,0.13,245.06,050919,,,A*70
$GPGGA,142106.000,4308.3017,N,07726.2673,W,1,05,1.35,158.0,M,-34.4,M,,*50
$GPRMC,142106.250,A,4308.3017,N,07726.2673,W,0.13,257.89,050919,,,A*72
$GPGGA,142106.500,4308.3017,N,07726.2674,W,1,05,1.35,158.2,M,-34.4,M,,*50
$GPRMC,142106.750,A,4308.3017,N,07726.2673,W,0.10,313.62,050919,,,A*70
$GPGGA,142107.000,4308.3017,N,07726.2674,W,1,05,1.35,158.3,M,-34.4,M,,*55
$GPRMC,142107.250,A,4308.3017,N,07726.2674,W,0.15,178.38,050919,,,A*76
$GPGGA,142107.500,4308.3017,N,07726.2674,W,1,05,1.35,158.5,M,-34.4,M,,*56
$GPRMC,142107.750,A,4308.3017,N,07726.2673,W,0.12,184.09,050919,,,A*72
$GPGGA,142108.000,4308.3017,N,07726.2674,W,1,05,1.35,158.6,M,-34.4,M,,*5F
$GPRMC,142106.250,A,4308.3017,N,07726.2673,W,0.14,189.65,050919,,,A*77
$GPGGA,142106.500,4308.3018,N,07726.2673,W,1,05,1.35,158.2,M,-34.4,M,,*58
$GPRMC,142106.750,A,4308.3017,N,07726.2673,W,0.10,174.29,050919,,,A*7C
$GPGGA,142107.000,4308.3017,N,07726.2673,W,1,05,1.35,158.0,M,-34.4,M,,*51
$GPRMC,142107.250,A,4308.3017,N,07726.2673,W,0.12,174.52,050919,,,A*76
$GPGGA,142107.500,4308.3017,N,07726.2674,W,1,05,1.35,157.7,M,-34.4,M,,*5B
$GPRMC,142107.750,A,4308.3017,N,07726.2673,W,0.15,129.63,050919,,,A*7E
$GPGGA,142108.000,4308.3017,N,07726.2674,W,1,05,1.35,157.4,M,-34.4,M,,*52
$GPRMC,142108.250,A,4308.3017,N,07726.2674,W,0.18,112.54,050919,,,A*72
$GPGGA,142108.500,4308.3017,N,07726.2674,W,1,05,1.35,157.1,M,-34.4,M,,*52
$GPRMC,142108.750,A,4308.3017,N,07726.2674,W,0.13,100.27,050919,,,A*7B
$GPGGA,142109.000,4308.3017,N,07726.2675,W,1,05,1.35,157.0,M,-34.4,M,,*56
$GPRMC,142109.250,A,4308.3017,N,07726.2676,W,0.11,57.77,050919,,,A*49
$GPGGA,142109.500,4308.3017,N,07726.2677,W,1,05,1.35,156.9,M,-34.4,M,,*59
$GPRMC,142109.750,A,4308.3017,N,07726.2677,W,0.10,345.58,050919,,,A*71
$GPGGA,142110.000,4308.3017,N,07726.2678,W,1,05,1.36,156.9,M,-34.4,M,,*58
$GPRMC,142110.250,A,4308.3017,N,07726.2678,W,0.24,339.19,050919,,,A*7A
$GPGGA,142110.500,4308.3019,N,07726.2678,W,1,05,1.35,156.9,M,-34.4,M,,*50
$GPRMC,142110.750,A,4308.3021,N,07726.2678,W,0.89,351.88,050919,,,A*7B
$GPGGA,142111.000,4308.3022,N,07726.2678,W,1,05,1.36,157.0,M,-34.4,M,,*57
$GPRMC,142111.250,A,4308.3024,N,07726.2679,W,1.34,350.70,050919,,,A*7A
$GPGGA,142111.500,4308.3026,N,07726.2679,W,1,05,1.36,157.1,M,-34.4,M,,*56
$GPRMC,142111.750,A,4308.3028,N,07726.2680,W,2.56,344.93,050919,,,A*7A
$GPGGA,142112.000,4308.3031,N,07726.2680,W,1,05,1.35,157.3,M,-34.4,M,,*51
$GPRMC,142112.250,A,4308.3034,N,07726.2681,W,4.11,348.92,050919,,,A*78
$GPGGA,142112.500,4308.3038,N,07726.2681,W,1,05,1.36,157.5,M,-34.4,M,,*59
$GPRMC,142112.750,A,4308.3042,N,07726.2681,W,5.35,355.42,050919,,,A*7A
$GPGGA,142113.000,4308.3046,N,07726.2681,W,1,05,1.36,157.6,M,-34.4,M,,*57
$GPRMC,142113.250,A,4308.3051,N,07726.2680,W,6.36,0.80,050919,,,A*70
$GPGGA,142113.500,4308.3056,N,07726.2680,W,1,05,1.36,157.8,M,-34.4,M,,*5C
$GPRMC,142113.750,A,4308.3060,N,07726.2680,W,6.51,358.27,050919,,,A*75
$GPGGA,142114.000,4308.3065,N,07726.2680,W,1,05,1.36,157.9,M,-34.4,M,,*5F
$GPRMC,142114.250,A,4308.3070,N,07726.2680,W,6.90,358.57,050919,,,A*7C
$GPGGA,142114.500,4308.3075,N,07726.2680,W,1,05,1.36,158.1,M,-34.4,M,,*5C
$GPRMC,142114.750,A,4308.3080,N,07726.2680,W,6.96,356.56,050919,,,A*7F
$GPGGA,142115.000,4308.3085,N,07726.2680,W,1,05,1.36,158.2,M,-34.4,M,,*54
$GPRMC,142115.250,A,4308.3089,N,07726.2681,W,6.58,355.17,050919,,,A*77
$GPGGA,142115.500,4308.3093,N,07726.2681,W,1,05,1.36,158.2,M,-34.4,M,,*57
$GPRMC,142115.750,A,4308.3096,N,07726.2681,W,5.32,355.05,050919,,,A*70
$GPGGA,142116.000,4308.3099,N,07726.2681,W,1,05,1.36,158.3,M,-34.4,M,,*5A
$GPRMC,142116.250,A,4308.3102,N,07726.2680,W,4.37,359.70,050919,,,A*71
$GPGGA,142116.500,4308.3104,N,07726.2680,W,1,05,1.36,158.3,M,-34.4,M,,*5B
$GPRMC,142116.750,A,4308.3106,N,07726.2679,W,3.14,6.73,050919,,,A*7A
$GPGGA,142117.000,4308.3106,N,07726.2679,W,1,05,1.36,158.4,M,-34.4,M,,*5C
$GPRMC,142117.250,A,4308.3107,N,07726.2678,W,1.41,23.83,050919,,,A*44
$GPGGA,142117.500,4308.3106,N,07726.2678,W,1,05,1.35,158.4,M,-34.4,M,,*5B
$GPRMC,142117.750,A,4308.3106,N,07726.2678,W,0.71,31.76,050919,,,A*4B
$GPGGA,142118.000,4308.3106,N,07726.2678,W,1,05,1.35,158.4,M,-34.4,M,,*51
$GPRMC,142118.250,A,4308.3106,N,07726.2678,W,0.33,30.41,050919,,,A*42
$GPGGA,142118.500,4308.3106,N,07726.2678,W,1,05,1.35,158.4,M,-34.4,M,,*54
$GPRMC,142118.750,A,4308.3105,N,07726.2679,W,0.14,25.04,050919,,,A*45
$GPGGA,142119.000,4308.3105,N,07726.2678,W,1,05,1.35,158.4,M,-34.4,M,,*53
$GPRMC,142119.250,A,4308.3105,N,07726.2678,W,0.09,91.34,050919,,,A*40
$GPGGA,142119.500,4308.3105,N,07726.2678,W,1,05,1.35,158.3,M,-34.4,M,,*51
$GPRMC,142119.750,A,4308.3105,N,07726.2678,W,0.05,42.51,050919,,,A*44
$GPGGA,142120.000,4308.3105,N,07726.2678,W,1,05,1.35,158.3,M,-34.4,M,,*5E
$GPRMC,142120.250,A,4308.3106,N,07726.2678,W,0.14,65.95,050919,,,A*45
$GPGGA,142120.500,4308.3106,N,07726.2677,W,1,05,1.35,158.2,M,-34.4,M,,*56
$GPRMC,142120.750,A,4308.3108,N,07726.2677,W,0.33,24.81,050919,,,A*44
$GPGGA,142121.000,4308.3110,N,07726.2676,W,1,05,1.35,158.2,M,-34.4,M,,*54
$GPRMC,142121.250,A,4308.3113,N,07726.2675,W,0.98,8.05,050919,,,A*7B
$GPGGA,142121.500,4308.3116,N,07726.2672,W,1,05,1.36,158.0,M,-34.4,M,,*52
$GPRMC,142121.750,A,4308.3119,N,07726.2671,W,1.71,13.06,050919,,,A*4F
$GPGGA,142122.000,4308.3121,N,07726.2671,W,1,05,1.36,158.0,M,-34.4,M,,*53
$GPRMC,142122.250,A,4308.3123,N,07726.2669,W,2.94,20.92,050919,,,A*4C
$GPGGA,142122.500,4308.3126,N,07726.2667,W,1,05,1.35,157.9,M,-34.4,M,,*53
$GPRMC,142122.750,A,4308.3129,N,07726.2664,W,4.07,30.12,050919,,,A*4B
$GPGGA,142123.000,4308.3132,N,07726.2662,W,1,05,1.36,157.8,M,-34.4,M,,*55
$GPRMC,142123.250,A,4308.3133,N,07726.2659,W,3.63,40.24,050919,,,A*4D
$GPGGA,142123.500,4308.3133,N,07726.2656,W,1,05,1.35,157.7,M,-34.4,M,,*5A
$GPRMC,142123.750,A,4308.3133,N,07726.2652,W,3.22,70.57,050919,,,A*41
$GPGGA,142124.000,4308.3133,N,07726.2649,W,1,05,1.35,157.6,M,-34.4,M,,*57
$GPRMC,142124.250,A,4308.3133,N,07726.2647,W,2.40,86.78,050919,,,A*46
$GPGGA,142124.500,4308.3133,N,07726.2646,W,1,05,1.35,157.6,M,-34.4,M,,*5D
$GPRMC,142124.750,A,4308.3132,N,07726.2645,W,1.31,93.13,050919,,,A*4C
$GPGGA,142125.000,4308.3132,N,07726.2644,W,1,05,1.35,157.5,M,-34.4,M,,*59
$GPRMC,142125.250,A,4308.3132,N,07726.2644,W,0.80,94.64,050919,,,A*45
$GPGGA,142125.500,4308.3133,N,07726.2646,W,1,05,1.35,157.4,M,-34.4,M,,*5E
$GPRMC,142125.750,A,4308.3133,N,07726.2648,W,0.25,350.40,050919,,,A*7F
$GPGGA,142126.000,4308.3134,N,07726.2651,W,1,05,1.36,157.3,M,-34.4,M,,*5D
$GPRMC,142126.250,A,4308.3133,N,07726.2654,W,0.85,267.56,050919,,,A*7C
$GPGGA,142126.500,4308.3133,N,07726.2659,W,1,05,1.35,157.2,M,-34.4,M,,*55
$GPRMC,142126.750,A,4308.3132,N,07726.2663,W,1.73,256.03,050919,,,A*76
$GPGGA,142127.000,4308.3132,N,07726.2666,W,1,05,1.35,157.0,M,-34.4,M,,*5E
$GPRMC,142127.250,A,4308.3131,N,07726.2671,W,2.37,255.59,050919,,,A*7D
$GPGGA,142127.500,4308.3131,N,07726.2677,W,1,05,1.35,156.8,M,-34.4,M,,*51
$GPRMC,142127.750,A,4308.3131,N,07726.2681,W,3.18,257.46,050919,,,A*77
$GPGGA,142128.000,4308.3132,N,07726.2686,W,1,05,1.35,156.6,M,-34.4,M,,*58
$GPRMC,142128.250,A,4308.3133,N,07726.2693,W,4.19,269.54,050919,,,A*74
$GPGGA,142128.500,4308.3135,N,07726.2704,W,1,05,1.36,156.4,M,-34.4,M,,*50
$GPRMC,142128.750,A,4308.3136,N,07726.2713,W,6.74,274.85,050919,,,A*74
$GPGGA,142129.000,4308.3138,N,07726.2723,W,1,05,1.36,156.3,M,-34.4,M,,*5B
$GPRMC,142129.250,A,4308.3141,N,07726.2734,W,8.53,282.79,050919,,,A*74
$GPGGA,142129.500,4308.3143,N,07726.2745,W,1,05,1.36,156.2,M,-34.4,M,,*53
$GPRMC,142129.750,A,4308.3147,N,07726.2759,W,10.74,287.20,050919,,,A*49
$GPGGA,142130.000,4308.3150,N,07726.2770,W,1,05,1.35,156.2,M,-34.4,M,,*59
$GPRMC,142130.250,A,4308.3155,N,07726.2782,W,11.81,292.61,050919,,,A*4B
$GPGGA,142130.500,4308.3161,N,07726.2796,W,1,05,1.35,156.2,M,-34.4,M,,*56
$GPRMC,142130.750,A,4308.3169,N,07726.2827,W,15.89,296.24,050919,,,A*48
$GPGGA,142131.000,4308.3175,N,07726.2846,W,1,05,1.35,156.1,M,-34.4,M,,*56
$GPRMC,142131.250,A,4308.3181,N,07726.2862,W,17.73,297.88,050919,,,A*4B
$GPGGA,142131.500,4308.3188,N,07726.2880,W,1,05,1.36,156.1,M,-34.4,M,,*58
$GPRMC,142131.750,A,4308.3195,N,07726.2896,W,18.67,298.87,050919,,,A*4A
$GPGGA,142132.000,4308.3203,N,07726.2909,W,1,05,1.35,156.0,M,-34.4,M,,*5C
$GPRMC,142132.250,A,4308.3210,N,07726.2923,W,19.25,299.62,050919,,,A*40
$GPGGA,142132.500,4308.3218,N,07726.2939,W,1,05,1.35,156.0,M,-34.4,M,,*50
$GPRMC,142132.750,A,4308.3225,N,07726.2956,W,20.11,299.93,050919,,,A*42
$GPGGA,142133.000,4308.3232,N,07726.2974,W,1,05,1.35,156.0,M,-34.4,M,,*55
$GPRMC,142133.250,A,4308.3241,N,07726.2992,W,21.00,301.31,050919,,,A*45
$GPGGA,142133.500,4308.3250,N,07726.3011,W,1,05,1.35,156.0,M,-34.4,M,,*5F
$GPRMC,142133.750,A,4308.3258,N,07726.3032,W,22.06,301.92,050919,,,A*46
$GPGGA,142134.000,4308.3268,N,07726.3050,W,1,05,1.35,156.0,M,-34.4,M,,*53
$GPRMC,142134.250,A,4308.3277,N,07726.3068,W,22.52,302.28,050919,,,A*45
$GPGGA,142134.500,4308.3286,N,07726.3089,W,1,05,1.36,156.0,M,-34.4,M,,*51
$GPRMC,142134.750,A,4308.3296,N,07726.3110,W,23.31,303.23,050919,,,A*4F
$GPGGA,142135.000,4308.3306,N,07726.3130,W,1,05,1.35,156.0,M,-34.4,M,,*5C
$GPRMC,142135.250,A,4308.3316,N,07726.3152,W,24.00,303.72,050919,,,A*45
$GPGGA,142135.500,4308.3326,N,07726.3175,W,1,05,1.35,156.0,M,-34.4,M,,*5A
$GPRMC,142135.750,A,4308.3336,N,07726.3197,W,24.80,303.63,050919,,,A*43
$GPGGA,142136.000,4308.3346,N,07726.3218,W,1,05,1.35,156.0,M,-34.4,M,,*52
$GPRMC,142136.250,A,4308.3357,N,07726.3240,W,25.24,304.05,050919,,,A*43
$GPGGA,142136.500,4308.3367,N,07726.3261,W,1,05,1.35,156.0,M,-34.4,M,,*5A
$GPRMC,142136.750,A,4308.3378,N,07726.3283,W,25.90,304.38,050919,,,A*45
$GPGGA,142137.000,4308.3388,N,07726.3305,W,1,05,1.35,156.1,M,-34.4,M,,*5D
$GPRMC,142137.250,A,4308.3399,N,07726.3326,W,26.26,304.27,050919,,,A*40
$GPGGA,142137.500,4308.3410,N,07726.3347,W,1,05,1.35,156.0,M,-34.4,M,,*59
$GPRMC,142137.750,A,4308.3421,N,07726.3369,W,26.54,304.48,050919,,,A*46
$GPGGA,142138.000,4308.3433,N,07726.3389,W,1,05,1.35,156.0,M,-34.4,M,,*50
$GPRMC,142138.250,A,4308.3444,N,07726.3410,W,26.57,305.28,050919,,,A*42
$GPGGA,142138.500,4308.3455,N,07726.3431,W,1,05,1.35,155.9,M,-34.4,M,,*5B
$GPRMC,142138.750,A,4308.3466,N,07726.3453,W,26.64,305.83,050919,,,A*41
$GPGGA,142139.000,4308.3477,N,07726.3476,W,1,05,1.35,155.9,M,-34.4,M,,*5C
$GPRMC,142139.250,A,4308.3489,N,07726.3499,W,26.86,305.71,050919,,,A*43
$GPGGA,142139.500,4308.3500,N,07726.3522,W,1,05,1.35,155.9,M,-34.4,M,,*58
$GPRMC,142139.750,A,4308.3512,N,07726.3543,W,27.33,306.63,050919,,,A*4C
$GPGGA,142140.000,4308.3524,N,07726.3564,W,1,05,1.35,156.0,M,-34.4,M,,*5D
$GPRMC,142140.250,A,4308.3537,N,07726.3583,W,27.01,308.80,050919,,,A*4E
$GPGGA,142140.500,4308.3550,N,07726.3603,W,1,05,1.35,156.1,M,-34.4,M,,*58
$GPRMC,142140.750,A,4308.3563,N,07726.3624,W,26.64,310.56,050919,,,A*44
$GPGGA,142141.000,4308.3575,N,07726.3645,W,1,05,1.35,156.1,M,-34.4,M,,*59
$GPRMC,142141.250,A,4308.3588,N,07726.3664,W,25.69,311.45,050919,,,A*4C
$GPGGA,142141.500,4308.3602,N,07726.3680,W,1,05,1.35,156.0,M,-34.4,M,,*57
$GPRMC,142141.750,A,4308.3616,N,07726.3696,W,24.26,317.85,050919,,,A*40
$GPGGA,142142.000,4308.3630,N,07726.3713,W,1,05,1.35,156.1,M,-34.4,M,,*5A
$GPRMC,142142.250,A,4308.3644,N,07726.3726,W,24.09,321.17,050919,,,A*48
$GPGGA,142142.500,4308.3659,N,07726.3738,W,1,05,1.35,156.3,M,-34.4,M,,*5B
$GPRMC,142142.750,A,4308.3673,N,07726.3750,W,24.14,324.46,050919,,,A*45
$GPGGA,142143.000,4308.3688,N,07726.3761,W,1,05,1.35,156.4,M,-34.4,M,,*58
$GPRMC,142143.250,A,4308.3703,N,07726.3771,W,24.21,327.50,050919,,,A*46
$GPGGA,142143.500,4308.3720,N,07726.3778,W,1,05,1.35,156.5,M,-34.4,M,,*57
$GPRMC,142143.750,A,4308.3737,N,07726.3786,W,24.32,333.12,050919,,,A*4D
$GPGGA,142144.000,4308.3753,N,07726.3794,W,1,05,1.35,156.6,M,-34.4,M,,*50
$GPRMC,142144.250,A,4308.3770,N,07726.3800,W,24.40,337.20,050919,,,A*4D
$GPGGA,142144.500,4308.3787,N,07726.3805,W,1,05,1.35,156.7,M,-34.4,M,,*5A
$GPRMC,142144.750,A,4308.3804,N,07726.3810,W,24.41,341.95,050919,,,A*4B
$GPGGA,142145.000,4308.3820,N,07726.3810,W,1,05,1.35,156.8,M,-34.4,M,,*57
$GPRMC,142145.250,A,4308.3838,N,07726.3810,W,23.63,350.08,050919,,,A*43
$GPGGA,142145.500,4308.3855,N,07726.3809,W,1,05,1.36,157.0,M,-34.4,M,,*52
$GPRMC,142145.750,A,4308.3872,N,07726.3809,W,23.61,356.21,050919,,,A*4F
$GPGGA,142146.000,4308.3889,N,07726.3809,W,1,05,1.36,157.1,M,-34.4,M,,*54
$GPRMC,142146.250,A,4308.3905,N,07726.3809,W,23.48,358.95,050919,,,A*42
$GPGGA,142146.500,4308.3922,N,07726.3808,W,1,05,1.36,157.2,M,-34.4,M,,*53
$GPRMC,142146.750,A,4308.3940,N,07726.3805,W,23.76,1.93,050919,,,A*4E
$GPGGA,142147.000,4308.3959,N,07726.3803,W,1,05,1.36,157.4,M,-34.4,M,,*56
$GPRMC,142147.250,A,4308.3978,N,07726.3800,W,24.66,3.86,050919,,,A*44
$GPGGA,142147.500,4308.3996,N,07726.3796,W,1,05,1.36,157.5,M,-34.4,M,,*52
$GPRMC,142147.750,A,4308.4015,N,07726.3793,W,25.33,5.82,050919,,,A*42
$GPGGA,142148.000,4308.4033,N,07726.3789,W,1,05,1.35,157.7,M,-34.4,M,,*56
$GPRMC,142148.250,A,4308.4052,N,07726.3785,W,25.75,6.81,050919,,,A*4E
$GPGGA,142148.500,4308.4070,N,07726.3782,W,1,05,1.35,157.9,M,-34.4,M,,*51
$GPRMC,142148.750,A,4308.4089,N,07726.3778,W,26.03,7.10,050919,,,A*44
$GPGGA,142149.000,4308.4107,N,07726.3775,W,1,05,1.35,158.1,M,-34.4,M,,*5B
$GPRMC,142149.250,A,4308.4125,N,07726.3771,W,26.11,7.77,050919,,,A*4C
$GPGGA,142149.500,4308.4144,N,07726.3766,W,1,05,1.35,158.2,M,-34.4,M,,*58
$GPRMC,142149.750,A,4308.4162,N,07726.3762,W,26.23,8.74,050919,,,A*45
$GPGGA,142150.000,4308.4181,N,07726.3758,W,1,05,1.35,158.4,M,-34.4,M,,*57
$GPRMC,142150.250,A,4308.4199,N,07726.3754,W,26.35,8.77,050919,,,A*4D
$GPGGA,142150.500,4308.4217,N,07726.3750,W,1,05,1.35,158.5,M,-34.4,M,,*57
$GPRMC,142150.750,A,4308.4235,N,07726.3746,W,26.18,9.15,050919,,,A*44
$GPGGA,142151.000,4308.4253,N,07726.3742,W,1,05,1.35,158.7,M,-34.4,M,,*52
$GPRMC,142151.250,A,4308.4272,N,07726.3737,W,26.21,9.35,050919,,,A*4D
$GPGGA,142151.500,4308.4289,N,07726.3733,W,1,05,1.35,159.0,M,-34.4,M,,*50
$GPRMC,142151.750,A,4308.4306,N,07726.3729,W,25.28,9.58,050919,,,A*44
$GPGGA,142152.000,4308.4323,N,07726.3725,W,1,05,1.35,159.2,M,-34.4,M,,*52
$GPRMC,142152.250,A,4308.4340,N,07726.3721,W,24.48,9.78,050919,,,A*4D
$GPGGA,142152.500,4308.4357,N,07726.3717,W,1,05,1.35,159.4,M,-34.4,M,,*53
$GPRMC,142152.750,A,4308.4373,N,07726.3713,W,24.27,9.57,050919,,,A*4D
$GPGGA,142153.000,4308.4390,N,07726.3709,W,1,05,1.35,159.5,M,-34.4,M,,*52
$GPRMC,142153.250,A,4308.4406,N,07726.3705,W,23.87,9.31,050919,,,A*46
$GPGGA,142153.500,4308.4422,N,07726.3701,W,1,05,1.35,159.7,M,-34.4,M,,*53
$GPRMC,142153.750,A,4308.4438,N,07726.3698,W,23.37,9.29,050919,,,A*49
$GPGGA,142154.000,4308.4453,N,07726.3694,W,1,05,1.35,159.8,M,-34.4,M,,*55
$GPRMC,142154.250,A,4308.4467,N,07726.3689,W,21.99,10.49,050919,,,A*79
$GPGGA,142154.500,4308.4482,N,07726.3681,W,1,05,1.35,160.0,M,-34.4,M,,*5A
$GPRMC,142154.750,A,4308.4494,N,07726.3676,W,20.46,12.84,050919,,,A*70
$GPGGA,142155.000,4308.4508,N,07726.3670,W,1,05,1.36,160.2,M,-34.4,M,,*52
$GPRMC,142155.250,A,4308.4509,N,07726.3672,W,16.41,15.05,050919,,,A*79
$GPGGA,142155.500,4308.4515,N,07726.3670,W,1,05,1.35,160.3,M,-34.4,M,,*59
$GPRMC,142155.750,A,4308.4527,N,07726.3662,W,13.36,17.15,050919,,,A*77
$GPGGA,142156.000,4308.4538,N,07726.3660,W,1,05,1.35,160.5,M,-34.4,M,,*57
$GPRMC,142156.250,A,4308.4545,N,07726.3654,W,11.25,14.32,050919,,,A*76
$GPGGA,142156.500,4308.4551,N,07726.3650,W,1,05,1.36,160.6,M,-34.4,M,,*5E
$GPRMC,142156.750,A,4308.4557,N,07726.3648,W,10.09,12.96,050919,,,A*7A
$GPGGA,142157.000,4308.4562,N,07726.3647,W,1,05,1.35,160.8,M,-34.4,M,,*51
$GPRMC,142157.250,A,4308.4567,N,07726.3640,W,9.34,14.97,050919,,,A*44
$GPGGA,142157.500,4308.4572,N,07726.3636,W,1,05,1.36,161.0,M,-34.4,M,,*59
$GPRMC,142157.750,A,4308.4577,N,07726.3633,W,8.82,12.36,050919,,,A*45
$GPGGA,142158.000,4308.4582,N,07726.3631,W,1,05,1.36,161.2,M,-34.4,M,,*59
$GPRMC,142158.250,A,4308.4588,N,07726.3630,W,8.66,3.76,050919,,,A*72
$GPGGA,142158.500,4308.4593,N,07726.3630,W,1,05,1.36,161.3,M,-34.4,M,,*5C
$GPRMC,142158.750,A,4308.4599,N,07726.3631,W,9.74,351.78,050919,,,A*7E
$GPGGA,142159.000,4308.4606,N,07726.3633,W,1,05,1.36,161.5,M,-34.4,M,,*52
$GPRMC,142159.250,A,4308.4613,N,07726.3635,W,10.41,347.43,050919,,,A*4E
$GPGGA,142159.500,4308.4619,N,07726.3639,W,1,05,1.36,161.7,M,-34.4,M,,*51
$GPRMC,142159.750,A,4308.4625,N,07726.3644,W,10.72,338.68,050919,,,A*49
$GPGGA,142200.000,4308.4631,N,07726.3651,W,1,05,1.35,161.9,M,-34.4,M,,*52
$GPRMC,142200.250,A,4308.4637,N,07726.3657,W,10.75,330.26,050919,,,A*47
$GPGGA,142200.500,4308.4642,N,07726.3665,W,1,05,1.36,161.9,M,-34.4,M,,*57
$GPRMC,142200.750,A,4308.4646,N,07726.3674,W,10.83,320.38,050919,,,A*42
$GPGGA,142201.000,4308.4651,N,07726.3683,W,1,05,1.35,161.9,M,-34.4,M,,*5A
$GPRMC,142201.250,A,4308.4654,N,07726.3694,W,11.26,311.35,050919,,,A*4A
$GPGGA,142201.500,4308.4657,N,07726.3707,W,1,05,1.35,161.9,M,-34.4,M,,*54
$GPRMC,142201.750,A,4308.4660,N,07726.3719,W,11.93,301.55,050919,,,A*45
$GPGGA,142202.000,4308.4659,N,07726.3740,W,1,05,1.35,162.1,M,-34.4,M,,*54
$GPRMC,142202.250,A,4308.4660,N,07726.3758,W,14.09,286.24,050919,,,A*48
$GPGGA,142202.500,4308.4662,N,07726.3776,W,1,05,1.35,162.2,M,-34.4,M,,*5F
$GPRMC,142202.750,A,4308.4665,N,07726.3792,W,15.14,285.09,050919,,,A*4F
$GPGGA,142203.000,4308.4669,N,07726.3808,W,1,05,1.35,162.2,M,-34.4,M,,*56
$GPRMC,142203.250,A,4308.4672,N,07726.3825,W,15.84,285.17,050919,,,A*48
$GPGGA,142203.500,4308.4675,N,07726.3849,W,1,05,1.35,162.2,M,-34.4,M,,*5B
$GPRMC,142203.750,A,4308.4679,N,07726.3873,W,16.55,283.78,050919,,,A*45
$GPGGA,142204.000,4308.4682,N,07726.3894,W,1,05,1.35,162.3,M,-34.4,M,,*50
$GPRMC,142204.250,A,4308.4685,N,07726.3916,W,17.52,283.33,050919,,,A*4F
$GPGGA,142204.500,4308.4684,N,07726.3943,W,1,05,1.35,162.4,M,-34.4,M,,*5F
$GPRMC,142204.750,A,4308.4685,N,07726.3968,W,18.94,280.62,050919,,,A*41
$GPGGA,142205.000,4308.4686,N,07726.3994,W,1,05,1.35,162.6,M,-34.4,M,,*51
$GPRMC,142205.250,A,4308.4688,N,07726.4018,W,20.05,280.00,050919,,,A*46
$GPGGA,142205.500,4308.4689,N,07726.4042,W,1,05,1.35,162.7,M,-34.4,M,,*5F
$GPRMC,142205.750,A,4308.4692,N,07726.4066,W,21.06,279.93,050919,,,A*4F
$GPGGA,142206.000,4308.4695,N,07726.4091,W,1,05,1.35,162.8,M,-34.4,M,,*55
$GPRMC,142206.250,A,4308.4698,N,07726.4114,W,21.79,280.43,050919,,,A*44
$GPGGA,142206.500,4308.4702,N,07726.4139,W,1,05,1.35,163.0,M,-34.4,M,,*55
$GPRMC,142206.750,A,4308.4703,N,07726.4162,W,21.93,279.64,050919,,,A*44
$GPGGA,142207.000,4308.4705,N,07726.4183,W,1,05,1.35,163.1,M,-34.4,M,,*56
$GPRMC,142207.250,A,4308.4706,N,07726.4203,W,21.01,280.21,050919,,,A*4D
$GPGGA,142207.500,4308.4707,N,07726.4223,W,1,05,1.35,163.3,M,-34.4,M,,*5A
$GPRMC,142207.750,A,4308.4707,N,07726.4240,W,19.54,281.29,050919,,,A*4C
$GPGGA,142208.000,4308.4708,N,07726.4258,W,1,05,1.35,163.4,M,-34.4,M,,*54
$GPRMC,142208.250,A,4308.4709,N,07726.4274,W,17.85,282.99,050919,,,A*45
$GPGGA,142208.500,4308.4709,N,07726.4288,W,1,05,1.35,163.6,M,-34.4,M,,*5F
$GPRMC,142208.750,A,4308.4709,N,07726.4302,W,15.73,281.99,050919,,,A*48
$GPGGA,142209.000,4308.4709,N,07726.4313,W,1,05,1.35,163.8,M,-34.4,M,,*56
$GPRMC,142209.250,A,4308.4710,N,07726.4323,W,13.13,281.40,050919,,,A*43
$GPGGA,142209.500,4308.4711,N,07726.4333,W,1,05,1.35,163.9,M,-34.4,M,,*59
$GPRMC,142209.750,A,4308.4712,N,07726.4344,W,11.63,282.45,050919,,,A*46
$GPGGA,142210.000,4308.4712,N,07726.4353,W,1,05,1.35,164.1,M,-34.4,M,,*5E
$GPRMC,142210.250,A,4308.4713,N,07726.4362,W,10.13,283.20,050919,,,A*4A
$GPGGA,142210.500,4308.4714,N,07726.4369,W,1,05,1.35,164.2,M,-34.4,M,,*57
$GPRMC,142210.750,A,4308.4715,N,07726.4376,W,8.89,282.94,050919,,,A*78
$GPGGA,142211.000,4308.4715,N,07726.4383,W,1,05,1.34,164.3,M,-34.4,M,,*56
$GPRMC,142211.250,A,4308.4714,N,07726.4386,W,7.89,281.36,050919,,,A*76
$GPGGA,142211.500,4308.4713,N,07726.4387,W,1,05,1.35,164.4,M,-34.4,M,,*57
$GPRMC,142211.750,A,4308.4713,N,07726.4389,W,6.38,281.35,050919,,,A*73
$GPGGA,142212.000,4308.4713,N,07726.4391,W,1,05,1.35,164.6,M,-34.4,M,,*54
$GPRMC,142212.250,A,4308.4713,N,07726.4395,W,5.57,282.08,050919,,,A*7F
$GPGGA,142212.500,4308.4712,N,07726.4398,W,1,05,1.35,164.7,M,-34.4,M,,*58
$GPRMC,142212.750,A,4308.4712,N,07726.4401,W,4.89,281.76,050919,,,A*79
$GPGGA,142213.000,4308.4712,N,07726.4404,W,1,05,1.35,164.8,M,-34.4,M,,*51
$GPRMC,142213.250,A,4308.4711,N,07726.4407,W,4.42,280.54,050919,,,A*7E
$GPGGA,142213.500,4308.4711,N,07726.4409,W,1,05,1.34,164.9,M,-34.4,M,,*5A
$GPRMC,142213.750,A,4308.4710,N,07726.4410,W,3.71,280.35,050919,,,A*7C
$GPGGA,142214.000,4308.4708,N,07726.4410,W,1,05,1.35,165.1,M,-34.4,M,,*50
$GPRMC,142214.250,A,4308.4707,N,07726.4409,W,3.00,276.67,050919,,,A*78
$GPGGA,142214.500,4308.4706,N,07726.4408,W,1,05,1.35,165.2,M,-34.4,M,,*51
$GPRMC,142214.750,A,4308.4705,N,07726.4408,W,2.38,276.67,050919,,,A*74
$GPGGA,142215.000,4308.4704,N,07726.4406,W,1,05,1.35,165.3,M,-34.4,M,,*58
$GPRMC,142215.250,A,4308.4703,N,07726.4404,W,1.26,276.67,050919,,,A*76
$GPGGA,142215.500,4308.4701,N,07726.4402,W,1,05,1.35,165.5,M,-34.4,M,,*5A
$GPRMC,142215.750,A,4308.4700,N,07726.4402,W,0.70,276.67,050919,,,A*74
$GPGGA,142216.000,4308.4699,N,07726.4401,W,1,05,1.35,165.6,M,-34.4,M,,*5C
$GPRMC,142216.250,A,4308.4699,N,07726.4401,W,0.49,276.67,050919,,,A*7A
$GPGGA,142216.500,4308.4698,N,07726.4400,W,1,05,1.35,165.5,M,-34.4,M,,*5A
$GPRMC,142216.750,A,4308.4698,N,07726.4400,W,0.35,276.67,050919,,,A*74
$GPGGA,142217.000,4308.4698,N,07726.4401,W,1,05,1.35,165.4,M,-34.4,M,,*5E
$GPRMC,142217.250,A,4308.4697,N,07726.4402,W,0.35,276.67,050919,,,A*7D
$GPGGA,142217.500,4308.4696,N,07726.4403,W,1,05,1.35,165.3,M,-34.4,M,,*50
$GPRMC,142217.750,A,4308.4696,N,07726.4404,W,0.37,276.67,050919,,,A*7D
$GPGGA,142218.000,4308.4695,N,07726.4405,W,1,05,1.35,165.3,M,-34.4,M,,*5F
$GPRMC,142218.250,A,4308.4695,N,07726.4406,W,0.42,276.67,050919,,,A*74
$GPGGA,142218.500,4308.4695,N,07726.4406,W,1,05,1.35,165.3,M,-34.4,M,,*59
$GPRMC,142218.750,A,4308.4695,N,07726.4406,W,0.40,276.67,050919,,,A*73
$GPGGA,142219.000,4308.4694,N,07726.4407,W,1,05,1.35,165.3,M,-34.4,M,,*5D
$GPRMC,142219.250,A,4308.4694,N,07726.4407,W,0.34,276.67,050919,,,A*74
$GPGGA,142219.500,4308.4694,N,07726.4407,W,1,05,1.35,165.4,M,-34.4,M,,*5F
$GPRMC,142219.750,A,4308.4694,N,07726.4407,W,0.21,276.67,050919,,,A*75
$GPGGA,142220.000,4308.4694,N,07726.4407,W,1,05,1.35,165.4,M,-34.4,M,,*50
$GPRMC,142220.250,A,4308.4694,N,07726.4408,W,0.17,276.67,050919,,,A*70
$GPGGA,142220.500,4308.4694,N,07726.4408,W,1,05,1.34,165.4,M,-34.4,M,,*5B
$GPRMC,142220.750,A,4308.4694,N,07726.4408,W,0.13,276.67,050919,,,A*71
$GPGGA,142221.000,4308.4694,N,07726.4408,W,1,05,1.35,165.4,M,-34.4,M,,*5E
$GPRMC,142221.250,A,4308.4694,N,07726.4408,W,0.12,276.67,050919,,,A*74
$GPGGA,142221.500,4308.4694,N,07726.4408,W,1,05,1.35,165.4,M,-34.4,M,,*5B
$GPRMC,142221.750,A,4308.4693,N,07726.4408,W,0.13,276.67,050919,,,A*77
$GPGGA,142222.000,4308.4693,N,07726.4408,W,1,05,1.35,165.4,M,-34.4,M,,*5A
$GPRMC,142222.250,A,4308.4693,N,07726.4408,W,0.15,276.67,050919,,,A*77
$GPGGA,142222.500,4308.4693,N,07726.4408,W,1,05,1.35,165.5,M,-34.4,M,,*5E
$GPRMC,142222.750,A,4308.4693,N,07726.4408,W,0.11,276.67,050919,,,A*76
$GPGGA,142223.000,4308.4693,N,07726.4408,W,1,05,1.35,165.5,M,-34.4,M,,*5A
$GPRMC,142223.250,A,4308.4693,N,07726.4408,W,0.08,276.67,050919,,,A*7A
$GPGGA,142223.500,4308.4693,N,07726.4409,W,1,05,1.34,165.5,M,-34.4,M,,*5F
$GPRMC,142223.750,A,4308.4693,N,07726.4409,W,0.00,276.67,050919,,,A*76
$GPGGA,142224.000,4308.4693,N,07726.4409,W,1,05,1.35,165.5,M,-34.4,M,,*5C
$GPRMC,142224.250,A,4308.4693,N,07726.4409,W,0.00,276.67,050919,,,A*74
$GPGGA,142224.500,4308.4693,N,07726.4409,W,1,05,1.35,165.5,M,-34.4,M,,*59
$GPRMC,142224.750,A,4308.4693,N,07726.4409,W,0.00,276.67,050919,,,A*71
$GPGGA,142225.000,4308.4693,N,07726.4409,W,1,05,1.35,165.5,M,-34.4,M,,*5D
$GPRMC,142225.250,A,4308.4693,N,07726.4409,W,0.00,276.67,050919,,,A*75
$GPGGA,142225.500,4308.4693,N,07726.4409,W,1,05,1.35,165.5,M,-34.4,M,,*58
$GPRMC,142225.750,A,4308.4693,N,07726.4409,W,0.00,276.67,050919,,,A*70
$GPGGA,142226.000,4308.4693,N,07726.4409,W,1,05,1.35,165.5,M,-34.4,M,,*5E
$GPRMC,142226.250,A,4308.4693,N,07726.4409,W,0.00,276.67,050919,,,A*76
$GPGGA,142226.500,4308.4693,N,07726.4409,W,1,05,1.35,165.5,M,-34.4,M,,*5B
$GPRMC,142226.750,A,4308.4693,N,07726.4409,W,0.00,276.67,050919,,,A*73
$GPGGA,142227.000,4308.4693,N,07726.4409,W,1,05,1.35,165.5,M,-34.4,M,,*5F
$GPRMC,142227.250,A,4308.4693,N,07726.4409,W,0.00,276.67,050919,,,A*77
$GPGGA,142227.500,4308.4693,N,07726.4409,W,1,05,1.35,165.5,M,-34.4,M,,*5A
$GPRMC,142227.750,A,4308.4693,N,07726.4409,W,0.00,276.67,050919,,,A*72
$GPGGA,142228.000,4308.4693,N,07726.4409,W,1,05,1.35,165.5,M,-34.4,M,,*50
$GPRMC,142228.250,A,4308.4693,N,07726.4409,W,0.00,276.67,050919,,,A*78
$GPGGA,142228.500,4308.4693,N,07726.4409,W,1,05,1.35,165.5,M,-34.4,M,,*55
$GPRMC,142228.750,A,4308.4693,N,07726.4409,W,0.00,276.67,050919,,,A*7D
$GPGGA,142229.000,4308.4693,N,07726.4409,W,1,05,1.35,165.5,M,-34.4,M,,*51
$GPRMC,142229.250,A,4308.4693,N,07726.4409,W,0.02,276.67,050919,,,A*7B
$GPGGA,142229.500,4308.4693,N,07726.4409,W,1,05,1.34,165.5,M,-34.4,M,,*55
$GPRMC,142229.750,A,4308.4693,N,07726.4408,W,0.03,276.67,050919,,,A*7E
$GPGGA,142230.000,4308.4693,N,07726.4408,W,1,05,1.35,165.5,M,-34.4,M,,*58
$GPRMC,142230.250,A,4308.4693,N,07726.4408,W,0.06,276.67,050919,,,A*76
$GPGGA,142230.500,4308.4693,N,07726.4408,W,1,06,1.28,165.5,M,-34.4,M,,*52
$GPRMC,142230.750,A,4308.4693,N,07726.4408,W,0.08,276.67,050919,,,A*7D
$GPGGA,142231.000,4308.4693,N,07726.4408,W,1,06,1.28,165.5,M,-34.4,M,,*56
$GPRMC,142231.250,A,4308.4693,N,07726.4408,W,0.15,276.67,050919,,,A*75
$GPGGA,142231.500,4308.4693,N,07726.4408,W,1,06,1.28,165.5,M,-34.4,M,,*53
$GPRMC,142231.750,A,4308.4693,N,07726.4408,W,0.00,276.67,050919,,,A*74
$GPGGA,142232.000,4308.4693,N,07726.4408,W,1,06,1.28,165.5,M,-34.4,M,,*55
$GPRMC,142232.250,A,4308.4693,N,07726.4408,W,0.00,276.67,050919,,,A*72
$GPGGA,142232.500,4308.4693,N,07726.4408,W,1,06,1.28,165.5,M,-34.4,M,,*50
$GPRMC,142232.750,A,4308.4693,N,07726.4408,W,0.07,276.67,050919,,,A*70
$GPGGA,142233.000,4308.4693,N,07726.4408,W,1,06,1.28,165.5,M,-34.4,M,,*54
$GPRMC,142233.250,A,4308.4693,N,07726.4408,W,0.11,276.67,050919,,,A*73
$GPGGA,142233.500,4308.4693,N,07726.4407,W,1,06,1.28,165.5,M,-34.4,M,,*5E
$GPRMC,142233.750,A,4308.4693,N,07726.4407,W,0.12,276.67,050919,,,A*7A
$GPGGA,142234.000,4308.4693,N,07726.4407,W,1,06,1.28,165.5,M,-34.4,M,,*5C
$GPRMC,142234.250,A,4308.4693,N,07726.4407,W,0.15,276.67,050919,,,A*7F
$GPGGA,142234.500,4308.4693,N,07726.4407,W,1,06,1.28,165.4,M,-34.4,M,,*58
$GPRMC,142234.750,A,4308.4693,N,07726.4407,W,0.17,276.67,050919,,,A*78
$GPGGA,142235.000,4308.4693,N,07726.4407,W,1,06,1.28,165.4,M,-34.4,M,,*5C
$GPRMC,142235.250,A,4308.4693,N,07726.4406,W,0.20,276.67,050919,,,A*79
$GPGGA,142235.500,4308.4693,N,07726.4406,W,1,06,1.28,165.4,M,-34.4,M,,*58
$GPRMC,142235.750,A,4308.4693,N,07726.4406,W,0.15,276.67,050919,,,A*7A
$GPGGA,142236.000,4308.4693,N,07726.4406,W,1,06,1.28,165.4,M,-34.4,M,,*5E
$GPRMC,142236.250,A,4308.4693,N,07726.4406,W,0.07,276.67,050919,,,A*7F
$GPGGA,142236.500,4308.4693,N,07726.4406,W,1,06,1.28,165.4,M,-34.4,M,,*5B
$GPRMC,142236.750,A,4308.4693,N,07726.4406,W,0.02,276.67,050919,,,A*7F
$GPGGA,142237.000,4308.4693,N,07726.4406,W,1,06,1.28,165.4,M,-34.4,M,,*5F
$GPRMC,142237.250,A,4308.4693,N,07726.4406,W,0.05,276.67,050919,,,A*7C
$GPGGA,142237.500,4308.4693,N,07726.4406,W,1,06,1.28,165.4,M,-34.4,M,,*5A
$GPRMC,142237.750,A,4308.4693,N,07726.4406,W,0.08,276.67,050919,,,A*74
$GPGGA,142238.000,4308.4693,N,07726.4406,W,1,06,1.28,165.4,M,-34.4,M,,*50
$GPRMC,142238.250,A,4308.4693,N,07726.4406,W,0.07,276.67,050919,,,A*71
$GPGGA,142238.500,4308.4693,N,07726.4406,W,1,06,1.28,165.4,M,-34.4,M,,*55
$GPRMC,142238.750,A,4308.4693,N,07726.4406,W,0.01,276.67,050919,,,A*72
$GPGGA,142239.000,4308.4693,N,07726.4406,W,1,06,1.28,165.4,M,-34.4,M,,*51
$GPRMC,142239.250,A,4308.4693,N,07726.4406,W,0.01,276.67,050919,,,A*76
$GPGGA,142239.500,4308.4693,N,07726.4406,W,1,06,1.28,165.4,M,-34.4,M,,*54
$GPRMC,142239.750,A,4308.4693,N,07726.4406,W,0.03,276.67,050919,,,A*71
$GPGGA,142240.000,4308.4693,N,07726.4405,W,1,06,1.28,165.4,M,-34.4,M,,*5C
$GPRMC,142240.250,A,4308.4693,N,07726.4405,W,0.04,276.67,050919,,,A*7E
$GPGGA,142240.500,4308.4693,N,07726.4405,W,1,06,1.28,165.5,M,-34.4,M,,*58
$GPRMC,142240.750,A,4308.4693,N,07726.4405,W,0.10,276.67,050919,,,A*7E
$GPGGA,142241.000,4308.4693,N,07726.4405,W,1,06,1.28,165.5,M,-34.4,M,,*5C
$GPRMC,142241.250,A,4308.4693,N,07726.4405,W,0.00,276.67,050919,,,A*7B
$GPGGA,142241.500,4308.4693,N,07726.4405,W,1,06,1.28,165.5,M,-34.4,M,,*59
$GPRMC,142241.750,A,4308.4693,N,07726.4405,W,0.00,276.67,050919,,,A*7E
$GPGGA,142242.000,4308.4693,N,07726.4405,W,1,06,1.28,165.5,M,-34.4,M,,*5F
$GPRMC,142242.250,A,4308.4693,N,07726.4405,W,0.11,276.67,050919,,,A*78
$GPGGA,142242.500,4308.4693,N,07726.4405,W,1,06,1.28,165.5,M,-34.4,M,,*5A
$GPRMC,142242.750,A,4308.4694,N,07726.4405,W,0.17,276.67,050919,,,A*7C
$GPGGA,142243.000,4308.4694,N,07726.4405,W,1,06,1.29,165.5,M,-34.4,M,,*58
$GPRMC,142243.250,A,4308.4694,N,07726.4405,W,0.18,276.67,050919,,,A*77
$GPGGA,142243.500,4308.4694,N,07726.4405,W,1,06,1.28,165.5,M,-34.4,M,,*5C
$GPRMC,142243.750,A,4308.4694,N,07726.4405,W,0.17,276.67,050919,,,A*7D
$GPGGA,142244.000,4308.4694,N,07726.4405,W,1,06,1.28,165.5,M,-34.4,M,,*5E
$GPRMC,142244.250,A,4308.4694,N,07726.4405,W,0.16,276.67,050919,,,A*7E
$GPGGA,142244.500,4308.4694,N,07726.4405,W,1,06,1.28,165.5,M,-34.4,M,,*5B
$GPRMC,142244.750,A,4308.4695,N,07726.4405,W,0.15,276.67,050919,,,A*79
$GPGGA,142245.000,4308.4695,N,07726.4405,W,1,06,1.28,165.5,M,-34.4,M,,*5E
$GPRMC,142245.250,A,4308.4695,N,07726.4405,W,0.16,276.67,050919,,,A*7E
$GPGGA,142245.500,4308.4695,N,07726.4405,W,1,06,1.28,165.5,M,-34.4,M,,*5B
$GPRMC,142245.750,A,4308.4695,N,07726.4404,W,0.20,34.92,050919,,,A*41
$GPGGA,142246.000,4308.4695,N,07726.4404,W,1,06,1.28,165.5,M,-34.4,M,,*5C
$GPRMC,142246.250,A,4308.4695,N,07726.4404,W,0.24,14.55,050919,,,A*4A
$GPGGA,142246.500,4308.4695,N,07726.4404,W,1,06,1.28,165.5,M,-34.4,M,,*59
$GPRMC,142246.750,A,4308.4696,N,07726.4404,W,0.30,355.23,050919,,,A*7E
$GPGGA,142247.000,4308.4696,N,07726.4404,W,1,06,1.28,165.5,M,-34.4,M,,*5E
$GPRMC,142247.250,A,4308.4696,N,07726.4404,W,0.36,341.15,050919,,,A*7C
$GPGGA,142247.500,4308.4696,N,07726.4404,W,1,06,1.28,165.5,M,-34.4,M,,*5B
$GPRMC,142247.750,A,4308.4697,N,07726.4404,W,0.40,331.25,050919,,,A*7D
$GPGGA,142248.000,4308.4697,N,07726.4404,W,1,06,1.28,165.5,M,-34.4,M,,*50
$GPRMC,142248.250,A,4308.4697,N,07726.4405,W,0.37,324.34,050919,,,A*72
$GPGGA,142248.500,4308.4697,N,07726.4405,W,1,06,1.28,165.5,M,-34.4,M,,*54
$GPRMC,142248.750,A,4308.4698,N,07726.4405,W,0.40,314.87,050919,,,A*73
$GPGGA,142249.000,4308.4698,N,07726.4405,W,1,06,1.28,165.5,M,-34.4,M,,*5F
$GPRMC,142249.250,A,4308.4698,N,07726.4406,W,0.39,314.55,050919,,,A*75
$GPGGA,142249.500,4308.4698,N,07726.4406,W,1,06,1.28,165.5,M,-34.4,M,,*59
$GPRMC,142249.750,A,4308.4698,N,07726.4406,W,0.33,314.91,050919,,,A*72
$GPGGA,142250.000,4308.4698,N,07726.4406,W,1,06,1.28,165.5,M,-34.4,M,,*54
$GPRMC,142250.250,A,4308.4699,N,07726.4406,W,0.24,315.69,050919,,,A*7E
$GPGGA,142250.500,4308.4699,N,07726.4406,W,1,06,1.28,165.5,M,-34.4,M,,*50
$GPRMC,142250.750,A,4308.4699,N,07726.4407,W,0.15,317.93,050919,,,A*7F
$GPGGA,142251.000,4308.4699,N,07726.4407,W,1,06,1.28,165.5,M,-34.4,M,,*55
$GPRMC,142251.250,A,4308.4699,N,07726.4406,W,0.12,320.49,050919,,,A*7E
$GPGGA,142251.500,4308.4699,N,07726.4406,W,1,06,1.28,165.5,M,-34.4,M,,*51
$GPRMC,142251.750,A,4308.4699,N,07726.4406,W,0.13,323.22,050919,,,A*74
$GPGGA,142252.000,4308.4699,N,07726.4406,W,1,06,1.28,165.5,M,-34.4,M,,*57
$GPRMC,142252.250,A,4308.4699,N,07726.4406,W,0.12,326.57,050919,,,A*74
$GPGGA,142252.500,4308.4699,N,07726.4406,W,1,06,1.28,165.5,M,-34.4,M,,*52
$GPRMC,142252.750,A,4308.4699,N,07726.4406,W,0.12,330.53,050919,,,A*72
$GPGGA,142253.000,4308.4699,N,07726.4406,W,1,06,1.28,165.5,M,-34.4,M,,*56
$GPRMC,142253.250,A,4308.4699,N,07726.4406,W,0.19,341.23,050919,,,A*7C
$GPGGA,142253.500,4308.4699,N,07726.4406,W,1,06,1.28,165.5,M,-34.4,M,,*53
$GPRMC,142253.750,A,4308.4700,N,07726.4406,W,1.49,313.58,050919,,,A*77
$GPGGA,142254.000,4308.4700,N,07726.4408,W,1,06,1.28,165.6,M,-34.4,M,,*5D
$GPRMC,142254.250,A,4308.4700,N,07726.4409,W,2.28,313.58,050919,,,A*7E
$GPGGA,142254.500,4308.4701,N,07726.4413,W,1,06,1.28,165.5,M,-34.4,M,,*50
$GPRMC,142254.750,A,4308.4701,N,07726.4417,W,3.75,281.83,050919,,,A*70
$GPGGA,142255.000,4308.4702,N,07726.4422,W,1,06,1.28,165.4,M,-34.4,M,,*54
$GPRMC,142255.250,A,4308.4704,N,07726.4427,W,4.94,282.77,050919,,,A*72
$GPGGA,142255.500,4308.4705,N,07726.4434,W,1,06,1.28,165.3,M,-34.4,M,,*56
$GPRMC,142255.750,A,4308.4706,N,07726.4441,W,6.53,282.75,050919,,,A*7E
$GPGGA,142256.000,4308.4707,N,07726.4448,W,1,06,1.28,165.2,M,-34.4,M,,*58
$GPRMC,142256.250,A,4308.4708,N,07726.4456,W,7.94,282.85,050919,,,A*75
$GPGGA,142256.500,4308.4709,N,07726.4466,W,1,06,1.28,165.1,M,-34.4,M,,*5C
$GPRMC,142256.750,A,4308.4710,N,07726.4476,W,9.81,280.64,050919,,,A*7C
$GPGGA,142257.000,4308.4710,N,07726.4487,W,1,06,1.28,165.0,M,-34.4,M,,*5E
$GPRMC,142257.250,A,4308.4711,N,07726.4499,W,11.04,278.32,050919,,,A*48
$GPGGA,142257.500,4308.4712,N,07726.4511,W,1,06,1.28,165.0,M,-34.4,M,,*57
$GPRMC,142257.750,A,4308.4713,N,07726.4524,W,12.61,278.16,050919,,,A*4E
$GPGGA,142258.000,4308.4715,N,07726.4537,W,1,06,1.28,165.0,M,-34.4,M,,*5E
$GPRMC,142258.250,A,4308.4716,N,07726.4551,W,13.96,277.06,050919,,,A*44
$GPGGA,142258.500,4308.4717,N,07726.4566,W,1,06,1.28,165.0,M,-34.4,M,,*5D
$GPRMC,142258.750,A,4308.4718,N,07726.4581,W,15.61,276.10,050919,,,A*4A
$GPGGA,142259.000,4308.4720,N,07726.4597,W,1,06,1.29,165.0,M,-34.4,M,,*52
$GPRMC,142259.250,A,4308.4722,N,07726.4614,W,17.34,276.33,050919,,,A*4B
$GPGGA,142259.500,4308.4724,N,07726.4632,W,1,06,1.28,165.1,M,-34.4,M,,*5F
$GPRMC,142259.750,A,4308.4726,N,07726.4651,W,19.28,277.11,050919,,,A*49
$GPGGA,142300.000,4308.4728,N,07726.4670,W,1,06,1.28,165.2,M,-34.4,M,,*5E
$GPRMC,142300.250,A,4308.4729,N,07726.4692,W,20.99,276.66,050919,,,A*40
$GPGGA,142300.500,4308.4731,N,07726.4715,W,1,07,1.08,165.2,M,-34.4,M,,*52
$GPRMC,142300.750,A,4308.4732,N,07726.4739,W,22.79,277.03,050919,,,A*41
$GPGGA,142301.000,4308.4734,N,07726.4764,W,1,07,1.08,165.2,M,-34.4,M,,*55
$GPRMC,142301.250,A,4308.4736,N,07726.4790,W,24.29,277.42,050919,,,A*44
$GPGGA,142301.500,4308.4738,N,07726.4818,W,1,07,1.09,165.1,M,-34.4,M,,*5A
$GPRMC,142301.750,A,4308.4740,N,07726.4846,W,27.11,277.36,050919,,,A*4F
$GPGGA,142302.000,4308.4742,N,07726.4874,W,1,07,1.08,165.1,M,-34.4,M,,*5A
$GPRMC,142302.250,A,4308.4744,N,07726.4903,W,29.01,276.88,050919,,,A*46
$GPGGA,142302.500,4308.4746,N,07726.4932,W,1,07,1.08,165.2,M,-34.4,M,,*5B
$GPRMC,142302.750,A,4308.4747,N,07726.4961,W,29.96,275.01,050919,,,A*48
$GPGGA,142303.000,4308.4749,N,07726.4991,W,1,07,1.08,165.1,M,-34.4,M,,*5A
$GPRMC,142303.250,A,4308.4752,N,07726.5021,W,30.69,276.59,050919,,,A*42
$GPGGA,142303.500,4308.4754,N,07726.5051,W,1,07,1.08,165.2,M,-34.4,M,,*54
$GPRMC,142303.750,A,4308.4756,N,07726.5082,W,31.52,276.01,050919,,,A*4E
$GPGGA,142304.000,4308.4758,N,07726.5113,W,1,07,1.08,165.2,M,-34.4,M,,*5D
$GPRMC,142304.250,A,4308.4760,N,07726.5144,W,31.86,275.52,050919,,,A*4E
$GPGGA,142304.500,4308.4762,N,07726.5175,W,1,07,1.08,165.2,M,-34.4,M,,*51
$GPRMC,142304.750,A,4308.4763,N,07726.5207,W,32.90,273.98,050919,,,A*48
$GPGGA,142305.000,4308.4764,N,07726.5240,W,1,07,1.08,165.1,M,-34.4,M,,*55
$GPRMC,142305.250,A,4308.4766,N,07726.5273,W,34.00,273.35,050919,,,A*42
$GPGGA,142305.500,4308.4768,N,07726.5306,W,1,07,1.08,164.8,M,-34.4,M,,*57
$GPRMC,142305.750,A,4308.4769,N,07726.5339,W,34.77,273.06,050919,,,A*47
$GPGGA,142306.000,4308.4770,N,07726.5373,W,1,07,1.08,164.4,M,-34.4,M,,*56
$GPRMC,142306.250,A,4308.4771,N,07726.5407,W,35.23,272.23,050919,,,A*44
$GPGGA,142306.500,4308.4771,N,07726.5442,W,1,07,1.08,164.1,M,-34.4,M,,*52
$GPRMC,142306.750,A,4308.4772,N,07726.5477,W,36.54,271.27,050919,,,A*41
$GPGGA,142307.000,4308.4772,N,07726.5513,W,1,07,1.08,164.0,M,-34.4,M,,*51
$GPRMC,142307.250,A,4308.4772,N,07726.5549,W,37.56,270.96,050919,,,A*41
$GPGGA,142307.500,4308.4772,N,07726.5586,W,1,07,1.08,163.9,M,-34.4,M,,*56
$GPRMC,142307.750,A,4308.4772,N,07726.5623,W,38.54,270.44,050919,,,A*49
$GPGGA,142308.000,4308.4772,N,07726.5661,W,1,07,1.08,163.8,M,-34.4,M,,*57
$GPRMC,142308.250,A,4308.4772,N,07726.5699,W,39.24,270.39,050919,,,A*4E
$GPGGA,142308.500,4308.4773,N,07726.5738,W,1,07,1.08,163.7,M,-34.4,M,,*51
$GPRMC,142308.750,A,4308.4774,N,07726.5777,W,39.98,271.49,050919,,,A*4D
$GPGGA,142309.000,4308.4775,N,07726.5816,W,1,07,1.09,163.5,M,-34.4,M,,*53
$GPRMC,142309.250,A,4308.4776,N,07726.5855,W,40.46,271.80,050919,,,A*4C
$GPGGA,142309.500,4308.4777,N,07726.5894,W,1,07,1.08,163.3,M,-34.4,M,,*59
$GPRMC,142309.750,A,4308.4779,N,07726.5934,W,40.82,272.44,050919,,,A*43
$GPGGA,142310.000,4308.4780,N,07726.5974,W,1,07,1.08,163.3,M,-34.4,M,,*53
$GPRMC,142310.250,A,4308.4781,N,07726.6014,W,41.63,272.77,050919,,,A*4F
$GPGGA,142310.500,4308.4782,N,07726.6054,W,1,07,1.08,163.2,M,-34.4,M,,*5D
$GPRMC,142310.750,A,4308.4783,N,07726.6095,W,42.30,272.52,050919,,,A*43
$GPGGA,142311.000,4308.4784,N,07726.6136,W,1,07,1.08,163.2,M,-34.4,M,,*5A
$GPRMC,142311.250,A,4308.4785,N,07726.6177,W,42.56,272.10,050919,,,A*4A
$GPGGA,142311.500,4308.4785,N,07726.6218,W,1,07,1.08,163.0,M,-34.4,M,,*53
$GPRMC,142311.750,A,4308.4786,N,07726.6259,W,42.59,271.42,050919,,,A*48
$GPGGA,142312.000,4308.4785,N,07726.6300,W,1,06,1.59,163.0,M,-34.4,M,,*58
$GPRMC,142312.250,A,4308.4785,N,07726.6342,W,42.90,270.12,050919,,,A*47
$GPGGA,142312.500,4308.4785,N,07726.6383,W,1,06,1.59,162.9,M,-34.4,M,,*5E
$GPRMC,142312.750,A,4308.4784,N,07726.6425,W,43.16,269.15,050919,,,A*45
$GPGGA,142313.000,4308.4784,N,07726.6466,W,1,06,1.59,162.8,M,-34.4,M,,*56
$GPRMC,142313.250,A,4308.4783,N,07726.6508,W,43.21,268.70,050919,,,A*4E
$GPGGA,142313.500,4308.4783,N,07726.6550,W,1,07,1.08,162.7,M,-34.4,M,,*5A
$GPRMC,142313.750,A,4308.4782,N,07726.6591,W,43.18,268.02,050919,,,A*45
$GPGGA,142314.000,4308.4782,N,07726.6632,W,1,07,1.08,162.5,M,-34.4,M,,*5C
$GPRMC,142314.250,A,4308.4781,N,07726.6673,W,43.18,267.34,050919,,,A*41
$GPGGA,142314.500,4308.4780,N,07726.6714,W,1,07,1.08,162.4,M,-34.4,M,,*5F
$GPRMC,142314.750,A,4308.4779,N,07726.6756,W,43.41,266.98,050919,,,A*4E
$GPGGA,142315.000,4308.4777,N,07726.6797,W,1,07,1.08,162.4,M,-34.4,M,,*58
$GPRMC,142315.250,A,4308.4775,N,07726.6838,W,43.46,266.43,050919,,,A*40
$GPGGA,142315.500,4308.4773,N,07726.6880,W,1,07,1.08,162.4,M,-34.4,M,,*50
$GPRMC,142315.750,A,4308.4771,N,07726.6921,W,43.56,265.91,050919,,,A*45
$GPGGA,142316.000,4308.4768,N,07726.6963,W,1,07,1.08,162.4,M,-34.4,M,,*50
$GPRMC,142316.250,A,4308.4766,N,07726.7004,W,43.62,265.85,050919,,,A*48
$GPGGA,142316.500,4308.4763,N,07726.7045,W,1,07,1.08,162.5,M,-34.4,M,,*53
$GPRMC,142316.750,A,4308.4761,N,07726.7087,W,43.59,265.50,050919,,,A*41
$GPGGA,142317.000,4308.4758,N,07726.7128,W,1,07,1.08,162.5,M,-34.4,M,,*55
$GPRMC,142317.250,A,4308.4756,N,07726.7169,W,43.35,265.82,050919,,,A*45
$GPGGA,142317.500,4308.4754,N,07726.7210,W,1,07,1.08,162.6,M,-34.4,M,,*57
$GPRMC,142317.750,A,4308.4752,N,07726.7252,W,43.57,266.48,050919,,,A*4E
$GPGGA,142318.000,4308.4750,N,07726.7293,W,1,07,1.08,162.7,M,-34.4,M,,*53
$GPRMC,142318.250,A,4308.4748,N,07726.7335,W,44.05,266.57,050919,,,A*41
$GPGGA,142318.500,4308.4746,N,07726.7377,W,1,07,1.08,162.9,M,-34.4,M,,*54
$GPRMC,142318.750,A,4308.4744,N,07726.7419,W,44.25,266.40,050919,,,A*45
$GPGGA,142319.000,4308.4741,N,07726.7461,W,1,07,1.08,163.1,M,-34.4,M,,*5E
$GPRMC,142319.250,A,4308.4739,N,07726.7502,W,44.19,266.27,050919,,,A*4E
$GPGGA,142319.500,4308.4737,N,07726.7544,W,1,07,1.08,163.4,M,-34.4,M,,*59
$GPRMC,142319.750,A,4308.4734,N,07726.7586,W,44.09,266.18,050919,,,A*47
$GPGGA,142320.000,4308.4732,N,07726.7628,W,1,07,1.08,163.6,M,-34.4,M,,*58
$GPRMC,142320.250,A,4308.4730,N,07726.7670,W,43.57,266.06,050919,,,A*45
$GPGGA,142320.500,4308.4728,N,07726.7712,W,1,07,1.08,163.6,M,-34.4,M,,*5E
$GPRMC,142320.750,A,4308.4725,N,07726.7754,W,43.24,266.03,050919,,,A*42
$GPGGA,142321.000,4308.4723,N,07726.7796,W,1,07,1.08,163.4,M,-34.4,M,,*5F
$GPRMC,142321.250,A,4308.4720,N,07726.7837,W,42.81,265.68,050919,,,A*49
$GPGGA,142321.500,4308.4717,N,07726.7879,W,1,07,1.08,163.1,M,-34.4,M,,*56
$GPRMC,142321.750,A,4308.4714,N,07726.7919,W,42.72,265.06,050919,,,A*42
$GPGGA,142322.000,4308.4712,N,07726.7960,W,1,07,1.08,162.6,M,-34.4,M,,*5A
$GPRMC,142322.250,A,4308.4710,N,07726.8000,W,42.31,264.98,050919,,,A*4F
$GPGGA,142322.500,4308.4708,N,07726.8040,W,1,07,1.08,161.6,M,-34.4,M,,*53
$GPRMC,142322.750,A,4308.4705,N,07726.8081,W,42.72,265.00,050919,,,A*40
$GPGGA,142323.000,4308.4703,N,07726.8121,W,1,07,1.08,160.8,M,-34.4,M,,*55
$GPRMC,142323.250,A,4308.4701,N,07726.8161,W,42.79,264.75,050919,,,A*47
$GPGGA,142323.500,4308.4698,N,07726.8202,W,1,07,1.08,160.2,M,-34.4,M,,*5B
$GPRMC,142323.750,A,4308.4695,N,07726.8242,W,43.14,264.54,050919,,,A*45
$GPGGA,142324.000,4308.4692,N,07726.8283,W,1,07,1.08,159.6,M,-34.4,M,,*54
$GPRMC,142324.250,A,4308.4689,N,07726.8324,W,43.70,264.28,050919,,,A*42
$GPGGA,142324.500,4308.4686,N,07726.8365,W,1,07,1.08,159.1,M,-34.4,M,,*5A
$GPRMC,142324.750,A,4308.4683,N,07726.8407,W,44.06,264.11,050919,,,A*47
$GPGGA,142325.000,4308.4680,N,07726.8449,W,1,07,1.08,158.9,M,-34.4,M,,*58
$GPRMC,142325.250,A,4308.4678,N,07726.8492,W,44.28,264.90,050919,,,A*4E
$GPGGA,142325.500,4308.4676,N,07726.8535,W,1,07,1.08,158.8,M,-34.4,M,,*5F
$GPRMC,142325.750,A,4308.4673,N,07726.8578,W,44.49,265.10,050919,,,A*4B
$GPGGA,142326.000,4308.4670,N,07726.8621,W,1,07,1.08,158.5,M,-34.4,M,,*54
$GPRMC,142326.250,A,4308.4667,N,07726.8664,W,44.70,264.77,050919,,,A*4C
$GPGGA,142326.500,4308.4664,N,07726.8707,W,1,07,1.08,158.0,M,-34.4,M,,*54
$GPRMC,142326.750,A,4308.4661,N,07726.8749,W,44.87,264.60,050919,,,A*4F
$GPGGA,142327.000,4308.4658,N,07726.8792,W,1,07,1.08,157.6,M,-34.4,M,,*5A
$GPRMC,142327.250,A,4308.4655,N,07726.8834,W,44.81,264.89,050919,,,A*48
$GPGGA,142327.500,4308.4653,N,07726.8876,W,1,07,1.08,157.1,M,-34.4,M,,*56
$GPRMC,142327.750,A,4308.4650,N,07726.8918,W,44.36,265.06,050919,,,A*4D
$GPGGA,142328.000,4308.4647,N,07726.8960,W,1,07,1.08,156.7,M,-34.4,M,,*58
$GPRMC,142328.250,A,4308.4645,N,07726.9002,W,44.38,265.29,050919,,,A*43
$GPGGA,142328.500,4308.4642,N,07726.9044,W,1,07,1.08,156.4,M,-34.4,M,,*55
$GPRMC,142328.750,A,4308.4639,N,07726.9086,W,44.24,264.68,050919,,,A*48
$GPGGA,142329.000,4308.4636,N,07726.9127,W,1,07,1.08,156.1,M,-34.4,M,,*53
$GPRMC,142329.250,A,4308.4633,N,07726.9169,W,44.16,264.93,050919,,,A*43
$GPGGA,142329.500,4308.4631,N,07726.9210,W,1,07,1.08,155.8,M,-34.4,M,,*5C
$GPRMC,142329.750,A,4308.4628,N,07726.9251,W,43.01,265.40,050919,,,A*4A
$GPGGA,142330.000,4308.4626,N,07726.9292,W,1,07,1.08,155.6,M,-34.4,M,,*53
$GPRMC,142330.250,A,4308.4623,N,07726.9332,W,42.77,265.21,050919,,,A*4F
$GPGGA,142330.500,4308.4620,N,07726.9372,W,1,07,1.08,155.4,M,-34.4,M,,*5D
$GPRMC,142330.750,A,4308.4617,N,07726.9411,W,41.58,264.85,050919,,,A*4A
$GPGGA,142331.000,4308.4615,N,07726.9451,W,1,07,1.08,155.2,M,-34.4,M,,*5F
$GPRMC,142331.250,A,4308.4612,N,07726.9489,W,40.65,264.59,050919,,,A*44
$GPGGA,142331.500,4308.4609,N,07726.9527,W,1,07,1.08,154.9,M,-34.4,M,,*5D
$GPRMC,142331.750,A,4308.4606,N,07726.9565,W,39.96,264.16,050919,,,A*4E
$GPGGA,142332.000,4308.4603,N,07726.9602,W,1,07,1.08,154.4,M,-34.4,M,,*58
$GPRMC,142332.250,A,4308.4600,N,07726.9640,W,39.86,264.44,050919,,,A*4C
$GPGGA,142332.500,4308.4598,N,07726.9678,W,1,07,1.08,154.1,M,-34.4,M,,*54
$GPRMC,142332.750,A,4308.4596,N,07726.9715,W,39.60,264.96,050919,,,A*43
$GPGGA,142333.000,4308.4594,N,07726.9753,W,1,07,1.08,153.8,M,-34.4,M,,*5A
$GPRMC,142333.250,A,4308.4591,N,07726.9790,W,39.52,265.05,050919,,,A*47
$GPGGA,142333.500,4308.4589,N,07726.9828,W,1,07,1.08,153.5,M,-34.4,M,,*5D
$GPRMC,142333.750,A,4308.4587,N,07726.9866,W,39.63,265.28,050919,,,A*4E
$GPGGA,142334.000,4308.4585,N,07726.9903,W,1,07,1.08,153.2,M,-34.4,M,,*5C
$GPRMC,142334.250,A,4308.4583,N,07726.9941,W,39.67,265.81,050919,,,A*4B
$GPGGA,142334.500,4308.4581,N,07726.9979,W,1,07,1.08,153.1,M,-34.4,M,,*53
$GPRMC,142334.750,A,4308.4579,N,07727.0016,W,39.28,265.74,050919,,,A*49
$GPGGA,142335.000,4308.4577,N,07727.0054,W,1,07,1.08,153.1,M,-34.4,M,,*50
$GPRMC,142335.250,A,4308.4575,N,07727.0091,W,39.00,265.41,050919,,,A*42
$GPGGA,142335.500,4308.4573,N,07727.0128,W,1,07,1.08,153.0,M,-34.4,M,,*5A
$GPRMC,142335.750,A,4308.4571,N,07727.0165,W,39.04,265.71,050919,,,A*4E
$GPGGA,142336.000,4308.4569,N,07727.0202,W,1,07,1.08,152.8,M,-34.4,M,,*55
$GPRMC,142336.250,A,4308.4567,N,07727.0239,W,38.82,265.99,050919,,,A*4C
$GPGGA,142336.500,4308.4565,N,07727.0276,W,1,07,1.08,152.6,M,-34.4,M,,*51
$GPRMC,142336.750,A,4308.4563,N,07727.0313,W,38.58,266.16,050919,,,A*47
$GPGGA,142337.000,4308.4562,N,07727.0349,W,1,07,1.08,152.4,M,-34.4,M,,*5D
$GPRMC,142337.250,A,4308.4560,N,07727.0385,W,38.51,266.65,050919,,,A*42
$GPGGA,142337.500,4308.4559,N,07727.0420,W,1,07,1.08,152.4,M,-34.4,M,,*58
$GPRMC,142337.750,A,4308.4558,N,07727.0456,W,37.72,267.11,050919,,,A*49
$GPGGA,142338.000,4308.4557,N,07727.0492,W,1,06,1.36,152.4,M,-34.4,M,,*59
$GPRMC,142338.250,A,4308.4556,N,07727.0527,W,37.49,267.33,050919,,,A*42
$GPGGA,142338.500,4308.4555,N,07727.0563,W,1,07,1.08,152.4,M,-34.4,M,,*5D
$GPRMC,142338.750,A,4308.4554,N,07727.0598,W,37.19,267.86,050919,,,A*4A
$GPGGA,142339.000,4308.4553,N,07727.0633,W,1,07,1.08,152.4,M,-34.4,M,,*59
$GPRMC,142339.250,A,4308.4554,N,07727.0668,W,36.86,269.05,050919,,,A*40
$GPGGA,142339.500,4308.4554,N,07727.0703,W,1,07,1.08,152.5,M,-34.4,M,,*58
$GPRMC,142339.750,A,4308.4555,N,07727.0738,W,36.55,270.61,050919,,,A*44
$GPGGA,142340.000,4308.4557,N,07727.0772,W,1,07,1.08,152.3,M,-34.4,M,,*50
$GPRMC,142340.250,A,4308.4559,N,07727.0807,W,36.41,272.68,050919,,,A*4E
$GPGGA,142340.500,4308.4561,N,07727.0841,W,1,07,1.08,152.2,M,-34.4,M,,*5E
$GPRMC,142340.750,A,4308.4563,N,07727.0876,W,36.44,273.60,050919,,,A*48
$GPGGA,142341.000,4308.4564,N,07727.0910,W,1,07,1.08,152.2,M,-34.4,M,,*5A
$GPRMC,142341.250,A,4308.4568,N,07727.0944,W,36.36,275.11,050919,,,A*42
$GPGGA,142341.500,4308.4569,N,07727.0978,W,1,07,1.08,152.0,M,-34.4,M,,*5E
$GPRMC,142341.750,A,4308.4572,N,07727.1013,W,36.34,274.97,050919,,,A*4B
$GPGGA,142342.000,4308.4574,N,07727.1047,W,1,07,1.08,152.0,M,-34.4,M,,*50
$GPRMC,142342.250,A,4308.4579,N,07727.1081,W,36.59,277.19,050919,,,A*43
$GPGGA,142342.500,4308.4583,N,07727.1115,W,1,07,1.08,151.6,M,-34.4,M,,*5E
$GPRMC,142342.750,A,4308.4587,N,07727.1149,W,36.63,278.14,050919,,,A*49
$GPGGA,142343.000,4308.4591,N,07727.1183,W,1,07,1.08,151.6,M,-34.4,M,,*56
$GPRMC,142343.250,A,4308.4594,N,07727.1217,W,36.54,277.97,050919,,,A*47
$GPGGA,142343.500,4308.4597,N,07727.1252,W,1,07,1.08,151.8,M,-34.4,M,,*54
$GPRMC,142343.750,A,4308.4601,N,07727.1286,W,36.49,278.10,050919,,,A*49
$GPGGA,142344.000,4308.4604,N,07727.1320,W,1,07,1.08,152.0,M,-34.4,M,,*50
$GPRMC,142344.250,A,4308.4608,N,07727.1354,W,36.41,278.22,050919,,,A*45
$GPGGA,142344.500,4308.4612,N,07727.1388,W,1,07,1.08,152.2,M,-34.4,M,,*52
$GPRMC,142344.750,A,4308.4617,N,07727.1421,W,36.12,278.42,050919,,,A*4B
$GPGGA,142345.000,4308.4621,N,07727.1455,W,1,07,1.08,152.4,M,-34.4,M,,*57
$GPRMC,142345.250,A,4308.4627,N,07727.1489,W,35.96,279.07,050919,,,A*41
$GPGGA,142345.500,4308.4631,N,07727.1523,W,1,07,1.08,152.6,M,-34.4,M,,*51
$GPRMC,142345.750,A,4308.4636,N,07727.1557,W,35.93,279.64,050919,,,A*46
$GPGGA,142346.000,4308.4640,N,07727.1590,W,1,07,1.08,152.8,M,-34.4,M,,*57
$GPRMC,142346.250,A,4308.4645,N,07727.1622,W,35.85,279.78,050919,,,A*4F
$GPGGA,142346.500,4308.4649,N,07727.1655,W,1,07,1.08,152.9,M,-34.4,M,,*50
$GPRMC,142346.750,A,4308.4653,N,07727.1688,W,35.50,279.36,050919,,,A*4F
$GPGGA,142347.000,4308.4656,N,07727.1721,W,1,07,1.08,153.0,M,-34.4,M,,*50
$GPRMC,142347.250,A,4308.4660,N,07727.1753,W,35.37,279.19,050919,,,A*40
$GPGGA,142347.500,4308.4663,N,07727.1786,W,1,07,1.08,153.2,M,-34.4,M,,*5C
$GPRMC,142347.750,A,4308.4666,N,07727.1818,W,35.15,278.29,050919,,,A*41
$GPGGA,142348.000,4308.4670,N,07727.1851,W,1,07,1.08,153.4,M,-34.4,M,,*57
$GPRMC,142348.250,A,4308.4673,N,07727.1884,W,35.14,278.09,050919,,,A*49
$GPGGA,142348.500,4308.4677,N,07727.1917,W,1,07,1.08,153.7,M,-34.4,M,,*55
$GPRMC,142348.750,A,4308.4680,N,07727.1950,W,35.20,278.10,050919,,,A*47
$GPGGA,142349.000,4308.4684,N,07727.1982,W,1,07,1.08,153.9,M,-34.4,M,,*5F
$GPRMC,142349.250,A,4308.4687,N,07727.2015,W,35.21,278.11,050919,,,A*4F
$GPGGA,142349.500,4308.4691,N,07727.2048,W,1,07,1.08,154.2,M,-34.4,M,,*5E
$GPRMC,142349.750,A,4308.4694,N,07727.2080,W,35.19,278.31,050919,,,A*4D
$GPGGA,142350.000,4308.4700,N,07727.2113,W,1,07,1.08,154.5,M,-34.4,M,,*52
$GPRMC,142350.250,A,4308.4703,N,07727.2145,W,35.15,278.28,050919,,,A*43
$GPGGA,142350.500,4308.4707,N,07727.2177,W,1,07,1.08,154.6,M,-34.4,M,,*51
$GPRMC,142350.750,A,4308.4711,N,07727.2209,W,34.51,278.94,050919,,,A*48
$GPGGA,142351.000,4308.4715,N,07727.2241,W,1,07,1.08,154.8,M,-34.4,M,,*5E
$GPRMC,142351.250,A,4308.4719,N,07727.2273,W,34.31,279.23,050919,,,A*42
$GPGGA,142351.500,4308.4724,N,07727.2305,W,1,07,1.08,155.0,M,-34.4,M,,*51
$GPRMC,142351.750,A,4308.4729,N,07727.2338,W,34.71,278.91,050919,,,A*46
$GPGGA,142352.000,4308.4734,N,07727.2371,W,1,07,1.08,155.4,M,-34.4,M,,*51
$GPRMC,142352.250,A,4308.4737,N,07727.2404,W,34.89,278.09,050919,,,A*41
$GPGGA,142352.500,4308.4741,N,07727.2436,W,1,07,1.08,155.6,M,-34.4,M,,*50
$GPRMC,142352.750,A,4308.4744,N,07727.2469,W,34.64,278.05,050919,,,A*44
$GPGGA,142353.000,4308.4749,N,07727.2501,W,1,07,1.08,155.7,M,-34.4,M,,*58
$GPRMC,142353.250,A,4308.4753,N,07727.2533,W,34.37,278.52,050919,,,A*4C
$GPGGA,142353.500,4308.4759,N,07727.2565,W,1,07,1.08,155.6,M,-34.4,M,,*5F
$GPRMC,142353.750,A,4308.4764,N,07727.2597,W,34.30,279.10,050919,,,A*43
$GPGGA,142354.000,4308.4769,N,07727.2629,W,1,07,1.08,155.4,M,-34.4,M,,*57
$GPRMC,142354.250,A,4308.4774,N,07727.2662,W,34.33,279.19,050919,,,A*43
$GPGGA,142354.500,4308.4779,N,07727.2694,W,1,07,1.08,155.6,M,-34.4,M,,*57
$GPRMC,142354.750,A,4308.4784,N,07727.2726,W,33.96,279.13,050919,,,A*4A
$GPGGA,142355.000,4308.4790,N,07727.2757,W,1,07,1.08,155.2,M,-34.4,M,,*5E
$GPRMC,142355.250,A,4308.4795,N,07727.2789,W,34.02,279.78,050919,,,A*4C
$GPGGA,142355.500,4308.4800,N,07727.2821,W,1,07,1.08,154.8,M,-34.4,M,,*58
$GPRMC,142355.750,A,4308.4805,N,07727.2853,W,33.99,280.07,050919,,,A*4C
$GPGGA,142356.000,4308.4810,N,07727.2885,W,1,07,1.08,154.5,M,-34.4,M,,*5C
$GPRMC,142356.250,A,4308.4815,N,07727.2917,W,34.95,279.78,050919,,,A*4F
$GPGGA,142356.500,4308.4820,N,07727.2949,W,1,07,1.08,154.3,M,-34.4,M,,*5D
$GPRMC,142356.750,A,4308.4824,N,07727.2982,W,34.95,279.57,050919,,,A*49
$GPGGA,142357.000,4308.4829,N,07727.3014,W,1,07,1.08,154.2,M,-34.4,M,,*51
$GPRMC,142357.250,A,4308.4834,N,07727.3046,W,34.93,280.09,050919,,,A*47
$GPGGA,142357.500,4308.4838,N,07727.3079,W,1,07,1.08,154.2,M,-34.4,M,,*5F
$GPRMC,142357.750,A,4308.4843,N,07727.3111,W,35.02,280.04,050919,,,A*45
$GPGGA,142358.000,4308.4847,N,07727.3143,W,1,07,1.08,154.1,M,-34.4,M,,*56
$GPRMC,142358.250,A,4308.4851,N,07727.3176,W,34.62,279.76,050919,,,A*49
$GPGGA,142358.500,4308.4855,N,07727.3208,W,1,07,1.08,154.1,M,-34.4,M,,*5C
$GPRMC,142358.750,A,4308.4859,N,07727.3239,W,34.28,279.61,050919,,,A*44
$GPGGA,142359.000,4308.4863,N,07727.3272,W,1,07,1.08,153.9,M,-34.4,M,,*5F
$GPRMC,142359.250,A,4308.4868,N,07727.3304,W,34.26,280.22,050919,,,A*42
$GPGGA,142359.500,4308.4872,N,07727.3337,W,1,07,1.08,153.7,M,-34.4,M,,*54
$GPRMC,142359.750,A,4308.4877,N,07727.3369,W,34.85,280.45,050919,,,A*4A
$GPGGA,142400.000,4308.4881,N,07727.3402,W,1,07,1.08,153.5,M,-34.4,M,,*55
$GPRMC,142400.250,A,4308.4885,N,07727.3434,W,34.77,279.72,050919,,,A*49
$GPGGA,142400.500,4308.4890,N,07727.3467,W,1,07,1.08,153.2,M,-34.4,M,,*54
$GPRMC,142400.750,A,4308.4894,N,07727.3500,W,34.80,279.65,050919,,,A*44
$GPGGA,142401.000,4308.4898,N,07727.3533,W,1,07,1.08,153.0,M,-34.4,M,,*5A
$GPRMC,142401.250,A,4308.4902,N,07727.3565,W,34.79,279.66,050919,,,A*48
$GPGGA,142401.500,4308.4906,N,07727.3598,W,1,07,1.08,152.9,M,-34.4,M,,*50
$GPRMC,142401.750,A,4308.4910,N,07727.3629,W,34.74,280.23,050919,,,A*4F
$GPGGA,142402.000,4308.4915,N,07727.3661,W,1,07,1.08,152.6,M,-34.4,M,,*5E
$GPRMC,142402.250,A,4308.4920,N,07727.3694,W,34.27,280.19,050919,,,A*43
$GPGGA,142402.500,4308.4924,N,07727.3726,W,1,07,1.08,152.5,M,-34.4,M,,*58
$GPRMC,142402.750,A,4308.4927,N,07727.3758,W,34.44,279.19,050919,,,A*43
$GPGGA,142403.000,4308.4931,N,07727.3790,W,1,07,1.08,152.4,M,-34.4,M,,*54
$GPRMC,142403.250,A,4308.4936,N,07727.3823,W,34.40,279.04,050919,,,A*4C
$GPGGA,142403.500,4308.4940,N,07727.3855,W,1,07,1.08,152.4,M,-34.4,M,,*51
$GPRMC,142403.750,A,4308.4944,N,07727.3887,W,34.36,279.34,050919,,,A*40
$GPGGA,142404.000,4308.4947,N,07727.3918,W,1,07,1.08,152.2,M,-34.4,M,,*5A
$GPRMC,142404.250,A,4308.4951,N,07727.3950,W,33.79,279.49,050919,,,A*4B
$GPGGA,142404.500,4308.4955,N,07727.3981,W,1,07,1.08,151.9,M,-34.4,M,,*54
$GPRMC,142404.750,A,4308.4959,N,07727.4013,W,33.98,278.92,050919,,,A*47
$GPGGA,142405.000,4308.4963,N,07727.4045,W,1,07,1.08,151.9,M,-34.4,M,,*53
$GPRMC,142405.250,A,4308.4967,N,07727.4078,W,33.90,278.88,050919,,,A*40
$GPGGA,142405.500,4308.4971,N,07727.4110,W,1,07,1.08,151.9,M,-34.4,M,,*54
$GPRMC,142405.750,A,4308.4975,N,07727.4143,W,34.86,279.52,050919,,,A*49
$GPGGA,142406.000,4308.4979,N,07727.4176,W,1,07,1.08,151.9,M,-34.4,M,,*5A
$GPRMC,142406.250,A,4308.4984,N,07727.4209,W,34.97,279.91,050919,,,A*43
$GPGGA,142406.500,4308.4989,N,07727.4242,W,1,07,1.08,151.9,M,-34.4,M,,*54
$GPRMC,142406.750,A,4308.4994,N,07727.4276,W,35.33,279.53,050919,,,A*4E
$GPGGA,142407.000,4308.4998,N,07727.4309,W,1,07,1.08,152.0,M,-34.4,M,,*54
$GPRMC,142407.250,A,4308.5002,N,07727.4342,W,35.34,279.54,050919,,,A*4B
$GPGGA,142407.500,4308.5006,N,07727.4375,W,1,07,1.08,152.1,M,-34.4,M,,*54
$GPRMC,142407.750,A,4308.5011,N,07727.4408,W,35.28,279.66,050919,,,A*49
$GPGGA,142408.000,4308.5016,N,07727.4441,W,1,07,1.08,152.3,M,-34.4,M,,*5D
$GPRMC,142408.250,A,4308.5020,N,07727.4474,W,35.42,279.51,050919,,,A*42
$GPGGA,142408.500,4308.5024,N,07727.4508,W,1,07,1.08,152.1,M,-34.4,M,,*57
$GPRMC,142408.750,A,4308.5028,N,07727.4541,W,35.55,279.62,050919,,,A*4E
$GPGGA,142409.000,4308.5032,N,07727.4575,W,1,07,1.08,152.1,M,-34.4,M,,*5E
$GPRMC,142409.250,A,4308.5036,N,07727.4608,W,35.75,279.21,050919,,,A*4E
$GPGGA,142409.500,4308.5040,N,07727.4642,W,1,07,1.08,152.2,M,-34.4,M,,*5A
$GPRMC,142409.750,A,4308.5044,N,07727.4676,W,35.99,279.48,050919,,,A*4A
$GPGGA,142410.000,4308.5049,N,07727.4710,W,1,07,1.08,152.2,M,-34.4,M,,*58
$GPRMC,142410.250,A,4308.5053,N,07727.4743,W,35.71,279.60,050919,,,A*4A
$GPGGA,142410.500,4308.5057,N,07727.4776,W,1,07,1.08,152.4,M,-34.4,M,,*54
$GPRMC,142410.750,A,4308.5062,N,07727.4809,W,35.45,280.42,050919,,,A*4D
$GPGGA,142411.000,4308.5066,N,07727.4842,W,1,07,1.08,152.3,M,-34.4,M,,*5D
$GPRMC,142411.250,A,4308.5071,N,07727.4875,W,35.32,280.49,050919,,,A*4B
$GPGGA,142411.500,4308.5075,N,07727.4908,W,1,07,1.08,152.1,M,-34.4,M,,*57
$GPRMC,142411.750,A,4308.5079,N,07727.4941,W,34.80,279.99,050919,,,A*43
$GPGGA,142412.000,4308.5083,N,07727.4973,W,1,07,1.08,152.0,M,-34.4,M,,*55
$GPRMC,142412.250,A,4308.5087,N,07727.5005,W,34.60,279.80,050919,,,A*4A
$GPGGA,142412.500,4308.5090,N,07727.5037,W,1,07,1.08,151.8,M,-34.4,M,,*51
$GPRMC,142412.750,A,4308.5094,N,07727.5068,W,33.74,279.48,050919,,,A*40
$GPGGA,142413.000,4308.5097,N,07727.5100,W,1,07,1.08,151.6,M,-34.4,M,,*59
$GPRMC,142413.250,A,4308.5101,N,07727.5131,W,33.68,279.77,050919,,,A*45
$GPGGA,142413.500,4308.5104,N,07727.5162,W,1,07,1.08,151.6,M,-34.4,M,,*53
$GPRMC,142413.750,A,4308.5109,N,07727.5193,W,33.33,280.38,050919,,,A*43
$GPGGA,142414.000,4308.5113,N,07727.5224,W,1,07,1.08,151.4,M,-34.4,M,,*54
$GPRMC,142414.250,A,4308.5117,N,07727.5254,W,33.27,280.60,050919,,,A*4E
$GPGGA,142414.500,4308.5121,N,07727.5284,W,1,07,1.08,151.5,M,-34.4,M,,*5B
$GPRMC,142414.750,A,4308.5125,N,07727.5314,W,33.06,279.08,050919,,,A*44
$GPGGA,142415.000,4308.5129,N,07727.5346,W,1,07,1.08,151.5,M,-34.4,M,,*58
$GPRMC,142415.250,A,4308.5133,N,07727.5377,W,32.94,278.87,050919,,,A*4E
$GPGGA,142415.500,4308.5137,N,07727.5407,W,1,07,1.08,151.5,M,-34.4,M,,*50
$GPRMC,142415.750,A,4308.5141,N,07727.5438,W,32.76,279.41,050919,,,A*45
$GPGGA,142416.000,4308.5146,N,07727.5469,W,1,07,1.08,151.3,M,-34.4,M,,*5E
$GPRMC,142416.250,A,4308.5150,N,07727.5500,W,33.02,279.91,050919,,,A*46
$GPGGA,142416.500,4308.5154,N,07727.5530,W,1,07,1.08,151.1,M,-34.4,M,,*57
$GPRMC,142416.750,A,4308.5157,N,07727.5561,W,33.00,279.07,050919,,,A*4E
$GPGGA,142417.000,4308.5160,N,07727.5592,W,1,07,1.08,151.0,M,-34.4,M,,*5D
$GPRMC,142417.250,A,4308.5163,N,07727.5622,W,32.31,278.78,050919,,,A*43
$GPGGA,142417.500,4308.5166,N,07727.5651,W,1,07,1.08,150.9,M,-34.4,M,,*5A
$GPRMC,142417.750,A,4308.5169,N,07727.5681,W,32.34,278.42,050919,,,A*49
$GPGGA,142418.000,4308.5172,N,07727.5711,W,1,07,1.08,150.8,M,-34.4,M,,*51
$GPRMC,142418.250,A,4308.5175,N,07727.5740,W,32.08,278.24,050919,,,A*4D
$GPGGA,142418.500,4308.5179,N,07727.5770,W,1,07,1.08,150.8,M,-34.4,M,,*58
$GPRMC,142418.750,A,4308.5182,N,07727.5800,W,31.67,279.14,050919,,,A*43
$GPGGA,142419.000,4308.5185,N,07727.5829,W,1,07,1.08,150.8,M,-34.4,M,,*5C
$GPRMC,142419.250,A,4308.5187,N,07727.5859,W,31.77,278.52,050919,,,A*4C
$GPGGA,142419.500,4308.5190,N,07727.5888,W,1,07,1.08,150.8,M,-34.4,M,,*56
$GPRMC,142419.750,A,4308.5193,N,07727.5917,W,31.36,278.51,050919,,,A*41
$GPGGA,142420.000,4308.5195,N,07727.5945,W,1,07,1.08,150.8,M,-34.4,M,,*5C
$GPRMC,142420.250,A,4308.5197,N,07727.5973,W,30.17,278.74,050919,,,A*4D
$GPGGA,142420.500,4308.5200,N,07727.5999,W,1,07,1.08,150.8,M,-34.4,M,,*57
$GPRMC,142420.750,A,4308.5202,N,07727.6024,W,27.80,280.03,050919,,,A*40
$GPGGA,142421.000,4308.5206,N,07727.6048,W,1,07,1.08,150.7,M,-34.4,M,,*5C
$GPRMC,142421.250,A,4308.5209,N,07727.6071,W,25.24,281.82,050919,,,A*4B
$GPGGA,142421.500,4308.5212,N,07727.6091,W,1,06,1.60,150.6,M,-34.4,M,,*56
$GPRMC,142421.750,A,4308.5215,N,07727.6111,W,21.94,284.38,050919,,,A*4F
$GPGGA,142422.000,4308.5218,N,07727.6130,W,1,07,1.08,150.5,M,-34.4,M,,*5C
$GPRMC,142422.250,A,4308.5221,N,07727.6147,W,20.10,285.19,050919,,,A*42
$GPGGA,142422.500,4308.5223,N,07727.6164,W,1,07,1.08,150.5,M,-34.4,M,,*50
$GPRMC,142422.750,A,4308.5225,N,07727.6181,W,19.34,284.20,050919,,,A*4E
$GPGGA,142423.000,4308.5227,N,07727.6198,W,1,07,1.08,150.6,M,-34.4,M,,*50
$GPRMC,142423.250,A,4308.5228,N,07727.6216,W,19.61,282.04,050919,,,A*4A
$GPGGA,142423.500,4308.5231,N,07727.6234,W,1,07,1.08,150.7,M,-34.4,M,,*56
$GPRMC,142423.750,A,4308.5234,N,07727.6253,W,20.70,281.63,050919,,,A*4B
$GPGGA,142424.000,4308.5236,N,07727.6272,W,1,07,1.08,150.7,M,-34.4,M,,*51
$GPRMC,142424.250,A,4308.5238,N,07727.6292,W,21.69,280.57,050919,,,A*47
$GPGGA,142424.500,4308.5240,N,07727.6313,W,1,07,1.08,150.7,M,-34.4,M,,*53
$GPRMC,142424.750,A,4308.5242,N,07727.6334,W,23.05,278.81,050919,,,A*46
$GPGGA,142425.000,4308.5243,N,07727.6355,W,1,07,1.08,150.6,M,-34.4,M,,*57
$GPRMC,142425.250,A,4308.5245,N,07727.6377,W,24.14,278.08,050919,,,A*44
$GPGGA,142425.500,4308.5247,N,07727.6399,W,1,07,1.08,150.0,M,-34.4,M,,*50
$GPRMC,142425.750,A,4308.5250,N,07727.6422,W,25.23,277.95,050919,,,A*4C
$GPGGA,142426.000,4308.5253,N,07727.6447,W,1,07,1.08,149.7,M,-34.4,M,,*58
$GPRMC,142426.250,A,4308.5255,N,07727.6471,W,26.21,277.30,050919,,,A*47
$GPGGA,142426.500,4308.5257,N,07727.6496,W,1,07,1.08,149.3,M,-34.4,M,,*51
$GPRMC,142426.750,A,4308.5259,N,07727.6521,W,27.52,277.27,050919,,,A*49
$GPGGA,142427.000,4308.5261,N,07727.6547,W,1,07,1.08,149.3,M,-34.4,M,,*5D
$GPRMC,142427.250,A,4308.5263,N,07727.6574,W,28.51,276.33,050919,,,A*4C
