Vers 60
USE_SERIAL_FEEDBACK=true
DEVELOPMENT_MODE=false
USE_RMC_ONLY=false

$GPRMC,134253.500,A,4308.3040,N,07726.2632,W,0.02,298.77,280519,,,A*74
$GPGGA,134253.750,4308.3038,N,07726.2633,W,1,06,1.37,156.5,M,-34.4,M,,*53
lng=-77.437721, lat=43.138404, altitude=156.90, speed=0.02, satellites=6, angle=298.7700, fixquality=1
$GPRMC,134254.000,A,4308.3035,N,07726.2632,W,0.03,123.54,280519,,,A*77
$GPGGA,134254.250,4308.3034,N,07726.2633,W,1,06,1.37,154.7,M,-34.4,M,,*5D
lng=-77.437721, lat=43.138393, altitude=156.50, speed=0.03, satellites=6, angle=123.5400, fixquality=1
$GPRMC,134254.500,A,4308.3033,N,07726.2634,W,0.02,65.89,280519,,,A*40
$GPGGA,134254.750,4308.3033,N,07726.2634,W,1,06,1.37,154.3,M,-34.4,M,,*5C
lng=-77.437721, lat=43.138385, altitude=154.70, speed=0.02, satellites=6, angle=65.8900, fixquality=1
$GPRMC,134255.000,A,4308.3032,N,07726.2634,W,0.03,84.69,280519,,,A*45
$GPGGA,134255.250,4308.3032,N,07726.2635,W,1,06,1.37,154.6,M,-34.4,M,,*5D
lng=-77.437721, lat=43.138385, altitude=154.30, speed=0.03, satellites=6, angle=84.6900, fixquality=1
$GPRMC,134255.500,A,4308.3032,N,07726.2636,W,0.08,2.88,280519,,,A*78
$GPGGA,134255.750,4308.3033,N,07726.2637,W,1,06,1.69,155.1,M,-34.4,M,,*56
lng=-77.437728, lat=43.138385, altitude=154.60, speed=0.08, satellites=6, angle=2.8800, fixquality=1
$GPRMC,134256.000,A,4308.3033,N,07726.2637,W,0.62,3.11,280519,,,A*73
$GPGGA,134256.250,4308.3034,N,07726.2638,W,1,06,1.69,155.3,M,-34.4,M,,*5A
lng=-77.437728, lat=43.138385, altitude=155.10, speed=0.62, satellites=6, angle=3.1100, fixquality=1
$GPRMC,134256.500,A,4308.3035,N,07726.2637,W,1.86,8.12,280519,,,A*73
$GPGGA,134256.750,4308.3037,N,07726.2637,W,1,06,1.69,154.9,M,-34.4,M,,*58
lng=-77.437728, lat=43.138393, altitude=155.30, speed=1.86, satellites=6, angle=8.1200, fixquality=1
$GPRMC,134257.000,A,4308.3039,N,07726.2636,W,2.88,3.97,280519,,,A*71
$GPGGA,134257.250,4308.3040,N,07726.2635,W,1,06,1.69,154.1,M,-34.4,M,,*56
lng=-77.437728, lat=43.138393, altitude=154.90, speed=2.88, satellites=6, angle=3.9700, fixquality=1
$GPRMC,134257.500,A,4308.3042,N,07726.2634,W,3.25,5.29,280519,,,A*7F
$GPGGA,134257.750,4308.3044,N,07726.2634,W,1,06,1.69,153.7,M,-34.4,M,,*57
lng=-77.437721, lat=43.138404, altitude=154.10, speed=3.25, satellites=6, angle=5.2900, fixquality=1
$GPRMC,134258.000,A,4308.3046,N,07726.2633,W,3.44,2.24,280519,,,A*7B
$GPGGA,134258.250,4308.3048,N,07726.2632,W,1,06,1.69,153.2,M,-34.4,M,,*52
lng=-77.437721, lat=43.138412, altitude=153.70, speed=3.44, satellites=6, angle=2.2400, fixquality=1
$GPRMC,134258.500,A,4308.3050,N,07726.2632,W,3.39,359.53,280519,,,A*7F
$GPGGA,134258.750,4308.3053,N,07726.2632,W,1,06,1.69,153.4,M,-34.4,M,,*5B
lng=-77.437721, lat=43.138420, altitude=153.20, speed=3.39, satellites=6, angle=359.5300, fixquality=1
$GPRMC,134259.000,A,4308.3055,N,07726.2632,W,3.56,0.93,280519,,,A*74
$GPGGA,134259.250,4308.3058,N,07726.2632,W,1,06,1.69,153.6,M,-34.4,M,,*56
lng=-77.437721, lat=43.138427, altitude=153.40, speed=3.56, satellites=6, angle=0.9300, fixquality=1
$GPRMC,134259.500,A,4308.3061,N,07726.2633,W,3.65,357.36,280519,,,A*79
$GPGGA,134259.750,4308.3064,N,07726.2633,W,1,06,1.69,153.7,M,-34.4,M,,*5C
lng=-77.437721, lat=43.138435, altitude=153.60, speed=3.65, satellites=6, angle=357.3600, fixquality=1
$GPRMC,134300.000,A,4308.3067,N,07726.2633,W,3.81,355.75,280519,,,A*78
$GPGGA,134300.250,4308.3069,N,07726.2634,W,1,06,1.69,154.0,M,-34.4,M,,*5E
lng=-77.437721, lat=43.138442, altitude=153.70, speed=3.81, satellites=6, angle=355.7500, fixquality=1
$GPRMC,134300.500,A,4308.3072,N,07726.2634,W,4.01,356.50,280519,,,A*75
$GPGGA,134300.750,4308.3075,N,07726.2634,W,1,06,1.69,154.0,M,-34.4,M,,*56
lng=-77.437721, lat=43.138450, altitude=154.00, speed=4.01, satellites=6, angle=356.5000, fixquality=1
$GPRMC,134301.000,A,4308.3077,N,07726.2634,W,4.18,354.28,280519,,,A*71
$GPGGA,134301.250,4308.3080,N,07726.2635,W,1,06,1.69,154.1,M,-34.4,M,,*58
lng=-77.437721, lat=43.138462, altitude=154.00, speed=4.18, satellites=6, angle=354.2800, fixquality=1
$GPRMC,134301.500,A,4308.3083,N,07726.2635,W,4.27,351.78,280519,,,A*72
$GPGGA,134301.750,4308.3085,N,07726.2636,W,1,06,1.69,154.0,M,-34.4,M,,*5A
lng=-77.437728, lat=43.138469, altitude=154.10, speed=4.27, satellites=6, angle=351.7800, fixquality=1
$GPRMC,134302.000,A,4308.3088,N,07726.2637,W,4.42,352.19,280519,,,A*7A
$GPGGA,134302.250,4308.3093,N,07726.2639,W,1,07,1.14,154.8,M,-34.4,M,,*57
lng=-77.437728, lat=43.138477, altitude=154.00, speed=4.42, satellites=6, angle=352.1900, fixquality=1
$GPRMC,134302.500,A,4308.3098,N,07726.2640,W,4.45,356.55,280519,,,A*75
$GPGGA,134302.750,4308.3102,N,07726.2640,W,1,07,1.14,156.5,M,-34.4,M,,*5A
lng=-77.437736, lat=43.138492, altitude=154.80, speed=4.45, satellites=7, angle=356.5500, fixquality=1
$GPRMC,134303.000,A,4308.3108,N,07726.2641,W,4.42,6.44,280519,,,A*79
$GPGGA,134303.250,4308.3112,N,07726.2641,W,1,07,1.14,158.2,M,-34.4,M,,*57
lng=-77.437736, lat=43.138515, altitude=156.50, speed=4.42, satellites=7, angle=6.4400, fixquality=1
$GPRMC,134303.500,A,4308.3116,N,07726.2640,W,4.44,13.87,280519,,,A*4F
$GPGGA,134303.750,4308.3120,N,07726.2639,W,1,07,1.14,158.8,M,-34.4,M,,*56
lng=-77.437736, lat=43.138526, altitude=158.20, speed=4.44, satellites=7, angle=13.8700, fixquality=1
$GPRMC,134304.000,A,4308.3123,N,07726.2638,W,4.78,21.26,280519,,,A*41
$GPGGA,134304.250,4308.3126,N,07726.2636,W,1,07,1.14,159.2,M,-34.4,M,,*56
lng=-77.437728, lat=43.138542, altitude=158.80, speed=4.78, satellites=7, angle=21.2600, fixquality=1
$GPRMC,134304.500,A,4308.3130,N,07726.2634,W,5.12,29.51,280519,,,A*4F
$GPGGA,134304.750,4308.3133,N,07726.2632,W,1,07,1.11,159.2,M,-34.4,M,,*56
lng=-77.437721, lat=43.138549, altitude=159.20, speed=5.12, satellites=7, angle=29.5100, fixquality=1
$GPRMC,134305.000,A,4308.3136,N,07726.2629,W,4.94,39.47,280519,,,A*48
$GPGGA,134305.250,4308.3138,N,07726.2626,W,1,07,1.14,159.5,M,-34.4,M,,*5E
lng=-77.437713, lat=43.138557, altitude=159.20, speed=4.94, satellites=7, angle=39.4700, fixquality=1
$GPRMC,134305.500,A,4308.3141,N,07726.2623,W,4.75,51.21,280519,,,A*46
$GPGGA,134305.750,4308.3142,N,07726.2619,W,1,07,1.14,159.5,M,-34.4,M,,*5A
lng=-77.437705, lat=43.138565, altitude=159.50, speed=4.75, satellites=7, angle=51.2100, fixquality=1
$GPRMC,134306.000,A,4308.3145,N,07726.2616,W,5.02,55.07,280519,,,A*43
$GPGGA,134306.250,4308.3146,N,07726.2611,W,1,07,1.14,159.7,M,-34.4,M,,*52
lng=-77.437698, lat=43.138572, altitude=159.50, speed=5.02, satellites=7, angle=55.0700, fixquality=1
$GPRMC,134306.500,A,4308.3148,N,07726.2606,W,5.41,63.62,280519,,,A*4B
$GPGGA,134306.750,4308.3149,N,07726.2602,W,1,07,1.14,159.8,M,-34.4,M,,*55
lng=-77.437675, lat=43.138584, altitude=159.70, speed=5.41, satellites=7, angle=63.6200, fixquality=1
$GPRMC,134307.000,A,4308.3150,N,07726.2598,W,4.19,74.49,280519,,,A*41
$GPGGA,134307.250,4308.3151,N,07726.2596,W,1,07,1.14,160.2,M,-34.4,M,,*56
lng=-77.437660, lat=43.138584, altitude=159.80, speed=4.19, satellites=7, angle=74.4900, fixquality=1
$GPRMC,134307.500,A,4308.3153,N,07726.2595,W,2.20,67.95,280519,,,A*45
$GPGGA,134307.750,4308.3153,N,07726.2594,W,1,07,1.11,161.1,M,-34.4,M,,*54
lng=-77.437652, lat=43.138591, altitude=160.20, speed=2.20, satellites=7, angle=67.9500, fixquality=1
$GPRMC,134308.000,A,4308.3154,N,07726.2595,W,0.48,91.36,280519,,,A*44
$GPGGA,134308.250,4308.3154,N,07726.2597,W,1,07,1.11,161.7,M,-34.4,M,,*5C
lng=-77.437652, lat=43.138591, altitude=161.10, speed=0.48, satellites=7, angle=91.3600, fixquality=1
$GPRMC,134308.500,A,4308.3153,N,07726.2599,W,0.83,249.13,280519,,,A*7D
$GPGGA,134308.750,4308.3153,N,07726.2600,W,1,07,1.11,162.2,M,-34.4,M,,*55
lng=-77.437660, lat=43.138591, altitude=161.70, speed=0.83, satellites=7, angle=249.1300, fixquality=1
$GPRMC,134309.000,A,4308.3153,N,07726.2604,W,1.69,250.36,280519,,,A*74
$GPGGA,134309.250,4308.3152,N,07726.2608,W,1,07,1.11,162.4,M,-34.4,M,,*5E
lng=-77.437667, lat=43.138591, altitude=162.20, speed=1.69, satellites=7, angle=250.3600, fixquality=1
$GPRMC,134309.500,A,4308.3151,N,07726.2613,W,5.06,263.01,280519,,,A*7C
$GPGGA,134309.750,4308.3151,N,07726.2618,W,1,07,1.14,162.5,M,-34.4,M,,*5D
lng=-77.437690, lat=43.138584, altitude=162.40, speed=5.06, satellites=7, angle=263.0100, fixquality=1
$GPRMC,134310.000,A,4308.3151,N,07726.2625,W,6.86,269.43,280519,,,A*73
$GPGGA,134310.250,4308.3151,N,07726.2632,W,1,07,1.14,162.6,M,-34.4,M,,*5B
lng=-77.437713, lat=43.138584, altitude=162.50, speed=6.86, satellites=7, angle=269.4300, fixquality=1
$GPRMC,134310.500,A,4308.3152,N,07726.2641,W,8.88,276.12,280519,,,A*7D
$GPGGA,134310.750,4308.3152,N,07726.2649,W,1,07,1.14,162.7,M,-34.4,M,,*50
lng=-77.437736, lat=43.138591, altitude=162.60, speed=8.88, satellites=7, angle=276.1200, fixquality=1
$GPRMC,134311.000,A,4308.3153,N,07726.2659,W,10.19,277.31,280519,,,A*40
$GPGGA,134311.250,4308.3154,N,07726.2670,W,1,07,1.14,162.8,M,-34.4,M,,*57
lng=-77.437767, lat=43.138591, altitude=162.70, speed=10.19, satellites=7, angle=277.3100, fixquality=1
$GPRMC,134311.500,A,4308.3156,N,07726.2681,W,12.02,280.03,280519,,,A*44
$GPGGA,134311.750,4308.3158,N,07726.2693,W,1,07,1.11,162.7,M,-34.4,M,,*59
lng=-77.437797, lat=43.138591, altitude=162.80, speed=12.02, satellites=7, angle=280.0300, fixquality=1
$GPRMC,134312.000,A,4308.3160,N,07726.2705,W,12.84,281.18,280519,,,A*4F
$GPGGA,134312.250,4308.3162,N,07726.2717,W,1,07,1.11,162.8,M,-34.4,M,,*54
lng=-77.437843, lat=43.138599, altitude=162.70, speed=12.84, satellites=7, angle=281.1800, fixquality=1
$GPRMC,134312.500,A,4308.3164,N,07726.2730,W,14.59,284.38,280519,,,A*49
$GPGGA,134312.750,4308.3166,N,07726.2743,W,1,07,1.11,162.6,M,-34.4,M,,*5A
lng=-77.437881, lat=43.138607, altitude=162.80, speed=14.59, satellites=7, angle=284.3800, fixquality=1
$GPRMC,134313.000,A,4308.3168,N,07726.2756,W,15.77,285.57,280519,,,A*44
$GPGGA,134313.250,4308.3173,N,07726.2771,W,1,07,1.14,162.7,M,-34.4,M,,*5F
lng=-77.437919, lat=43.138614, altitude=162.60, speed=15.77, satellites=7, angle=285.5700, fixquality=1
$GPRMC,134313.500,A,4308.3177,N,07726.2787,W,17.04,286.64,280519,,,A*46
$GPGGA,134313.750,4308.3182,N,07726.2803,W,1,07,1.14,163.1,M,-34.4,M,,*59
lng=-77.437980, lat=43.138629, altitude=162.70, speed=17.04, satellites=7, angle=286.6400, fixquality=1
$GPRMC,134314.000,A,4308.3187,N,07726.2819,W,17.73,289.02,280519,,,A*4C
$GPGGA,134314.250,4308.3192,N,07726.2836,W,1,07,1.14,163.5,M,-34.4,M,,*58
lng=-77.438026, lat=43.138648, altitude=163.10, speed=17.73, satellites=7, angle=289.0200, fixquality=1
$GPRMC,134314.500,A,4308.3197,N,07726.2854,W,18.59,289.27,280519,,,A*41
$GPGGA,134314.750,4308.3201,N,07726.2871,W,1,07,1.11,163.6,M,-34.4,M,,*51
lng=-77.438087, lat=43.138664, altitude=163.50, speed=18.59, satellites=7, angle=289.2700, fixquality=1
$GPRMC,134315.000,A,4308.3206,N,07726.2889,W,18.97,290.72,280519,,,A*44
$GPGGA,134315.250,4308.3212,N,07726.2907,W,1,07,1.14,163.6,M,-34.4,M,,*52
lng=-77.438148, lat=43.138679, altitude=163.60, speed=18.97, satellites=7, angle=290.7200, fixquality=1
$GPRMC,134315.500,A,4308.3219,N,07726.2925,W,19.93,292.87,280519,,,A*45
$GPGGA,134315.750,4308.3225,N,07726.2942,W,1,07,1.11,163.4,M,-34.4,M,,*55
lng=-77.438209, lat=43.138694, altitude=163.60, speed=19.93, satellites=7, angle=292.8700, fixquality=1
$GPRMC,134316.000,A,4308.3232,N,07726.2960,W,20.35,295.28,280519,,,A*4F
$GPGGA,134316.250,4308.3240,N,07726.2978,W,1,07,1.14,163.2,M,-34.4,M,,*5A
lng=-77.438262, lat=43.138721, altitude=163.40, speed=20.35, satellites=7, angle=295.2800, fixquality=1
$GPRMC,134316.500,A,4308.3247,N,07726.2996,W,21.28,298.38,280519,,,A*40
$GPGGA,134316.750,4308.3255,N,07726.3014,W,1,07,1.11,163.1,M,-34.4,M,,*5F
lng=-77.438331, lat=43.138744, altitude=163.20, speed=21.28, satellites=7, angle=298.3800, fixquality=1
$GPRMC,134317.000,A,4308.3263,N,07726.3033,W,21.69,299.22,280519,,,A*4A
$GPGGA,134317.250,4308.3272,N,07726.3051,W,1,07,1.14,163.1,M,-34.4,M,,*5A
lng=-77.438385, lat=43.138771, altitude=163.10, speed=21.69, satellites=7, angle=299.2200, fixquality=1
$GPRMC,134317.500,A,4308.3281,N,07726.3070,W,22.14,300.40,280519,,,A*48
$GPGGA,134317.750,4308.3289,N,07726.3088,W,1,07,1.11,163.3,M,-34.4,M,,*58
lng=-77.438453, lat=43.138801, altitude=163.10, speed=22.14, satellites=7, angle=300.4000, fixquality=1
$GPRMC,134318.000,A,4308.3298,N,07726.3107,W,22.66,301.20,280519,,,A*49
$GPGGA,134318.250,4308.3308,N,07726.3126,W,1,07,1.15,163.6,M,-34.4,M,,*5E
lng=-77.438507, lat=43.138828, altitude=163.30, speed=22.66, satellites=7, angle=301.2000, fixquality=1
$GPRMC,134318.500,A,4308.3317,N,07726.3145,W,23.12,302.47,280519,,,A*4C
$GPGGA,134318.750,4308.3327,N,07726.3164,W,1,07,1.14,163.8,M,-34.4,M,,*5F
lng=-77.438575, lat=43.138858, altitude=163.60, speed=23.12, satellites=7, angle=302.4700, fixquality=1
$GPRMC,134319.000,A,4308.3337,N,07726.3183,W,23.50,303.27,280519,,,A*41
$GPGGA,134319.250,4308.3346,N,07726.3202,W,1,07,1.14,164.0,M,-34.4,M,,*50
lng=-77.438636, lat=43.138893, altitude=163.80, speed=23.50, satellites=7, angle=303.2700, fixquality=1
$GPRMC,134319.500,A,4308.3356,N,07726.3221,W,23.76,303.61,280519,,,A*4E
$GPGGA,134319.750,4308.3365,N,07726.3240,W,1,07,1.14,164.0,M,-34.4,M,,*52
lng=-77.438705, lat=43.138923, altitude=164.00, speed=23.76, satellites=7, angle=303.6100, fixquality=1
$GPRMC,134320.000,A,4308.3374,N,07726.3260,W,24.02,303.47,280519,,,A*44
$GPGGA,134320.250,4308.3384,N,07726.3279,W,1,07,1.14,164.1,M,-34.4,M,,*59
lng=-77.438766, lat=43.138957, altitude=164.00, speed=24.02, satellites=7, angle=303.4700, fixquality=1
$GPRMC,134320.500,A,4308.3394,N,07726.3299,W,24.29,303.08,280519,,,A*4B
$GPGGA,134320.750,4308.3403,N,07726.3318,W,1,07,1.15,164.2,M,-34.4,M,,*50
lng=-77.438835, lat=43.138988, altitude=164.10, speed=24.29, satellites=7, angle=303.0800, fixquality=1
$GPRMC,134321.000,A,4308.3413,N,07726.3338,W,24.31,303.03,280519,,,A*4F
$GPGGA,134321.250,4308.3423,N,07726.3358,W,1,07,1.14,164.5,M,-34.4,M,,*54
lng=-77.438896, lat=43.139022, altitude=164.20, speed=24.31, satellites=7, angle=303.0300, fixquality=1
$GPRMC,134321.500,A,4308.3433,N,07726.3378,W,24.54,303.06,280519,,,A*4A
$GPGGA,134321.750,4308.3443,N,07726.3397,W,1,07,1.14,164.7,M,-34.4,M,,*56
lng=-77.438964, lat=43.139053, altitude=164.50, speed=24.54, satellites=7, angle=303.0600, fixquality=1
$GPRMC,134322.000,A,4308.3453,N,07726.3417,W,24.62,303.44,280519,,,A*47
$GPGGA,134322.250,4308.3463,N,07726.3437,W,1,07,1.15,165.0,M,-34.4,M,,*58
lng=-77.439033, lat=43.139087, altitude=164.70, speed=24.62, satellites=7, angle=303.4400, fixquality=1
$GPRMC,134322.500,A,4308.3473,N,07726.3457,W,24.79,304.34,280519,,,A*4E
$GPGGA,134322.750,4308.3482,N,07726.3476,W,1,07,1.14,165.1,M,-34.4,M,,*57
lng=-77.439094, lat=43.139118, altitude=165.00, speed=24.79, satellites=7, angle=304.3400, fixquality=1
$GPRMC,134323.000,A,4308.3492,N,07726.3495,W,24.14,305.05,280519,,,A*43
$GPGGA,134323.250,4308.3501,N,07726.3514,W,1,07,1.15,165.1,M,-34.4,M,,*5D
lng=-77.439163, lat=43.139152, altitude=165.10, speed=24.14, satellites=7, angle=305.0500, fixquality=1
$GPRMC,134323.500,A,4308.3511,N,07726.3532,W,23.62,306.57,280519,,,A*42
$GPGGA,134323.750,4308.3520,N,07726.3550,W,1,07,1.14,165.0,M,-34.4,M,,*5B
lng=-77.439216, lat=43.139183, altitude=165.10, speed=23.62, satellites=7, angle=306.5700, fixquality=1
$GPRMC,134324.000,A,4308.3530,N,07726.3567,W,22.73,308.88,280519,,,A*4E
$GPGGA,134324.250,4308.3541,N,07726.3584,W,1,07,1.15,165.3,M,-34.4,M,,*55
lng=-77.439285, lat=43.139217, altitude=165.00, speed=22.73, satellites=7, angle=308.8800, fixquality=1
$GPRMC,134324.500,A,4308.3551,N,07726.3600,W,22.36,312.85,280519,,,A*49
$GPGGA,134324.750,4308.3562,N,07726.3615,W,1,07,1.15,165.5,M,-34.4,M,,*5C
lng=-77.439331, lat=43.139247, altitude=165.30, speed=22.36, satellites=7, angle=312.8500, fixquality=1
$GPRMC,134325.000,A,4308.3574,N,07726.3629,W,21.41,318.03,280519,,,A*46
$GPGGA,134325.250,4308.3585,N,07726.3642,W,1,07,1.14,165.8,M,-34.4,M,,*5F
lng=-77.439376, lat=43.139289, altitude=165.50, speed=21.41, satellites=7, angle=318.0300, fixquality=1
$GPRMC,134325.500,A,4308.3597,N,07726.3655,W,21.23,322.99,280519,,,A*4B
$GPGGA,134325.750,4308.3610,N,07726.3667,W,1,07,1.11,166.1,M,-34.4,M,,*5D
lng=-77.439430, lat=43.139331, altitude=165.80, speed=21.23, satellites=7, angle=322.9900, fixquality=1
$GPRMC,134326.000,A,4308.3623,N,07726.3679,W,22.15,326.45,280519,,,A*4C
$GPGGA,134326.250,4308.3636,N,07726.3690,W,1,07,1.15,166.4,M,-34.4,M,,*56
lng=-77.439460, lat=43.139369, altitude=166.10, speed=22.15, satellites=7, angle=326.4500, fixquality=1
$GPRMC,134326.500,A,4308.3650,N,07726.3701,W,22.19,328.05,280519,,,A*45
$GPGGA,134326.750,4308.3663,N,07726.3712,W,1,07,1.11,166.6,M,-34.4,M,,*5E
lng=-77.439498, lat=43.139419, altitude=166.40, speed=22.19, satellites=7, angle=328.0500, fixquality=1
$GPRMC,134327.000,A,4308.3677,N,07726.3722,W,22.38,329.96,280519,,,A*4D
$GPGGA,134327.250,4308.3691,N,07726.3732,W,1,07,1.11,166.6,M,-34.4,M,,*55
lng=-77.439537, lat=43.139461, altitude=166.60, speed=22.38, satellites=7, angle=329.9600, fixquality=1
$GPRMC,134327.500,A,4308.3706,N,07726.3741,W,22.69,334.11,280519,,,A*4D
$GPGGA,134327.750,4308.3720,N,07726.3749,W,1,07,1.11,166.7,M,-34.4,M,,*56
lng=-77.439567, lat=43.139511, altitude=166.60, speed=22.69, satellites=7, angle=334.1100, fixquality=1
$GPRMC,134328.000,A,4308.3735,N,07726.3757,W,22.97,337.98,280519,,,A*43
$GPGGA,134328.250,4308.3751,N,07726.3765,W,1,07,1.11,166.8,M,-34.4,M,,*5B
lng=-77.439590, lat=43.139560, altitude=166.70, speed=22.97, satellites=7, angle=337.9800, fixquality=1
$GPRMC,134328.500,A,4308.3767,N,07726.3772,W,23.41,341.07,280519,,,A*4B
$GPGGA,134328.750,4308.3783,N,07726.3778,W,1,07,1.11,167.0,M,-34.4,M,,*54
lng=-77.439620, lat=43.139606, altitude=166.80, speed=23.41, satellites=7, angle=341.0700, fixquality=1
$GPRMC,134329.000,A,4308.3799,N,07726.3784,W,24.22,344.55,280519,,,A*47
$GPGGA,134329.250,4308.3816,N,07726.3789,W,1,07,1.11,167.3,M,-34.4,M,,*5E
lng=-77.439643, lat=43.139663, altitude=167.00, speed=24.22, satellites=7, angle=344.5500, fixquality=1
$GPRMC,134329.500,A,4308.3833,N,07726.3794,W,24.75,347.33,280519,,,A*4D
$GPGGA,134329.750,4308.3850,N,07726.3797,W,1,07,1.15,167.5,M,-34.4,M,,*54
lng=-77.439659, lat=43.139720, altitude=167.30, speed=24.75, satellites=7, angle=347.3300, fixquality=1
$GPRMC,134330.000,A,4308.3867,N,07726.3798,W,25.13,352.76,280519,,,A*49
$GPGGA,134330.250,4308.3884,N,07726.3797,W,1,07,1.15,167.8,M,-34.4,M,,*5D
lng=-77.439666, lat=43.139778, altitude=167.50, speed=25.13, satellites=7, angle=352.7600, fixquality=1
$GPRMC,134330.500,A,4308.3902,N,07726.3798,W,25.35,356.96,280519,,,A*40
$GPGGA,134330.750,4308.3920,N,07726.3798,W,1,07,1.11,168.2,M,-34.4,M,,*59
lng=-77.439666, lat=43.139835, altitude=167.80, speed=25.35, satellites=7, angle=356.9600, fixquality=1
$GPRMC,134331.000,A,4308.3936,N,07726.3795,W,24.80,2.58,280519,,,A*41
$GPGGA,134331.250,4308.3953,N,07726.3791,W,1,07,1.15,168.8,M,-34.4,M,,*5E
lng=-77.439659, lat=43.139892, altitude=168.20, speed=24.80, satellites=7, angle=2.5800, fixquality=1
$GPRMC,134331.500,A,4308.3969,N,07726.3787,W,24.42,7.85,280519,,,A*46
$GPGGA,134331.750,4308.3986,N,07726.3783,W,1,07,1.15,169.2,M,-34.4,M,,*5B
lng=-77.439651, lat=43.139949, altitude=168.80, speed=24.42, satellites=7, angle=7.8500, fixquality=1
$GPRMC,134332.000,A,4308.4003,N,07726.3778,W,24.39,10.27,280519,,,A*70
$GPGGA,134332.250,4308.4019,N,07726.3773,W,1,07,1.15,169.6,M,-34.4,M,,*5E
lng=-77.439628, lat=43.140007, altitude=169.20, speed=24.39, satellites=7, angle=10.2700, fixquality=1
$GPRMC,134332.500,A,4308.4036,N,07726.3767,W,24.39,11.66,280519,,,A*79
$GPGGA,134332.750,4308.4052,N,07726.3762,W,1,07,1.15,169.8,M,-34.4,M,,*5A
lng=-77.439605, lat=43.140064, altitude=169.60, speed=24.39, satellites=7, angle=11.6600, fixquality=1
$GPRMC,134333.000,A,4308.4069,N,07726.3756,W,24.15,11.40,280519,,,A*7F
$GPGGA,134333.250,4308.4085,N,07726.3751,W,1,07,1.15,170.1,M,-34.4,M,,*55
lng=-77.439590, lat=43.140113, altitude=169.80, speed=24.15, satellites=7, angle=11.4000, fixquality=1
$GPRMC,134333.500,A,4308.4101,N,07726.3747,W,23.27,10.25,280519,,,A*71
$GPGGA,134333.750,4308.4117,N,07726.3742,W,1,07,1.15,170.4,M,-34.4,M,,*5D
lng=-77.439575, lat=43.140171, altitude=170.10, speed=23.27, satellites=7, angle=10.2500, fixquality=1
$GPRMC,134334.000,A,4308.4133,N,07726.3739,W,23.20,9.28,280519,,,A*49
$GPGGA,134334.250,4308.4148,N,07726.3735,W,1,07,1.15,170.8,M,-34.4,M,,*59
lng=-77.439567, lat=43.140216, altitude=170.40, speed=23.20, satellites=7, angle=9.2800, fixquality=1
$GPRMC,134334.500,A,4308.4164,N,07726.3731,W,22.53,9.10,280519,,,A*48
$GPGGA,134334.750,4308.4179,N,07726.3727,W,1,07,1.15,171.1,M,-34.4,M,,*55
lng=-77.439552, lat=43.140274, altitude=170.80, speed=22.53, satellites=7, angle=9.1000, fixquality=1
$GPRMC,134335.000,A,4308.4194,N,07726.3723,W,21.91,9.44,280519,,,A*4C
$GPGGA,134335.250,4308.4209,N,07726.3719,W,1,07,1.15,171.3,M,-34.4,M,,*5A
lng=-77.439537, lat=43.140323, altitude=171.10, speed=21.91, satellites=7, angle=9.4400, fixquality=1
$GPRMC,134335.500,A,4308.4223,N,07726.3716,W,21.25,8.39,280519,,,A*44
$GPGGA,134335.750,4308.4238,N,07726.3713,W,1,07,1.15,171.7,M,-34.4,M,,*53
lng=-77.439529, lat=43.140373, altitude=171.30, speed=21.25, satellites=7, angle=8.3900, fixquality=1
$GPRMC,134336.000,A,4308.4252,N,07726.3710,W,20.88,7.40,280519,,,A*45
$GPGGA,134336.250,4308.4266,N,07726.3707,W,1,07,1.15,172.2,M,-34.4,M,,*5D
lng=-77.439521, lat=43.140422, altitude=171.70, speed=20.88, satellites=7, angle=7.4000, fixquality=1
$GPRMC,134336.500,A,4308.4280,N,07726.3704,W,20.17,7.95,280519,,,A*44
$GPGGA,134336.750,4308.4294,N,07726.3701,W,1,07,1.15,172.5,M,-34.4,M,,*54
lng=-77.439506, lat=43.140468, altitude=172.20, speed=20.17, satellites=7, angle=7.9500, fixquality=1
$GPRMC,134337.000,A,4308.4307,N,07726.3698,W,19.66,8.24,280519,,,A*43
$GPGGA,134337.250,4308.4321,N,07726.3695,W,1,07,1.15,172.7,M,-34.4,M,,*51
lng=-77.439491, lat=43.140510, altitude=172.50, speed=19.66, satellites=7, angle=8.2400, fixquality=1
$GPRMC,134337.500,A,4308.4334,N,07726.3691,W,19.20,8.56,280519,,,A*48
$GPGGA,134337.750,4308.4347,N,07726.3688,W,1,07,1.15,172.8,M,-34.4,M,,*57
lng=-77.439483, lat=43.140560, altitude=172.70, speed=19.20, satellites=7, angle=8.5600, fixquality=1
$GPRMC,134338.000,A,4308.4359,N,07726.3685,W,18.57,8.65,280519,,,A*4D
$GPGGA,134338.250,4308.4372,N,07726.3682,W,1,07,1.15,172.8,M,-34.4,M,,*51
lng=-77.439476, lat=43.140602, altitude=172.80, speed=18.57, satellites=7, angle=8.6500, fixquality=1
$GPRMC,134338.500,A,4308.4384,N,07726.3678,W,18.08,8.77,280519,,,A*43
$GPGGA,134338.750,4308.4397,N,07726.3675,W,1,07,1.15,172.9,M,-34.4,M,,*56
lng=-77.439460, lat=43.140640, altitude=172.80, speed=18.08, satellites=7, angle=8.7700, fixquality=1
$GPRMC,134339.000,A,4308.4409,N,07726.3673,W,17.35,8.56,280519,,,A*4C
$GPGGA,134339.250,4308.4421,N,07726.3670,W,1,07,1.15,173.2,M,-34.4,M,,*57
lng=-77.439453, lat=43.140682, altitude=172.90, speed=17.35, satellites=7, angle=8.5600, fixquality=1
$GPRMC,134339.500,A,4308.4432,N,07726.3666,W,16.54,9.18,280519,,,A*48
$GPGGA,134339.750,4308.4443,N,07726.3662,W,1,07,1.15,173.6,M,-34.4,M,,*51
lng=-77.439445, lat=43.140724, altitude=173.20, speed=16.54, satellites=7, angle=9.1800, fixquality=1
$GPRMC,134340.000,A,4308.4453,N,07726.3658,W,15.06,8.71,280519,,,A*43
$GPGGA,134340.250,4308.4463,N,07726.3654,W,1,07,1.15,173.7,M,-34.4,M,,*5C
lng=-77.439430, lat=43.140754, altitude=173.60, speed=15.06, satellites=7, angle=8.7100, fixquality=1
$GPRMC,134340.500,A,4308.4472,N,07726.3651,W,13.30,9.71,280519,,,A*4E
$GPGGA,134340.750,4308.4480,N,07726.3647,W,1,07,1.15,173.8,M,-34.4,M,,*59
lng=-77.439422, lat=43.140789, altitude=173.70, speed=13.30, satellites=7, angle=9.7100, fixquality=1
$GPRMC,134341.000,A,4308.4488,N,07726.3644,W,11.55,9.44,280519,,,A*4C
$GPGGA,134341.250,4308.4495,N,07726.3642,W,1,07,1.15,174.0,M,-34.4,M,,*53
lng=-77.439407, lat=43.140811, altitude=173.80, speed=11.55, satellites=7, angle=9.4400, fixquality=1
$GPRMC,134341.500,A,4308.4502,N,07726.3640,W,9.63,9.16,280519,,,A*75
$GPGGA,134341.750,4308.4508,N,07726.3637,W,1,07,1.15,174.1,M,-34.4,M,,*50
lng=-77.439399, lat=43.140834, altitude=174.00, speed=9.63, satellites=7, angle=9.1600, fixquality=1
$GPRMC,134342.000,A,4308.4513,N,07726.3635,W,7.39,10.19,280519,,,A*47
$GPGGA,134342.250,4308.4518,N,07726.3633,W,1,07,1.15,174.3,M,-34.4,M,,*51
lng=-77.439384, lat=43.140853, altitude=174.10, speed=7.39, satellites=7, angle=10.1900, fixquality=1
$GPRMC,134342.500,A,4308.4521,N,07726.3632,W,5.25,10.56,280519,,,A*40
$GPGGA,134342.750,4308.4524,N,07726.3630,W,1,07,1.15,174.4,M,-34.4,M,,*5F
lng=-77.439384, lat=43.140869, altitude=174.30, speed=5.25, satellites=7, angle=10.5600, fixquality=1
$GPRMC,134343.000,A,4308.4527,N,07726.3629,W,3.85,9.63,280519,,,A*7A
$GPGGA,134343.250,4308.4529,N,07726.3627,W,1,07,1.15,174.5,M,-34.4,M,,*51
lng=-77.439376, lat=43.140876, altitude=174.40, speed=3.85, satellites=7, angle=9.6300, fixquality=1
$GPRMC,134343.500,A,4308.4531,N,07726.3627,W,3.58,11.00,280519,,,A*4A
$GPGGA,134343.750,4308.4534,N,07726.3626,W,1,07,1.15,174.6,M,-34.4,M,,*5A
lng=-77.439376, lat=43.140884, altitude=174.50, speed=3.58, satellites=7, angle=11.0000, fixquality=1
$GPRMC,134344.000,A,4308.4536,N,07726.3625,W,3.52,10.98,280519,,,A*47
$GPGGA,134344.250,4308.4538,N,07726.3625,W,1,07,1.15,174.7,M,-34.4,M,,*56
lng=-77.439369, lat=43.140892, altitude=174.60, speed=3.52, satellites=7, angle=10.9800, fixquality=1
$GPRMC,134344.500,A,4308.4541,N,07726.3624,W,3.60,11.00,280519,,,A*42
$GPGGA,134344.750,4308.4543,N,07726.3623,W,1,07,1.15,174.8,M,-34.4,M,,*56
lng=-77.439369, lat=43.140903, altitude=174.70, speed=3.60, satellites=7, angle=11.0000, fixquality=1
$GPRMC,134345.000,A,4308.4546,N,07726.3623,W,3.64,11.57,280519,,,A*40
$GPGGA,134345.250,4308.4548,N,07726.3622,W,1,07,1.15,174.9,M,-34.4,M,,*59
lng=-77.439369, lat=43.140911, altitude=174.80, speed=3.64, satellites=7, angle=11.5700, fixquality=1
$GPRMC,134345.500,A,4308.4550,N,07726.3621,W,3.44,12.26,280519,,,A*47
$GPGGA,134345.750,4308.4552,N,07726.3620,W,1,07,1.15,174.9,M,-34.4,M,,*55
lng=-77.439369, lat=43.140918, altitude=174.90, speed=3.44, satellites=7, angle=12.2600, fixquality=1
$GPRMC,134346.000,A,4308.4554,N,07726.3620,W,3.31,11.00,280519,,,A*41
$GPGGA,134346.250,4308.4556,N,07726.3619,W,1,07,1.15,174.9,M,-34.4,M,,*5D
lng=-77.439361, lat=43.140926, altitude=174.90, speed=3.31, satellites=7, angle=11.0000, fixquality=1
$GPRMC,134346.500,A,4308.4558,N,07726.3619,W,3.42,15.87,280519,,,A*4D
$GPGGA,134346.750,4308.4561,N,07726.3617,W,1,07,1.11,175.0,M,-34.4,M,,*5E
lng=-77.439361, lat=43.140926, altitude=174.90, speed=3.42, satellites=7, angle=15.8700, fixquality=1
$GPRMC,134347.000,A,4308.4563,N,07726.3616,W,4.49,17.75,280519,,,A*4D
$GPGGA,134347.250,4308.4567,N,07726.3615,W,1,07,1.15,175.0,M,-34.4,M,,*5A
lng=-77.439361, lat=43.140933, altitude=175.00, speed=4.49, satellites=7, angle=17.7500, fixquality=1
$GPRMC,134347.500,A,4308.4571,N,07726.3612,W,5.61,23.74,280519,,,A*42
$GPGGA,134347.750,4308.4575,N,07726.3610,W,1,07,1.11,174.7,M,-34.4,M,,*5B
lng=-77.439353, lat=43.140949, altitude=175.00, speed=5.61, satellites=7, angle=23.7400, fixquality=1
$GPRMC,134348.000,A,4308.4578,N,07726.3607,W,6.17,27.71,280519,,,A*46
$GPGGA,134348.250,4308.4582,N,07726.3603,W,1,07,1.15,174.7,M,-34.4,M,,*5F
lng=-77.439346, lat=43.140968, altitude=174.70, speed=6.17, satellites=7, angle=27.7100, fixquality=1
$GPRMC,134348.500,A,4308.4585,N,07726.3599,W,6.69,40.83,280519,,,A*40
$GPGGA,134348.750,4308.4589,N,07726.3594,W,1,07,1.11,174.7,M,-34.4,M,,*58
lng=-77.439331, lat=43.140975, altitude=174.70, speed=6.69, satellites=7, angle=40.8300, fixquality=1
$GPRMC,134349.000,A,4308.4592,N,07726.3590,W,7.04,47.15,280519,,,A*49
$GPGGA,134349.250,4308.4595,N,07726.3584,W,1,07,1.15,174.8,M,-34.4,M,,*5B
lng=-77.439315, lat=43.140983, altitude=174.70, speed=7.04, satellites=7, angle=47.1500, fixquality=1
$GPRMC,134349.500,A,4308.4598,N,07726.3579,W,8.02,59.12,280519,,,A*40
$GPGGA,134349.750,4308.4601,N,07726.3572,W,1,07,1.11,174.8,M,-34.4,M,,*5D
lng=-77.439300, lat=43.140998, altitude=174.80, speed=8.02, satellites=7, angle=59.1200, fixquality=1
$GPRMC,134350.000,A,4308.4602,N,07726.3564,W,9.13,71.93,280519,,,A*43
$GPGGA,134350.250,4308.4603,N,07726.3554,W,1,07,1.15,174.9,M,-34.4,M,,*53
lng=-77.439277, lat=43.140998, altitude=174.80, speed=9.13, satellites=7, angle=71.9300, fixquality=1
$GPRMC,134350.500,A,4308.4603,N,07726.3544,W,10.68,81.18,280519,,,A*7D
$GPGGA,134350.750,4308.4604,N,07726.3533,W,1,07,1.11,174.9,M,-34.4,M,,*54
lng=-77.439239, lat=43.141006, altitude=174.90, speed=10.68, satellites=7, angle=81.1800, fixquality=1
$GPRMC,134351.000,A,4308.4603,N,07726.3521,W,12.10,89.17,280519,,,A*70
$GPGGA,134351.250,4308.4601,N,07726.3508,W,1,07,1.15,175.1,M,-34.4,M,,*50
lng=-77.439201, lat=43.141006, altitude=174.90, speed=12.10, satellites=7, angle=89.1700, fixquality=1
$GPRMC,134351.500,A,4308.4600,N,07726.3493,W,14.33,97.06,280519,,,A*76
$GPGGA,134351.750,4308.4599,N,07726.3479,W,1,07,1.11,175.2,M,-34.4,M,,*57
lng=-77.439155, lat=43.140998, altitude=175.10, speed=14.33, satellites=7, angle=97.0600, fixquality=1
$GPRMC,134352.000,A,4308.4597,N,07726.3464,W,15.18,99.94,280519,,,A*78
$GPGGA,134352.250,4308.4595,N,07726.3449,W,1,07,1.15,175.3,M,-34.4,M,,*5B
lng=-77.439102, lat=43.140991, altitude=175.20, speed=15.18, satellites=7, angle=99.9400, fixquality=1
$GPRMC,134352.500,A,4308.4593,N,07726.3432,W,16.91,98.71,280519,,,A*72
$GPGGA,134352.750,4308.4592,N,07726.3416,W,1,07,1.11,175.4,M,-34.4,M,,*50
lng=-77.439056, lat=43.140991, altitude=175.30, speed=16.91, satellites=7, angle=98.7100, fixquality=1
$GPRMC,134353.000,A,4308.4590,N,07726.3397,W,18.54,98.25,280519,,,A*7B
$GPGGA,134353.250,4308.4588,N,07726.3379,W,1,07,1.11,175.5,M,-34.4,M,,*50
lng=-77.438995, lat=43.140983, altitude=175.40, speed=18.54, satellites=7, angle=98.2500, fixquality=1
$GPRMC,134353.500,A,4308.4586,N,07726.3359,W,19.86,97.80,280519,,,A*75
$GPGGA,134353.750,4308.4584,N,07726.3339,W,1,07,1.11,175.7,M,-34.4,M,,*5F
lng=-77.438934, lat=43.140975, altitude=175.50, speed=19.86, satellites=7, angle=97.8000, fixquality=1
$GPRMC,134354.000,A,4308.4581,N,07726.3319,W,21.54,97.91,280519,,,A*70
$GPGGA,134354.250,4308.4579,N,07726.3297,W,1,07,1.11,175.8,M,-34.4,M,,*55
lng=-77.438865, lat=43.140968, altitude=175.70, speed=21.54, satellites=7, angle=97.9100, fixquality=1
$GPRMC,134354.500,A,4308.4576,N,07726.3275,W,23.24,97.86,280519,,,A*75
$GPGGA,134354.750,4308.4574,N,07726.3253,W,1,07,1.11,175.8,M,-34.4,M,,*55
lng=-77.438796, lat=43.140956, altitude=175.80, speed=23.24, satellites=7, angle=97.8600, fixquality=1
$GPRMC,134355.000,A,4308.4571,N,07726.3229,W,24.41,98.48,280519,,,A*76
$GPGGA,134355.250,4308.4569,N,07726.3206,W,1,07,1.15,175.9,M,-34.4,M,,*58
lng=-77.438713, lat=43.140949, altitude=175.80, speed=24.41, satellites=7, angle=98.4800, fixquality=1
$GPRMC,134355.500,A,4308.4566,N,07726.3181,W,25.89,98.28,280519,,,A*77
$GPGGA,134355.750,4308.4563,N,07726.3157,W,1,07,1.11,176.1,M,-34.4,M,,*5F
lng=-77.438629, lat=43.140941, altitude=175.90, speed=25.89, satellites=7, angle=98.2800, fixquality=1
$GPRMC,134356.000,A,4308.4560,N,07726.3132,W,26.84,98.48,280519,,,A*77
$GPGGA,134356.250,4308.4556,N,07726.3107,W,1,07,1.15,176.1,M,-34.4,M,,*5E
lng=-77.438552, lat=43.140933, altitude=176.10, speed=26.84, satellites=7, angle=98.4800, fixquality=1
$GPRMC,134356.500,A,4308.4553,N,07726.3081,W,27.70,98.15,280519,,,A*79
$GPGGA,134356.750,4308.4550,N,07726.3054,W,1,07,1.11,176.2,M,-34.4,M,,*5D
lng=-77.438468, lat=43.140918, altitude=176.10, speed=27.70, satellites=7, angle=98.1500, fixquality=1
$GPRMC,134357.000,A,4308.4547,N,07726.3027,W,28.45,98.10,280519,,,A*78
$GPGGA,134357.250,4308.4544,N,07726.3000,W,1,07,1.15,176.1,M,-34.4,M,,*5A
lng=-77.438377, lat=43.140911, altitude=176.20, speed=28.45, satellites=7, angle=98.1000, fixquality=1
$GPRMC,134357.500,A,4308.4541,N,07726.2972,W,28.81,97.84,280519,,,A*79
$GPGGA,134357.750,4308.4538,N,07726.2944,W,1,07,1.11,176.1,M,-34.4,M,,*58
lng=-77.438285, lat=43.140903, altitude=176.10, speed=28.81, satellites=7, angle=97.8400, fixquality=1
$GPRMC,134358.000,A,4308.4535,N,07726.2916,W,29.39,97.73,280519,,,A*78
$GPGGA,134358.250,4308.4532,N,07726.2888,W,1,07,1.15,176.2,M,-34.4,M,,*5E
lng=-77.438194, lat=43.140892, altitude=176.10, speed=29.39, satellites=7, angle=97.7300, fixquality=1
$GPRMC,134358.500,A,4308.4529,N,07726.2859,W,29.74,97.36,280519,,,A*72
$GPGGA,134358.750,4308.4526,N,07726.2831,W,1,07,1.15,176.1,M,-34.4,M,,*5F
lng=-77.438102, lat=43.140884, altitude=176.20, speed=29.74, satellites=7, angle=97.3600, fixquality=1
$GPRMC,134359.000,A,4308.4523,N,07726.2802,W,30.56,97.49,280519,,,A*72
$GPGGA,134359.250,4308.4520,N,07726.2773,W,1,07,1.15,175.9,M,-34.4,M,,*5F
lng=-77.438003, lat=43.140869, altitude=176.10, speed=30.56, satellites=7, angle=97.4900, fixquality=1
$GPRMC,134359.500,A,4308.4518,N,07726.2743,W,30.89,97.56,280519,,,A*79
$GPGGA,134359.750,4308.4514,N,07726.2714,W,1,07,1.15,175.6,M,-34.4,M,,*53
lng=-77.437904, lat=43.140861, altitude=175.90, speed=30.89, satellites=7, angle=97.5600, fixquality=1
$GPRMC,134400.000,A,4308.4511,N,07726.2685,W,31.11,97.54,280519,,,A*77
$GPGGA,134400.250,4308.4508,N,07726.2655,W,1,07,1.15,175.4,M,-34.4,M,,*56
lng=-77.437812, lat=43.140853, altitude=175.60, speed=31.11, satellites=7, angle=97.5400, fixquality=1
$GPRMC,134400.500,A,4308.4505,N,07726.2626,W,31.39,97.44,280519,,,A*75
$GPGGA,134400.750,4308.4502,N,07726.2596,W,1,07,1.15,175.3,M,-34.4,M,,*52
lng=-77.437713, lat=43.140846, altitude=175.40, speed=31.39, satellites=7, angle=97.4400, fixquality=1
$GPRMC,134401.000,A,4308.4499,N,07726.2566,W,31.49,97.66,280519,,,A*75
$GPGGA,134401.250,4308.4495,N,07726.2536,W,1,07,1.15,175.1,M,-34.4,M,,*51
lng=-77.437614, lat=43.140827, altitude=175.30, speed=31.49, satellites=7, angle=97.6600, fixquality=1
$GPRMC,134401.500,A,4308.4492,N,07726.2506,W,31.75,97.69,280519,,,A*7D
$GPGGA,134401.750,4308.4489,N,07726.2476,W,1,07,1.15,174.8,M,-34.4,M,,*54
lng=-77.437507, lat=43.140819, altitude=175.10, speed=31.75, satellites=7, angle=97.6900, fixquality=1
$GPRMC,134402.000,A,4308.4486,N,07726.2446,W,31.95,97.87,280519,,,A*75
$GPGGA,134402.250,4308.4483,N,07726.2415,W,1,07,1.15,174.7,M,-34.4,M,,*52
lng=-77.437408, lat=43.140811, altitude=174.80, speed=31.95, satellites=7, angle=97.8700, fixquality=1
$GPRMC,134402.500,A,4308.4480,N,07726.2384,W,32.13,97.33,280519,,,A*7D
$GPGGA,134402.750,4308.4477,N,07726.2354,W,1,07,1.15,174.5,M,-34.4,M,,*5C
lng=-77.437301, lat=43.140804, altitude=174.70, speed=32.13, satellites=7, angle=97.3300, fixquality=1
$GPRMC,134403.000,A,4308.4474,N,07726.2324,W,32.22,97.12,280519,,,A*79
$GPGGA,134403.250,4308.4472,N,07726.2293,W,1,07,1.15,174.4,M,-34.4,M,,*56
lng=-77.437210, lat=43.140789, altitude=174.50, speed=32.22, satellites=7, angle=97.1200, fixquality=1
$GPRMC,134403.500,A,4308.4469,N,07726.2263,W,32.31,96.91,280519,,,A*7A
$GPGGA,134403.750,4308.4466,N,07726.2232,W,1,07,1.15,174.3,M,-34.4,M,,*5A
lng=-77.437103, lat=43.140781, altitude=174.40, speed=32.31, satellites=7, angle=96.9100, fixquality=1
$GPRMC,134404.000,A,4308.4463,N,07726.2201,W,32.58,97.10,280519,,,A*71
$GPGGA,134404.250,4308.4460,N,07726.2170,W,1,07,1.15,174.1,M,-34.4,M,,*59
lng=-77.437004, lat=43.140769, altitude=174.30, speed=32.58, satellites=7, angle=97.1000, fixquality=1
$GPRMC,134404.500,A,4308.4458,N,07726.2140,W,32.44,96.88,280519,,,A*77
$GPGGA,134404.750,4308.4455,N,07726.2109,W,1,07,1.11,173.9,M,-34.4,M,,*5F
lng=-77.436897, lat=43.140762, altitude=174.10, speed=32.44, satellites=7, angle=96.8800, fixquality=1
$GPRMC,134405.000,A,4308.4452,N,07726.2078,W,32.52,97.07,280519,,,A*72
$GPGGA,134405.250,4308.4450,N,07726.2047,W,1,07,1.15,173.9,M,-34.4,M,,*51
lng=-77.436798, lat=43.140754, altitude=173.90, speed=32.52, satellites=7, angle=97.0700, fixquality=1
$GPRMC,134405.500,A,4308.4447,N,07726.2017,W,32.51,97.41,280519,,,A*7B
$GPGGA,134405.750,4308.4444,N,07726.1986,W,1,07,1.11,173.8,M,-34.4,M,,*53
lng=-77.436691, lat=43.140747, altitude=173.90, speed=32.51, satellites=7, angle=97.4100, fixquality=1
$GPRMC,134406.000,A,4308.4441,N,07726.1955,W,32.48,97.33,280519,,,A*7A
$GPGGA,134406.250,4308.4438,N,07726.1924,W,1,07,1.15,173.6,M,-34.4,M,,*5C
lng=-77.436592, lat=43.140739, altitude=173.80, speed=32.48, satellites=7, angle=97.3300, fixquality=1
$GPRMC,134406.500,A,4308.4435,N,07726.1894,W,32.43,97.33,280519,,,A*7B
$GPGGA,134406.750,4308.4432,N,07726.1863,W,1,07,1.11,173.5,M,-34.4,M,,*56
lng=-77.436492, lat=43.140724, altitude=173.60, speed=32.43, satellites=7, angle=97.3300, fixquality=1
$GPRMC,134407.000,A,4308.4429,N,07726.1832,W,32.49,97.26,280519,,,A*70
$GPGGA,134407.250,4308.4426,N,07726.1801,W,1,07,1.15,173.4,M,-34.4,M,,*56
lng=-77.436386, lat=43.140712, altitude=173.50, speed=32.49, satellites=7, angle=97.2600, fixquality=1
$GPRMC,134407.500,A,4308.4424,N,07726.1770,W,32.52,97.23,280519,,,A*7E
$GPGGA,134407.750,4308.4420,N,07726.1738,W,1,07,1.15,173.2,M,-34.4,M,,*56
lng=-77.436279, lat=43.140705, altitude=173.40, speed=32.52, satellites=7, angle=97.2300, fixquality=1
$GPRMC,134408.000,A,4308.4417,N,07726.1707,W,32.64,97.56,280519,,,A*73
$GPGGA,134408.250,4308.4414,N,07726.1675,W,1,07,1.15,173.0,M,-34.4,M,,*51
lng=-77.436180, lat=43.140697, altitude=173.20, speed=32.64, satellites=7, angle=97.5600, fixquality=1
$GPRMC,134408.500,A,4308.4411,N,07726.1643,W,32.77,97.55,280519,,,A*70
$GPGGA,134408.750,4308.4408,N,07726.1611,W,1,07,1.11,172.8,M,-34.4,M,,*56
lng=-77.436065, lat=43.140682, altitude=173.00, speed=32.77, satellites=7, angle=97.5500, fixquality=1
$GPRMC,134409.000,A,4308.4405,N,07726.1579,W,32.93,97.80,280519,,,A*79
$GPGGA,134409.250,4308.4402,N,07726.1548,W,1,07,1.11,172.6,M,-34.4,M,,*59
lng=-77.435958, lat=43.140674, altitude=172.80, speed=32.93, satellites=7, angle=97.8000, fixquality=1
$GPRMC,134409.500,A,4308.4398,N,07726.1517,W,32.85,98.80,280519,,,A*7F
$GPGGA,134409.750,4308.4395,N,07726.1486,W,1,07,1.11,172.4,M,-34.4,M,,*54
lng=-77.435867, lat=43.140666, altitude=172.60, speed=32.85, satellites=7, angle=98.8000, fixquality=1
$GPRMC,134410.000,A,4308.4392,N,07726.1455,W,32.76,97.55,280519,,,A*74
$GPGGA,134410.250,4308.4389,N,07726.1424,W,1,07,1.11,172.3,M,-34.4,M,,*5B
lng=-77.435760, lat=43.140647, altitude=172.40, speed=32.76, satellites=7, angle=97.5500, fixquality=1
$GPRMC,134410.500,A,4308.4386,N,07726.1393,W,32.69,96.83,280519,,,A*7D
$GPGGA,134410.750,4308.4384,N,07726.1362,W,1,07,1.11,172.2,M,-34.4,M,,*57
lng=-77.435653, lat=43.140640, altitude=172.30, speed=32.69, satellites=7, angle=96.8300, fixquality=1
$GPRMC,134411.000,A,4308.4381,N,07726.1332,W,32.30,96.16,280519,,,A*75
$GPGGA,134411.250,4308.4379,N,07726.1301,W,1,07,1.11,172.0,M,-34.4,M,,*56
lng=-77.435554, lat=43.140632, altitude=172.20, speed=32.30, satellites=7, angle=96.1600, fixquality=1
$GPRMC,134411.500,A,4308.4378,N,07726.1271,W,31.95,94.80,280519,,,A*71
$GPGGA,134411.750,4308.4376,N,07726.1240,W,1,07,1.11,171.9,M,-34.4,M,,*52
lng=-77.435447, lat=43.140632, altitude=172.00, speed=31.95, satellites=7, angle=94.8000, fixquality=1
$GPRMC,134412.000,A,4308.4374,N,07726.1209,W,32.01,94.00,280519,,,A*72
$GPGGA,134412.250,4308.4373,N,07726.1178,W,1,07,1.11,171.7,M,-34.4,M,,*57
lng=-77.435348, lat=43.140625, altitude=171.90, speed=32.01, satellites=7, angle=94.0000, fixquality=1
$GPRMC,134412.500,A,4308.4373,N,07726.1147,W,32.25,92.53,280519,,,A*7F
$GPGGA,134412.750,4308.4373,N,07726.1116,W,1,07,1.11,171.5,M,-34.4,M,,*58
lng=-77.435249, lat=43.140625, altitude=171.70, speed=32.25, satellites=7, angle=92.5300, fixquality=1
$GPRMC,134413.000,A,4308.4374,N,07726.1085,W,32.64,89.57,280519,,,A*78
$GPGGA,134413.250,4308.4375,N,07726.1053,W,1,07,1.11,171.3,M,-34.4,M,,*5C
lng=-77.435142, lat=43.140625, altitude=171.50, speed=32.64, satellites=7, angle=89.5700, fixquality=1
$GPRMC,134413.500,A,4308.4376,N,07726.1022,W,32.69,87.72,280519,,,A*76
$GPGGA,134413.750,4308.4377,N,07726.0991,W,1,07,1.11,171.1,M,-34.4,M,,*5F
lng=-77.435035, lat=43.140625, altitude=171.30, speed=32.69, satellites=7, angle=87.7200, fixquality=1
$GPRMC,134414.000,A,4308.4379,N,07726.0959,W,32.93,85.97,280519,,,A*73
$GPGGA,134414.250,4308.4382,N,07726.0928,W,1,07,1.11,170.8,M,-34.4,M,,*5D
lng=-77.434928, lat=43.140632, altitude=171.10, speed=32.93, satellites=7, angle=85.9700, fixquality=1
$GPRMC,134414.500,A,4308.4385,N,07726.0896,W,33.46,83.81,280519,,,A*7F
$GPGGA,134414.750,4308.4388,N,07726.0864,W,1,07,1.11,170.6,M,-34.4,M,,*55
lng=-77.434822, lat=43.140640, altitude=170.80, speed=33.46, satellites=7, angle=83.8100, fixquality=1
$GPRMC,134415.000,A,4308.4393,N,07726.0832,W,33.82,80.78,280519,,,A*7F
$GPGGA,134415.250,4308.4398,N,07726.0800,W,1,07,1.11,170.5,M,-34.4,M,,*51
lng=-77.434715, lat=43.140659, altitude=170.60, speed=33.82, satellites=7, angle=80.7800, fixquality=1
$GPRMC,134415.500,A,4308.4403,N,07726.0768,W,34.03,78.02,280519,,,A*70
$GPGGA,134415.750,4308.4408,N,07726.0737,W,1,07,1.11,170.2,M,-34.4,M,,*56
lng=-77.434608, lat=43.140674, altitude=170.50, speed=34.03, satellites=7, angle=78.0200, fixquality=1
$GPRMC,134416.000,A,4308.4414,N,07726.0705,W,34.23,76.42,280519,,,A*73
$GPGGA,134416.250,4308.4421,N,07726.0672,W,1,07,1.11,169.9,M,-34.4,M,,*58
lng=-77.434501, lat=43.140689, altitude=170.20, speed=34.23, satellites=7, angle=76.4200, fixquality=1
$GPRMC,134416.500,A,4308.4427,N,07726.0640,W,34.65,75.77,280519,,,A*71
$GPGGA,134416.750,4308.4434,N,07726.0608,W,1,07,1.11,169.7,M,-34.4,M,,*5A
lng=-77.434402, lat=43.140712, altitude=169.90, speed=34.65, satellites=7, angle=75.7700, fixquality=1
$GPRMC,134417.000,A,4308.4441,N,07726.0575,W,34.98,73.93,280519,,,A*7E
$GPGGA,134417.250,4308.4448,N,07726.0542,W,1,07,1.11,169.5,M,-34.4,M,,*5A
lng=-77.434295, lat=43.140739, altitude=169.70, speed=34.98, satellites=7, angle=73.9300, fixquality=1
$GPRMC,134417.500,A,4308.4456,N,07726.0509,W,36.87,72.83,280519,,,A*7A
$GPGGA,134417.750,4308.4463,N,07726.0475,W,1,07,1.11,169.3,M,-34.4,M,,*55
lng=-77.434181, lat=43.140762, altitude=169.50, speed=36.87, satellites=7, angle=72.8300, fixquality=1
$GPRMC,134418.000,A,4308.4470,N,07726.0442,W,36.28,73.38,280519,,,A*7E
$GPGGA,134418.250,4308.4477,N,07726.0409,W,1,07,1.11,169.2,M,-34.4,M,,*50
lng=-77.434074, lat=43.140781, altitude=169.30, speed=36.28, satellites=7, angle=73.3800, fixquality=1
$GPRMC,134418.500,A,4308.4484,N,07726.0375,W,36.38,74.84,280519,,,A*72
$GPGGA,134418.750,4308.4491,N,07726.0341,W,1,07,1.11,169.0,M,-34.4,M,,*54
lng=-77.433959, lat=43.140804, altitude=169.20, speed=36.38, satellites=7, angle=74.8400, fixquality=1
$GPRMC,134419.000,A,4308.4497,N,07726.0308,W,35.96,74.40,280519,,,A*71
$GPGGA,134419.250,4308.4504,N,07726.0277,W,1,07,1.15,168.9,M,-34.4,M,,*55
lng=-77.433845, lat=43.140827, altitude=169.00, speed=35.96, satellites=7, angle=74.4000, fixquality=1
$GPRMC,134419.500,A,4308.4511,N,07726.0245,W,34.73,73.04,280519,,,A*7E
$GPGGA,134419.750,4308.4519,N,07726.0213,W,1,07,1.11,168.8,M,-34.4,M,,*5B
lng=-77.433738, lat=43.140853, altitude=168.90, speed=34.73, satellites=7, angle=73.0400, fixquality=1
$GPRMC,134420.000,A,4308.4526,N,07726.0182,W,34.43,72.33,280519,,,A*7B
$GPGGA,134420.250,4308.4534,N,07726.0151,W,1,07,1.15,168.7,M,-34.4,M,,*55
lng=-77.433631, lat=43.140876, altitude=168.80, speed=34.43, satellites=7, angle=72.3300, fixquality=1
$GPRMC,134420.500,A,4308.4542,N,07726.0120,W,34.31,70.22,280519,,,A*73
$GPGGA,134420.750,4308.4550,N,07726.0090,W,1,07,1.11,168.6,M,-34.4,M,,*5B
lng=-77.433540, lat=43.140903, altitude=168.70, speed=34.31, satellites=7, angle=70.2200, fixquality=1
$GPRMC,134421.000,A,4308.4559,N,07726.0060,W,34.05,67.78,280519,,,A*76
$GPGGA,134421.250,4308.4569,N,07726.0030,W,1,07,1.11,168.4,M,-34.4,M,,*5D
lng=-77.433433, lat=43.140933, altitude=168.60, speed=34.05, satellites=7, angle=67.7800, fixquality=1
$GPRMC,134421.500,A,4308.4580,N,07726.0001,W,34.03,63.55,280519,,,A*7D
$GPGGA,134421.750,4308.4591,N,07725.9972,W,1,07,1.11,168.3,M,-34.4,M,,*5D
lng=-77.433334, lat=43.140968, altitude=168.40, speed=34.03, satellites=7, angle=63.5500, fixquality=1
$GPRMC,134422.000,A,4308.4603,N,07725.9944,W,34.29,59.67,280519,,,A*71
$GPGGA,134422.250,4308.4616,N,07725.9916,W,1,07,1.11,168.0,M,-34.4,M,,*56
lng=-77.433242, lat=43.141006, altitude=168.30, speed=34.29, satellites=7, angle=59.6700, fixquality=1
$GPRMC,134422.500,A,4308.4630,N,07725.9888,W,34.56,55.38,280519,,,A*7B
$GPGGA,134422.750,4308.4644,N,07725.9861,W,1,07,1.11,167.8,M,-34.4,M,,*52
lng=-77.433143, lat=43.141048, altitude=168.00, speed=34.56, satellites=7, angle=55.3800, fixquality=1
$GPRMC,134423.000,A,4308.4659,N,07725.9835,W,35.01,51.55,280519,,,A*7A
$GPGGA,134423.250,4308.4676,N,07725.9809,W,1,07,1.15,167.6,M,-34.4,M,,*53
lng=-77.433059, lat=43.141098, altitude=167.80, speed=35.01, satellites=7, angle=51.5500, fixquality=1
$GPRMC,134423.500,A,4308.4693,N,07725.9784,W,35.08,47.54,280519,,,A*73
$GPGGA,134423.750,4308.4710,N,07725.9759,W,1,07,1.11,167.4,M,-34.4,M,,*5B
lng=-77.432975, lat=43.141155, altitude=167.60, speed=35.08, satellites=7, angle=47.5400, fixquality=1
$GPRMC,134424.000,A,4308.4727,N,07725.9734,W,35.92,47.07,280519,,,A*71
$GPGGA,134424.250,4308.4744,N,07725.9709,W,1,07,1.11,167.2,M,-34.4,M,,*5B
lng=-77.432891, lat=43.141212, altitude=167.40, speed=35.92, satellites=7, angle=47.0700, fixquality=1
$GPRMC,134424.500,A,4308.4762,N,07725.9685,W,35.96,46.47,280519,,,A*7F
$GPGGA,134424.750,4308.4780,N,07725.9660,W,1,07,1.11,167.0,M,-34.4,M,,*5A
lng=-77.432807, lat=43.141269, altitude=167.20, speed=35.96, satellites=7, angle=46.4700, fixquality=1
$GPRMC,134425.000,A,4308.4797,N,07725.9635,W,36.06,46.28,280519,,,A*79
$GPGGA,134425.250,4308.4815,N,07725.9610,W,1,07,1.11,166.8,M,-34.4,M,,*53
lng=-77.432723, lat=43.141323, altitude=167.00, speed=36.06, satellites=7, angle=46.2800, fixquality=1
$GPRMC,134425.500,A,4308.4833,N,07725.9585,W,36.52,46.11,280519,,,A*7E
$GPGGA,134425.750,4308.4851,N,07725.9560,W,1,07,1.11,166.5,M,-34.4,M,,*5F
lng=-77.432640, lat=43.141391, altitude=166.80, speed=36.52, satellites=7, angle=46.1100, fixquality=1
$GPRMC,134426.000,A,4308.4869,N,07725.9535,W,36.68,46.20,280519,,,A*77
$GPGGA,134426.250,4308.4887,N,07725.9510,W,1,07,1.15,166.3,M,-34.4,M,,*57
lng=-77.432563, lat=43.141445, altitude=166.50, speed=36.68, satellites=7, angle=46.2000, fixquality=1
$GPRMC,134426.500,A,4308.4906,N,07725.9484,W,36.85,46.36,280519,,,A*75
$GPGGA,134426.750,4308.4924,N,07725.9459,W,1,07,1.15,166.2,M,-34.4,M,,*57
lng=-77.432472, lat=43.141513, altitude=166.30, speed=36.85, satellites=7, angle=46.3600, fixquality=1
$GPRMC,134427.000,A,4308.4942,N,07725.9434,W,36.80,46.39,280519,,,A*70
$GPGGA,134427.250,4308.4960,N,07725.9409,W,1,07,1.15,166.1,M,-34.4,M,,*55
lng=-77.432388, lat=43.141567, altitude=166.20, speed=36.80, satellites=7, angle=46.3900, fixquality=1
$GPRMC,134427.500,A,4308.4978,N,07725.9384,W,36.50,46.71,280519,,,A*71
$GPGGA,134427.750,4308.4996,N,07725.9358,W,1,07,1.15,165.9,M,-34.4,M,,*51
lng=-77.432304, lat=43.141624, altitude=166.10, speed=36.50, satellites=7, angle=46.7100, fixquality=1
$GPRMC,134428.000,A,4308.5014,N,07725.9333,W,36.60,46.92,280519,,,A*7B
$GPGGA,134428.250,4308.5032,N,07725.9308,W,1,07,1.15,165.9,M,-34.4,M,,*58
lng=-77.432220, lat=43.141689, altitude=165.90, speed=36.60, satellites=7, angle=46.9200, fixquality=1
$GPRMC,134428.500,A,4308.5049,N,07725.9283,W,36.62,46.87,280519,,,A*7A
$GPGGA,134428.750,4308.5067,N,07725.9258,W,1,07,1.15,166.0,M,-34.4,M,,*53
lng=-77.432136, lat=43.141746, altitude=165.90, speed=36.62, satellites=7, angle=46.8700, fixquality=1
$GPRMC,134429.000,A,4308.5085,N,07725.9233,W,36.66,46.55,280519,,,A*7E
$GPGGA,134429.250,4308.5103,N,07725.9208,W,1,07,1.15,166.0,M,-34.4,M,,*51
lng=-77.432052, lat=43.141803, altitude=166.00, speed=36.66, satellites=7, angle=46.5500, fixquality=1
$GPRMC,134429.500,A,4308.5121,N,07725.9182,W,36.67,46.49,280519,,,A*71
$GPGGA,134429.750,4308.5139,N,07725.9157,W,1,07,1.15,166.0,M,-34.4,M,,*54
lng=-77.431968, lat=43.141868, altitude=166.00, speed=36.67, satellites=7, angle=46.4900, fixquality=1
$GPRMC,134430.000,A,4308.5157,N,07725.9132,W,36.87,46.38,280519,,,A*7E
$GPGGA,134430.250,4308.5175,N,07725.9107,W,1,07,1.15,166.1,M,-34.4,M,,*55
lng=-77.431884, lat=43.141925, altitude=166.00, speed=36.87, satellites=7, angle=46.3800, fixquality=1
$GPRMC,134430.500,A,4308.5193,N,07725.9082,W,36.68,46.44,280519,,,A*73
$GPGGA,134430.750,4308.5211,N,07725.9057,W,1,07,1.15,166.3,M,-34.4,M,,*57
lng=-77.431800, lat=43.141990, altitude=166.10, speed=36.68, satellites=7, angle=46.4400, fixquality=1
$GPRMC,134431.000,A,4308.5229,N,07725.9031,W,36.76,46.40,280519,,,A*76
$GPGGA,134431.250,4308.5247,N,07725.9006,W,1,07,1.15,166.6,M,-34.4,M,,*51
lng=-77.431724, lat=43.142047, altitude=166.30, speed=36.76, satellites=7, angle=46.4000, fixquality=1
$GPRMC,134431.500,A,4308.5265,N,07725.8980,W,37.23,46.33,280519,,,A*7C
$GPGGA,134431.750,4308.5283,N,07725.8955,W,1,07,1.15,166.6,M,-34.4,M,,*52
lng=-77.431632, lat=43.142105, altitude=166.60, speed=37.23, satellites=7, angle=46.3300, fixquality=1
$GPRMC,134432.000,A,4308.5301,N,07725.8930,W,37.30,46.34,280519,,,A*77
$GPGGA,134432.250,4308.5319,N,07725.8904,W,1,07,1.15,166.9,M,-34.4,M,,*5D
lng=-77.431549, lat=43.142169, altitude=166.60, speed=37.30, satellites=7, angle=46.3400, fixquality=1
$GPRMC,134432.500,A,4308.5338,N,07725.8878,W,37.36,46.34,280519,,,A*73
$GPGGA,134432.750,4308.5356,N,07725.8852,W,1,08,1.13,166.7,M,-34.4,M,,*56
lng=-77.431465, lat=43.142227, altitude=166.90, speed=37.36, satellites=7, angle=46.3400, fixquality=1
$GPRMC,134433.000,A,4308.5374,N,07725.8826,W,37.40,46.38,280519,,,A*79
$GPGGA,134433.250,4308.5392,N,07725.8800,W,1,08,1.13,166.7,M,-34.4,M,,*5D
lng=-77.431381, lat=43.142292, altitude=166.70, speed=37.40, satellites=8, angle=46.3800, fixquality=1
$GPRMC,134433.500,A,4308.5410,N,07725.8775,W,37.41,46.51,280519,,,A*7E
$GPGGA,134433.750,4308.5429,N,07725.8749,W,1,08,1.13,166.6,M,-34.4,M,,*5C
lng=-77.431289, lat=43.142349, altitude=166.70, speed=37.41, satellites=8, angle=46.5100, fixquality=1
$GPRMC,134434.000,A,4308.5447,N,07725.8722,W,37.49,46.94,280519,,,A*7D
$GPGGA,134434.250,4308.5465,N,07725.8696,W,1,08,1.13,166.5,M,-34.4,M,,*56
lng=-77.431198, lat=43.142414, altitude=166.60, speed=37.49, satellites=8, angle=46.9400, fixquality=1
$GPRMC,134434.500,A,4308.5483,N,07725.8670,W,37.64,47.10,280519,,,A*74
$GPGGA,134434.750,4308.5501,N,07725.8643,W,1,08,1.13,166.3,M,-34.4,M,,*5E
lng=-77.431121, lat=43.142471, altitude=166.50, speed=37.64, satellites=8, angle=47.1000, fixquality=1
$GPRMC,134435.000,A,4308.5519,N,07725.8617,W,37.66,47.39,280519,,,A*7A
$GPGGA,134435.250,4308.5537,N,07725.8590,W,1,08,1.13,166.2,M,-34.4,M,,*53
lng=-77.431030, lat=43.142528, altitude=166.30, speed=37.66, satellites=8, angle=47.3900, fixquality=1
$GPRMC,134435.500,A,4308.5555,N,07725.8563,W,37.66,47.71,280519,,,A*7B
$GPGGA,134435.750,4308.5572,N,07725.8537,W,1,08,1.13,166.0,M,-34.4,M,,*58
lng=-77.430938, lat=43.142593, altitude=166.20, speed=37.66, satellites=8, angle=47.7100, fixquality=1
$GPRMC,134436.000,A,4308.5590,N,07725.8511,W,37.30,47.24,280519,,,A*72
$GPGGA,134436.250,4308.5608,N,07725.8485,W,1,08,1.13,165.8,M,-34.4,M,,*53
lng=-77.430854, lat=43.142650, altitude=166.00, speed=37.30, satellites=8, angle=47.2400, fixquality=1
$GPRMC,134436.500,A,4308.5625,N,07725.8459,W,36.78,46.90,280519,,,A*74
$GPGGA,134436.750,4308.5643,N,07725.8433,W,1,08,1.13,165.5,M,-34.4,M,,*59
lng=-77.430763, lat=43.142707, altitude=165.80, speed=36.78, satellites=8, angle=46.9000, fixquality=1
$GPRMC,134437.000,A,4308.5661,N,07725.8408,W,36.69,47.05,280519,,,A*79
$GPGGA,134437.250,4308.5678,N,07725.8383,W,1,08,1.13,165.3,M,-34.4,M,,*5F
lng=-77.430679, lat=43.142765, altitude=165.50, speed=36.69, satellites=8, angle=47.0500, fixquality=1
$GPRMC,134437.500,A,4308.5695,N,07725.8358,W,36.43,46.88,280519,,,A*79
$GPGGA,134437.750,4308.5712,N,07725.8333,W,1,08,1.13,165.1,M,-34.4,M,,*5E
lng=-77.430595, lat=43.142822, altitude=165.30, speed=36.43, satellites=8, angle=46.8800, fixquality=1
$GPRMC,134438.000,A,4308.5729,N,07725.8308,W,35.46,46.65,280519,,,A*75
$GPGGA,134438.250,4308.5746,N,07725.8283,W,1,08,1.13,164.9,M,-34.4,M,,*56
lng=-77.430511, lat=43.142879, altitude=165.10, speed=35.46, satellites=8, angle=46.6500, fixquality=1
$GPRMC,134438.500,A,4308.5763,N,07725.8259,W,35.11,46.68,280519,,,A*74
$GPGGA,134438.750,4308.5780,N,07725.8235,W,1,08,1.13,164.8,M,-34.4,M,,*55
lng=-77.430427, lat=43.142936, altitude=164.90, speed=35.11, satellites=8, angle=46.6800, fixquality=1
$GPRMC,134439.000,A,4308.5797,N,07725.8211,W,34.60,46.56,280519,,,A*7D
$GPGGA,134439.250,4308.5813,N,07725.8187,W,1,08,1.13,164.8,M,-34.4,M,,*5E
lng=-77.430351, lat=43.142993, altitude=164.80, speed=34.60, satellites=8, angle=46.5600, fixquality=1
$GPRMC,134439.500,A,4308.5830,N,07725.8164,W,34.47,46.36,280519,,,A*78
$GPGGA,134439.750,4308.5847,N,07725.8140,W,1,08,1.13,164.7,M,-34.4,M,,*5E
lng=-77.430274, lat=43.143051, altitude=164.80, speed=34.47, satellites=8, angle=46.3600, fixquality=1
$GPRMC,134440.000,A,4308.5863,N,07725.8117,W,33.78,46.43,280519,,,A*78
$GPGGA,134440.250,4308.5879,N,07725.8094,W,1,08,1.13,164.6,M,-34.4,M,,*51
lng=-77.430191, lat=43.143108, altitude=164.70, speed=33.78, satellites=8, angle=46.4300, fixquality=1
$GPRMC,134440.500,A,4308.5895,N,07725.8071,W,33.49,46.64,280519,,,A*72
$GPGGA,134440.750,4308.5911,N,07725.8048,W,1,08,1.13,164.5,M,-34.4,M,,*59
lng=-77.430122, lat=43.143154, altitude=164.60, speed=33.49, satellites=8, angle=46.6400, fixquality=1
$GPRMC,134441.000,A,4308.5927,N,07725.8026,W,33.19,47.04,280519,,,A*7E
$GPGGA,134441.250,4308.5943,N,07725.8003,W,1,08,1.13,164.4,M,-34.4,M,,*54
lng=-77.430046, lat=43.143211, altitude=164.50, speed=33.19, satellites=8, angle=47.0400, fixquality=1
$GPRMC,134441.500,A,4308.5959,N,07725.7980,W,32.76,47.02,280519,,,A*76
$GPGGA,134441.750,4308.5975,N,07725.7957,W,1,08,1.13,164.3,M,-34.4,M,,*54
lng=-77.429962, lat=43.143260, altitude=164.40, speed=32.76, satellites=8, angle=47.0200, fixquality=1
$GPRMC,134442.000,A,4308.5990,N,07725.7935,W,32.62,47.62,280519,,,A*78
$GPGGA,134442.250,4308.6006,N,07725.7912,W,1,08,1.13,164.1,M,-34.4,M,,*5F
lng=-77.429893, lat=43.143318, altitude=164.30, speed=32.62, satellites=8, angle=47.6200, fixquality=1
$GPRMC,134442.500,A,4308.6021,N,07725.7889,W,32.28,48.43,280519,,,A*79
$GPGGA,134442.750,4308.6036,N,07725.7867,W,1,08,1.13,164.0,M,-34.4,M,,*5B
lng=-77.429817, lat=43.143367, altitude=164.10, speed=32.28, satellites=8, angle=48.4300, fixquality=1
$GPRMC,134443.000,A,4308.6050,N,07725.7844,W,31.84,50.52,280519,,,A*76
$GPGGA,134443.250,4308.6064,N,07725.7820,W,1,08,1.13,163.8,M,-34.4,M,,*54
lng=-77.429733, lat=43.143417, altitude=164.00, speed=31.84, satellites=8, angle=50.5200, fixquality=1
$GPRMC,134443.500,A,4308.6078,N,07725.7796,W,31.51,53.80,280519,,,A*7D
$GPGGA,134443.750,4308.6090,N,07725.7772,W,1,08,1.13,163.7,M,-34.4,M,,*5D
lng=-77.429664, lat=43.143466, altitude=163.80, speed=31.51, satellites=8, angle=53.8000, fixquality=1
$GPRMC,134444.000,A,4308.6102,N,07725.7748,W,31.26,56.92,280519,,,A*76
$GPGGA,134444.250,4308.6114,N,07725.7723,W,1,08,1.13,163.5,M,-34.4,M,,*54
lng=-77.429580, lat=43.143505, altitude=163.70, speed=31.26, satellites=8, angle=56.9200, fixquality=1
$GPRMC,134444.500,A,4308.6125,N,07725.7698,W,31.04,59.54,280519,,,A*7F
$GPGGA,134444.750,4308.6135,N,07725.7672,W,1,08,1.04,163.5,M,-34.4,M,,*51
lng=-77.429496, lat=43.143539, altitude=163.50, speed=31.04, satellites=8, angle=59.5400, fixquality=1
$GPRMC,134445.000,A,4308.6146,N,07725.7647,W,30.55,60.77,280519,,,A*72
$GPGGA,134445.250,4308.6155,N,07725.7621,W,1,08,1.13,163.5,M,-34.4,M,,*53
lng=-77.429412, lat=43.143577, altitude=163.50, speed=30.55, satellites=8, angle=60.7700, fixquality=1
$GPRMC,134445.500,A,4308.6163,N,07725.7594,W,30.45,65.72,280519,,,A*7C
$GPGGA,134445.750,4308.6172,N,07725.7568,W,1,08,1.04,163.4,M,-34.4,M,,*5A
lng=-77.429321, lat=43.143604, altitude=163.50, speed=30.45, satellites=8, angle=65.7200, fixquality=1
$GPRMC,134446.000,A,4308.6179,N,07725.7541,W,30.44,69.31,280519,,,A*73
$GPGGA,134446.250,4308.6186,N,07725.7514,W,1,08,1.13,163.4,M,-34.4,M,,*5A
lng=-77.429229, lat=43.143627, altitude=163.40, speed=30.44, satellites=8, angle=69.3100, fixquality=1
$GPRMC,134446.500,A,4308.6192,N,07725.7486,W,30.90,73.16,280519,,,A*7E
$GPGGA,134446.750,4308.6198,N,07725.7458,W,1,08,1.04,163.3,M,-34.4,M,,*58
lng=-77.429145, lat=43.143653, altitude=163.40, speed=30.90, satellites=8, angle=73.1600, fixquality=1
$GPRMC,134447.000,A,4308.6203,N,07725.7429,W,30.81,76.62,280519,,,A*72
$GPGGA,134447.250,4308.6208,N,07725.7401,W,1,08,1.13,163.2,M,-34.4,M,,*5D
lng=-77.429046, lat=43.143669, altitude=163.30, speed=30.81, satellites=8, angle=76.6200, fixquality=1
$GPRMC,134447.500,A,4308.6211,N,07725.7372,W,31.09,79.16,280519,,,A*70
$GPGGA,134447.750,4308.6215,N,07725.7343,W,1,08,1.13,163.2,M,-34.4,M,,*55
lng=-77.428955, lat=43.143684, altitude=163.20, speed=31.09, satellites=8, angle=79.1600, fixquality=1
$GPRMC,134448.000,A,4308.6218,N,07725.7313,W,31.85,82.30,280519,,,A*70
$GPGGA,134448.250,4308.6220,N,07725.7283,W,1,08,1.13,163.1,M,-34.4,M,,*57
lng=-77.428855, lat=43.143692, altitude=163.20, speed=31.85, satellites=8, angle=82.3000, fixquality=1
$GPRMC,134448.500,A,4308.6221,N,07725.7252,W,32.40,86.08,280519,,,A*7E
$GPGGA,134448.750,4308.6222,N,07725.7221,W,1,08,1.04,163.0,M,-34.4,M,,*5F
lng=-77.428749, lat=43.143699, altitude=163.10, speed=32.40, satellites=8, angle=86.0800, fixquality=1
$GPRMC,134449.000,A,4308.6222,N,07725.7190,W,32.77,88.55,280519,,,A*76
$GPGGA,134449.250,4308.6222,N,07725.7159,W,1,08,1.13,162.9,M,-34.4,M,,*59
lng=-77.428657, lat=43.143699, altitude=163.00, speed=32.77, satellites=8, angle=88.5500, fixquality=1
$GPRMC,134449.500,A,4308.6222,N,07725.7128,W,32.92,89.96,280519,,,A*75
$GPGGA,134449.750,4308.6222,N,07725.7096,W,1,08,1.04,163.0,M,-34.4,M,,*50
lng=-77.428550, lat=43.143699, altitude=162.90, speed=32.92, satellites=8, angle=89.9600, fixquality=1
$GPRMC,134450.000,A,4308.6222,N,07725.7064,W,33.59,90.36,280519,,,A*75
$GPGGA,134450.250,4308.6221,N,07725.7033,W,1,08,1.13,162.9,M,-34.4,M,,*5F
lng=-77.428443, lat=43.143699, altitude=163.00, speed=33.59, satellites=8, angle=90.3600, fixquality=1
$GPRMC,134450.500,A,4308.6221,N,07725.7001,W,33.53,90.14,280519,,,A*7A
$GPGGA,134450.750,4308.6221,N,07725.6969,W,1,08,1.13,162.9,M,-34.4,M,,*5D
lng=-77.428337, lat=43.143699, altitude=162.90, speed=33.53, satellites=8, angle=90.1400, fixquality=1
$GPRMC,134451.000,A,4308.6221,N,07725.6937,W,33.60,90.77,280519,,,A*76
$GPGGA,134451.250,4308.6220,N,07725.6905,W,1,08,1.13,162.9,M,-34.4,M,,*52
lng=-77.428230, lat=43.143699, altitude=162.90, speed=33.60, satellites=8, angle=90.7700, fixquality=1
$GPRMC,134451.500,A,4308.6220,N,07725.6873,W,33.52,90.96,280519,,,A*7D
$GPGGA,134451.750,4308.6219,N,07725.6842,W,1,08,1.04,162.7,M,-34.4,M,,*57
lng=-77.428123, lat=43.143699, altitude=162.90, speed=33.52, satellites=8, angle=90.9600, fixquality=1
$GPRMC,134452.000,A,4308.6218,N,07725.6810,W,33.24,91.14,280519,,,A*7F
$GPGGA,134452.250,4308.6218,N,07725.6778,W,1,08,1.04,162.6,M,-34.4,M,,*57
lng=-77.428016, lat=43.143692, altitude=162.70, speed=33.24, satellites=8, angle=91.1400, fixquality=1
$GPRMC,134452.500,A,4308.6217,N,07725.6746,W,32.97,91.04,280519,,,A*71
$GPGGA,134452.750,4308.6217,N,07725.6715,W,1,08,1.13,162.6,M,-34.4,M,,*50
lng=-77.427909, lat=43.143692, altitude=162.60, speed=32.97, satellites=8, angle=91.0400, fixquality=1
$GPRMC,134453.000,A,4308.6216,N,07725.6684,W,32.60,91.04,280519,,,A*73
$GPGGA,134453.250,4308.6216,N,07725.6653,W,1,08,1.13,162.6,M,-34.4,M,,*56
lng=-77.427810, lat=43.143692, altitude=162.60, speed=32.60, satellites=8, angle=91.0400, fixquality=1
$GPRMC,134453.500,A,4308.6215,N,07725.6622,W,32.30,90.91,280519,,,A*71
$GPGGA,134453.750,4308.6215,N,07725.6591,W,1,08,1.13,162.5,M,-34.4,M,,*5E
lng=-77.427703, lat=43.143692, altitude=162.60, speed=32.30, satellites=8, angle=90.9100, fixquality=1
$GPRMC,134454.000,A,4308.6214,N,07725.6561,W,32.11,90.84,280519,,,A*71
$GPGGA,134454.250,4308.6214,N,07725.6531,W,1,08,1.13,162.4,M,-34.4,M,,*56
