Vers 60
USE_SERIAL_FEEDBACK=true
DEVELOPMENT_MODE=false
USE_RMC_ONLY=false

$GPRMC,163245.000,A,4308.3925,N,07726.3725,W,21.72,1.69,040619,,,A*4C
$GPGGA,163245.250,4308.3942,N,07726.3723,W,1,03,51.05,189.4,M,-34.4,M,,*64
lng=-77.439544, lat=43.139877, altitude=189.00, speed=21.72, satellites=3, angle=1.6900, fixquality=1
$GPRMC,163245.500,A,4308.3959,N,07726.3721,W,22.49,5.03,040619,,,A*45
$GPGGA,163245.750,4308.3975,N,07726.3718,W,1,03,51.04,189.7,M,-34.4,M,,*6F
lng=-77.439537, lat=43.139934, altitude=189.40, speed=22.49, satellites=3, angle=5.0300, fixquality=1
$GPRMC,163246.000,A,4308.3992,N,07726.3714,W,22.76,6.84,040619,,,A*42
$GPGGA,163246.250,4308.4008,N,07726.3710,W,1,03,51.03,190.0,M,-34.4,M,,*6D
lng=-77.439529, lat=43.139991, altitude=189.70, speed=22.76, satellites=3, angle=6.8400, fixquality=1
$GPRMC,163246.500,A,4308.4025,N,07726.3705,W,23.29,9.64,040619,,,A*4F
$GPGGA,163246.750,4308.4042,N,07726.3701,W,1,03,51.02,190.3,M,-34.4,M,,*64
lng=-77.439506, lat=43.140037, altitude=190.00, speed=23.29, satellites=3, angle=9.6400, fixquality=1
$GPRMC,163247.000,A,4308.4058,N,07726.3697,W,23.43,9.65,040619,,,A*46
$GPGGA,163247.250,4308.4074,N,07726.3693,W,1,03,51.01,190.6,M,-34.4,M,,*69
lng=-77.439491, lat=43.140094, altitude=190.30, speed=23.43, satellites=3, angle=9.6500, fixquality=1
$GPRMC,163247.500,A,4308.4091,N,07726.3689,W,23.67,9.33,040619,,,A*4C
$GPGGA,163247.750,4308.4108,N,07726.3685,W,1,03,51.00,190.8,M,-34.4,M,,*6E
lng=-77.439483, lat=43.140151, altitude=190.60, speed=23.67, satellites=3, angle=9.3300, fixquality=1
$GPRMC,163248.000,A,4308.4124,N,07726.3681,W,23.87,9.63,040619,,,A*4A
$GPGGA,163248.250,4308.4141,N,07726.3677,W,1,03,50.98,191.1,M,-34.4,M,,*6C
lng=-77.439468, lat=43.140209, altitude=190.80, speed=23.87, satellites=3, angle=9.6300, fixquality=1
$GPRMC,163248.500,A,4308.4157,N,07726.3673,W,24.08,9.87,040619,,,A*4C
$GPGGA,163248.750,4308.4173,N,07726.3669,W,1,03,50.97,191.4,M,-34.4,M,,*6D
lng=-77.439453, lat=43.140258, altitude=191.10, speed=24.08, satellites=3, angle=9.8700, fixquality=1
$GPRMC,163249.000,A,4308.4190,N,07726.3665,W,24.07,9.21,040619,,,A*47
$GPGGA,163249.250,4308.4206,N,07726.3661,W,1,03,50.96,191.7,M,-34.4,M,,*62
lng=-77.439445, lat=43.140316, altitude=191.40, speed=24.07, satellites=3, angle=9.2100, fixquality=1
$GPRMC,163249.500,A,4308.4222,N,07726.3657,W,24.03,8.75,040619,,,A*4D
$GPGGA,163249.750,4308.4239,N,07726.3653,W,1,03,50.95,192.0,M,-34.4,M,,*6D
lng=-77.439430, lat=43.140373, altitude=191.70, speed=24.03, satellites=3, angle=8.7500, fixquality=1
$GPRMC,163250.000,A,4308.4255,N,07726.3649,W,24.17,9.28,040619,,,A*43
$GPGGA,163250.098,4308.4254,N,07726.3649,W,1,04,9.06,192.6,M,-350.098,A,4308.4254,N,07726.3649,W,24.00,9.38,040619,,,A*44
lng=-77.439414, lat=43.140422, altitude=192.00, speed=24.17, satellites=3, angle=9.2800, fixquality=1
$GPGGA,163250.500,4308.4275,N,07726.3644,W,1,04,9.07,192.9,M,-34.4,M,,*55
$GPRMC,163250.500,A,4308.4275,N,07726.3644,W,23.88,9.42,040619,,,A*44
lng=-77.439407, lat=43.140460, altitude=192.90, speed=24.17, satellites=4, angle=9.2800, fixquality=1
$GPGGA,163250.750,4308.4287,N,07726.3641,W,1,04,9.07,193.2,M,-34.4,M,,*50
$GPRMC,163250.750,A,4308.4287,N,07726.3641,W,23.75,9.48,040619,,,A*43
lng=-77.439407, lat=43.140480, altitude=193.20, speed=23.88, satellites=4, angle=9.4200, fixquality=1
$GPGGA,163251.000,4308.4300,N,07726.3638,W,1,04,9.08,193.4,M,-34.4,M,,*5A
$GPRMC,163251.000,A,4308.4300,N,07726.3638,W,23.11,8.78,040619,,,A*40
lng=-77.439399, lat=43.140502, altitude=193.40, speed=23.75, satellites=4, angle=9.4800, fixquality=1
$GPGGA,163251.250,4308.4314,N,07726.3635,W,1,04,9.08,193.6,M,-34.4,M,,*57
$GPRMC,163251.250,A,4308.4314,N,07726.3635,W,23.14,8.85,040619,$GPGGA,163251.500,4308.4327,N,07726.3632,W,1,04,9.09,193.8,M,-34.4,M,,*5D
lng=-77.439384, lat=43.140525, altitude=193.60, speed=23.11, satellites=4, angle=8.7800, fixquality=1
$GPRMC,163251.750,A,4308.4340,N,07726.3629,W,23.00,8.78,040619,,,A*46
$GPGGA,163252.000,4308.4353,N,07726.3626,W,1,04,9.09,194.2,M,-34.4,M,,*50
lng=-77.439376, lat=43.140567, altitude=193.60, speed=23.00, satellites=4, angle=8.7800, fixquality=1
$GPRMC,163252.250,A,4308.4366,N,07726.3623,W,22.11,8.67,040619,,,A*41
$GPGGA,163252.500,4308.4380,N,07726.3619,W,1,04,9.10,194.6,M,-34.4,M,,*5B
lng=-77.439369, lat=43.140609, altitude=194.20, speed=22.11, satellites=4, angle=8.6700, fixquality=1
$GPRMC,163252.750,A,4308.4394,N,07726.3616,W,21.15,9.86,040619,,,A*46
$GPGGA,163253.000,4308.4407,N,07726.3613,W,1,04,9.10,194.9,M,-34.4,M,,*52
lng=-77.439361, lat=43.140659, altitude=194.60, speed=21.15, satellites=4, angle=9.8600, fixquality=1
$GPRMC,163253.250,A,4308.4420,N,07726.3610,W,20.69,9.34,040619,,,A*4F
$GPGGA,163253.500,4308.4433,N,07726.3607,W,1,04,9.11,195.3,M,-34.4,M,,*5F
lng=-77.439346, lat=43.140697, altitude=194.90, speed=20.69, satellites=4, angle=9.3400, fixquality=1
$GPRMC,163253.750,A,4308.4447,N,07726.3604,W,20.29,8.80,040619,,,A*44
$GPGGA,163254.000,4308.4460,N,07726.3602,W,1,04,9.12,195.6,M,-34.4,M,,*58
lng=-77.439338, lat=43.140747, altitude=195.30, speed=20.29, satellites=4, angle=8.8000, fixquality=1
$GPRMC,163254.250,A,4308.4472,N,07726.3599,W,19.59,8.69,040619,,,A*4D
$GPGGA,163254.500,4308.4484,N,07726.3596,W,1,04,9.13,195.9,M,-34.4,M,,*57
lng=-77.439331, lat=43.140789, altitude=195.60, speed=19.59, satellites=4, angle=8.6900, fixquality=1
$GPRMC,163254.750,A,4308.4494,N,07726.3594,W,18.09,8.45,040619,,,A*47
$GPGGA,163255.000,4308.4502,N,07726.3591,W,1,04,9.13,196.3,M,-34.4,M,,*52
lng=-77.439323, lat=43.140819, altitude=195.90, speed=18.09, satellites=4, angle=8.4500, fixquality=1
$GPRMC,163255.250,A,4308.4510,N,07726.3589,W,15.69,8.08,040619,,,A*40
$GPGGA,163255.500,4308.4516,N,07726.3587,W,1,04,9.14,196.7,M,-34.4,M,,*56
lng=-77.439315, lat=43.140853, altitude=196.30, speed=15.69, satellites=4, angle=8.0800, fixquality=1
$GPRMC,163255.750,A,4308.4508,N,07726.3584,W,8.53,13.04,040619,,,A*42
$GPGGA,163256.000,4308.4511,N,07726.3582,W,1,04,9.15,197.0,M,-34.4,M,,*55
lng=-77.439308, lat=43.140846, altitude=196.70, speed=8.53, satellites=4, angle=13.0400, fixquality=1
$GPRMC,163256.250,A,4308.4514,N,07726.3581,W,5.77,14.15,040619,,,A*40
$GPGGA,163256.500,4308.4516,N,07726.3580,W,1,04,9.15,197.4,M,-34.4,M,,*51
lng=-77.439300, lat=43.140853, altitude=197.00, speed=5.77, satellites=4, angle=14.1500, fixquality=1
$GPRMC,163256.750,A,4308.4517,N,07726.3579,W,3.30,14.72,040619,,,A*45
$GPGGA,163257.000,4308.4518,N,07726.3579,W,1,04,9.16,197.8,M,-34.4,M,,*52
lng=-77.439300, lat=43.140861, altitude=197.40, speed=3.30, satellites=4, angle=14.7200, fixquality=1
$GPRMC,163257.250,A,4308.4518,N,07726.3578,W,1.83,14.72,040619,,,A*45
$GPGGA,163257.500,4308.4518,N,07726.3578,W,1,04,3.09,198.2,M,-34.4,M,,*57
lng=-77.439300, lat=43.140861, altitude=197.80, speed=1.83, satellites=4, angle=14.7200, fixquality=1
$GPRMC,163257.750,A,4308.4518,N,07726.3578,W,1.37,14.72,040619,,,A*4F
$GPGGA,163258.000,4308.4518,N,07726.3577,W,1,04,3.09,198.5,M,-34.4,M,,*55
lng=-77.439300, lat=43.140861, altitude=198.20, speed=1.37, satellites=4, angle=14.7200, fixquality=1
$GPRMC,163258.250,A,4308.4519,N,07726.3577,W,3.12,13.25,040619,,,A*4B
$GPGGA,163258.500,4308.4520,N,07726.3576,W,1,04,9.18,198.9,M,-34.4,M,,*5C
lng=-77.439300, lat=43.140861, altitude=198.50, speed=3.12, satellites=4, angle=13.2500, fixquality=1
$GPRMC,163258.750,A,4308.4523,N,07726.3575,W,5.11,8.69,040619,,,A*72
$GPGGA,163259.000,4308.4526,N,07726.3574,W,1,04,9.19,199.3,M,-34.4,M,,*56
lng=-77.439292, lat=43.140869, altitude=198.90, speed=5.11, satellites=4, angle=8.6900, fixquality=1
$GPRMC,163259.250,A,4308.4529,N,07726.3574,W,7.16,357.30,040619,,,A*7D
$GPGGA,163259.500,4308.4533,N,07726.3575,W,1,04,9.19,199.7,M,-34.4,M,,*52
lng=-77.439292, lat=43.140884, altitude=199.30, speed=7.16, satellites=4, angle=357.3000, fixquality=1
$GPRMC,163259.750,A,4308.4538,N,07726.3577,W,8.29,347.60,040619,,,A*7C
$GPGGA,163300.000,4308.4542,N,07726.3579,W,1,04,9.20,200.1,M,-34.4,M,,*5F
lng=-77.439300, lat=43.140892, altitude=199.70, speed=8.29, satellites=4, angle=347.6000, fixquality=1
$GPRMC,163300.250,A,4308.4546,N,07726.3582,W,8.83,335.86,040619,,,A*7A
$GPGGA,163300.500,4308.4551,N,07726.3586,W,1,04,3.09,200.5,M,-34.4,M,,*5D
lng=-77.439308, lat=43.140911, altitude=200.10, speed=8.83, satellites=4, angle=335.8600, fixquality=1
$GPRMC,163300.750,A,4308.4556,N,07726.3590,W,9.01,334.33,040619,,,A*79
$GPGGA,163301.000,4308.4561,N,07726.3596,W,1,04,3.09,200.9,M,-34.4,M,,*57
lng=-77.439315, lat=43.140926, altitude=200.50, speed=9.01, satellites=4, angle=334.3300, fixquality=1
$GPRMC,163301.250,A,4308.4566,N,07726.3604,W,10.48,322.43,040619,,,A*45
$GPGGA,163301.500,4308.4571,N,07726.3615,W,1,04,3.09,201.2,M,-34.4,M,,*51
lng=-77.439338, lat=43.140941, altitude=200.90, speed=10.48, satellites=4, angle=322.4300, fixquality=1
$GPRMC,163301.750,A,4308.4577,N,07726.3625,W,12.16,312.13,040619,,,A*4C
$GPGGA,163302.000,4308.4581,N,07726.3637,W,1,04,3.09,201.1,M,-34.4,M,,*5B
lng=-77.439369, lat=43.140956, altitude=201.20, speed=12.16, satellites=4, angle=312.1300, fixquality=1
$GPRMC,163302.250,A,4308.4596,N,07726.3652,W,13.88,304.76,040619,,,A*47
$GPGGA,163302.500,4308.4608,N,07726.3669,W,1,05,2.44,197.5,M,-34.4,M,,*56
lng=-77.439422, lat=43.140991, altitude=201.10, speed=13.88, satellites=4, angle=304.7600, fixquality=1
$GPRMC,163302.750,A,4308.4619,N,07726.3686,W,14.65,296.83,040619,,,A*4B
$GPGGA,163303.000,4308.4628,N,07726.3704,W,1,05,2.44,194.5,M,-34.4,M,,*59
lng=-77.439476, lat=43.141033, altitude=197.50, speed=14.65, satellites=5, angle=296.8300, fixquality=1
$GPRMC,163303.250,A,4308.4635,N,07726.3722,W,15.99,288.15,040619,,,A*4C
$GPGGA,163303.500,4308.4640,N,07726.3742,W,1,05,2.44,192.4,M,-34.4,M,,*57
lng=-77.439537, lat=43.141056, altitude=194.50, speed=15.99, satellites=5, angle=288.1500, fixquality=1
$GPRMC,163303.750,A,4308.4643,N,07726.3761,W,17.22,283.27,040619,,,A*47
$GPGGA,163304.000,4308.4647,N,07726.3782,W,1,05,2.44,191.0,M,-34.4,M,,*59
lng=-77.439598, lat=43.141071, altitude=192.40, speed=17.22, satellites=5, angle=283.2700, fixquality=1
$GPRMC,163304.250,A,4308.4650,N,07726.3803,W,18.68,280.49,040619,,,A*46
$GPGGA,163304.500,4308.4655,N,07726.3826,W,1,05,2.44,189.4,M,-34.4,M,,*53
lng=-77.439674, lat=43.141078, altitude=191.00, speed=18.68, satellites=5, angle=280.4900, fixquality=1
$GPRMC,163304.750,A,4308.4657,N,07726.3847,W,20.17,280.01,040619,,,A*4B
$GPGGA,163305.000,4308.4661,N,07726.3869,W,1,05,2.44,188.2,M,-34.4,M,,*5C
lng=-77.439743, lat=43.141098, altitude=189.40, speed=20.17, satellites=5, angle=280.0100, fixquality=1
$GPRMC,163305.250,A,4308.4665,N,07726.3891,W,20.90,279.69,040619,,,A*42
$GPGGA,163305.500,4308.4668,N,07726.3913,W,1,05,2.44,187.2,M,-34.4,M,,*53
lng=-77.439819, lat=43.141105, altitude=188.20, speed=20.90, satellites=5, angle=279.6900, fixquality=1
$GPRMC,163305.750,A,4308.4671,N,07726.3935,W,21.15,279.15,040619,,,A*4A
$GPGGA,163306.000,4308.4673,N,07726.3956,W,1,05,2.44,186.4,M,-34.4,M,,*59
lng=-77.439895, lat=43.141120, altitude=187.20, speed=21.15, satellites=5, angle=279.1500, fixquality=1
$GPRMC,163306.250,A,4308.4676,N,07726.3978,W,21.65,278.29,040619,,,A*4B
$GPGGA,163306.500,4308.4677,N,07726.4004,W,1,05,2.44,185.7,M,-34.4,M,,*51
lng=-77.439964, lat=43.141128, altitude=186.40, speed=21.65, satellites=5, angle=278.2900, fixquality=1
$GPRMC,163306.750,A,4308.4679,N,07726.4026,W,22.49,276.93,040619,,,A*46
$GPGGA,163307.000,4308.4682,N,07726.4048,W,1,05,2.44,185.2,M,-34.4,M,,*52
lng=-77.440048, lat=43.141128, altitude=185.70, speed=22.49, satellites=5, angle=276.9300, fixquality=1
$GPRMC,163307.250,A,4308.4685,N,07726.4069,W,22.27,277.76,040619,,,A*48
$GPGGA,163307.500,4308.4688,N,07726.4091,W,1,05,2.44,184.9,M,-34.4,M,,*53
lng=-77.440109, lat=43.141136, altitude=185.20, speed=22.27, satellites=5, angle=277.7600, fixquality=1
$GPRMC,163307.750,A,4308.4691,N,07726.4112,W,22.37,277.54,040619,,,A*44
$GPGGA,163308.000,4308.4693,N,07726.4132,W,1,05,2.44,184.7,M,-34.4,M,,*55
lng=-77.440185, lat=43.141155, altitude=184.90, speed=22.37, satellites=5, angle=277.5400, fixquality=1
$GPRMC,163308.250,A,4308.4696,N,07726.4153,W,21.57,277.46,040619,,,A*4A
$GPGGA,163308.500,4308.4698,N,07726.4172,W,1,05,2.44,184.4,M,-34.4,M,,*5C
lng=-77.440261, lat=43.141162, altitude=184.70, speed=21.57, satellites=5, angle=277.4600, fixquality=1
$GPRMC,163308.750,A,4308.4700,N,07726.4191,W,20.49,276.10,040619,,,A*43
$GPGGA,163309.000,4308.4702,N,07726.4209,W,1,05,2.44,184.2,M,-34.4,M,,*53
lng=-77.440315, lat=43.141170, altitude=184.40, speed=20.49, satellites=5, angle=276.1000, fixquality=1
$GPRMC,163309.250,A,4308.4704,N,07726.4226,W,18.96,275.83,040619,,,A*4C
$GPGGA,163309.500,4308.4707,N,07726.4236,W,1,05,2.43,183.8,M,-34.4,M,,*55
lng=-77.440376, lat=43.141170, altitude=184.20, speed=18.96, satellites=5, angle=275.8300, fixquality=1
$GPRMC,163309.750,A,4308.4709,N,07726.4251,W,15.77,278.98,040619,,,A*41
$GPGGA,163310.000,4308.4710,N,07726.4265,W,1,05,2.44,183.6,M,-34.4,M,,*51
lng=-77.440422, lat=43.141178, altitude=183.80, speed=15.77, satellites=5, angle=278.9800, fixquality=1
$GPRMC,163310.250,A,4308.4711,N,07726.4279,W,14.67,276.48,040619,,,A*4C
$GPGGA,163310.500,4308.4712,N,07726.4293,W,1,05,2.47,183.4,M,-34.4,M,,*5E
lng=-77.440460, lat=43.141185, altitude=183.60, speed=14.67, satellites=5, angle=276.4800, fixquality=1
$GPRMC,163310.750,A,4308.4712,N,07726.4305,W,13.47,275.58,040619,,,A*47
$GPGGA,163311.000,4308.4712,N,07726.4317,W,1,05,2.43,183.1,M,-34.4,M,,*56
lng=-77.440513, lat=43.141185, altitude=183.40, speed=13.47, satellites=5, angle=275.5800, fixquality=1
$GPRMC,163311.250,A,4308.4712,N,07726.4328,W,11.43,269.51,040619,,,A*4E
$GPGGA,163311.500,4308.4711,N,07726.4337,W,1,05,2.43,182.7,M,-34.4,M,,*55
lng=-77.440544, lat=43.141185, altitude=183.10, speed=11.43, satellites=5, angle=269.5100, fixquality=1
$GPRMC,163311.750,A,4308.4711,N,07726.4346,W,9.43,265.77,040619,,,A*71
$GPGGA,163312.000,4308.4711,N,07726.4353,W,1,05,2.43,182.5,M,-34.4,M,,*53
lng=-77.440574, lat=43.141185, altitude=182.70, speed=9.43, satellites=5, angle=265.7700, fixquality=1
$GPRMC,163312.250,A,4308.4711,N,07726.4358,W,7.47,262.69,040619,,,A*7A
$GPGGA,163312.500,4308.4715,N,07726.4354,W,1,05,2.43,182.1,M,-34.4,M,,*51
lng=-77.440597, lat=43.141185, altitude=182.50, speed=7.47, satellites=5, angle=262.6900, fixquality=1
$GPRMC,163312.750,A,4308.4715,N,07726.4357,W,2.74,271.87,040619,,,A*73
$GPGGA,163313.000,4308.4715,N,07726.4359,W,1,05,2.43,181.7,M,-34.4,M,,*5D
lng=-77.440589, lat=43.141193, altitude=182.10, speed=2.74, satellites=5, angle=271.8700, fixquality=1
$GPRMC,163313.250,A,4308.4715,N,07726.4360,W,0.10,271.87,040619,,,A*73
$GPGGA,163313.500,4308.4715,N,07726.4361,W,1,05,2.43,181.3,M,-34.4,M,,*57
lng=-77.440597, lat=43.141193, altitude=181.70, speed=0.10, satellites=5, angle=271.8700, fixquality=1
$GPRMC,163313.750,A,4308.4715,N,07726.4361,W,0.01,271.87,040619,,,A*77
$GPGGA,163314.000,4308.4714,N,07726.4361,W,1,05,2.43,180.7,M,-34.4,M,,*51
lng=-77.440597, lat=43.141193, altitude=181.30, speed=0.01, satellites=5, angle=271.8700, fixquality=1
$GPRMC,163314.250,A,4308.4714,N,07726.4361,W,0.00,271.87,040619,,,A*75
$GPGGA,163314.500,4308.4714,N,07726.4361,W,1,05,2.43,180.2,M,-34.4,M,,*51
lng=-77.440597, lat=43.141185, altitude=180.70, speed=0.00, satellites=5, angle=271.8700, fixquality=1
$GPRMC,163314.750,A,4308.4713,N,07726.4361,W,0.01,271.87,040619,,,A*76
$GPGGA,163315.000,4308.4713,N,07726.4361,W,1,05,2.43,179.9,M,-34.4,M,,*5F
lng=-77.440597, lat=43.141185, altitude=180.20, speed=0.01, satellites=5, angle=271.8700, fixquality=1
$GPRMC,163315.250,A,4308.4713,N,07726.4361,W,0.00,271.87,040619,,,A*73
$GPGGA,163315.500,4308.4712,N,07726.4362,W,1,05,2.43,179.4,M,-34.4,M,,*55
lng=-77.440597, lat=43.141185, altitude=179.90, speed=0.00, satellites=5, angle=271.8700, fixquality=1
$GPRMC,163315.750,A,4308.4712,N,07726.4362,W,0.00,271.87,040619,,,A*74
$GPGGA,163316.000,4308.4711,N,07726.4363,W,1,05,2.43,179.0,M,-34.4,M,,*55
lng=-77.440597, lat=43.141185, altitude=179.40, speed=0.00, satellites=5, angle=271.8700, fixquality=1
$GPRMC,163316.250,A,4308.4711,N,07726.4363,W,0.00,271.87,040619,,,A*70
$GPGGA,163316.500,4308.4711,N,07726.4363,W,1,05,2.43,178.7,M,-34.4,M,,*56
lng=-77.440605, lat=43.141185, altitude=179.00, speed=0.00, satellites=5, angle=271.8700, fixquality=1
$GPRMC,163316.750,A,4308.4711,N,07726.4363,W,0.00,271.87,040619,,,A*75
$GPGGA,163317.000,4308.4711,N,07726.4363,W,1,05,2.43,178.7,M,-34.4,M,,*52
lng=-77.440605, lat=43.141185, altitude=178.70, speed=0.00, satellites=5, angle=271.8700, fixquality=1
$GPRMC,163317.250,A,4308.4711,N,07726.4363,W,0.01,271.87,040619,,,A*70
$GPGGA,163317.500,4308.4711,N,07726.4363,W,1,05,2.43,178.8,M,-34.4,M,,*58
lng=-77.440605, lat=43.141185, altitude=178.70, speed=0.01, satellites=5, angle=271.8700, fixquality=1
$GPRMC,163317.750,A,4308.4711,N,07726.4363,W,0.00,271.87,040619,,,A*74
$GPGGA,163318.000,4308.4711,N,07726.4363,W,1,05,2.47,178.8,M,-34.4,M,,*56
lng=-77.440605, lat=43.141185, altitude=178.80, speed=0.00, satellites=5, angle=271.8700, fixquality=1
$GPRMC,163318.250,A,4308.4711,N,07726.4363,W,0.00,271.87,040619,,,A*7E
$GPGGA,163318.500,4308.4711,N,07726.4363,W,1,05,2.47,178.8,M,-34.4,M,,*53
lng=-77.440605, lat=43.141185, altitude=178.80, speed=0.00, satellites=5, angle=271.8700, fixquality=1
$GPRMC,163318.750,A,4308.4711,N,07726.4363,W,0.00,271.87,040619,,,A*7B
$GPGGA,163319.000,4308.4711,N,07726.4363,W,1,05,2.47,178.8,M,-34.4,M,,*57
lng=-77.440605, lat=43.141185, altitude=178.80, speed=0.00, satellites=5, angle=271.8700, fixquality=1
$GPRMC,163319.250,A,4308.4711,N,07726.4363,W,0.00,271.87,040619,,,A*7F
$GPGGA,163319.500,4308.4711,N,07726.4363,W,1,05,2.47,178.8,M,-34.4,M,,*52
lng=-77.440605, lat=43.141185, altitude=178.80, speed=0.00, satellites=5, angle=271.8700, fixquality=1
$GPRMC,163319.750,A,4308.4711,N,07726.4363,W,0.00,271.87,040619,,,A*7A
$GPGGA,163320.000,4308.4711,N,07726.4363,W,1,05,2.47,178.8,M,-34.4,M,,*5D
lng=-77.440605, lat=43.141185, altitude=178.80, speed=0.00, satellites=5, angle=271.8700, fixquality=1
$GPRMC,163320.250,A,4308.4711,N,07726.4363,W,0.00,271.87,040619,,,A*75
$GPGGA,163320.500,4308.4711,N,07726.4363,W,1,05,2.47,178.8,M,-34.4,M,,*58
lng=-77.440605, lat=43.141185, altitude=178.80, speed=0.00, satellites=5, angle=271.8700, fixquality=1
$GPRMC,163320.750,A,4308.4711,N,07726.4363,W,0.00,271.87,040619,,,A*70
$GPGGA,163321.000,4308.4711,N,07726.4363,W,1,05,2.47,178.8,M,-34.4,M,,*5C
lng=-77.440605, lat=43.141185, altitude=178.80, speed=0.00, satellites=5, angle=271.8700, fixquality=1
$GPRMC,163321.250,A,4308.4711,N,07726.4363,W,0.00,271.87,040619,,,A*74
$GPGGA,163321.500,4308.4711,N,07726.4363,W,1,05,2.46,178.7,M,-34.4,M,,*57
lng=-77.440605, lat=43.141185, altitude=178.80, speed=0.00, satellites=5, angle=271.8700, fixquality=1
$GPRMC,163321.750,A,4308.4711,N,07726.4363,W,0.00,271.87,040619,,,A*71
$GPGGA,163322.000,4308.4711,N,07726.4363,W,1,05,2.46,178.7,M,-34.4,M,,*51
lng=-77.440605, lat=43.141185, altitude=178.70, speed=0.00, satellites=5, angle=271.8700, fixquality=1
$GPRMC,163322.250,A,4308.4711,N,07726.4363,W,0.00,271.87,040619,,,A*77
$GPGGA,163322.500,4308.4711,N,07726.4363,W,1,05,2.46,178.7,M,-34.4,M,,*54
lng=-77.440605, lat=43.141185, altitude=178.70, speed=0.00, satellites=5, angle=271.8700, fixquality=1
$GPRMC,163322.750,A,4308.4711,N,07726.4363,W,0.00,271.87,040619,,,A*72
$GPGGA,163323.000,4308.4711,N,07726.4363,W,1,05,2.46,178.7,M,-34.4,M,,*50
lng=-77.440605, lat=43.141185, altitude=178.70, speed=0.00, satellites=5, angle=271.8700, fixquality=1
$GPRMC,163323.250,A,4308.4711,N,07726.4363,W,0.00,271.87,040619,,,A*76
$GPGGA,163323.500,4308.4711,N,07726.4363,W,1,05,2.46,178.7,M,-34.4,M,,*55
lng=-77.440605, lat=43.141185, altitude=178.70, speed=0.00, satellites=5, angle=271.8700, fixquality=1
$GPRMC,163323.750,A,4308.4711,N,07726.4363,W,0.00,271.87,040619,,,A*73
$GPGGA,163324.000,4308.4711,N,07726.4363,W,1,05,2.42,178.7,M,-34.4,M,,*53
lng=-77.440605, lat=43.141185, altitude=178.70, speed=0.00, satellites=5, angle=271.8700, fixquality=1
$GPRMC,163324.250,A,4308.4711,N,07726.4363,W,0.00,271.87,040619,,,A*71
$GPGGA,163324.500,4308.4711,N,07726.4363,W,1,05,2.46,178.7,M,-34.4,M,,*52
lng=-77.440605, lat=43.141185, altitude=178.70, speed=0.00, satellites=5, angle=271.8700, fixquality=1
$GPRMC,163324.750,A,4308.4711,N,07726.4363,W,0.00,271.87,040619,,,A*74
$GPGGA,163325.000,4308.4711,N,07726.4363,W,1,05,2.46,178.7,M,-34.4,M,,*56
lng=-77.440605, lat=43.141185, altitude=178.70, speed=0.00, satellites=5, angle=271.8700, fixquality=1
$GPRMC,163325.250,A,4308.4711,N,07726.4363,W,0.00,271.87,040619,,,A*70
$GPGGA,163325.500,4308.4711,N,07726.4363,W,1,05,2.46,178.7,M,-34.4,M,,*53
lng=-77.440605, lat=43.141185, altitude=178.70, speed=0.00, satellites=5, angle=271.8700, fixquality=1
$GPRMC,163325.750,A,4308.4711,N,07726.4363,W,0.00,271.87,040619,,,A*75
$GPGGA,163326.000,4308.4711,N,07726.4363,W,1,05,2.46,178.7,M,-34.4,M,,*55
lng=-77.440605, lat=43.141185, altitude=178.70, speed=0.00, satellites=5, angle=271.8700, fixquality=1
$GPRMC,163326.250,A,4308.4711,N,07726.4363,W,0.00,271.87,040619,,,A*73
$GPGGA,163326.500,4308.4711,N,07726.4363,W,1,05,2.46,178.7,M,-34.4,M,,*50
lng=-77.440605, lat=43.141185, altitude=178.70, speed=0.00, satellites=5, angle=271.8700, fixquality=1
$GPRMC,163326.750,A,4308.4711,N,07726.4363,W,0.00,271.87,040619,,,A*76
$GPGGA,163327.000,4308.4711,N,07726.4363,W,1,05,2.46,178.7,M,-34.4,M,,*54
lng=-77.440605, lat=43.141185, altitude=178.70, speed=0.00, satellites=5, angle=271.8700, fixquality=1
$GPRMC,163327.250,A,4308.4711,N,07726.4363,W,0.00,271.87,040619,,,A*72
$GPGGA,163327.500,4308.4711,N,07726.4363,W,1,05,2.42,178.7,M,-34.4,M,,*55
lng=-77.440605, lat=43.141185, altitude=178.70, speed=0.00, satellites=5, angle=271.8700, fixquality=1
$GPRMC,163327.750,A,4308.4711,N,07726.4363,W,0.00,271.87,040619,,,A*77
$GPGGA,163328.000,4308.4711,N,07726.4363,W,1,05,2.42,178.7,M,-34.4,M,,*5F
lng=-77.440605, lat=43.141185, altitude=178.70, speed=0.00, satellites=5, angle=271.8700, fixquality=1
$GPRMC,163328.250,A,4308.4711,N,07726.4363,W,0.00,271.87,040619,,,A*7D
$GPGGA,163328.500,4308.4711,N,07726.4363,W,1,05,2.42,178.7,M,-34.4,M,,*5A
lng=-77.440605, lat=43.141185, altitude=178.70, speed=0.00, satellites=5, angle=271.8700, fixquality=1
$GPRMC,163328.750,A,4308.4711,N,07726.4363,W,0.00,271.87,040619,,,A*78
$GPGGA,163329.000,4308.4711,N,07726.4363,W,1,05,2.42,178.7,M,-34.4,M,,*5E
lng=-77.440605, lat=43.141185, altitude=178.70, speed=0.00, satellites=5, angle=271.8700, fixquality=1
$GPRMC,163329.250,A,4308.4711,N,07726.4363,W,0.00,271.87,040619,,,A*7C
$GPGGA,163329.500,4308.4711,N,07726.4363,W,1,05,2.46,178.7,M,-34.4,M,,*5F
lng=-77.440605, lat=43.141185, altitude=178.70, speed=0.00, satellites=5, angle=271.8700, fixquality=1
$GPRMC,163329.750,A,4308.4711,N,07726.4363,W,0.00,271.87,040619,,,A*79
$GPGGA,163330.000,4308.4711,N,07726.4363,W,1,05,2.42,178.7,M,-34.4,M,,*56
lng=-77.440605, lat=43.141185, altitude=178.70, speed=0.00, satellites=5, angle=271.8700, fixquality=1
$GPRMC,163330.250,A,4308.4711,N,07726.4363,W,0.00,271.87,040619,,,A*74
$GPGGA,163330.500,4308.4711,N,07726.4363,W,1,05,2.46,178.7,M,-34.4,M,,*57
lng=-77.440605, lat=43.141185, altitude=178.70, speed=0.00, satellites=5, angle=271.8700, fixquality=1
$GPRMC,163330.750,A,4308.4711,N,07726.4363,W,0.00,271.87,040619,,,A*71
$GPGGA,163331.000,4308.4711,N,07726.4363,W,1,05,2.42,178.7,M,-34.4,M,,*57
lng=-77.440605, lat=43.141185, altitude=178.70, speed=0.00, satellites=5, angle=271.8700, fixquality=1
$GPRMC,163331.250,A,4308.4711,N,07726.4363,W,0.00,271.87,040619,,,A*75
$GPGGA,163331.500,4308.4711,N,07726.4363,W,1,05,2.42,178.7,M,-34.4,M,,*52
lng=-77.440605, lat=43.141185, altitude=178.70, speed=0.00, satellites=5, angle=271.8700, fixquality=1
$GPRMC,163331.750,A,4308.4711,N,07726.4363,W,0.01,271.87,040619,,,A*71
$GPGGA,163332.000,4308.4711,N,07726.4363,W,1,05,2.42,178.7,M,-34.4,M,,*54
lng=-77.440605, lat=43.141185, altitude=178.70, speed=0.01, satellites=5, angle=271.8700, fixquality=1
$GPRMC,163332.250,A,4308.4711,N,07726.4363,W,0.00,271.87,040619,,,A*76
$GPGGA,163332.500,4308.4709,N,07726.4366,W,1,08,1.24,178.4,M,-34.4,M,,*50
lng=-77.440605, lat=43.141185, altitude=178.70, speed=0.00, satellites=5, angle=271.8700, fixquality=1
$GPRMC,163332.750,A,4308.4707,N,07726.4368,W,0.00,271.87,040619,,,A*7F
$GPGGA,163333.000,4308.4706,N,07726.4371,W,1,08,1.20,178.0,M,-34.4,M,,*5D
lng=-77.440620, lat=43.141178, altitude=178.40, speed=0.00, satellites=8, angle=271.8700, fixquality=1
$GPRMC,163333.250,A,4308.4705,N,07726.4373,W,0.00,271.87,040619,,,A*73
$GPGGA,163333.500,4308.4705,N,07726.4373,W,1,08,1.20,177.7,M,-34.4,M,,*51
lng=-77.440628, lat=43.141178, altitude=178.00, speed=0.00, satellites=8, angle=271.8700, fixquality=1
$GPRMC,163333.750,A,4308.4705,N,07726.4373,W,0.00,271.87,040619,,,A*76
$GPGGA,163334.000,4308.4705,N,07726.4373,W,1,08,1.24,177.7,M,-34.4,M,,*57
lng=-77.440628, lat=43.141178, altitude=177.70, speed=0.00, satellites=8, angle=271.8700, fixquality=1
$GPRMC,163334.250,A,4308.4705,N,07726.4373,W,0.00,271.87,040619,,,A*74
$GPGGA,163334.500,4308.4705,N,07726.4373,W,1,08,1.20,177.7,M,-34.4,M,,*56
lng=-77.440628, lat=43.141178, altitude=177.70, speed=0.00, satellites=8, angle=271.8700, fixquality=1
$GPRMC,163334.750,A,4308.4705,N,07726.4373,W,0.00,271.87,040619,,,A*71
$GPGGA,163335.000,4308.4705,N,07726.4373,W,1,08,1.20,177.7,M,-34.4,M,,*52
lng=-77.440628, lat=43.141178, altitude=177.70, speed=0.00, satellites=8, angle=271.8700, fixquality=1
$GPRMC,163335.250,A,4308.4705,N,07726.4373,W,0.00,271.87,040619,,,A*75
$GPGGA,163335.500,4308.4705,N,07726.4373,W,1,08,1.20,177.7,M,-34.4,M,,*57
lng=-77.440628, lat=43.141178, altitude=177.70, speed=0.00, satellites=8, angle=271.8700, fixquality=1
$GPRMC,163335.750,A,4308.4705,N,07726.4373,W,0.00,271.87,040619,,,A*70
$GPGGA,163336.000,4308.4705,N,07726.4373,W,1,08,1.20,177.7,M,-34.4,M,,*51
lng=-77.440628, lat=43.141178, altitude=177.70, speed=0.00, satellites=8, angle=271.8700, fixquality=1
$GPRMC,163336.250,A,4308.4705,N,07726.4373,W,0.00,271.87,040619,,,A*76
$GPGGA,163336.500,4308.4704,N,07726.4373,W,1,08,1.20,177.7,M,-34.4,M,,*55
lng=-77.440628, lat=43.141178, altitude=177.70, speed=0.00, satellites=8, angle=271.8700, fixquality=1
$GPRMC,163336.750,A,4308.4704,N,07726.4373,W,0.00,271.87,040619,,,A*72
$GPGGA,163337.000,4308.4704,N,07726.4373,W,1,08,1.20,177.7,M,-34.4,M,,*51
lng=-77.440628, lat=43.141170, altitude=177.70, speed=0.00, satellites=8, angle=271.8700, fixquality=1
$GPRMC,163337.250,A,4308.4704,N,07726.4373,W,0.02,271.87,040619,,,A*74
$GPGGA,163337.500,4308.4704,N,07726.4373,W,1,08,1.20,177.7,M,-34.4,M,,*54
lng=-77.440628, lat=43.141170, altitude=177.70, speed=0.02, satellites=8, angle=271.8700, fixquality=1
$GPRMC,163337.750,A,4308.4704,N,07726.4373,W,0.01,271.87,040619,,,A*72
$GPGGA,163338.000,4308.4704,N,07726.4373,W,1,08,1.20,177.6,M,-34.4,M,,*5F
lng=-77.440628, lat=43.141170, altitude=177.70, speed=0.01, satellites=8, angle=271.8700, fixquality=1
$GPRMC,163338.250,A,4308.4704,N,07726.4373,W,0.00,271.87,040619,,,A*79
$GPGGA,163338.500,4308.4704,N,07726.4373,W,1,08,1.20,177.6,M,-34.4,M,,*5A
lng=-77.440628, lat=43.141170, altitude=177.60, speed=0.00, satellites=8, angle=271.8700, fixquality=1
$GPRMC,163338.750,A,4308.4704,N,07726.4373,W,0.03,271.87,040619,,,A*7F
$GPGGA,163339.000,4308.4704,N,07726.4373,W,1,08,1.20,177.6,M,-34.4,M,,*5E
lng=-77.440628, lat=43.141170, altitude=177.60, speed=0.03, satellites=8, angle=271.8700, fixquality=1
$GPRMC,163339.250,A,4308.4704,N,07726.4373,W,0.05,271.87,040619,,,A*7D
$GPGGA,163339.500,4308.4704,N,07726.4373,W,1,08,1.20,177.6,M,-34.4,M,,*5B
lng=-77.440628, lat=43.141170, altitude=177.60, speed=0.05, satellites=8, angle=271.8700, fixquality=1
$GPRMC,163339.750,A,4308.4704,N,07726.4373,W,0.02,271.87,040619,,,A*7F
$GPGGA,163340.000,4308.4704,N,07726.4373,W,1,08,1.20,177.6,M,-34.4,M,,*50
lng=-77.440628, lat=43.141170, altitude=177.60, speed=0.02, satellites=8, angle=271.8700, fixquality=1
$GPRMC,163340.250,A,4308.4704,N,07726.4373,W,0.04,271.87,040619,,,A*72
$GPGGA,163340.500,4308.4704,N,07726.4373,W,1,08,1.20,177.6,M,-34.4,M,,*55
lng=-77.440628, lat=43.141170, altitude=177.60, speed=0.04, satellites=8, angle=271.8700, fixquality=1
$GPRMC,163340.750,A,4308.4704,N,07726.4373,W,0.02,271.87,040619,,,A*71
$GPGGA,163341.000,4308.4704,N,07726.4373,W,1,08,1.20,177.6,M,-34.4,M,,*51
lng=-77.440628, lat=43.141170, altitude=177.60, speed=0.02, satellites=8, angle=271.8700, fixquality=1
$GPRMC,163341.250,A,4308.4704,N,07726.4373,W,0.02,271.87,040619,,,A*75
$GPGGA,163341.500,4308.4704,N,07726.4373,W,1,08,1.20,177.6,M,-34.4,M,,*54
lng=-77.440628, lat=43.141170, altitude=177.60, speed=0.02, satellites=8, angle=271.8700, fixquality=1
$GPRMC,163341.750,A,4308.4704,N,07726.4373,W,0.06,271.87,040619,,,A*74
$GPGGA,163342.000,4308.4704,N,07726.4373,W,1,08,1.20,177.6,M,-34.4,M,,*52
lng=-77.440628, lat=43.141170, altitude=177.60, speed=0.06, satellites=8, angle=271.8700, fixquality=1
$GPRMC,163342.250,A,4308.4704,N,07726.4374,W,0.25,271.87,040619,,,A*74
$GPGGA,163342.500,4308.4704,N,07726.4374,W,1,08,1.20,177.6,M,-34.4,M,,*50
lng=-77.440628, lat=43.141170, altitude=177.60, speed=0.25, satellites=8, angle=271.8700, fixquality=1
$GPRMC,163342.750,A,4308.4704,N,07726.4374,W,0.55,271.87,040619,,,A*76
$GPGGA,163343.000,4308.4704,N,07726.4375,W,1,08,1.20,177.6,M,-34.4,M,,*55
lng=-77.440628, lat=43.141170, altitude=177.60, speed=0.55, satellites=8, angle=271.8700, fixquality=1
$GPRMC,163343.250,A,4308.4704,N,07726.4376,W,0.96,278.29,040619,,,A*72
$GPGGA,163343.500,4308.4704,N,07726.4377,W,1,08,1.20,177.6,M,-34.4,M,,*52
lng=-77.440628, lat=43.141170, altitude=177.60, speed=0.96, satellites=8, angle=278.2900, fixquality=1
$GPRMC,163343.750,A,4308.4704,N,07726.4378,W,1.01,277.16,040619,,,A*75
$GPGGA,163344.000,4308.4705,N,07726.4379,W,1,08,1.20,177.5,M,-34.4,M,,*5C
lng=-77.440635, lat=43.141170, altitude=177.60, speed=1.01, satellites=8, angle=277.1600, fixquality=1
$GPRMC,163344.250,A,4308.4705,N,07726.4380,W,0.92,277.16,040619,,,A*7A
$GPGGA,163344.500,4308.4705,N,07726.4381,W,1,08,1.20,177.5,M,-34.4,M,,*5E
lng=-77.440635, lat=43.141178, altitude=177.50, speed=0.92, satellites=8, angle=277.1600, fixquality=1
$GPRMC,163344.750,A,4308.4705,N,07726.4381,W,0.29,277.16,040619,,,A*7E
$GPGGA,163345.000,4308.4705,N,07726.4381,W,1,08,1.20,177.5,M,-34.4,M,,*5A
lng=-77.440635, lat=43.141178, altitude=177.50, speed=0.29, satellites=8, angle=277.1600, fixquality=1
$GPRMC,163345.250,A,4308.4705,N,07726.4381,W,0.03,277.16,040619,,,A*72
$GPGGA,163345.500,4308.4705,N,07726.4382,W,1,08,1.20,177.5,M,-34.4,M,,*5C
lng=-77.440635, lat=43.141178, altitude=177.50, speed=0.03, satellites=8, angle=277.1600, fixquality=1
$GPRMC,163345.750,A,4308.4705,N,07726.4382,W,0.05,277.16,040619,,,A*72
$GPGGA,163346.000,4308.4705,N,07726.4382,W,1,08,1.20,177.5,M,-34.4,M,,*5A
lng=-77.440635, lat=43.141178, altitude=177.50, speed=0.05, satellites=8, angle=277.1600, fixquality=1
$GPRMC,163346.250,A,4308.4705,N,07726.4382,W,0.04,277.16,040619,,,A*75
$GPGGA,163346.500,4308.4705,N,07726.4382,W,1,08,1.20,177.5,M,-34.4,M,,*5F
lng=-77.440635, lat=43.141178, altitude=177.50, speed=0.04, satellites=8, angle=277.1600, fixquality=1
$GPRMC,163346.750,A,4308.4705,N,07726.4382,W,0.03,277.16,040619,,,A*77
$GPGGA,163347.000,4308.4705,N,07726.4382,W,1,08,1.20,177.5,M,-34.4,M,,*5B
lng=-77.440635, lat=43.141178, altitude=177.50, speed=0.03, satellites=8, angle=277.1600, fixquality=1
$GPRMC,163347.250,A,4308.4705,N,07726.4382,W,0.03,277.16,040619,,,A*73
$GPGGA,163347.500,4308.4705,N,07726.4382,W,1,08,1.20,177.5,M,-34.4,M,,*5E
lng=-77.440635, lat=43.141178, altitude=177.50, speed=0.03, satellites=8, angle=277.1600, fixquality=1
$GPRMC,163347.750,A,4308.4705,N,07726.4382,W,0.03,277.16,040619,,,A*76
$GPGGA,163348.000,4308.4705,N,07726.4382,W,1,08,1.20,177.5,M,-34.4,M,,*54
lng=-77.440635, lat=43.141178, altitude=177.50, speed=0.03, satellites=8, angle=277.1600, fixquality=1
$GPRMC,163348.250,A,4308.4705,N,07726.4382,W,0.02,277.16,040619,,,A*7D
$GPGGA,163348.500,4308.4705,N,07726.4382,W,1,08,1.20,177.5,M,-34.4,M,,*51
lng=-77.440635, lat=43.141178, altitude=177.50, speed=0.02, satellites=8, angle=277.1600, fixquality=1
$GPRMC,163348.750,A,4308.4705,N,07726.4382,W,0.01,277.16,040619,,,A*7B
$GPGGA,163349.000,4308.4705,N,07726.4382,W,1,08,1.20,177.5,M,-34.4,M,,*55
lng=-77.440635, lat=43.141178, altitude=177.50, speed=0.01, satellites=8, angle=277.1600, fixquality=1
$GPRMC,163349.250,A,4308.4705,N,07726.4382,W,0.02,277.16,040619,,,A*7C
$GPGGA,163349.500,4308.4705,N,07726.4382,W,1,08,1.24,177.4,M,-34.4,M,,*55
lng=-77.440635, lat=43.141178, altitude=177.50, speed=0.02, satellites=8, angle=277.1600, fixquality=1
$GPRMC,163349.750,A,4308.4705,N,07726.4382,W,0.02,277.16,040619,,,A*79
$GPGGA,163350.000,4308.4705,N,07726.4382,W,1,08,1.20,177.4,M,-34.4,M,,*5C
lng=-77.440635, lat=43.141178, altitude=177.40, speed=0.02, satellites=8, angle=277.1600, fixquality=1
$GPRMC,163350.250,A,4308.4705,N,07726.4382,W,0.03,277.16,040619,,,A*75
$GPGGA,163350.500,4308.4705,N,07726.4382,W,1,08,1.24,177.4,M,-34.4,M,,*5D
lng=-77.440635, lat=43.141178, altitude=177.40, speed=0.03, satellites=8, angle=277.1600, fixquality=1
$GPRMC,163350.750,A,4308.4705,N,07726.4382,W,0.27,277.16,040619,,,A*76
$GPGGA,163351.000,4308.4705,N,07726.4382,W,1,08,1.20,177.4,M,-34.4,M,,*5D
lng=-77.440635, lat=43.141178, altitude=177.40, speed=0.27, satellites=8, angle=277.1600, fixquality=1
$GPRMC,163351.250,A,4308.4705,N,07726.4383,W,2.21,273.39,040619,,,A*7E
$GPGGA,163351.500,4308.4705,N,07726.4386,W,1,08,1.20,177.2,M,-34.4,M,,*5A
lng=-77.440643, lat=43.141178, altitude=177.40, speed=2.21, satellites=8, angle=273.3900, fixquality=1
$GPRMC,163351.750,A,4308.4704,N,07726.4392,W,4.46,277.67,040619,,,A*72
$GPGGA,163352.000,4308.4703,N,07726.4398,W,1,08,1.24,176.9,M,-34.4,M,,*5B
lng=-77.440650, lat=43.141170, altitude=177.20, speed=4.46, satellites=8, angle=277.6700, fixquality=1
$GPRMC,163352.250,A,4308.4702,N,07726.4406,W,6.65,279.03,040619,,,A*77
$GPGGA,163352.500,4308.4702,N,07726.4416,W,1,08,1.24,176.4,M,-34.4,M,,*53
lng=-77.440673, lat=43.141170, altitude=176.90, speed=6.65, satellites=8, angle=279.0300, fixquality=1
$GPRMC,163352.750,A,4308.4702,N,07726.4425,W,8.62,277.69,040619,,,A*78
$GPGGA,163353.000,4308.4702,N,07726.4435,W,1,08,1.24,176.1,M,-34.4,M,,*53
lng=-77.440704, lat=43.141170, altitude=176.40, speed=8.62, satellites=8, angle=277.6900, fixquality=1
$GPRMC,163353.250,A,4308.4702,N,07726.4445,W,10.40,277.98,040619,,,A*4D
$GPGGA,163353.500,4308.4703,N,07726.4456,W,1,08,1.24,175.8,M,-34.4,M,,*58
lng=-77.440742, lat=43.141170, altitude=176.10, speed=10.40, satellites=8, angle=277.9800, fixquality=1
$GPRMC,163353.750,A,4308.4703,N,07726.4468,W,11.92,278.68,040619,,,A*48
$GPGGA,163354.000,4308.4705,N,07726.4480,W,1,08,1.24,175.5,M,-34.4,M,,*5A
lng=-77.440780, lat=43.141170, altitude=175.80, speed=11.92, satellites=8, angle=278.6800, fixquality=1
$GPRMC,163354.250,A,4308.4706,N,07726.4493,W,13.18,279.49,040619,,,A*49
$GPGGA,163354.500,4308.4707,N,07726.4506,W,1,08,1.24,175.2,M,-34.4,M,,*55
lng=-77.440818, lat=43.141178, altitude=175.50, speed=13.18, satellites=8, angle=279.4900, fixquality=1
$GPRMC,163354.750,A,4308.4709,N,07726.4520,W,14.68,279.15,040619,,,A*43
$GPGGA,163355.000,4308.4710,N,07726.4535,W,1,08,1.24,175.1,M,-34.4,M,,*54
lng=-77.440872, lat=43.141178, altitude=175.20, speed=14.68, satellites=8, angle=279.1500, fixquality=1
$GPRMC,163355.250,A,4308.4712,N,07726.4551,W,16.75,279.73,040619,,,A*45
$GPGGA,163355.500,4308.4713,N,07726.4568,W,1,08,1.24,175.0,M,-34.4,M,,*5B
lng=-77.440917, lat=43.141185, altitude=175.10, speed=16.75, satellites=8, angle=279.7300, fixquality=1
$GPRMC,163355.750,A,4308.4715,N,07726.4585,W,18.20,278.08,040619,,,A*4D
$GPGGA,163356.000,4308.4717,N,07726.4603,W,1,08,1.24,174.9,M,-34.4,M,,*5F
lng=-77.440971, lat=43.141193, altitude=175.00, speed=18.20, satellites=8, angle=278.0800, fixquality=1
$GPRMC,163356.250,A,4308.4719,N,07726.4623,W,19.95,277.99,040619,,,A*40
$GPGGA,163356.500,4308.4721,N,07726.4643,W,1,08,1.24,174.8,M,-34.4,M,,*5A
lng=-77.441040, lat=43.141193, altitude=174.90, speed=19.95, satellites=8, angle=277.9900, fixquality=1
$GPRMC,163356.750,A,4308.4723,N,07726.4663,W,21.35,277.68,040619,,,A*47
$GPGGA,163357.000,4308.4726,N,07726.4684,W,1,08,1.24,174.7,M,-34.4,M,,*5D
lng=-77.441108, lat=43.141201, altitude=174.80, speed=21.35, satellites=8, angle=277.6800, fixquality=1
$GPRMC,163357.250,A,4308.4729,N,07726.4707,W,23.37,278.08,040619,,,A*43
$GPGGA,163357.500,4308.4731,N,07726.4729,W,1,08,1.24,174.8,M,-34.4,M,,*57
lng=-77.441177, lat=43.141212, altitude=174.70, speed=23.37, satellites=8, angle=278.0800, fixquality=1
$GPRMC,163357.750,A,4308.4733,N,07726.4752,W,24.70,277.87,040619,,,A*41
$GPGGA,163358.000,4308.4735,N,07726.4776,W,1,08,1.24,175.0,M,-34.4,M,,*5A
lng=-77.441253, lat=43.141220, altitude=174.80, speed=24.70, satellites=8, angle=277.8700, fixquality=1
$GPRMC,163358.250,A,4308.4738,N,07726.4801,W,25.85,277.14,040619,,,A*48
$GPGGA,163358.500,4308.4740,N,07726.4825,W,1,08,1.24,175.1,M,-34.4,M,,*55
lng=-77.441329, lat=43.141227, altitude=175.00, speed=25.85, satellites=8, angle=277.1400, fixquality=1
$GPRMC,163358.750,A,4308.4742,N,07726.4851,W,27.10,276.78,040619,,,A*40
$GPGGA,163359.000,4308.4744,N,07726.4877,W,1,08,1.24,175.1,M,-34.4,M,,*52
lng=-77.441413, lat=43.141235, altitude=175.10, speed=27.10, satellites=8, angle=276.7800, fixquality=1
$GPRMC,163359.250,A,4308.4746,N,07726.4904,W,28.24,276.17,040619,,,A*40
$GPGGA,163359.500,4308.4748,N,07726.4931,W,1,08,1.24,175.0,M,-34.4,M,,*59
lng=-77.441505, lat=43.141242, altitude=175.10, speed=28.24, satellites=8, angle=276.1700, fixquality=1
$GPRMC,163359.750,A,4308.4750,N,07726.4959,W,29.38,276.14,040619,,,A*45
$GPGGA,163400.000,4308.4752,N,07726.4987,W,1,08,1.24,175.0,M,-34.4,M,,*51
lng=-77.441604, lat=43.141250, altitude=175.00, speed=29.38, satellites=8, angle=276.1400, fixquality=1
$GPRMC,163400.250,A,4308.4754,N,07726.5016,W,30.56,275.51,040619,,,A*4E
$GPGGA,163400.500,4308.4756,N,07726.5046,W,1,08,1.24,174.9,M,-34.4,M,,*5D
lng=-77.441688, lat=43.141258, altitude=175.00, speed=30.56, satellites=8, angle=275.5100, fixquality=1
$GPRMC,163400.750,A,4308.4758,N,07726.5076,W,31.55,275.11,040619,,,A*47
$GPGGA,163401.000,4308.4760,N,07726.5106,W,1,08,1.24,174.7,M,-34.4,M,,*57
lng=-77.441795, lat=43.141258, altitude=174.90, speed=31.55, satellites=8, angle=275.1100, fixquality=1
$GPRMC,163401.250,A,4308.4762,N,07726.5137,W,32.11,275.02,040619,,,A*4F
$GPGGA,163401.500,4308.4763,N,07726.5168,W,1,08,1.24,174.5,M,-34.4,M,,*5B
lng=-77.441894, lat=43.141269, altitude=174.70, speed=32.11, satellites=8, angle=275.0200, fixquality=1
$GPRMC,163401.750,A,4308.4765,N,07726.5199,W,32.62,274.42,040619,,,A*48
$GPGGA,163402.000,4308.4766,N,07726.5231,W,1,08,1.24,174.3,M,-34.4,M,,*51
lng=-77.442001, lat=43.141277, altitude=174.50, speed=32.62, satellites=8, angle=274.4200, fixquality=1
$GPRMC,163402.250,A,4308.4768,N,07726.5263,W,32.95,274.21,040619,,,A*48
$GPGGA,163402.500,4308.4769,N,07726.5296,W,1,08,1.24,174.1,M,-34.4,M,,*54
lng=-77.442108, lat=43.141277, altitude=174.30, speed=32.95, satellites=8, angle=274.2100, fixquality=1
$GPRMC,163402.750,A,4308.4771,N,07726.5329,W,33.26,273.77,040619,,,A*47
$GPGGA,163403.000,4308.4772,N,07726.5362,W,1,08,1.24,173.9,M,-34.4,M,,*5F
lng=-77.442214, lat=43.141284, altitude=174.10, speed=33.26, satellites=8, angle=273.7700, fixquality=1
$GPRMC,163403.250,A,4308.4773,N,07726.5395,W,33.58,273.07,040619,,,A*48
$GPGGA,163403.500,4308.4775,N,07726.5429,W,1,08,1.24,173.7,M,-34.4,M,,*5B
lng=-77.442329, lat=43.141292, altitude=173.90, speed=33.58, satellites=8, angle=273.0700, fixquality=1
$GPRMC,163403.750,A,4308.4776,N,07726.5463,W,33.93,273.02,040619,,,A*44
$GPGGA,163404.000,4308.4777,N,07726.5497,W,1,08,1.24,173.5,M,-34.4,M,,*5C
lng=-77.442436, lat=43.141292, altitude=173.70, speed=33.93, satellites=8, angle=273.0200, fixquality=1
$GPRMC,163404.250,A,4308.4778,N,07726.5531,W,34.32,273.29,040619,,,A*4B
$GPGGA,163404.500,4308.4780,N,07726.5567,W,1,08,1.24,173.3,M,-34.4,M,,*59
lng=-77.442550, lat=43.141300, altitude=173.50, speed=34.32, satellites=8, angle=273.2900, fixquality=1
$GPRMC,163404.750,A,4308.4781,N,07726.5602,W,36.78,273.28,040619,,,A*46
$GPGGA,163405.000,4308.4783,N,07726.5637,W,1,08,1.24,173.0,M,-34.4,M,,*5B
lng=-77.442665, lat=43.141300, altitude=173.30, speed=36.78, satellites=8, angle=273.2800, fixquality=1
$GPRMC,163405.250,A,4308.4784,N,07726.5673,W,37.13,273.13,040619,,,A*45
$GPGGA,163405.500,4308.4785,N,07726.5708,W,1,08,1.24,172.8,M,-34.4,M,,*5C
lng=-77.442787, lat=43.141307, altitude=173.00, speed=37.13, satellites=8, angle=273.1300, fixquality=1
$GPRMC,163405.750,A,4308.4787,N,07726.5744,W,37.76,272.98,040619,,,A*47
$GPGGA,163406.000,4308.4788,N,07726.5780,W,1,08,1.24,172.7,M,-34.4,M,,*58
lng=-77.442901, lat=43.141307, altitude=172.80, speed=37.76, satellites=8, angle=272.9800, fixquality=1
$GPRMC,163406.250,A,4308.4789,N,07726.5817,W,38.01,272.45,040619,,,A*49
$GPGGA,163406.500,4308.4790,N,07726.5853,W,1,08,1.24,172.5,M,-34.4,M,,*57
lng=-77.443023, lat=43.141315, altitude=172.70, speed=38.01, satellites=8, angle=272.4500, fixquality=1
$GPRMC,163406.750,A,4308.4791,N,07726.5890,W,38.53,272.67,040619,,,A*4D
$GPGGA,163407.000,4308.4792,N,07726.5927,W,1,08,1.24,172.5,M,-34.4,M,,*53
lng=-77.443145, lat=43.141315, altitude=172.50, speed=38.53, satellites=8, angle=272.6700, fixquality=1
$GPRMC,163407.250,A,4308.4793,N,07726.5964,W,39.35,272.25,040619,,,A*46
$GPGGA,163407.500,4308.4794,N,07726.6002,W,1,08,1.24,172.5,M,-34.4,M,,*5D
lng=-77.443267, lat=43.141323, altitude=172.50, speed=39.35, satellites=8, angle=272.2500, fixquality=1
$GPRMC,163407.750,A,4308.4794,N,07726.6039,W,39.55,272.09,040619,,,A*4E
$GPGGA,163408.000,4308.4795,N,07726.6077,W,1,08,1.24,172.5,M,-34.4,M,,*54
lng=-77.443397, lat=43.141323, altitude=172.50, speed=39.55, satellites=8, angle=272.0900, fixquality=1
$GPRMC,163408.250,A,4308.4796,N,07726.6114,W,39.87,271.28,040619,,,A*47
$GPGGA,163408.500,4308.4796,N,07726.6152,W,1,08,1.24,172.4,M,-34.4,M,,*55
lng=-77.443519, lat=43.141323, altitude=172.50, speed=39.87, satellites=8, angle=271.2800, fixquality=1
$GPRMC,163408.750,A,4308.4796,N,07726.6190,W,40.10,270.69,040619,,,A*4A
$GPGGA,163409.000,4308.4796,N,07726.6228,W,1,08,1.24,172.4,M,-34.4,M,,*5F
lng=-77.443649, lat=43.141323, altitude=172.40, speed=40.10, satellites=8, angle=270.6900, fixquality=1
$GPRMC,163409.250,A,4308.4796,N,07726.6266,W,40.35,269.91,040619,,,A*4C
$GPGGA,163409.500,4308.4796,N,07726.6305,W,1,08,1.24,172.5,M,-34.4,M,,*55
lng=-77.443771, lat=43.141323, altitude=172.40, speed=40.35, satellites=8, angle=269.9100, fixquality=1
$GPRMC,163409.750,A,4308.4796,N,07726.6343,W,40.62,269.48,040619,,,A*49
$GPGGA,163410.000,4308.4795,N,07726.6382,W,1,08,1.24,172.4,M,-34.4,M,,*55
lng=-77.443901, lat=43.141323, altitude=172.50, speed=40.62, satellites=8, angle=269.4800, fixquality=1
$GPRMC,163410.250,A,4308.4795,N,07726.6421,W,40.91,268.43,040619,,,A*42
$GPGGA,163410.500,4308.4794,N,07726.6460,W,1,08,1.24,172.3,M,-34.4,M,,*5D
lng=-77.444038, lat=43.141323, altitude=172.40, speed=40.91, satellites=8, angle=268.4300, fixquality=1
$GPRMC,163410.750,A,4308.4793,N,07726.6499,W,41.15,267.89,040619,,,A*46
$GPGGA,163411.000,4308.4791,N,07726.6538,W,1,08,1.24,172.2,M,-34.4,M,,*51
lng=-77.444168, lat=43.141323, altitude=172.30, speed=41.15, satellites=8, angle=267.8900, fixquality=1
$GPRMC,163411.250,A,4308.4790,N,07726.6577,W,41.44,267.31,040619,,,A*47
$GPGGA,163411.500,4308.4788,N,07726.6617,W,1,08,1.24,172.2,M,-34.4,M,,*52
lng=-77.444297, lat=43.141315, altitude=172.20, speed=41.44, satellites=8, angle=267.3100, fixquality=1
$GPRMC,163411.750,A,4308.4786,N,07726.6657,W,41.83,266.83,040619,,,A*47
$GPGGA,163412.000,4308.4785,N,07726.6697,W,1,08,1.24,172.2,M,-34.4,M,,*51
lng=-77.444427, lat=43.141307, altitude=172.20, speed=41.83, satellites=8, angle=266.8300, fixquality=1
$GPRMC,163412.250,A,4308.4783,N,07726.6736,W,42.00,266.35,040619,,,A*47
$GPGGA,163412.500,4308.4781,N,07726.6777,W,1,08,1.24,172.3,M,-34.4,M,,*5E
lng=-77.444564, lat=43.141307, altitude=172.20, speed=42.00, satellites=8, angle=266.3500, fixquality=1
$GPRMC,163412.750,A,4308.4778,N,07726.6817,W,42.12,266.24,040619,,,A*49
$GPGGA,163413.000,4308.4776,N,07726.6857,W,1,08,1.24,172.4,M,-34.4,M,,*58
lng=-77.444694, lat=43.141300, altitude=172.30, speed=42.12, satellites=8, angle=266.2400, fixquality=1
$GPRMC,163413.250,A,4308.4774,N,07726.6897,W,42.38,265.76,040619,,,A*45
$GPGGA,163413.500,4308.4772,N,07726.6937,W,1,08,1.24,172.6,M,-34.4,M,,*5C
lng=-77.444831, lat=43.141292, altitude=172.40, speed=42.38, satellites=8, angle=265.7600, fixquality=1
$GPRMC,163413.750,A,4308.4769,N,07726.6978,W,42.49,265.82,040619,,,A*41
$GPGGA,163414.000,4308.4767,N,07726.7018,W,1,08,1.24,172.8,M,-34.4,M,,*51
lng=-77.444961, lat=43.141284, altitude=172.60, speed=42.49, satellites=8, angle=265.8200, fixquality=1
$GPRMC,163414.250,A,4308.4765,N,07726.7059,W,42.75,265.80,040619,,,A*49
$GPGGA,163414.500,4308.4762,N,07726.7099,W,1,08,1.24,173.0,M,-34.4,M,,*51
lng=-77.445098, lat=43.141277, altitude=172.80, speed=42.75, satellites=8, angle=265.8000, fixquality=1
$GPRMC,163414.750,A,4308.4760,N,07726.7140,W,42.79,265.38,040619,,,A*4F
$GPGGA,163415.000,4308.4757,N,07726.7180,W,1,08,1.24,173.2,M,-34.4,M,,*58
lng=-77.445228, lat=43.141269, altitude=173.00, speed=42.79, satellites=8, angle=265.3800, fixquality=1
$GPRMC,163415.250,A,4308.4755,N,07726.7221,W,43.01,264.81,040619,,,A*44
$GPGGA,163415.500,4308.4752,N,07726.7261,W,1,08,1.24,173.5,M,-34.4,M,,*53
lng=-77.445365, lat=43.141258, altitude=173.20, speed=43.01, satellites=8, angle=264.8100, fixquality=1
$GPRMC,163415.750,A,4308.4750,N,07726.7302,W,43.07,265.22,040619,,,A*4A
$GPGGA,163416.000,4308.4747,N,07726.7343,W,1,08,1.24,173.5,M,-34.4,M,,*50
lng=-77.445503, lat=43.141250, altitude=173.50, speed=43.07, satellites=8, angle=265.2200, fixquality=1
$GPRMC,163416.250,A,4308.4745,N,07726.7383,W,42.29,265.74,040619,,,A*4F
$GPGGA,163416.500,4308.4743,N,07726.7423,W,1,08,1.24,173.7,M,-34.4,M,,*52
lng=-77.445640, lat=43.141242, altitude=173.50, speed=42.29, satellites=8, angle=265.7400, fixquality=1
$GPRMC,163416.750,A,4308.4740,N,07726.7462,W,41.60,265.57,040619,,,A*48
$GPGGA,163417.000,4308.4738,N,07726.7502,W,1,08,1.24,174.0,M,-34.4,M,,*58
lng=-77.445770, lat=43.141235, altitude=173.70, speed=41.60, satellites=8, angle=265.5700, fixquality=1
$GPRMC,163417.250,A,4308.4737,N,07726.7540,W,41.35,265.80,040619,,,A*47
$GPGGA,163417.500,4308.4735,N,07726.7579,W,1,08,1.24,174.2,M,-34.4,M,,*5E
lng=-77.445899, lat=43.141227, altitude=174.00, speed=41.35, satellites=8, angle=265.8000, fixquality=1
$GPRMC,163417.750,A,4308.4732,N,07726.7617,W,40.24,265.94,040619,,,A*42
$GPGGA,163418.000,4308.4730,N,07726.7655,W,1,08,1.24,174.5,M,-34.4,M,,*5B
lng=-77.446029, lat=43.141220, altitude=174.20, speed=40.24, satellites=8, angle=265.9400, fixquality=1
$GPRMC,163418.250,A,4308.4729,N,07726.7693,W,39.90,266.05,040619,,,A*44
$GPGGA,163418.500,4308.4727,N,07726.7731,W,1,08,1.24,174.6,M,-34.4,M,,*58
lng=-77.446159, lat=43.141212, altitude=174.50, speed=39.90, satellites=8, angle=266.0500, fixquality=1
$GPRMC,163418.750,A,4308.4725,N,07726.7768,W,39.46,266.11,040619,,,A*46
$GPGGA,163419.000,4308.4723,N,07726.7805,W,1,08,1.24,174.6,M,-34.4,M,,*50
lng=-77.446281, lat=43.141212, altitude=174.60, speed=39.46, satellites=8, angle=266.1100, fixquality=1
$GPRMC,163419.250,A,4308.4721,N,07726.7842,W,38.82,265.49,040619,,,A*46
$GPGGA,163419.500,4308.4719,N,07726.7878,W,1,08,1.24,174.5,M,-34.4,M,,*55
lng=-77.446403, lat=43.141201, altitude=174.60, speed=38.82, satellites=8, angle=265.4900, fixquality=1
$GPRMC,163419.750,A,4308.4717,N,07726.7915,W,38.56,265.04,040619,,,A*45
$GPGGA,163420.000,4308.4715,N,07726.7951,W,1,08,1.24,174.3,M,-34.4,M,,*5A
lng=-77.446525, lat=43.141193, altitude=174.50, speed=38.56, satellites=8, angle=265.0400, fixquality=1
$GPRMC,163420.250,A,4308.4713,N,07726.7987,W,38.15,265.50,040619,,,A*43
$GPGGA,163420.500,4308.4711,N,07726.8024,W,1,08,1.24,174.0,M,-34.4,M,,*5C
lng=-77.446647, lat=43.141185, altitude=174.30, speed=38.15, satellites=8, angle=265.5000, fixquality=1
$GPRMC,163420.750,A,4308.4708,N,07726.8059,W,37.89,265.21,040619,,,A*45
$GPGGA,163421.000,4308.4706,N,07726.8095,W,1,08,1.20,173.9,M,-34.4,M,,*5E
lng=-77.446762, lat=43.141178, altitude=174.00, speed=37.89, satellites=8, angle=265.2100, fixquality=1
$GPRMC,163421.250,A,4308.4703,N,07726.8130,W,37.49,265.07,040619,,,A*4C
$GPGGA,163421.500,4308.4701,N,07726.8166,W,1,08,1.24,173.6,M,-34.4,M,,*5A
lng=-77.446884, lat=43.141170, altitude=173.90, speed=37.49, satellites=8, angle=265.0700, fixquality=1
$GPRMC,163421.750,A,4308.4698,N,07726.8202,W,37.56,264.62,040619,,,A*44
$GPGGA,163422.000,4308.4696,N,07726.8238,W,1,08,1.24,173.4,M,-34.4,M,,*59
lng=-77.447006, lat=43.141162, altitude=173.60, speed=37.56, satellites=8, angle=264.6200, fixquality=1
$GPRMC,163422.250,A,4308.4693,N,07726.8274,W,38.13,264.42,040619,,,A*44
$GPGGA,163422.500,4308.4691,N,07726.8310,W,1,08,1.24,173.0,M,-34.4,M,,*54
lng=-77.447128, lat=43.141155, altitude=173.40, speed=38.13, satellites=8, angle=264.4200, fixquality=1
$GPRMC,163422.750,A,4308.4689,N,07726.8346,W,38.13,265.27,040619,,,A*48
$GPGGA,163423.000,4308.4686,N,07726.8383,W,1,08,1.24,172.8,M,-34.4,M,,*55
lng=-77.447242, lat=43.141147, altitude=173.00, speed=38.13, satellites=8, angle=265.2700, fixquality=1
$GPRMC,163423.250,A,4308.4684,N,07726.8419,W,38.42,265.18,040619,,,A*44
$GPGGA,163423.500,4308.4681,N,07726.8456,W,1,08,1.24,172.6,M,-34.4,M,,*56
lng=-77.447364, lat=43.141136, altitude=172.80, speed=38.42, satellites=8, angle=265.1800, fixquality=1
$GPRMC,163423.750,A,4308.4679,N,07726.8493,W,39.08,265.22,040619,,,A*47
$GPGGA,163424.000,4308.4677,N,07726.8531,W,1,08,1.24,172.3,M,-34.4,M,,*58
lng=-77.447486, lat=43.141128, altitude=172.60, speed=39.08, satellites=8, angle=265.2200, fixquality=1
$GPRMC,163424.250,A,4308.4674,N,07726.8568,W,39.55,265.05,040619,,,A*40
$GPGGA,163424.500,4308.4672,N,07726.8606,W,1,08,1.24,172.1,M,-34.4,M,,*5D
lng=-77.447616, lat=43.141120, altitude=172.30, speed=39.55, satellites=8, angle=265.0500, fixquality=1
$GPRMC,163424.750,A,4308.4670,N,07726.8644,W,39.79,265.03,040619,,,A*44
$GPGGA,163425.000,4308.4667,N,07726.8682,W,1,08,1.24,171.8,M,-34.4,M,,*5B
lng=-77.447738, lat=43.141113, altitude=172.10, speed=39.79, satellites=8, angle=265.0300, fixquality=1
$GPRMC,163425.250,A,4308.4665,N,07726.8720,W,40.05,264.82,040619,,,A*4A
$GPGGA,163425.500,4308.4662,N,07726.8758,W,1,08,1.24,171.5,M,-34.4,M,,*50
lng=-77.447868, lat=43.141105, altitude=171.80, speed=40.05, satellites=8, angle=264.8200, fixquality=1
$GPRMC,163425.750,A,4308.4660,N,07726.8796,W,40.33,264.81,040619,,,A*41
$GPGGA,163426.000,4308.4657,N,07726.8834,W,1,08,1.24,171.2,M,-34.4,M,,*52
lng=-77.447990, lat=43.141098, altitude=171.50, speed=40.33, satellites=8, angle=264.8100, fixquality=1
$GPRMC,163426.250,A,4308.4655,N,07726.8872,W,40.43,264.83,040619,,,A*41
$GPGGA,163426.500,4308.4653,N,07726.8910,W,1,08,1.24,170.9,M,-34.4,M,,*5E
lng=-77.448120, lat=43.141090, altitude=171.20, speed=40.43, satellites=8, angle=264.8300, fixquality=1
$GPRMC,163426.750,A,4308.4650,N,07726.8949,W,40.38,264.78,040619,,,A*40
$GPGGA,163427.000,4308.4648,N,07726.8987,W,1,08,1.24,170.3,M,-34.4,M,,*54
lng=-77.448249, lat=43.141078, altitude=170.90, speed=40.38, satellites=8, angle=264.7800, fixquality=1
$GPRMC,163427.250,A,4308.4645,N,07726.9025,W,40.10,264.80,040619,,,A*4F
$GPGGA,163427.500,4308.4643,N,07726.9063,W,1,08,1.24,169.7,M,-34.4,M,,*54
lng=-77.448371, lat=43.141071, altitude=170.30, speed=40.10, satellites=8, angle=264.8000, fixquality=1
$GPRMC,163427.750,A,4308.4640,N,07726.9101,W,39.73,264.50,040619,,,A*4E
$GPGGA,163428.000,4308.4638,N,07726.9138,W,1,08,1.24,169.4,M,-34.4,M,,*5E
lng=-77.448501, lat=43.141063, altitude=169.70, speed=39.73, satellites=8, angle=264.5000, fixquality=1
$GPRMC,163428.250,A,4308.4635,N,07726.9176,W,40.01,264.30,040619,,,A*4B
$GPGGA,163428.500,4308.4632,N,07726.9214,W,1,08,1.24,168.9,M,-34.4,M,,*50
lng=-77.448623, lat=43.141056, altitude=169.40, speed=40.01, satellites=8, angle=264.3000, fixquality=1
$GPRMC,163428.750,A,4308.4629,N,07726.9252,W,40.07,264.00,040619,,,A*43
$GPGGA,163429.000,4308.4627,N,07726.9290,W,1,08,1.24,168.7,M,-34.4,M,,*52
lng=-77.448753, lat=43.141048, altitude=168.90, speed=40.07, satellites=8, angle=264.0000, fixquality=1
$GPRMC,163429.250,A,4308.4624,N,07726.9328,W,40.41,264.10,040619,,,A*45
$GPGGA,163429.500,4308.4621,N,07726.9366,W,1,08,1.24,168.4,M,-34.4,M,,*5A
lng=-77.448875, lat=43.141040, altitude=168.70, speed=40.41, satellites=8, angle=264.1000, fixquality=1
$GPRMC,163429.750,A,4308.4618,N,07726.9405,W,40.74,264.27,040619,,,A*45
$GPGGA,163430.000,4308.4616,N,07726.9444,W,1,08,1.24,168.1,M,-34.4,M,,*51
lng=-77.449005, lat=43.141033, altitude=168.40, speed=40.74, satellites=8, angle=264.2700, fixquality=1
$GPRMC,163430.250,A,4308.4613,N,07726.9482,W,40.87,264.47,040619,,,A*46
$GPGGA,163430.500,4308.4611,N,07726.9521,W,1,08,1.24,167.7,M,-34.4,M,,*58
lng=-77.449134, lat=43.141025, altitude=168.10, speed=40.87, satellites=8, angle=264.4700, fixquality=1
$GPRMC,163430.750,A,4308.4608,N,07726.9560,W,41.13,265.04,040619,,,A*4E
$GPGGA,163431.000,4308.4606,N,07726.9599,W,1,08,1.24,167.3,M,-34.4,M,,*5D
lng=-77.449264, lat=43.141014, altitude=167.70, speed=41.13, satellites=8, angle=265.0400, fixquality=1
$GPRMC,163431.250,A,4308.4603,N,07726.9638,W,41.36,265.17,040619,,,A*4A
$GPGGA,163431.500,4308.4601,N,07726.9677,W,1,08,1.24,166.8,M,-34.4,M,,*56
lng=-77.449394, lat=43.141006, altitude=167.30, speed=41.36, satellites=8, angle=265.1700, fixquality=1
$GPRMC,163431.750,A,4308.4599,N,07726.9717,W,41.56,265.36,040619,,,A*46
$GPGGA,163432.000,4308.4597,N,07726.9757,W,1,08,1.24,166.2,M,-34.4,M,,*55
lng=-77.449531, lat=43.140998, altitude=166.80, speed=41.56, satellites=8, angle=265.3600, fixquality=1
$GPRMC,163432.250,A,4308.4594,N,07726.9796,W,41.80,265.31,040619,,,A*48
$GPGGA,163432.500,4308.4592,N,07726.9836,W,1,08,1.24,165.8,M,-34.4,M,,*54
lng=-77.449661, lat=43.140991, altitude=166.20, speed=41.80, satellites=8, angle=265.3100, fixquality=1
$GPRMC,163432.750,A,4308.4590,N,07726.9876,W,42.03,265.59,040619,,,A*4E
$GPGGA,163433.000,4308.4587,N,07726.9916,W,1,08,1.24,165.4,M,-34.4,M,,*5B
lng=-77.449798, lat=43.140983, altitude=165.80, speed=42.03, satellites=8, angle=265.5900, fixquality=1
$GPRMC,163433.250,A,4308.4585,N,07726.9956,W,42.13,265.65,040619,,,A*43
$GPGGA,163433.500,4308.4583,N,07726.9996,W,1,08,1.24,165.1,M,-34.4,M,,*57
lng=-77.449928, lat=43.140975, altitude=165.40, speed=42.13, satellites=8, angle=265.6500, fixquality=1
$GPRMC,163433.750,A,4308.4581,N,07727.0036,W,42.21,266.07,040619,,,A*43
$GPGGA,163434.000,4308.4579,N,07727.0076,W,1,08,1.24,164.7,M,-34.4,M,,*58
lng=-77.450057, lat=43.140968, altitude=165.10, speed=42.21, satellites=8, angle=266.0700, fixquality=1
$GPRMC,163434.250,A,4308.4577,N,07727.0116,W,42.38,266.46,040619,,,A*46
$GPGGA,163434.500,4308.4575,N,07727.0156,W,1,08,1.24,164.5,M,-34.4,M,,*50
lng=-77.450195, lat=43.140956, altitude=164.70, speed=42.38, satellites=8, angle=266.4600, fixquality=1
$GPRMC,163434.750,A,4308.4573,N,07727.0197,W,42.45,266.70,040619,,,A*41
$GPGGA,163435.000,4308.4572,N,07727.0237,W,1,08,1.24,164.3,M,-34.4,M,,*51
lng=-77.450325, lat=43.140956, altitude=164.50, speed=42.45, satellites=8, angle=266.7000, fixquality=1
$GPRMC,163435.250,A,4308.4571,N,07727.0277,W,42.56,267.44,040619,,,A*4E
$GPGGA,163435.500,4308.4570,N,07727.0318,W,1,08,1.20,164.1,M,-34.4,M,,*5C
lng=-77.450462, lat=43.140949, altitude=164.30, speed=42.56, satellites=8, angle=267.4400, fixquality=1
$GPRMC,163435.750,A,4308.4569,N,07727.0358,W,42.78,268.19,040619,,,A*45
$GPGGA,163436.000,4308.4568,N,07727.0399,W,1,08,1.24,163.9,M,-34.4,M,,*51
lng=-77.450592, lat=43.140949, altitude=164.10, speed=42.78, satellites=8, angle=268.1900, fixquality=1
$GPRMC,163436.250,A,4308.4568,N,07727.0439,W,42.76,269.30,040619,,,A*46
$GPGGA,163436.500,4308.4568,N,07727.0480,W,1,08,1.24,163.7,M,-34.4,M,,*55
lng=-77.450729, lat=43.140949, altitude=163.90, speed=42.76, satellites=8, angle=269.3000, fixquality=1
$GPRMC,163436.750,A,4308.4568,N,07727.0520,W,42.82,270.32,040619,,,A*4B
$GPGGA,163437.000,4308.4568,N,07727.0561,W,1,08,1.20,163.6,M,-34.4,M,,*5A
lng=-77.450859, lat=43.140949, altitude=163.70, speed=42.82, satellites=8, angle=270.3200, fixquality=1
$GPRMC,163437.250,A,4308.4569,N,07727.0602,W,42.49,270.68,040619,,,A*45
$GPGGA,163437.500,4308.4570,N,07727.0643,W,1,08,1.24,163.4,M,-34.4,M,,*53
lng=-77.451004, lat=43.140949, altitude=163.60, speed=42.49, satellites=8, angle=270.6800, fixquality=1
$GPRMC,163437.750,A,4308.4572,N,07727.0683,W,42.70,272.89,040619,,,A*44
$GPGGA,163438.000,4308.4574,N,07727.0724,W,1,08,1.24,163.3,M,-34.4,M,,*5A
lng=-77.451141, lat=43.140949, altitude=163.40, speed=42.70, satellites=8, angle=272.8900, fixquality=1
$GPRMC,163438.250,A,4308.4576,N,07727.0765,W,43.02,273.37,040619,,,A*43
$GPGGA,163438.500,4308.4578,N,07727.0807,W,1,08,1.24,163.1,M,-34.4,M,,*5F
lng=-77.451278, lat=43.140956, altitude=163.30, speed=43.02, satellites=8, angle=273.3700, fixquality=1
$GPRMC,163438.750,A,4308.4581,N,07727.0847,W,43.06,274.28,040619,,,A*4C
$GPGGA,163439.000,4308.4583,N,07727.0888,W,1,08,1.20,163.0,M,-34.4,M,,*5D
lng=-77.451408, lat=43.140968, altitude=163.10, speed=43.06, satellites=8, angle=274.2800, fixquality=1
$GPRMC,163439.250,A,4308.4586,N,07727.0928,W,42.99,275.32,040619,,,A*4A
$GPGGA,163439.500,4308.4590,N,07727.0968,W,1,08,1.24,162.9,M,-34.4,M,,*59
lng=-77.451545, lat=43.140975, altitude=163.00, speed=42.99, satellites=8, angle=275.3200, fixquality=1
$GPRMC,163439.750,A,4308.4593,N,07727.1009,W,42.81,276.43,040619,,,A*4C
$GPGGA,163440.000,4308.4597,N,07727.1049,W,1,08,1.20,162.9,M,-34.4,M,,*5A
lng=-77.451683, lat=43.140991, altitude=162.90, speed=42.81, satellites=8, angle=276.4300, fixquality=1
$GPRMC,163440.250,A,4308.4600,N,07727.1089,W,42.62,277.01,040619,,,A*4C
$GPGGA,163440.500,4308.4604,N,07727.1129,W,1,08,1.24,162.9,M,-34.4,M,,*55
lng=-77.451812, lat=43.140998, altitude=162.90, speed=42.62, satellites=8, angle=277.0100, fixquality=1
$GPRMC,163440.750,A,4308.4608,N,07727.1168,W,41.90,277.68,040619,,,A*4E
$GPGGA,163441.000,4308.4612,N,07727.1208,W,1,08,1.24,163.0,M,-34.4,M,,*5E
lng=-77.451942, lat=43.141014, altitude=162.90, speed=41.90, satellites=8, angle=277.6800, fixquality=1
$GPRMC,163441.250,A,4308.4617,N,07727.1247,W,41.48,278.34,040619,,,A*49
$GPGGA,163441.500,4308.4621,N,07727.1286,W,1,08,1.24,163.2,M,-34.4,M,,*5F
lng=-77.452072, lat=43.141033, altitude=163.00, speed=41.48, satellites=8, angle=278.3400, fixquality=1
$GPRMC,163441.750,A,4308.4625,N,07727.1325,W,41.18,278.50,040619,,,A*4F
$GPGGA,163442.000,4308.4629,N,07727.1364,W,1,08,1.24,163.3,M,-34.4,M,,*5D
lng=-77.452201, lat=43.141040, altitude=163.20, speed=41.18, satellites=8, angle=278.5000, fixquality=1
$GPRMC,163442.250,A,4308.4634,N,07727.1403,W,41.76,278.89,040619,,,A*46
$GPGGA,163442.500,4308.4638,N,07727.1442,W,1,08,1.24,163.5,M,-34.4,M,,*5D
lng=-77.452339, lat=43.141056, altitude=163.30, speed=41.76, satellites=8, angle=278.8900, fixquality=1
$GPRMC,163442.750,A,4308.4643,N,07727.1482,W,41.68,279.07,040619,,,A*42
$GPGGA,163443.000,4308.4648,N,07727.1521,W,1,08,1.20,163.7,M,-34.4,M,,*5C
lng=-77.452476, lat=43.141071, altitude=163.50, speed=41.68, satellites=8, angle=279.0700, fixquality=1
$GPRMC,163443.250,A,4308.4653,N,07727.1560,W,41.46,279.38,040619,,,A*4A
$GPGGA,163443.500,4308.4658,N,07727.1599,W,1,08,1.24,163.9,M,-34.4,M,,*51
lng=-77.452598, lat=43.141090, altitude=163.70, speed=41.46, satellites=8, angle=279.3800, fixquality=1
$GPRMC,163443.750,A,4308.4663,N,07727.1638,W,41.84,280.29,040619,,,A*4A
$GPGGA,163444.000,4308.4668,N,07727.1677,W,1,08,1.20,164.1,M,-34.4,M,,*58
lng=-77.452728, lat=43.141105, altitude=163.90, speed=41.84, satellites=8, angle=280.2900, fixquality=1
$GPRMC,163444.250,A,4308.4674,N,07727.1716,W,41.90,280.06,040619,,,A*4B
