Vers 81
USE_SERIAL_FEEDBACK=true
DEVELOPMENT_MODE=false
USE_RMC_ONLY=false

$GPRMC,154253.750,A,4308.3071,N,07726.2631,W,0.19,3.59,240819,,,A*73
$GPGGA,154254.000,4308.3071,N,07726.2631,W,1,08,1.01,149.9,M,-34.4,M,,*56
$GPRMC,154254.250,A,4308.3071,N,07726.2632,W,0.19,358.59,240819,,,A*7F
$GPGGA,154254.500,4308.3070,N,07726.2632,W,1,08,1.01,149.8,M,-34.4,M,,*50
$GPRMC,154254.750,A,4308.3069,N,07726.2632,W,0.05,347.59,240819,,,A*70
$GPGGA,154255.000,4308.3069,N,07726.2631,W,1,08,1.01,149.8,M,-34.4,M,,*5F
$GPRMC,154255.250,A,4308.3069,N,07726.2631,W,0.03,69.24,240819,,,A*44
$GPGGA,154255.500,4308.3068,N,07726.2631,W,1,08,1.01,149.8,M,-34.4,M,,*5B
$GPRMC,154255.750,A,4308.3068,N,07726.2632,W,0.10,234.46,240819,,,A*7F
$GPGGA,154256.000,4308.3067,N,07726.2632,W,1,08,1.01,149.8,M,-34.4,M,,*51
$GPRMC,154256.250,A,4308.3066,N,07726.2632,W,0.17,206.54,240819,,,A*72
$GPGGA,154256.500,4308.3065,N,07726.2632,W,1,08,1.01,149.8,M,-34.4,M,,*56
$GPRMC,154256.750,A,4308.3064,N,07726.2631,W,0.22,184.07,240819,,,A*7F
$GPGGA,154257.000,4308.3064,N,07726.2631,W,1,08,1.01,149.7,M,-34.4,M,,*5F
$GPRMC,154257.250,A,4308.3064,N,07726.2631,W,0.17,177.62,240819,,,A*72
$GPGGA,154257.500,4308.3064,N,07726.2631,W,1,08,1.01,149.7,M,-34.4,M,,*5A
$GPRMC,154257.750,A,4308.3063,N,07726.2631,W,0.13,191.64,240819,,,A*7A
$GPGGA,154258.000,4308.3063,N,07726.2631,W,1,08,1.01,149.7,M,-34.4,M,,*57
$GPRMC,154258.250,A,4308.3062,N,07726.2632,W,0.23,206.35,240819,,,A*78
$GPGGA,154258.500,4308.3061,N,07726.2631,W,1,08,1.01,149.7,M,-34.4,M,,*50
$GPRMC,154258.750,A,4308.3061,N,07726.2632,W,0.20,211.95,240819,,,A*71
$GPGGA,154259.000,4308.3061,N,07726.2632,W,1,08,1.01,149.7,M,-34.4,M,,*57
$GPRMC,154259.250,A,4308.3061,N,07726.2631,W,0.10,220.94,240819,,,A*76
$GPGGA,154259.500,4308.3061,N,07726.2631,W,1,08,1.01,149.7,M,-34.4,M,,*51
$GPRMC,154259.750,A,4308.3061,N,07726.2631,W,0.04,302.12,240819,,,A*79
$GPGGA,154300.000,4308.3060,N,07726.2631,W,1,08,1.01,149.7,M,-34.4,M,,*58
$GPRMC,154300.250,A,4308.3060,N,07726.2631,W,0.03,6.35,240819,,,A*75
$GPGGA,154300.500,4308.3060,N,07726.2631,W,1,08,1.01,149.7,M,-34.4,M,,*5D
$GPRMC,154300.750,A,4308.3060,N,07726.2630,W,0.08,19.60,240819,,,A*44
$GPGGA,154301.000,4308.3060,N,07726.2630,W,1,08,1.01,149.7,M,-34.4,M,,*58
$GPRMC,154301.250,A,4308.3059,N,07726.2630,W,0.06,31.89,240819,,,A*49
$GPGGA,154301.500,4308.3059,N,07726.2630,W,1,08,1.01,149.7,M,-34.4,M,,*57
$GPRMC,154301.750,A,4308.3059,N,07726.2630,W,0.12,315.49,240819,,,A*70
$GPGGA,154302.000,4308.3059,N,07726.2630,W,1,07,1.60,149.7,M,-34.4,M,,*59
$GPRMC,154302.250,A,4308.3058,N,07726.2630,W,0.08,233.30,240819,,,A*77
$GPGGA,154302.500,4308.3058,N,07726.2629,W,1,08,1.01,149.7,M,-34.4,M,,*5D
$GPRMC,154302.750,A,4308.3057,N,07726.2629,W,0.20,171.61,240819,,,A*7E
$GPGGA,154303.000,4308.3056,N,07726.2629,W,1,07,1.60,149.7,M,-34.4,M,,*5F
$GPRMC,154303.250,A,4308.3056,N,07726.2629,W,0.19,177.89,240819,,,A*71
$GPGGA,154303.500,4308.3055,N,07726.2629,W,1,07,1.60,149.7,M,-34.4,M,,*59
$GPRMC,154303.750,A,4308.3054,N,07726.2629,W,0.20,215.07,240819,,,A*7D
$GPGGA,154304.000,4308.3054,N,07726.2629,W,1,07,1.60,149.7,M,-34.4,M,,*5A
$GPRMC,154304.250,A,4308.3054,N,07726.2628,W,0.18,204.50,240819,,,A*77
$GPGGA,154304.500,4308.3053,N,07726.2628,W,1,07,1.60,149.7,M,-34.4,M,,*59
$GPRMC,154304.750,A,4308.3053,N,07726.2628,W,0.22,176.49,240819,,,A*72
$GPGGA,154305.000,4308.3053,N,07726.2627,W,1,07,1.60,149.7,M,-34.4,M,,*52
$GPRMC,154305.250,A,4308.3053,N,07726.2627,W,0.16,169.41,240819,,,A*78
$GPGGA,154305.500,4308.3053,N,07726.2627,W,1,08,1.01,149.7,M,-34.4,M,,*5F
$GPRMC,154305.750,A,4308.3053,N,07726.2627,W,0.16,166.18,240819,,,A*7E
$GPGGA,154306.000,4308.3053,N,07726.2626,W,1,07,1.60,149.7,M,-34.4,M,,*50
$GPRMC,154306.250,A,4308.3053,N,07726.2626,W,0.11,201.17,240819,,,A*73
$GPGGA,154306.500,4308.3053,N,07726.2626,W,1,08,1.01,149.7,M,-34.4,M,,*5D
$GPRMC,154306.750,A,4308.3053,N,07726.2626,W,0.12,202.30,240819,,,A*73
$GPGGA,154307.000,4308.3053,N,07726.2626,W,1,08,1.01,149.7,M,-34.4,M,,*59
$GPRMC,154307.250,A,4308.3053,N,07726.2626,W,0.09,203.68,240819,,,A*71
$GPGGA,154307.500,4308.3053,N,07726.2626,W,1,08,1.01,149.6,M,-34.4,M,,*5D
$GPRMC,154307.750,A,4308.3053,N,07726.2625,W,0.08,219.19,240819,,,A*7B
$GPGGA,154308.000,4308.3054,N,07726.2625,W,1,08,1.01,149.6,M,-34.4,M,,*53
$GPRMC,154308.250,A,4308.3054,N,07726.2625,W,0.05,191.81,240819,,,A*79
$GPGGA,154308.500,4308.3054,N,07726.2625,W,1,08,1.01,149.6,M,-34.4,M,,*56
$GPRMC,154308.750,A,4308.3054,N,07726.2625,W,0.05,215.52,240819,,,A*7D
$GPGGA,154309.000,4308.3055,N,07726.2625,W,1,08,1.01,149.6,M,-34.4,M,,*53
$GPRMC,154309.250,A,4308.3055,N,07726.2625,W,0.02,158.69,240819,,,A*7D
$GPGGA,154309.500,4308.3055,N,07726.2624,W,1,08,1.01,149.6,M,-34.4,M,,*57
$GPRMC,154309.750,A,4308.3056,N,07726.2624,W,0.01,72.02,240819,,,A*4D
$GPGGA,154310.000,4308.3056,N,07726.2624,W,1,08,1.01,149.6,M,-34.4,M,,*59
$GPRMC,154310.250,A,4308.3056,N,07726.2624,W,0.14,172.88,240819,,,A*77
$GPGGA,154310.500,4308.3057,N,07726.2623,W,1,08,1.01,149.6,M,-34.4,M,,*5A
$GPRMC,154310.750,A,4308.3057,N,07726.2623,W,0.07,53.42,240819,,,A*42
$GPGGA,154311.000,4308.3057,N,07726.2623,W,1,08,1.01,149.6,M,-34.4,M,,*5E
$GPRMC,154311.250,A,4308.3057,N,07726.2623,W,0.06,353.82,240819,,,A*78
$GPGGA,154311.500,4308.3057,N,07726.2623,W,1,08,1.04,149.5,M,-34.4,M,,*5D
$GPRMC,154311.750,A,4308.3057,N,07726.2623,W,0.05,59.20,240819,,,A*4F
$GPGGA,154312.000,4308.3057,N,07726.2622,W,1,08,1.01,149.5,M,-34.4,M,,*5F
$GPRMC,154312.250,A,4308.3057,N,07726.2622,W,0.12,122.44,240819,,,A*71
$GPGGA,154312.500,4308.3057,N,07726.2622,W,1,08,1.01,149.5,M,-34.4,M,,*5A
$GPRMC,154312.750,A,4308.3057,N,07726.2621,W,0.17,115.55,240819,,,A*76
$GPGGA,154313.000,4308.3057,N,07726.2621,W,1,08,1.01,149.5,M,-34.4,M,,*5D
$GPRMC,154313.250,A,4308.3057,N,07726.2621,W,0.11,119.40,240819,,,A*7C
$GPGGA,154313.500,4308.3058,N,07726.2621,W,1,08,1.01,149.4,M,-34.4,M,,*56
$GPRMC,154313.750,A,4308.3058,N,07726.2620,W,0.13,67.37,240819,,,A*4D
$GPGGA,154314.000,4308.3058,N,07726.2620,W,1,08,1.01,149.4,M,-34.4,M,,*55
$GPRMC,154314.250,A,4308.3058,N,07726.2620,W,0.14,50.17,240819,,,A*4E
$GPGGA,154314.500,4308.3058,N,07726.2620,W,1,08,1.01,149.4,M,-34.4,M,,*50
$GPRMC,154314.750,A,4308.3058,N,07726.2619,W,0.12,34.01,240819,,,A*42
$GPGGA,154315.000,4308.3058,N,07726.2619,W,1,08,1.01,149.4,M,-34.4,M,,*5E
$GPRMC,154315.250,A,4308.3058,N,07726.2619,W,0.12,66.17,240819,,,A*46
$GPGGA,154315.500,4308.3058,N,07726.2619,W,1,08,1.01,149.4,M,-34.4,M,,*5B
$GPRMC,154315.750,A,4308.3058,N,07726.2619,W,0.08,53.11,240819,,,A*48
$GPGGA,154316.000,4308.3058,N,07726.2619,W,1,08,1.01,149.4,M,-34.4,M,,*5D
$GPRMC,154316.250,A,4308.3057,N,07726.2618,W,0.08,77.12,240819,,,A*45
$GPGGA,154316.500,4308.3057,N,07726.2618,W,1,08,1.01,149.3,M,-34.4,M,,*51
$GPRMC,154316.750,A,4308.3057,N,07726.2618,W,0.10,52.71,240819,,,A*4B
$GPGGA,154317.000,4308.3057,N,07726.2618,W,1,08,1.01,149.3,M,-34.4,M,,*55
$GPRMC,154317.250,A,4308.3057,N,07726.2618,W,0.11,4.46,240819,,,A*79
$GPGGA,154317.500,4308.3057,N,07726.2618,W,1,08,1.04,149.3,M,-34.4,M,,*55
$GPRMC,154317.750,A,4308.3056,N,07726.2618,W,0.10,27.53,240819,,,A*49
$GPGGA,154318.000,4308.3056,N,07726.2618,W,1,08,1.01,149.3,M,-34.4,M,,*5B
$GPRMC,154318.250,A,4308.3056,N,07726.2618,W,0.16,2.32,240819,,,A*75
$GPGGA,154318.500,4308.3056,N,07726.2618,W,1,08,1.04,149.3,M,-34.4,M,,*5B
$GPRMC,154318.750,A,4308.3056,N,07726.2618,W,0.18,350.12,240819,,,A*78
$GPGGA,154319.000,4308.3056,N,07726.2618,W,1,08,1.04,149.3,M,-34.4,M,,*5F
$GPRMC,154319.250,A,4308.3056,N,07726.2618,W,0.20,329.04,240819,,,A*7E
$GPGGA,154319.500,4308.3056,N,07726.2618,W,1,08,1.01,149.3,M,-34.4,M,,*5F
$GPRMC,154319.750,A,4308.3056,N,07726.2618,W,0.19,341.64,240819,,,A*79
$GPGGA,154320.000,4308.3056,N,07726.2618,W,1,08,1.01,149.3,M,-34.4,M,,*50
$GPRMC,154320.250,A,4308.3056,N,07726.2618,W,0.19,354.99,240819,,,A*70
$GPGGA,154320.500,4308.3057,N,07726.2618,W,1,08,1.04,149.3,M,-34.4,M,,*51
$GPRMC,154320.750,A,4308.3057,N,07726.2618,W,0.19,357.40,240819,,,A*73
$GPGGA,154321.000,4308.3057,N,07726.2618,W,1,08,1.04,149.3,M,-34.4,M,,*55
$GPRMC,154321.250,A,4308.3057,N,07726.2618,W,0.25,357.51,240819,,,A*78
$GPGGA,154321.500,4308.3057,N,07726.2618,W,1,08,1.04,149.3,M,-34.4,M,,*50
$GPRMC,154321.750,A,4308.3057,N,07726.2619,W,0.28,354.72,240819,,,A*73
$GPGGA,154322.000,4308.3057,N,07726.2619,W,1,08,1.01,149.3,M,-34.4,M,,*52
$GPRMC,154322.250,A,4308.3058,N,07726.2619,W,0.27,350.14,240819,,,A*71
$GPGGA,154322.500,4308.3058,N,07726.2619,W,1,08,1.01,149.3,M,-34.4,M,,*58
$GPRMC,154322.750,A,4308.3058,N,07726.2619,W,0.18,346.42,240819,,,A*7C
$GPGGA,154323.000,4308.3058,N,07726.2619,W,1,08,1.01,149.3,M,-34.4,M,,*5C
$GPRMC,154323.250,A,4308.3058,N,07726.2619,W,0.22,341.54,240819,,,A*71
$GPGGA,154323.500,4308.3058,N,07726.2620,W,1,08,1.01,149.3,M,-34.4,M,,*53
$GPRMC,154323.750,A,4308.3058,N,07726.2620,W,0.19,338.53,240819,,,A*7F
$GPGGA,154324.000,4308.3058,N,07726.2620,W,1,08,1.01,149.3,M,-34.4,M,,*51
$GPRMC,154324.250,A,4308.3058,N,07726.2620,W,0.14,339.63,240819,,,A*72
$GPGGA,154324.500,4308.3059,N,07726.2620,W,1,08,1.04,149.3,M,-34.4,M,,*50
$GPRMC,154324.750,A,4308.3059,N,07726.2620,W,0.14,342.89,240819,,,A*7E
$GPGGA,154325.000,4308.3059,N,07726.2620,W,1,08,1.01,149.3,M,-34.4,M,,*51
$GPRMC,154325.250,A,4308.3059,N,07726.2620,W,0.20,346.46,240819,,,A*7A
$GPGGA,154325.500,4308.3059,N,07726.2620,W,1,08,1.04,149.3,M,-34.4,M,,*51
$GPRMC,154325.750,A,4308.3059,N,07726.2620,W,0.16,40.38,240819,,,A*46
$GPGGA,154326.000,4308.3059,N,07726.2619,W,1,08,1.01,149.3,M,-34.4,M,,*58
$GPRMC,154326.250,A,4308.3059,N,07726.2619,W,0.11,49.42,240819,,,A*49
$GPGGA,154326.500,4308.3059,N,07726.2619,W,1,08,1.01,149.3,M,-34.4,M,,*5D
$GPRMC,154326.750,A,4308.3059,N,07726.2619,W,0.07,312.96,240819,,,A*7F
$GPGGA,154327.000,4308.3059,N,07726.2619,W,1,08,1.01,149.3,M,-34.4,M,,*59
$GPRMC,154327.250,A,4308.3059,N,07726.2619,W,0.11,263.55,240819,,,A*74
$GPGGA,154327.500,4308.3059,N,07726.2619,W,1,08,1.01,149.3,M,-34.4,M,,*5C
$GPRMC,154327.750,A,4308.3059,N,07726.2620,W,0.12,271.70,240819,,,A*7C
$GPGGA,154328.000,4308.3059,N,07726.2620,W,1,08,1.01,149.3,M,-34.4,M,,*5C
$GPRMC,154328.250,A,4308.3059,N,07726.2620,W,0.12,343.09,240819,,,A*78
$GPGGA,154328.500,4308.3059,N,07726.2620,W,1,08,1.01,149.3,M,-34.4,M,,*59
$GPRMC,154328.750,A,4308.3060,N,07726.2620,W,0.53,345.30,240819,,,A*7E
$GPGGA,154329.000,4308.3060,N,07726.2620,W,1,08,1.04,149.3,M,-34.4,M,,*52
$GPRMC,154329.250,A,4308.3062,N,07726.2620,W,0.82,343.98,240819,,,A*70
$GPGGA,154329.500,4308.3064,N,07726.2621,W,1,08,1.04,149.2,M,-34.4,M,,*53
$GPRMC,154329.750,A,4308.3067,N,07726.2621,W,1.30,344.01,240819,,,A*7E
$GPGGA,154330.000,4308.3068,N,07726.2621,W,1,08,1.01,149.2,M,-34.4,M,,*57
$GPRMC,154330.250,A,4308.3071,N,07726.2622,W,1.62,344.01,240819,,,A*70
$GPGGA,154330.500,4308.3075,N,07726.2622,W,1,07,1.60,149.1,M,-34.4,M,,*56
$GPRMC,154330.750,A,4308.3079,N,07726.2622,W,3.22,343.82,240819,,,A*77
$GPGGA,154331.000,4308.3081,N,07726.2623,W,1,07,1.60,149.1,M,-34.4,M,,*58
$GPRMC,154331.250,A,4308.3084,N,07726.2624,W,3.94,344.50,240819,,,A*72
$GPGGA,154331.500,4308.3086,N,07726.2625,W,1,07,1.93,149.0,M,-34.4,M,,*51
$GPRMC,154331.750,A,4308.3088,N,07726.2626,W,4.27,346.34,240819,,,A*76
$GPGGA,154332.000,4308.3091,N,07726.2626,W,1,07,1.93,148.9,M,-34.4,M,,*5A
$GPRMC,154332.250,A,4308.3094,N,07726.2627,W,4.85,353.05,240819,,,A*72
$GPGGA,154332.500,4308.3098,N,07726.2627,W,1,07,1.93,148.8,M,-34.4,M,,*56
$GPRMC,154332.750,A,4308.3100,N,07726.2627,W,4.72,354.74,240819,,,A*72
$GPGGA,154333.000,4308.3103,N,07726.2628,W,1,07,1.93,148.8,M,-34.4,M,,*5E
$GPRMC,154333.250,A,4308.3105,N,07726.2628,W,4.13,357.85,240819,,,A*76
$GPGGA,154333.500,4308.3107,N,07726.2628,W,1,07,1.93,148.7,M,-34.4,M,,*50
$GPRMC,154333.750,A,4308.3108,N,07726.2628,W,4.29,357.94,240819,,,A*77
$GPGGA,154334.000,4308.3108,N,07726.2629,W,1,08,1.04,148.6,M,-34.4,M,,*5C
$GPRMC,154334.250,A,4308.3109,N,07726.2628,W,4.74,5.56,240819,,,A*76
$GPGGA,154334.500,4308.3111,N,07726.2628,W,1,08,1.04,148.5,M,-34.4,M,,*53
$GPRMC,154334.750,A,4308.3113,N,07726.2627,W,4.52,9.58,240819,,,A*71
$GPGGA,154335.000,4308.3115,N,07726.2627,W,1,08,1.04,148.5,M,-34.4,M,,*5C
$GPRMC,154335.250,A,4308.3117,N,07726.2626,W,4.58,10.98,240819,,,A*4E
$GPGGA,154335.500,4308.3117,N,07726.2626,W,1,07,1.17,148.5,M,-34.4,M,,*57
$GPRMC,154335.750,A,4308.3118,N,07726.2625,W,3.91,13.78,240819,,,A*48
$GPGGA,154336.000,4308.3118,N,07726.2624,W,1,07,1.17,148.5,M,-34.4,M,,*5C
$GPRMC,154336.250,A,4308.3119,N,07726.2624,W,3.14,10.29,240819,,,A*44
$GPGGA,154336.500,4308.3120,N,07726.2623,W,1,08,1.04,148.4,M,-34.4,M,,*59
$GPRMC,154336.750,A,4308.3120,N,07726.2621,W,2.06,24.32,240819,,,A*41
$GPGGA,154337.000,4308.3120,N,07726.2620,W,1,08,1.01,148.4,M,-34.4,M,,*5B
$GPRMC,154337.250,A,4308.3121,N,07726.2619,W,1.72,39.17,240819,,,A*44
$GPGGA,154337.500,4308.3122,N,07726.2617,W,1,08,1.01,148.4,M,-34.4,M,,*58
$GPRMC,154337.750,A,4308.3123,N,07726.2616,W,2.32,29.33,240819,,,A*4C
$GPGGA,154338.000,4308.3124,N,07726.2614,W,1,08,1.01,148.3,M,-34.4,M,,*50
$GPRMC,154338.250,A,4308.3125,N,07726.2612,W,2.77,32.23,240819,,,A*4E
$GPGGA,154338.500,4308.3127,N,07726.2610,W,1,08,1.01,148.2,M,-34.4,M,,*53
$GPRMC,154338.750,A,4308.3128,N,07726.2608,W,3.26,38.73,240819,,,A*47
$GPGGA,154339.000,4308.3130,N,07726.2606,W,1,08,1.01,148.1,M,-34.4,M,,*55
$GPRMC,154339.250,A,4308.3132,N,07726.2603,W,3.69,41.53,240819,,,A*44
$GPGGA,154339.500,4308.3133,N,07726.2600,W,1,07,1.60,148.1,M,-34.4,M,,*5D
$GPRMC,154339.750,A,4308.3135,N,07726.2597,W,3.83,48.89,240819,,,A*42
$GPGGA,154340.000,4308.3136,N,07726.2594,W,1,08,1.01,148.0,M,-34.4,M,,*54
$GPRMC,154340.250,A,4308.3138,N,07726.2591,W,3.87,50.56,240819,,,A*4D
$GPGGA,154340.500,4308.3139,N,07726.2588,W,1,08,1.01,148.0,M,-34.4,M,,*53
$GPRMC,154340.750,A,4308.3140,N,07726.2586,W,3.47,49.16,240819,,,A*41
$GPGGA,154341.000,4308.3140,N,07726.2584,W,1,07,1.60,147.9,M,-34.4,M,,*5B
$GPRMC,154341.250,A,4308.3140,N,07726.2582,W,2.25,58.66,240819,,,A*43
$GPGGA,154341.500,4308.3141,N,07726.2581,W,1,07,1.60,147.9,M,-34.4,M,,*5A
$GPRMC,154341.750,A,4308.3141,N,07726.2580,W,1.39,28.55,240819,,,A*4C
$GPGGA,154342.000,4308.3141,N,07726.2580,W,1,07,1.60,147.9,M,-34.4,M,,*5D
$GPRMC,154342.250,A,4308.3141,N,07726.2581,W,0.88,2.95,240819,,,A*74
$GPGGA,154342.500,4308.3140,N,07726.2582,W,1,07,1.93,147.8,M,-34.4,M,,*56
$GPRMC,154342.750,A,4308.3140,N,07726.2585,W,0.87,294.92,240819,,,A*71
$GPGGA,154343.000,4308.3138,N,07726.2587,W,1,07,1.60,147.8,M,-34.4,M,,*54
$GPRMC,154343.250,A,4308.3137,N,07726.2591,W,1.58,265.56,240819,,,A*75
$GPGGA,154343.500,4308.3136,N,07726.2595,W,1,07,1.60,147.7,M,-34.4,M,,*53
$GPRMC,154343.750,A,4308.3134,N,07726.2601,W,3.79,264.51,240819,,,A*7E
$GPGGA,154344.000,4308.3134,N,07726.2605,W,1,07,1.60,147.6,M,-34.4,M,,*58
$GPRMC,154344.250,A,4308.3134,N,07726.2610,W,5.19,267.34,240819,,,A*7C
$GPGGA,154344.500,4308.3134,N,07726.2616,W,1,08,1.04,147.5,M,-34.4,M,,*51
$GPRMC,154344.750,A,4308.3134,N,07726.2621,W,5.75,272.76,240819,,,A*73
$GPGGA,154345.000,4308.3135,N,07726.2627,W,1,08,1.04,147.4,M,-34.4,M,,*57
$GPRMC,154345.250,A,4308.3136,N,07726.2634,W,6.91,277.38,240819,,,A*77
$GPGGA,154345.500,4308.3137,N,07726.2641,W,1,07,1.93,147.4,M,-34.4,M,,*51
$GPRMC,154345.750,A,4308.3138,N,07726.2649,W,8.04,279.00,240819,,,A*71
$GPGGA,154346.000,4308.3139,N,07726.2657,W,1,07,1.93,147.3,M,-34.4,M,,*59
$GPRMC,154346.250,A,4308.3140,N,07726.2665,W,8.54,280.36,240819,,,A*70
$GPGGA,154346.500,4308.3141,N,07726.2674,W,1,07,1.93,147.2,M,-34.4,M,,*53
$GPRMC,154346.750,A,4308.3142,N,07726.2683,W,9.20,280.21,240819,,,A*7B
$GPGGA,154347.000,4308.3144,N,07726.2692,W,1,07,1.93,147.1,M,-34.4,M,,*59
$GPRMC,154347.250,A,4308.3145,N,07726.2702,W,10.06,281.26,240819,,,A*4A
$GPGGA,154347.500,4308.3146,N,07726.2712,W,1,07,1.60,147.0,M,-34.4,M,,*5A
$GPRMC,154347.750,A,4308.3148,N,07726.2724,W,10.41,281.19,240819,,,A*49
$GPGGA,154348.000,4308.3150,N,07726.2736,W,1,07,1.60,146.9,M,-34.4,M,,*59
$GPRMC,154348.250,A,4308.3152,N,07726.2749,W,11.00,281.47,240819,,,A*4C
$GPGGA,154348.500,4308.3156,N,07726.2761,W,1,07,1.60,146.8,M,-34.4,M,,*59
$GPRMC,154348.750,A,4308.3159,N,07726.2774,W,11.76,285.95,240819,,,A*46
$GPGGA,154349.000,4308.3161,N,07726.2786,W,1,07,1.60,146.7,M,-34.4,M,,*5F
$GPRMC,154349.250,A,4308.3164,N,07726.2799,W,12.23,286.42,240819,,,A*45
$GPGGA,154349.500,4308.3168,N,07726.2812,W,1,07,1.60,146.7,M,-34.4,M,,*51
$GPRMC,154349.750,A,4308.3172,N,07726.2824,W,12.81,289.22,240819,,,A*4F
$GPGGA,154350.000,4308.3176,N,07726.2837,W,1,07,1.60,146.6,M,-34.4,M,,*55
$GPRMC,154350.250,A,4308.3180,N,07726.2850,W,13.27,290.09,240819,,,A*40
$GPGGA,154350.500,4308.3184,N,07726.2862,W,1,08,1.01,146.5,M,-34.4,M,,*56
$GPRMC,154350.750,A,4308.3187,N,07726.2875,W,13.66,290.00,240819,,,A*49
$GPGGA,154351.000,4308.3191,N,07726.2887,W,1,08,1.01,146.4,M,-34.4,M,,*5C
$GPRMC,154351.250,A,4308.3195,N,07726.2900,W,13.93,290.99,240819,,,A*47
$GPGGA,154351.500,4308.3199,N,07726.2913,W,1,08,1.01,146.4,M,-34.4,M,,*5D
$GPRMC,154351.750,A,4308.3203,N,07726.2926,W,14.33,292.42,240819,,,A*43
$GPGGA,154352.000,4308.3208,N,07726.2939,W,1,08,1.01,146.3,M,-34.4,M,,*5F
$GPRMC,154352.250,A,4308.3213,N,07726.2953,W,14.97,293.87,240819,,,A*40
$GPGGA,154352.500,4308.3219,N,07726.2967,W,1,08,1.01,146.2,M,-34.4,M,,*50
$GPRMC,154352.750,A,4308.3225,N,07726.2980,W,15.67,296.06,240819,,,A*4C
$GPGGA,154353.000,4308.3231,N,07726.2995,W,1,08,1.01,146.2,M,-34.4,M,,*53
$GPRMC,154353.250,A,4308.3236,N,07726.3010,W,16.56,296.15,240819,,,A*48
$GPGGA,154353.500,4308.3243,N,07726.3025,W,1,08,1.01,146.1,M,-34.4,M,,*53
$GPRMC,154353.750,A,4308.3250,N,07726.3040,W,17.37,297.18,240819,,,A*42
$GPGGA,154354.000,4308.3257,N,07726.3056,W,1,08,1.01,146.0,M,-34.4,M,,*51
$GPRMC,154354.250,A,4308.3263,N,07726.3071,W,18.06,297.99,240819,,,A*46
$GPGGA,154354.500,4308.3270,N,07726.3088,W,1,08,1.01,146.0,M,-34.4,M,,*52
$GPRMC,154354.750,A,4308.3277,N,07726.3104,W,18.74,298.22,240819,,,A*4F
$GPGGA,154355.000,4308.3285,N,07726.3119,W,1,08,1.01,145.9,M,-34.4,M,,*5F
$GPRMC,154355.250,A,4308.3294,N,07726.3135,W,19.47,299.77,240819,,,A*44
$GPGGA,154355.500,4308.3303,N,07726.3152,W,1,08,1.01,145.9,M,-34.4,M,,*5A
$GPRMC,154355.750,A,4308.3312,N,07726.3169,W,20.58,300.85,240819,,,A*4F
$GPGGA,154356.000,4308.3321,N,07726.3186,W,1,08,1.01,145.9,M,-34.4,M,,*55
$GPRMC,154356.250,A,4308.3327,N,07726.3204,W,20.94,300.93,240819,,,A*40
$GPGGA,154356.500,4308.3334,N,07726.3222,W,1,08,1.01,145.9,M,-34.4,M,,*59
$GPRMC,154356.750,A,4308.3341,N,07726.3240,W,21.80,301.09,240819,,,A*43
$GPGGA,154357.000,4308.3349,N,07726.3258,W,1,08,1.01,145.9,M,-34.4,M,,*5A
$GPRMC,154357.250,A,4308.3358,N,07726.3276,W,22.13,301.39,240819,,,A*40
$GPGGA,154357.500,4308.3367,N,07726.3294,W,1,08,1.01,145.9,M,-34.4,M,,*53
$GPRMC,154357.750,A,4308.3376,N,07726.3311,W,22.46,301.62,240819,,,A*47
$GPGGA,154358.000,4308.3385,N,07726.3329,W,1,08,1.01,145.9,M,-34.4,M,,*52
$GPRMC,154358.250,A,4308.3397,N,07726.3347,W,22.93,302.53,240819,,,A*48
$GPGGA,154358.500,4308.3408,N,07726.3365,W,1,08,1.01,145.9,M,-34.4,M,,*5D
$GPRMC,154358.750,A,4308.3417,N,07726.3384,W,23.35,302.51,240819,,,A*42
$GPGGA,154359.000,4308.3426,N,07726.3403,W,1,08,1.01,145.9,M,-34.4,M,,*52
$GPRMC,154359.250,A,4308.3436,N,07726.3421,W,23.47,303.10,240819,,,A*4C
$GPGGA,154359.500,4308.3446,N,07726.3439,W,1,08,1.01,145.9,M,-34.4,M,,*58
$GPRMC,154359.750,A,4308.3457,N,07726.3458,W,23.55,303.93,240819,,,A*48
$GPGGA,154400.000,4308.3467,N,07726.3476,W,1,08,1.01,146.0,M,-34.4,M,,*54
$GPRMC,154400.250,A,4308.3478,N,07726.3493,W,23.28,304.45,240819,,,A*4A
$GPGGA,154400.500,4308.3489,N,07726.3510,W,1,08,1.01,146.0,M,-34.4,M,,*50
$GPRMC,154400.750,A,4308.3499,N,07726.3527,W,22.66,305.26,240819,,,A*41
$GPGGA,154401.000,4308.3508,N,07726.3544,W,1,08,1.01,146.0,M,-34.4,M,,*5D
$GPRMC,154401.250,A,4308.3517,N,07726.3561,W,21.85,305.93,240819,,,A*40
$GPGGA,154401.500,4308.3527,N,07726.3576,W,1,08,1.01,145.9,M,-34.4,M,,*5E
$GPRMC,154401.750,A,4308.3536,N,07726.3591,W,21.10,308.37,240819,,,A*46
$GPGGA,154402.000,4308.3546,N,07726.3606,W,1,08,1.01,145.9,M,-34.4,M,,*5B
$GPRMC,154402.250,A,4308.3555,N,07726.3620,W,20.26,310.69,240819,,,A*4A
$GPGGA,154402.500,4308.3565,N,07726.3634,W,1,08,1.01,145.9,M,-34.4,M,,*5E
$GPRMC,154402.750,A,4308.3575,N,07726.3647,W,19.30,313.45,240819,,,A*4C
$GPGGA,154403.000,4308.3586,N,07726.3659,W,1,08,1.01,146.0,M,-34.4,M,,*56
$GPRMC,154403.250,A,4308.3598,N,07726.3670,W,19.32,317.96,240819,,,A*47
$GPGGA,154403.500,4308.3610,N,07726.3681,W,1,08,1.01,146.0,M,-34.4,M,,*5A
$GPRMC,154403.750,A,4308.3622,N,07726.3692,W,19.74,323.55,240819,,,A*46
$GPGGA,154404.000,4308.3633,N,07726.3702,W,1,08,1.01,146.0,M,-34.4,M,,*53
$GPRMC,154404.250,A,4308.3645,N,07726.3711,W,19.71,327.31,240819,,,A*4C
$GPGGA,154404.500,4308.3657,N,07726.3721,W,1,08,1.01,146.0,M,-34.4,M,,*55
$GPRMC,154404.750,A,4308.3669,N,07726.3729,W,19.67,330.00,240819,,,A*4F
$GPGGA,154405.000,4308.3681,N,07726.3737,W,1,08,1.01,146.0,M,-34.4,M,,*5D
$GPRMC,154405.250,A,4308.3693,N,07726.3745,W,19.56,332.17,240819,,,A*42
$GPGGA,154405.500,4308.3706,N,07726.3752,W,1,08,1.01,146.0,M,-34.4,M,,*55
$GPRMC,154405.750,A,4308.3719,N,07726.3759,W,19.69,336.61,240819,,,A*40
$GPGGA,154406.000,4308.3732,N,07726.3764,W,1,08,1.01,146.0,M,-3,N,07726.3764,W,19.68,339.21,240819,,,A*4C
$GPGGA,154406.250,4308.3746,N,07726.3769,W,1,08,1.01,146.0,M,-34.4,M,,*58
$GPRMC,154406.250,A,4308.3746,N,07726.3769,W,19.66,340.87,24081,,,A*49
$GPRMC,154406.750,A,4308.3771,N,07726.3777,W,19.26,344.05,240819,,,A*4D
$GPGGA,154407.000,4308.3784,N,07726.3781,W,1,08,1.01,146.0,M,-34.4,M,,*56
$GPRMC,154407.500,A,4308.3812,N,07726.3784,W,19.17,351.82,240819,,,A*44
$GPGGA,154407.750,4308.3825,N,07726.3785,W,1,07,1.08,146.0,M,-34.4,M,,*52
$GPRMC,154408.000,A,4308.3839,N,07726.3786,W,19.19,355.31,240819,,,A*47
$GPGGA,154408.250,4308.3852,N,07726.3785,W,1,08,1.04,146.0,M,-34.4,M,,*5B
$GPRMC,154408.500,A,4308.3865,N,07726.3783,W,18.97,2.10,240819,,,A*4B
$GPGGA,154408.750,4308.3879,N,07726.3781,W,1,08,1.04,146.1,M,-34.4,M,,*52
$GPRMC,154409.000,A,4308.3893,N,07726.3778,W,19.38,5.31,240819,,,A*42
$GPGGA,154409.250,4308.3908,N,07726.3775,W,1,08,1.04,146.1,M,-34.4,M,,*5A
$GPRMC,154409.500,A,4308.3923,N,07726.3771,W,20.12,8.68,240819,,,A*47
$GPGGA,154409.750,4308.3939,N,07726.3768,W,1,08,1.04,146.1,M,-34.4,M,,*51
$GPRMC,154410.000,A,4308.3955,N,07726.3764,W,20.78,9.55,240819,,,A*4C
$GPGGA,154410.250,4308.3970,N,07726.3760,W,1,08,1.04,146.2,M,-34.4,M,,*5A
$GPRMC,154410.500,A,4308.3986,N,07726.3756,W,21.49,10.14,240819,,,A*78
$GPGGA,154410.750,4308.4001,N,07726.3752,W,1,08,1.04,146.3,M,-34.4,M,,*57
$GPRMC,154411.000,A,4308.4017,N,07726.3749,W,21.91,9.81,240819,,,A*45
$GPGGA,154411.250,4308.4033,N,07726.3745,W,1,08,1.04,146.3,M,-34.4,M,,*54
$GPRMC,154411.500,A,4308.4050,N,07726.3742,W,22.39,9.54,240819,,,A*41
$GPGGA,154411.750,4308.4067,N,07726.3738,W,1,08,1.04,146.4,M,-34.4,M,,*5D
$GPRMC,154412.000,A,4308.4082,N,07726.3734,W,22.60,9.38,240819,,,A*4F
$GPGGA,154412.250,4308.4099,N,07726.3730,W,1,08,1.04,146.4,M,-34.4,M,,*52
$GPRMC,154412.500,A,4308.4115,N,07726.3727,W,22.67,9.46,240819,,,A*49
$GPGGA,154412.750,4308.4131,N,07726.3723,W,1,08,1.04,146.4,M,-34.4,M,,*56
$GPRMC,154413.000,A,4308.4147,N,07726.3720,W,22.67,9.43,240819,,,A*48
$GPGGA,154413.250,4308.4163,N,07726.3716,W,1,08,1.04,146.5,M,-34.4,M,,*52
$GPRMC,154413.500,A,4308.4178,N,07726.3712,W,22.59,10.06,240819,,,A*74
$GPGGA,154413.750,4308.4194,N,07726.3709,W,1,08,1.04,146.5,M,-34.4,M,,*51
$GPRMC,154414.000,A,4308.4209,N,07726.3705,W,22.13,9.56,240819,,,A*46
$GPGGA,154414.250,4308.4224,N,07726.3702,W,1,08,1.04,146.5,M,-34.4,M,,*50
$GPRMC,154414.500,A,4308.4238,N,07726.3698,W,21.45,10.01,240819,,,A*7E
$GPGGA,154414.750,4308.4253,N,07726.3695,W,1,08,1.04,146.5,M,-34.4,M,,*5A
$GPRMC,154415.000,A,4308.4268,N,07726.3691,W,21.23,9.63,240819,,,A*4A
$GPGGA,154415.250,4308.4282,N,07726.3688,W,1,08,1.04,146.6,M,-34.4,M,,*5D
$GPRMC,154415.500,A,4308.4297,N,07726.3685,W,20.97,9.35,240819,,,A*47
$GPGGA,154415.750,4308.4311,N,07726.3681,W,1,08,1.04,146.6,M,-34.4,M,,*5A
$GPRMC,154416.000,A,4308.4326,N,07726.3678,W,20.52,9.45,240819,,,A*46
$GPGGA,154416.250,4308.4340,N,07726.3675,W,1,08,1.04,147.2,M,-34.4,M,,*56
$GPRMC,154416.500,A,4308.4354,N,07726.3671,W,19.76,9.95,240819,,,A*4E
$GPGGA,154416.750,4308.4368,N,07726.3669,W,1,08,1.04,147.1,M,-34.4,M,,*57
$GPRMC,154417.000,A,4308.4381,N,07726.3665,W,19.17,10.06,240819,,,A*72
$GPGGA,154417.250,4308.4394,N,07726.3662,W,1,08,1.04,147.0,M,-34.4,M,,*5A
$GPRMC,154417.500,A,4308.4403,N,07726.3661,W,17.93,9.76,240819,,,A*43
$GPGGA,154417.750,4308.4415,N,07726.3658,W,1,08,1.04,147.3,M,-34.4,M,,*5B
$GPRMC,154418.000,A,4308.4427,N,07726.3655,W,16.70,10.46,240819,,,A*7F
$GPGGA,154418.250,4308.4437,N,07726.3651,W,1,08,1.04,147.1,M,-34.4,M,,*5A
$GPRMC,154418.500,A,4308.4447,N,07726.3647,W,14.88,10.75,240819,,,A*7A
$GPGGA,154418.750,4308.4456,N,07726.3644,W,1,08,1.04,147.1,M,-34.4,M,,*5C
$GPRMC,154419.000,A,4308.4465,N,07726.3641,W,13.00,10.48,240819,,,A*71
$GPGGA,154419.250,4308.4474,N,07726.3637,W,1,08,1.04,147.2,M,-34.4,M,,*5F
$GPRMC,154419.500,A,4308.4483,N,07726.3634,W,11.73,10.09,240819,,,A*7D
$GPGGA,154419.750,4308.4491,N,07726.3632,W,1,08,1.04,147.3,M,-34.4,M,,*55
$GPRMC,154420.000,A,4308.4499,N,07726.3629,W,9.42,9.70,240819,,,A*78
$GPGGA,154420.250,4308.4505,N,07726.3627,W,1,08,1.04,147.3,M,-34.4,M,,*52
$GPRMC,154420.500,A,4308.4510,N,07726.3625,W,7.18,9.42,240819,,,A*71
$GPGGA,154420.750,4308.4515,N,07726.3624,W,1,08,1.04,147.3,M,-34.4,M,,*55
$GPRMC,154421.000,A,4308.4519,N,07726.3623,W,4.84,10.33,240819,,,A*42
$GPGGA,154421.250,4308.4522,N,07726.3622,W,1,07,1.23,147.2,M,-34.4,M,,*58
$GPRMC,154421.500,A,4308.4525,N,07726.3621,W,3.86,10.13,240819,,,A*4D
$GPGGA,154421.750,4308.4527,N,07726.3621,W,1,08,1.04,147.5,M,-34.4,M,,*56
$GPRMC,154422.000,A,4308.4530,N,07726.3621,W,4.35,8.48,240819,,,A*77
$GPGGA,154422.250,4308.4534,N,07726.3620,W,1,08,1.04,147.5,M,-34.4,M,,*53
$GPRMC,154422.500,A,4308.4537,N,07726.3620,W,4.96,3.67,240819,,,A*7B
$GPGGA,154422.750,4308.4541,N,07726.3621,W,1,08,1.04,147.8,M,-34.4,M,,*58
$GPRMC,154423.000,A,4308.4544,N,07726.3622,W,6.06,356.27,240819,,,A*75
$GPGGA,154423.250,4308.4547,N,07726.3624,W,1,08,1.04,148.3,M,-34.4,M,,*5B
$GPRMC,154423.500,A,4308.4551,N,07726.3625,W,6.40,347.13,240819,,,A*76
$GPGGA,154423.750,4308.4555,N,07726.3627,W,1,08,1.04,148.5,M,-34.4,M,,*58
$GPRMC,154424.000,A,4308.4560,N,07726.3630,W,7.21,335.23,240819,,,A*72
$GPGGA,154424.250,4308.4564,N,07726.3634,W,1,07,1.60,148.6,M,-34.4,M,,*54
$GPRMC,154424.500,A,4308.4569,N,07726.3638,W,8.49,324.69,240819,,,A*79
$GPGGA,154424.750,4308.4575,N,07726.3643,W,1,08,1.04,148.8,M,-34.4,M,,*52
$GPRMC,154425.000,A,4308.4581,N,07726.3649,W,9.28,322.03,240819,,,A*71
$GPGGA,154425.250,4308.4586,N,07726.3655,W,1,08,1.01,148.9,M,-34.4,M,,*59
$GPRMC,154425.500,A,4308.4591,N,07726.3661,W,9.66,319.53,240819,,,A*78
$GPGGA,154425.750,4308.4597,N,07726.3669,W,1,08,1.01,149.2,M,-34.4,M,,*59
$GPRMC,154426.000,A,4308.4602,N,07726.3678,W,10.39,309.22,240819,,,A*4A
$GPGGA,154426.250,4308.4608,N,07726.3689,W,1,08,1.01,149.3,M,-34.4,M,,*55
$GPRMC,154426.500,A,4308.4612,N,07726.3700,W,11.53,300.62,240819,,,A*40
$GPGGA,154426.750,4308.4616,N,07726.3712,W,1,08,1.01,149.5,M,-34.4,M,,*5A
$GPRMC,154427.000,A,4308.4619,N,07726.3723,W,12.48,294.44,240819,,,A*4F
$GPGGA,154427.250,4308.4622,N,07726.3735,W,1,08,1.01,149.6,M,-34.4,M,,*5F
$GPRMC,154427.500,A,4308.4624,N,07726.3748,W,13.47,288.67,240819,,,A*4B
$GPGGA,154427.750,4308.4625,N,07726.3763,W,1,08,1.01,149.7,M,-34.4,M,,*5F
$GPRMC,154428.000,A,4308.4626,N,07726.3779,W,14.81,282.65,240819,,,A*44
$GPGGA,154428.250,4308.4626,N,07726.3795,W,1,08,1.01,149.8,M,-34.4,M,,*50
$GPRMC,154428.500,A,4308.4627,N,07726.3812,W,16.07,279.50,240819,,,A*4C
$GPGGA,154428.750,4308.4629,N,07726.3829,W,1,08,1.01,149.9,M,-34.4,M,,*53
$GPRMC,154429.000,A,4308.4630,N,07726.3847,W,17.16,277.52,240819,,,A*43
$GPGGA,154429.250,4308.4631,N,07726.3866,W,1,08,1.01,150.0,M,-34.4,M,,*54
$GPRMC,154429.500,A,4308.4632,N,07726.3886,W,18.47,276.46,240819,,,A*46
$GPGGA,154429.750,4308.4633,N,07726.3907,W,1,08,1.01,150.1,M,-34.4,M,,*54
$GPRMC,154430.000,A,4308.4634,N,07726.3928,W,19.61,275.87,240819,,,A*43
$GPGGA,154430.250,4308.4634,N,07726.3948,W,1,08,1.01,150.2,M,-34.4,M,,*56
$GPRMC,154430.500,A,4308.4635,N,07726.3969,W,20.15,275.53,240819,,,A*42
$GPGGA,154430.750,4308.4636,N,07726.3989,W,1,08,1.01,150.2,M,-34.4,M,,*5C
$GPRMC,154431.000,A,4308.4636,N,07726.4009,W,20.21,275.11,240819,,,A*4C
$GPGGA,154431.250,4308.4637,N,07726.4029,W,1,08,1.01,150.3,M,-34.4,M,,*5C
$GPRMC,154431.500,A,4308.4637,N,07726.4048,W,20.13,274.78,240819,,,A*42
$GPGGA,154431.750,4308.4638,N,07726.4067,W,1,08,1.01,150.3,M,-34.4,M,,*5C
$GPRMC,154432.000,A,4308.4638,N,07726.4086,W,19.72,274.67,240819,,,A*4A
$GPGGA,154432.250,4308.4639,N,07726.4106,W,1,08,1.01,150.4,M,-34.4,M,,*5A
$GPRMC,154432.500,A,4308.4640,N,07726.4125,W,19.52,275.32,240819,,,A*4B
$GPGGA,154432.750,4308.4641,N,07726.4143,W,1,08,1.01,150.4,M,-34.4,M,,*51
$GPRMC,154433.000,A,4308.4642,N,07726.4162,W,19.28,275.76,240819,,,A*43
$GPGGA,154433.250,4308.4643,N,07726.4180,W,1,08,1.01,150.4,M,-34.4,M,,*58
$GPRMC,154433.500,A,4308.4644,N,07726.4197,W,18.95,276.69,240819,,,A*40
$GPGGA,154433.750,4308.4646,N,07726.4215,W,1,08,1.01,150.5,M,-34.4,M,,*56
$GPRMC,154434.000,A,4308.4647,N,07726.4232,W,18.43,277.51,240819,,,A*4C
$GPGGA,154434.250,4308.4648,N,07726.4249,W,1,08,1.01,150.5,M,-34.4,M,,*53
$GPRMC,154434.500,A,4308.4650,N,07726.4265,W,17.61,277.75,240819,,,A*44
$GPGGA,154434.750,4308.4651,N,07726.4280,W,1,08,1.01,150.6,M,-34.4,M,,*58
$GPRMC,154435.000,A,4308.4652,N,07726.4295,W,16.62,278.22,240819,,,A*42
$GPGGA,154435.250,4308.4649,N,07726.4311,W,1,08,1.01,150.6,M,-34.4,M,,*5C
$GPRMC,154435.500,A,4308.4648,N,07726.4326,W,15.52,279.23,240819,,,A*45
$GPGGA,154435.750,4308.4648,N,07726.4341,W,1,08,1.01,150.7,M,-34.4,M,,*5C
$GPRMC,154436.000,A,4308.4648,N,07726.4355,W,14.31,279.73,240819,,,A*46
$GPGGA,154436.250,4308.4649,N,07726.4367,W,1,08,1.01,150.8,M,-34.4,M,,*50
$GPRMC,154436.500,A,4308.4650,N,07726.4378,W,12.67,281.11,240819,,,A*43
$GPGGA,154436.750,4308.4650,N,07726.4388,W,1,08,1.04,150.9,M,-34.4,M,,*58
$GPRMC,154437.000,A,4308.4651,N,07726.4398,W,11.06,282.35,240819,,,A*49
$GPGGA,154437.250,4308.4652,N,07726.4405,W,1,08,1.01,150.9,M,-34.4,M,,*59
$GPRMC,154437.500,A,4308.4652,N,07726.4412,W,9.27,284.85,240819,,,A*7D
$GPGGA,154437.750,4308.4653,N,07726.4418,W,1,08,1.01,151.0,M,-34.4,M,,*59
$GPRMC,154438.000,A,4308.4654,N,07726.4423,W,7.46,287.01,240819,,,A*75
$GPGGA,154438.250,4308.4655,N,07726.4427,W,1,08,1.01,151.1,M,-34.4,M,,*58
$GPRMC,154438.500,A,4308.4656,N,07726.4430,W,5.55,292.55,240819,,,A*75
$GPGGA,154438.750,4308.4657,N,07726.4433,W,1,09,0.93,151.2,M,-34.4,M,,*52
$GPRMC,154439.000,A,4308.4658,N,07726.4434,W,3.81,301.67,240819,,,A*7E
$GPGGA,154439.250,4308.4660,N,07726.4435,W,1,09,0.92,151.2,M,-34.4,M,,*55
$GPRMC,154439.500,A,4308.4661,N,07726.4435,W,2.60,312.29,240819,,,A*76
$GPGGA,154439.750,4308.4662,N,07726.4434,W,1,08,1.01,151.2,M,-34.4,M,,*59
$GPRMC,154440.000,A,4308.4663,N,07726.4432,W,2.05,312.29,240819,,,A*7B
$GPGGA,154440.250,4308.4662,N,07726.4430,W,1,08,1.04,151.1,M,-34.4,M,,*50
$GPRMC,154440.500,A,4308.4662,N,07726.4428,W,1.98,312.29,240819,,,A*73
$GPGGA,154440.750,4308.4661,N,07726.4426,W,1,07,1.60,151.1,M,-34.4,M,,*5C
$GPRMC,154441.000,A,4308.4660,N,07726.4424,W,1.20,312.29,240819,,,A*7A
$GPGGA,154441.250,4308.4658,N,07726.4423,W,1,08,1.04,151.0,M,-34.4,M,,*5B
$GPRMC,154441.500,A,4308.4656,N,07726.4421,W,0.92,312.29,240819,,,A*77
$GPGGA,154441.750,4308.4655,N,07726.4420,W,1,07,1.60,150.9,M,-34.4,M,,*55
$GPRMC,154442.000,A,4308.4653,N,07726.4419,W,0.80,312.29,240819,,,A*7C
$GPGGA,154442.250,4308.4652,N,07726.4419,W,1,07,1.94,150.8,M,-34.4,M,,*54
$GPRMC,154442.500,A,4308.4651,N,07726.4418,W,0.70,312.29,240819,,,A*75
$GPGGA,154442.750,4308.4649,N,07726.4417,W,1,07,1.94,150.6,M,-34.4,M,,*5B
$GPRMC,154443.000,A,4308.4645,N,07726.4416,W,0.37,312.29,240819,,,A*79
$GPGGA,154443.250,4308.4641,N,07726.4417,W,1,07,1.60,149.8,M,-34.4,M,,*5A
$GPRMC,154443.500,A,4308.4640,N,07726.4417,W,0.01,312.29,240819,,,A*7D
$GPGGA,154443.750,4308.4638,N,07726.4416,W,1,07,1.60,149.5,M,-34.4,M,,*5D
$GPRMC,154444.000,A,4308.4637,N,07726.4416,W,0.03,312.29,240819,,,A*7C
$GPGGA,154444.250,4308.4637,N,07726.4416,W,1,07,1.60,149.4,M,-34.4,M,,*51
$GPRMC,154444.500,A,4308.4637,N,07726.4416,W,0.04,312.29,240819,,,A*7E
$GPGGA,154444.750,4308.4637,N,07726.4416,W,1,07,1.94,149.4,M,-34.4,M,,*5F
$GPRMC,154445.000,A,4308.4637,N,07726.4416,W,0.04,312.29,240819,,,A*7A
$GPGGA,154445.250,4308.4637,N,07726.4416,W,1,07,1.60,149.4,M,-34.4,M,,*50
$GPRMC,154445.500,A,4308.4637,N,07726.4416,W,0.01,312.29,240819,,,A*7A
$GPGGA,154445.750,4308.4637,N,07726.4416,W,1,07,1.60,149.4,M,-34.4,M,,*55
$GPRMC,154446.000,A,4308.4637,N,07726.4416,W,0.03,312.29,240819,,,A*7E
$GPGGA,154446.250,4308.4637,N,07726.4416,W,1,07,1.60,149.4,M,-34.4,M,,*53
$GPRMC,154446.500,A,4308.4637,N,07726.4416,W,0.62,312.29,240819,,,A*7C
$GPGGA,154446.750,4308.4637,N,07726.4417,W,1,07,1.60,149.4,M,-34.4,M,,*57
$GPRMC,154447.000,A,4308.4637,N,07726.4418,W,2.29,312.29,240819,,,A*7B
$GPGGA,154447.250,4308.4637,N,07726.4420,W,1,07,1.60,149.3,M,-34.4,M,,*50
$GPRMC,154447.500,A,4308.4638,N,07726.4424,W,4.00,280.98,240819,,,A*73
$GPGGA,154447.750,4308.4639,N,07726.4427,W,1,08,1.04,149.2,M,-34.4,M,,*50
$GPRMC,154448.000,A,4308.4641,N,07726.4432,W,4.65,279.07,240819,,,A*73
$GPGGA,154448.250,4308.4642,N,07726.4436,W,1,07,1.94,149.0,M,-34.4,M,,*52
$GPRMC,154448.500,A,4308.4643,N,07726.4441,W,4.73,277.39,240819,,,A*74
$GPGGA,154448.750,4308.4643,N,07726.4445,W,1,07,1.95,148.9,M,-34.4,M,,*5B
$GPRMC,154449.000,A,4308.4644,N,07726.4450,W,4.85,279.23,240819,,,A*7B
$GPGGA,154449.250,4308.4645,N,07726.4455,W,1,07,1.95,148.8,M,-34.4,M,,*59
$GPRMC,154449.500,A,4308.4645,N,07726.4460,W,4.67,274.93,240819,,,A*76
$GPGGA,154449.750,4308.4646,N,07726.4464,W,1,07,1.95,148.6,M,-34.4,M,,*53
$GPRMC,154450.000,A,4308.4647,N,07726.4468,W,4.55,277.81,240819,,,A*70
$GPGGA,154450.250,4308.4649,N,07726.4473,W,1,07,1.95,148.5,M,-34.4,M,,*54
$GPRMC,154450.500,A,4308.4650,N,07726.4477,W,4.11,280.73,240819,,,A*78
$GPGGA,154450.750,4308.4652,N,07726.4481,W,1,07,1.95,148.4,M,-34.4,M,,*57
$GPRMC,154451.000,A,4308.4653,N,07726.4485,W,4.32,278.61,240819,,,A*77
$GPGGA,154451.250,4308.4654,N,07726.4489,W,1,07,1.95,148.3,M,-34.4,M,,*5A
$GPRMC,154451.500,A,4308.4655,N,07726.4494,W,5.21,282.92,240819,,,A*7E
$GPGGA,154451.750,4308.4654,N,07726.4498,W,1,08,1.04,148.3,M,-34.4,M,,*58
$GPRMC,154452.000,A,4308.4654,N,07726.4503,W,5.52,280.77,240819,,,A*7B
$GPGGA,154452.250,4308.4654,N,07726.4509,W,1,07,1.60,148.2,M,-34.4,M,,*5B
$GPRMC,154452.500,A,4308.4654,N,07726.4515,W,7.04,278.64,240819,,,A*7D
$GPGGA,154452.750,4308.4654,N,07726.4522,W,1,07,1.60,148.2,M,-34.4,M,,*57
$GPRMC,154453.000,A,4308.4654,N,07726.4529,W,7.58,277.68,240819,,,A*7C
$GPGGA,154453.250,4308.4654,N,07726.4536,W,1,08,1.01,148.2,M,-34.4,M,,*5E
$GPRMC,154453.500,A,4308.4655,N,07726.4544,W,7.68,274.71,240819,,,A*7B
$GPGGA,154453.750,4308.4654,N,07726.4551,W,1,08,1.01,148.2,M,-34.4,M,,*5A
$GPRMC,154454.000,A,4308.4652,N,07726.4559,W,8.23,266.44,240819,,,A*77
$GPGGA,154454.250,4308.4644,N,07726.4566,W,1,08,1.01,148.3,M,-34.4,M,,*5C
$GPRMC,154454.500,A,4308.4639,N,07726.4573,W,9.34,239.72,240819,,,A*7F
$GPGGA,154454.750,4308.4633,N,07726.4579,W,1,07,1.95,148.3,M,-34.4,M,,*55
$GPRMC,154455.000,A,4308.4628,N,07726.4586,W,10.30,229.43,240819,,,A*4E
$GPGGA,154455.250,4308.4622,N,07726.4589,W,1,08,1.01,148.3,M,-34.4,M,,*5C
$GPRMC,154455.500,A,4308.4616,N,07726.4592,W,11.87,214.65,240819,,,A*44
$GPGGA,154455.750,4308.4609,N,07726.4597,W,1,08,1.01,148.3,M,-34.4,M,,*5F
$GPRMC,154456.000,A,4308.4602,N,07726.4602,W,12.12,214.10,240819,,,A*40
$GPGGA,154456.250,4308.4594,N,07726.4609,W,1,08,1.01,148.2,M,-34.4,M,,*5B
$GPRMC,154456.500,A,4308.4585,N,07726.4615,W,13.35,211.87,240819,,,A*40
$GPGGA,154456.750,4308.4576,N,07726.4622,W,1,08,1.01,148.1,M,-34.4,M,,*58
$GPRMC,154457.000,A,4308.4567,N,07726.4629,W,14.60,210.72,240819,,,A*4B
$GPGGA,154457.250,4308.4556,N,07726.4636,W,1,08,1.01,148.0,M,-34.4,M,,*5A
$GPRMC,154457.500,A,4308.4546,N,07726.4643,W,15.82,209.07,240819,,,A*46
$GPGGA,154457.750,4308.4535,N,07726.4650,W,1,08,1.04,147.9,M,-34.4,M,,*59
$GPRMC,154458.000,A,4308.4523,N,07726.4657,W,16.81,207.50,240819,,,A*46
$GPGGA,154458.250,4308.4510,N,07726.4664,W,1,08,1.01,147.9,M,-34.4,M,,*56
$GPRMC,154458.500,A,4308.4498,N,07726.4669,W,17.81,205.37,240819,,,A*4D
$GPGGA,154458.750,4308.4485,N,07726.4675,W,1,08,1.01,147.8,M,-34.4,M,,*5F
$GPRMC,154459.000,A,4308.4472,N,07726.4682,W,18.98,203.72,240819,,,A*48
$GPGGA,154459.250,4308.4458,N,07726.4688,W,1,08,1.01,147.7,M,-34.4,M,,*56
$GPRMC,154459.500,A,4308.4443,N,07726.4695,W,20.25,202.74,240819,,,A*43
$GPGGA,154459.750,4308.4428,N,07726.4701,W,1,08,1.01,147.6,M,-34.4,M,,*55
$GPRMC,154500.000,A,4308.4413,N,07726.4708,W,21.28,202.20,240819,,,A*46
$GPGGA,154500.250,4308.4398,N,07726.4715,W,1,08,1.04,147.5,M,-34.4,M,,*52
$GPRMC,154500.500,A,4308.4382,N,07726.4723,W,22.43,202.42,240819,,,A*4F
$GPGGA,154500.750,4308.4366,N,07726.4730,W,1,08,1.01,147.4,M,-34.4,M,,*55
$GPRMC,154501.000,A,4308.4349,N,07726.4737,W,23.50,201.97,240819,,,A*41
$GPGGA,154501.250,4308.4331,N,07726.4744,W,1,08,1.01,147.3,M,-34.4,M,,*57
$GPRMC,154501.500,A,4308.4314,N,07726.4752,W,24.93,201.35,240819,,,A*4F
$GPGGA,154501.750,4308.4295,N,07726.4759,W,1,08,1.01,147.2,M,-34.4,M,,*50
$GPRMC,154502.000,A,4308.4277,N,07726.4767,W,26.37,200.84,240819,,,A*4C
$GPGGA,154502.250,4308.4259,N,07726.4775,W,1,08,1.01,147.1,M,-34.4,M,,*5B
$GPRMC,154502.500,A,4308.4240,N,07726.4783,W,27.51,200.47,240819,,,A*49
$GPGGA,154502.750,4308.4221,N,07726.4792,W,1,08,1.01,147.0,M,-34.4,M,,*59
$GPRMC,154503.000,A,4308.4202,N,07726.4800,W,28.22,200.15,240819,,,A*43
$GPGGA,154503.250,4308.4183,N,07726.4810,W,1,08,1.01,146.9,M,-34.4,M,,*5B
$GPRMC,154503.500,A,4308.4163,N,07726.4819,W,28.62,200.50,240819,,,A*4F
$GPGGA,154503.750,4308.4144,N,07726.4829,W,1,08,1.01,146.9,M,-34.4,M,,*5F
$GPRMC,154504.000,A,4308.4124,N,07726.4838,W,28.92,200.49,240819,,,A*4A
$GPGGA,154504.250,4308.4103,N,07726.4847,W,1,08,1.01,146.8,M,-34.4,M,,*57
$GPRMC,154504.500,A,4308.4082,N,07726.4856,W,30.44,199.55,240819,,,A*46
$GPGGA,154504.750,4308.4061,N,07726.4865,W,1,08,1.01,146.8,M,-34.4,M,,*57
$GPRMC,154505.000,A,4308.4041,N,07726.4875,W,30.85,199.87,240819,,,A*4E
$GPGGA,154505.250,4308.4020,N,07726.4885,W,1,08,1.01,146.7,M,-34.4,M,,*57
$GPRMC,154505.500,A,4308.3999,N,07726.4894,W,31.15,199.81,240819,,,A*41
$GPGGA,154505.750,4308.3978,N,07726.4905,W,1,08,1.01,146.7,M,-34.4,M,,*58
$GPRMC,154506.000,A,4308.3957,N,07726.4916,W,31.43,200.09,240819,,,A*4E
$GPGGA,154506.250,4308.3935,N,07726.4926,W,1,08,1.01,146.6,M,-34.4,M,,*57
$GPRMC,154506.500,A,4308.3914,N,07726.4936,W,31.84,199.78,240819,,,A*40
$GPGGA,154506.750,4308.3892,N,07726.4946,W,1,08,1.01,146.5,M,-34.4,M,,*5B
$GPRMC,154507.000,A,4308.3869,N,07726.4955,W,32.15,198.85,240819,,,A*42
$GPGGA,154507.250,4308.3847,N,07726.4964,W,1,08,1.01,146.5,M,-34.4,M,,*57
$GPRMC,154507.500,A,4308.3824,N,07726.4972,W,32.41,197.73,240819,,,A*4C
$GPGGA,154507.750,4308.3802,N,07726.4980,W,1,08,1.04,146.4,M,-34.4,M,,*5D
$GPRMC,154508.000,A,4308.3779,N,07726.4988,W,32.58,196.53,240819,,,A*4F
$GPGGA,154508.250,4308.3757,N,07726.4996,W,1,08,1.01,146.4,M,-34.4,M,,*5A
$GPRMC,154508.500,A,4308.3733,N,07726.5002,W,32.71,195.04,240819,,,A*44
$GPGGA,154508.750,4308.3710,N,07726.5008,W,1,08,1.01,146.3,M,-34.4,M,,*54
$GPRMC,154509.000,A,4308.3686,N,07726.5014,W,33.19,193.44,240819,,,A*45
$GPGGA,154509.250,4308.3661,N,07726.5019,W,1,08,1.01,146.3,M,-34.4,M,,*57
$GPRMC,154509.500,A,4308.3636,N,07726.5024,W,34.09,191.69,240819,,,A*43
$GPGGA,154509.750,4308.3611,N,07726.5029,W,1,08,1.01,146.2,M,-34.4,M,,*57
$GPRMC,154510.000,A,4308.3586,N,07726.5033,W,34.56,190.01,240819,,,A*45
$GPGGA,154510.250,4308.3561,N,07726.5039,W,1,08,1.01,146.2,M,-34.4,M,,*5F
$GPRMC,154510.500,A,4308.3536,N,07726.5044,W,34.62,188.82,240819,,,A*4E
$GPGGA,154510.750,4308.3511,N,07726.5049,W,1,08,1.04,146.2,M,-34.4,M,,*5F
$GPRMC,154511.000,A,4308.3486,N,07726.5053,W,34.70,187.94,240819,,,A*4D
$GPGGA,154511.250,4308.3460,N,07726.5057,W,1,08,1.01,146.2,M,-34.4,M,,*56
$GPRMC,154511.500,A,4308.3434,N,07726.5062,W,35.25,186.98,240819,,,A*4F
$GPGGA,154511.750,4308.3407,N,07726.5066,W,1,08,1.01,146.2,M,-34.4,M,,*50
$GPRMC,154512.000,A,4308.3381,N,07726.5070,W,35.23,186.27,240819,,,A*41
$GPGGA,154512.250,4308.3354,N,07726.5072,W,1,08,1.01,146.2,M,-34.4,M,,*52
$GPRMC,154512.500,A,4308.3327,N,07726.5075,W,35.49,185.20,240819,,,A*45
$GPGGA,154512.750,4308.3300,N,07726.5077,W,1,07,1.60,146.3,M,-34.4,M,,*5A
$GPRMC,154513.000,A,4308.3274,N,07726.5079,W,36.61,184.53,240819,,,A*46
$GPGGA,154513.250,4308.3247,N,07726.5081,W,1,08,1.01,146.3,M,-34.4,M,,*5D
$GPRMC,154513.500,A,4308.3221,N,07726.5082,W,36.58,183.63,240819,,,A*49
$GPGGA,154513.750,4308.3194,N,07726.5085,W,1,08,1.01,146.4,M,-34.4,M,,*56
$GPRMC,154514.000,A,4308.3167,N,07726.5086,W,36.97,183.17,240819,,,A*4E
$GPGGA,154514.250,4308.3139,N,07726.5086,W,1,08,1.01,146.6,M,-34.4,M,,*52
$GPRMC,154514.500,A,4308.3112,N,07726.5087,W,37.60,182.45,240819,,,A*47
$GPGGA,154514.750,4308.3085,N,07726.5088,W,1,07,1.60,146.7,M,-34.4,M,,*56
$GPRMC,154515.000,A,4308.3057,N,07726.5088,W,37.70,181.83,240819,,,A*44
$GPGGA,154515.250,4308.3030,N,07726.5088,W,1,07,1.60,146.8,M,-34.4,M,,*53
$GPRMC,154515.500,A,4308.3003,N,07726.5089,W,37.89,181.77,240819,,,A*4C
$GPGGA,154515.750,4308.2976,N,07726.5089,W,1,07,1.60,146.9,M,-34.4,M,,*5C
$GPRMC,154516.000,A,4308.2949,N,07726.5090,W,37.76,182.01,240819,,,A*46
$GPGGA,154516.250,4308.2922,N,07726.5091,W,1,07,1.60,147.0,M,-34.4,M,,*5A
$GPRMC,154516.500,A,4308.2896,N,07726.5092,W,37.76,182.46,240819,,,A*41
$GPGGA,154516.750,4308.2869,N,07726.5093,W,1,08,1.01,147.1,M,-34.4,M,,*5A
$GPRMC,154517.000,A,4308.2842,N,07726.5095,W,37.77,182.53,240819,,,A*4E
$GPGGA,154517.250,4308.2816,N,07726.5095,W,1,07,1.60,147.2,M,-34.4,M,,*5B
$GPRMC,154517.500,A,4308.2789,N,07726.5096,W,38.03,182.38,240819,,,A*41
$GPGGA,154517.750,4308.2762,N,07726.5097,W,1,07,1.60,147.3,M,-34.4,M,,*51
$GPRMC,154518.000,A,4308.2735,N,07726.5098,W,38.28,182.34,240819,,,A*47
$GPGGA,154518.250,4308.2709,N,07726.5098,W,1,07,1.60,147.4,M,-34.4,M,,*5E
$GPRMC,154518.500,A,4308.2683,N,07726.5098,W,37.94,181.68,240819,,,A*4C
$GPGGA,154518.750,4308.2657,N,07726.5099,W,1,07,1.60,147.4,M,-34.4,M,,*50
$GPRMC,154519.000,A,4308.2630,N,07726.5100,W,37.97,181.88,240819,,,A*4D
$GPGGA,154519.250,4308.2603,N,07726.5101,W,1,07,1.60,147.4,M,-34.4,M,,*55
$GPRMC,154519.500,A,4308.2575,N,07726.5102,W,38.38,182.08,240819,,,A*49
$GPGGA,154519.750,4308.2548,N,07726.5103,W,1,07,1.60,147.4,M,-34.4,M,,*5E
$GPRMC,154520.000,A,4308.2521,N,07726.5104,W,38.68,181.90,240819,,,A*46
$GPGGA,154520.250,4308.2494,N,07726.5105,W,1,07,1.60,147.3,M,-34.4,M,,*50
$GPRMC,154520.500,A,4308.2466,N,07726.5106,W,39.12,181.79,240819,,,A*48
$GPGGA,154520.750,4308.2438,N,07726.5107,W,1,08,1.01,147.3,M,-34.4,M,,*59
$GPRMC,154521.000,A,4308.2411,N,07726.5107,W,39.20,181.80,240819,,,A*4A
$GPGGA,154521.250,4308.2383,N,07726.5108,W,1,08,1.01,147.3,M,-34.4,M,,*55
$GPRMC,154521.500,A,4308.2355,N,07726.5109,W,39.43,182.20,240819,,,A*4A
$GPGGA,154521.750,4308.2327,N,07726.5111,W,1,07,1.60,147.2,M,-34.4,M,,*5F
$GPRMC,154522.000,A,4308.2299,N,07726.5113,W,39.66,182.36,240819,,,A*46
$GPGGA,154522.250,4308.2271,N,07726.5115,W,1,08,1.01,147.1,M,-34.4,M,,*54
$GPRMC,154522.500,A,4308.2243,N,07726.5116,W,39.98,182.25,240819,,,A*42
$GPGGA,154522.750,4308.2215,N,07726.5117,W,1,08,1.01,147.1,M,-34.4,M,,*51
$GPRMC,154523.000,A,4308.2187,N,07726.5118,W,40.19,182.22,240819,,,A*43
$GPGGA,154523.250,4308.2158,N,07726.5119,W,1,08,1.01,147.0,M,-34.4,M,,*50
$GPRMC,154523.500,A,4308.2130,N,07726.5119,W,40.44,181.43,240819,,,A*47
$GPGGA,154523.750,4308.2101,N,07726.5120,W,1,08,1.01,147.0,M,-34.4,M,,*53
$GPRMC,154524.000,A,4308.2071,N,07726.5120,W,40.50,181.25,240819,,,A*4E
$GPGGA,154524.250,4308.2042,N,07726.5121,W,1,08,1.01,146.9,M,-34.4,M,,*5E
$GPRMC,154524.500,A,4308.2013,N,07726.5122,W,40.69,181.73,240819,,,A*44
$GPGGA,154524.750,4308.1984,N,07726.5122,W,1,08,1.01,146.8,M,-34.4,M,,*59
$GPRMC,154525.000,A,4308.1954,N,07726.5123,W,41.40,181.34,240819,,,A*41
$GPGGA,154525.250,4308.1925,N,07726.5124,W,1,08,1.01,146.6,M,-34.4,M,,*5E
$GPRMC,154525.500,A,4308.1896,N,07726.5125,W,41.27,181.07,240819,,,A*4C
$GPGGA,154525.750,4308.1866,N,07726.5126,W,1,08,1.04,146.5,M,-34.4,M,,*59
$GPRMC,154526.000,A,4308.1836,N,07726.5127,W,41.72,181.09,240819,,,A*4C
$GPGGA,154526.250,4308.1806,N,07726.5127,W,1,08,1.01,146.3,M,-34.4,M,,*5B
$GPRMC,154526.500,A,4308.1776,N,07726.5128,W,42.10,181.00,240819,,,A*43
$GPGGA,154526.750,4308.1745,N,07726.5128,W,1,08,1.04,146.1,M,-34.4,M,,*5E
$GPRMC,154527.000,A,4308.1715,N,07726.5130,W,42.44,181.10,240819,,,A*4B
$GPGGA,154527.250,4308.1685,N,07726.5131,W,1,08,1.04,146.0,M,-34.4,M,,*5E
$GPRMC,154527.500,A,4308.1654,N,07726.5132,W,42.67,181.07,240819,,,A*4F
$GPGGA,154527.750,4308.1624,N,07726.5133,W,1,08,1.04,145.9,M,-34.4,M,,*58
$GPRMC,154528.000,A,4308.1593,N,07726.5134,W,42.97,181.15,240819,,,A*47
$GPGGA,154528.250,4308.1563,N,07726.5135,W,1,08,1.01,145.9,M,-34.4,M,,*51
$GPRMC,154528.500,A,4308.1533,N,07726.5136,W,42.97,180.77,240819,,,A*4F
$GPGGA,154528.750,4308.1503,N,07726.5136,W,1,08,1.04,145.8,M,-34.4,M,,*55
$GPRMC,154529.000,A,4308.1473,N,07726.5137,W,43.03,180.96,240819,,,A*4C
$GPGGA,154529.250,4308.1443,N,07726.5138,W,1,08,1.04,145.7,M,-34.4,M,,*55
$GPRMC,154529.500,A,4308.1414,N,07726.5138,W,42.30,180.71,240819,,,A*4F
$GPGGA,154529.750,4308.1386,N,07726.5139,W,1,08,1.04,145.7,M,-34.4,M,,*5F
$GPRMC,154530.000,A,4308.1356,N,07726.5140,W,42.36,180.74,240819,,,A*4F
$GPGGA,154530.250,4308.1327,N,07726.5140,W,1,08,1.04,145.6,M,-34.4,M,,*56
$GPRMC,154530.500,A,4308.1297,N,07726.5140,W,42.23,180.76,240819,,,A*40
$GPGGA,154530.750,4308.1267,N,07726.5141,W,1,08,1.01,145.4,M,-34.4,M,,*50
$GPRMC,154531.000,A,4308.1237,N,07726.5142,W,42.36,180.70,240819,,,A*4E
$GPGGA,154531.250,4308.1207,N,07726.5142,W,1,08,1.01,145.2,M,-34.4,M,,*57
$GPRMC,154531.500,A,4308.1178,N,07726.5143,W,42.49,180.68,240819,,,A*43
$GPGGA,154531.750,4308.1148,N,07726.5143,W,1,08,1.04,145.3,M,-34.4,M,,*5F
$GPRMC,154532.000,A,4308.1119,N,07726.5144,W,42.52,180.33,240819,,,A*41
$GPGGA,154532.250,4308.1089,N,07726.5144,W,1,08,1.04,145.2,M,-34.4,M,,*53
$GPRMC,154532.500,A,4308.1061,N,07726.5144,W,42.54,180.25,240819,,,A*4B
$GPGGA,154532.750,4308.1032,N,07726.5144,W,1,08,1.04,145.3,M,-34.4,M,,*57
$GPRMC,154533.000,A,4308.1003,N,07726.5144,W,42.80,179.91,240819,,,A*4B
$GPGGA,154533.250,4308.0974,N,07726.5144,W,1,08,1.04,145.4,M,-34.4,M,,*5E
$GPRMC,154533.500,A,4308.0944,N,07726.5144,W,42.87,179.35,240819,,,A*4C
$GPGGA,154533.750,4308.0915,N,07726.5143,W,1,08,1.04,145.4,M,-34.4,M,,*5B
$GPRMC,154534.000,A,4308.0885,N,07726.5142,W,43.09,178.52,240819,,,A*43
$GPGGA,154534.250,4308.0856,N,07726.5141,W,1,08,1.04,145.4,M,-34.4,M,,*5D
$GPRMC,154534.500,A,4308.0826,N,07726.5140,W,43.18,177.88,240819,,,A*45
$GPGGA,154534.750,4308.0796,N,07726.5138,W,1,08,1.01,145.3,M,-34.4,M,,*57
$GPRMC,154535.000,A,4308.0766,N,07726.5136,W,43.22,177.23,240819,,,A*43
$GPGGA,154535.250,4308.0736,N,07726.5134,W,1,08,1.04,145.2,M,-34.4,M,,*51
$GPRMC,154535.500,A,4308.0707,N,07726.5132,W,43.19,176.87,240819,,,A*42
$GPGGA,154535.750,4308.0677,N,07726.5130,W,1,08,1.04,145.0,M,-34.4,M,,*56
$GPRMC,154536.000,A,4308.0647,N,07726.5127,W,43.19,176.54,240819,,,A*4B
$GPGGA,154536.250,4308.0617,N,07726.5125,W,1,08,1.04,144.9,M,-34.4,M,,*5A
$GPRMC,154536.500,A,4308.0587,N,07726.5122,W,43.16,176.19,240819,,,A*42
$GPGGA,154536.750,4308.0557,N,07726.5119,W,1,08,1.04,144.8,M,-34.4,M,,*56
$GPRMC,154537.000,A,4308.0527,N,07726.5117,W,42.98,175.80,240819,,,A*4E
$GPGGA,154537.250,4308.0497,N,07726.5114,W,1,08,1.04,144.8,M,-34.4,M,,*52
$GPRMC,154537.500,A,4308.0468,N,07726.5111,W,43.00,175.66,240819,,,A*4F
$GPGGA,154537.750,4308.0438,N,07726.5108,W,1,08,1.04,144.8,M,-34.4,M,,*5F
$GPRMC,154538.000,A,4308.0408,N,07726.5104,W,43.22,175.28,240819,,,A*4D
$GPGGA,154538.250,4308.0378,N,07726.5101,W,1,08,1.04,144.9,M,-34.4,M,,*5E
$GPRMC,154538.500,A,4308.0349,N,07726.5097,W,43.17,174.92,240819,,,A*47
$GPGGA,154538.750,4308.0319,N,07726.5094,W,1,08,1.04,144.8,M,-34.3,M,,*57
$GPRMC,154539.000,A,4308.0289,N,07726.5090,W,43.17,174.66,240819,,,A*42
$GPGGA,154539.250,4308.0260,N,07726.5086,W,1,08,1.04,144.8,M,-34.3,M,,*5F
$GPRMC,154539.500,A,4308.0230,N,07726.5082,W,43.17,174.37,240819,,,A*42
$GPGGA,154539.750,4308.0200,N,07726.5078,W,1,08,1.04,144.9,M,-34.3,M,,*5C
$GPRMC,154540.000,A,4308.0170,N,07726.5074,W,43.36,174.02,240819,,,A*42
$GPGGA,154540.250,4308.0140,N,07726.5069,W,1,08,1.04,144.9,M,-34.3,M,,*50
$GPRMC,154540.500,A,4308.0111,N,07726.5065,W,43.08,173.54,240819,,,A*49
$GPGGA,154540.750,4308.0081,N,07726.5060,W,1,08,1.04,145.0,M,-34.3,M,,*58
$GPRMC,154541.000,A,4308.0051,N,07726.5055,W,43.10,173.10,240819,,,A*42
$GPGGA,154541.250,4308.0022,N,07726.5051,W,1,08,1.04,145.1,M,-34.3,M,,*56
$GPRMC,154541.500,A,4307.9992,N,07726.5045,W,42.89,172.56,240819,,,A*44
$GPGGA,154541.750,4307.9962,N,07726.5040,W,1,08,1.04,145.2,M,-34.3,M,,*5B
$GPRMC,154542.000,A,4307.9933,N,07726.5034,W,43.22,172.31,240819,,,A*4E
$GPGGA,154542.250,4307.9903,N,07726.5029,W,1,08,1.04,145.2,M,-34.3,M,,*55
$GPRMC,154542.500,A,4307.9873,N,07726.5023,W,43.07,171.85,240819,,,A*43
$GPGGA,154542.750,4307.9845,N,07726.5017,W,1,08,1.01,145.0,M,-34.3,M,,*59
$GPRMC,154543.000,A,4307.9816,N,07726.5011,W,43.12,171.34,240819,,,A*4B
$GPGGA,154543.250,4307.9786,N,07726.5004,W,1,07,1.96,145.2,M,-34.3,M,,*5C
$GPRMC,154543.500,A,4307.9757,N,07726.4998,W,42.93,171.10,240819,,,A*43
$GPGGA,154543.750,4307.9728,N,07726.4992,W,1,08,1.04,145.2,M,-34.3,M,,*5E
$GPRMC,154544.000,A,4307.9700,N,07726.4985,W,41.62,171.09,240819,,,A*4A
$GPGGA,154544.250,4307.9671,N,07726.4979,W,1,08,1.04,145.2,M,-34.3,M,,*54
$GPRMC,154544.500,A,4307.9643,N,07726.4973,W,41.85,171.09,240819,,,A*49
$GPGGA,154544.750,4307.9615,N,07726.4967,W,1,08,1.04,145.2,M,-34.3,M,,*5C
$GPRMC,154545.000,A,4307.9587,N,07726.4961,W,40.96,171.17,240819,,,A*49
$GPGGA,154545.250,4307.9559,N,07726.4954,W,1,07,1.96,145.1,M,-34.3,M,,*54
$GPRMC,154545.500,A,4307.9531,N,07726.4948,W,40.86,171.11,240819,,,A*4D
$GPGGA,154545.750,4307.9503,N,07726.4942,W,1,07,1.96,145.1,M,-34.3,M,,*59
$GPRMC,154546.000,A,4307.9476,N,07726.4936,W,40.51,171.34,240819,,,A*4D
$GPGGA,154546.250,4307.9448,N,07726.4931,W,1,08,1.04,145.0,M,-34.3,M,,*50
$GPRMC,154546.500,A,4307.9421,N,07726.4925,W,40.36,171.40,240819,,,A*4A
$GPGGA,154546.750,4307.9393,N,07726.4919,W,1,08,1.04,144.9,M,-34.3,M,,*56
$GPRMC,154547.000,A,4307.9366,N,07726.4913,W,40.16,171.74,240819,,,A*4A
$GPGGA,154547.250,4307.9339,N,07726.4908,W,1,08,1.04,144.8,M,-34.3,M,,*53
$GPRMC,154547.500,A,4307.9312,N,07726.4903,W,39.08,172.24,240819,,,A*4A
$GPGGA,154547.750,4307.9285,N,07726.4898,W,1,08,1.04,144.7,M,-34.3,M,,*57
$GPRMC,154548.000,A,4307.9258,N,07726.4893,W,38.95,172.88,240819,,,A*44
$GPGGA,154548.250,4307.9232,N,07726.4888,W,1,08,1.04,144.6,M,-34.3,M,,*51
$GPRMC,154548.500,A,4307.9206,N,07726.4884,W,38.17,173.29,240819,,,A*4C
$GPGGA,154548.750,4307.9179,N,07726.4880,W,1,08,1.04,144.5,M,-34.3,M,,*53
$GPRMC,154549.000,A,4307.9153,N,07726.4876,W,37.85,173.64,240819,,,A*4B
$GPGGA,154549.250,4307.9127,N,07726.4873,W,1,08,1.04,144.4,M,-34.3,M,,*51
$GPRMC,154549.500,A,4307.9101,N,07726.4869,W,37.56,173.54,240819,,,A*4A
$GPGGA,154549.750,4307.9075,N,07726.4865,W,1,08,1.04,144.3,M,-34.3,M,,*52
$GPRMC,154550.000,A,4307.9050,N,07726.4861,W,37.34,173.32,240819,,,A*4E
$GPGGA,154550.250,4307.9025,N,07726.4857,W,1,08,1.04,144.3,M,-34.3,M,,*5B
$GPRMC,154550.500,A,4307.9000,N,07726.4854,W,35.74,173.44,240819,,,A*4F
$GPGGA,154550.750,4307.8975,N,07726.4850,W,1,08,1.04,144.3,M,-34.3,M,,*54
$GPRMC,154551.000,A,4307.8951,N,07726.4846,W,34.45,172.91,240819,,,A*4E
$GPGGA,154551.250,4307.8928,N,07726.4842,W,1,08,1.04,144.3,M,-34.3,M,,*5B
$GPRMC,154551.500,A,4307.8906,N,07726.4838,W,32.42,172.41,240819,,,A*4C
$GPGGA,154551.750,4307.8884,N,07726.4834,W,1,08,1.04,144.3,M,-34.3,M,,*58
$GPRMC,154552.000,A,4307.8863,N,07726.4830,W,30.36,172.52,240819,,,A*43
$GPGGA,154552.250,4307.8845,N,07726.4825,W,1,08,1.04,144.2,M,-34.3,M,,*52
$GPRMC,154552.500,A,4307.8826,N,07726.4821,W,27.45,171.71,240819,,,A*47
$GPGGA,154552.750,4307.8808,N,07726.4817,W,1,08,1.04,144.2,M,-34.3,M,,*5F
$GPRMC,154553.000,A,4307.8791,N,07726.4813,W,24.13,171.27,240819,,,A*42
$GPGGA,154553.250,4307.8776,N,07726.4810,W,1,08,1.04,144.2,M,-34.3,M,,*5A
$GPRMC,154553.500,A,4307.8763,N,07726.4805,W,20.46,170.66,240819,,,A*4D
$GPGGA,154553.750,4307.8750,N,07726.4802,W,1,08,1.04,144.0,M,-34.3,M,,*5A
$GPRMC,154554.000,A,4307.8737,N,07726.4799,W,17.50,170.58,240819,,,A*4A
$GPGGA,154554.250,4307.8726,N,07726.4796,W,1,08,1.04,144.0,M,-34.3,M,,*5B
$GPRMC,154554.500,A,4307.8714,N,07726.4794,W,16.39,173.39,240819,,,A*49
$GPGGA,154554.750,4307.8701,N,07726.4792,W,1,08,1.04,143.8,M,-34.3,M,,*50
$GPRMC,154555.000,A,4307.8689,N,07726.4790,W,16.60,173.56,240819,,,A*49
$GPGGA,154555.250,4307.8678,N,07726.4788,W,1,08,1.04,143.7,M,-34.3,M,,*5F
$GPRMC,154555.500,A,4307.8666,N,07726.4787,W,15.79,174.73,240819,,,A*40
$GPGGA,154555.750,4307.8656,N,07726.4786,W,1,08,1.04,143.6,M,-34.3,M,,*59
$GPRMC,154556.000,A,4307.8646,N,07726.4785,W,14.54,176.04,240819,,,A*4A
$GPGGA,154556.250,4307.8637,N,07726.4785,W,1,08,1.04,143.5,M,-34.3,M,,*58
$GPRMC,154556.500,A,4307.8628,N,07726.4784,W,13.19,177.77,240819,,,A*4D
$GPGGA,154556.750,4307.8620,N,07726.4784,W,1,08,1.04,143.4,M,-34.3,M,,*5B
$GPRMC,154557.000,A,4307.8611,N,07726.4783,W,12.30,178.68,240819,,,A*4F
$GPGGA,154557.250,4307.8604,N,07726.4783,W,1,08,1.04,143.3,M,-34.3,M,,*59
$GPRMC,154557.500,A,4307.8596,N,07726.4783,W,11.46,179.21,240819,,,A*48
$GPGGA,154557.750,4307.8589,N,07726.4784,W,1,08,1.04,143.2,M,-34.3,M,,*5C
$GPRMC,154558.000,A,4307.8581,N,07726.4783,W,11.12,178.96,240819,,,A*48
$GPGGA,154558.250,4307.8574,N,07726.4783,W,1,08,1.04,143.0,M,-34.3,M,,*51
$GPRMC,154558.500,A,4307.8567,N,07726.4783,W,11.09,178.07,240819,,,A*47
$GPGGA,154558.750,4307.8559,N,07726.4783,W,1,08,1.04,142.9,M,-34.3,M,,*53
$GPRMC,154559.000,A,4307.8551,N,07726.4783,W,11.63,177.57,240819,,,A*40
$GPGGA,154559.250,4307.8542,N,07726.4782,W,1,08,1.04,142.8,M,-34.3,M,,*5D
$GPRMC,154559.500,A,4307.8534,N,07726.4782,W,12.62,175.27,240819,,,A*40
$GPGGA,154559.750,4307.8526,N,07726.4781,W,1,08,1.04,142.7,M,-34.3,M,,*56
$GPRMC,154600.000,A,4307.8517,N,07726.4780,W,13.12,173.44,240819,,,A*4C
$GPGGA,154600.250,4307.8508,N,07726.4778,W,1,08,1.04,142.5,M,-34.3,M,,*54
$GPRMC,154600.500,A,4307.8500,N,07726.4776,W,13.45,172.90,240819,,,A*4C
$GPGGA,154600.750,4307.8491,N,07726.4774,W,1,08,1.04,142.6,M,-34.3,M,,*5F
$GPRMC,154601.000,A,4307.8483,N,07726.4772,W,12.79,173.36,240819,,,A*45
$GPGGA,154601.250,4307.8475,N,07726.4771,W,1,08,1.04,142.5,M,-34.3,M,,*57
$GPRMC,154601.500,A,4307.8468,N,07726.4769,W,11.14,174.79,240819,,,A*4B
$GPGGA,154601.750,4307.8461,N,07726.4768,W,1,07,1.96,142.3,M,-34.3,M,,*5D
$GPRMC,154602.000,A,4307.8455,N,07726.4767,W,9.40,174.98,240819,,,A*7A
$GPGGA,154602.250,4307.8450,N,07726.4766,W,1,08,1.04,142.3,M,-34.3,M,,*53
$GPRMC,154602.500,A,4307.8446,N,07726.4765,W,7.07,178.52,240819,,,A*78
$GPGGA,154602.750,4307.8444,N,07726.4763,W,1,07,1.96,142.2,M,-34.3,M,,*53
$GPRMC,154603.000,A,4307.8442,N,07726.4762,W,4.61,174.65,240819,,,A*74
$GPGGA,154603.250,4307.8440,N,07726.4761,W,1,07,1.60,142.0,M,-34.3,M,,*5A
$GPRMC,154603.500,A,4307.8439,N,07726.4760,W,2.11,174.88,240819,,,A*7D
$GPGGA,154603.750,4307.8438,N,07726.4760,W,1,07,1.60,141.9,M,-34.3,M,,*5B
$GPRMC,154604.000,A,4307.8437,N,07726.4760,W,1.58,174.88,240819,,,A*7F
$GPGGA,154604.250,4307.8436,N,07726.4759,W,1,07,1.60,141.8,M,-34.3,M,,*5C
$GPRMC,154604.500,A,4307.8434,N,07726.4758,W,2.48,174.88,240819,,,A*70
$GPGGA,154604.750,4307.8432,N,07726.4758,W,1,07,1.60,141.7,M,-34.3,M,,*53
$GPRMC,154605.000,A,4307.8428,N,07726.4756,W,5.21,163.94,240819,,,A*74
$GPGGA,154605.250,4307.8424,N,07726.4753,W,1,07,1.96,141.7,M,-34.3,M,,*52
$GPRMC,154605.500,A,4307.8420,N,07726.4750,W,6.70,153.03,240819,,,A*75
$GPGGA,154605.750,4307.8416,N,07726.4746,W,1,07,1.96,141.8,M,-34.3,M,,*5D
$GPRMC,154606.000,A,4307.8412,N,07726.4741,W,8.19,142.67,240819,,,A*71
$GPGGA,154606.250,4307.8407,N,07726.4736,W,1,08,1.04,141.8,M,-34.3,M,,*58
$GPRMC,154606.500,A,4307.8402,N,07726.4730,W,9.56,134.73,240819,,,A*7D
$GPGGA,154606.750,4307.8398,N,07726.4723,W,1,07,1.96,141.8,M,-34.3,M,,*5C
$GPRMC,154607.000,A,4307.8393,N,07726.4714,W,11.25,122.22,240819,,,A*4E
$GPGGA,154607.250,4307.8390,N,07726.4704,W,1,08,1.04,141.7,M,-34.3,M,,*5E
$GPRMC,154607.500,A,4307.8386,N,07726.4694,W,12.19,113.77,240819,,,A*48
$GPGGA,154607.750,4307.8384,N,07726.4683,W,1,08,1.04,141.6,M,-34.3,M,,*51
$GPRMC,154608.000,A,4307.8381,N,07726.4672,W,13.47,107.22,240819,,,A*42
$GPGGA,154608.250,4307.8379,N,07726.4659,W,1,08,1.04,141.5,M,-34.3,M,,*5D
$GPRMC,154608.500,A,4307.8378,N,07726.4645,W,15.17,100.91,240819,,,A*49
$GPGGA,154608.750,4307.8377,N,07726.4630,W,1,08,1.04,141.4,M,-34.3,M,,*58
$GPRMC,154609.000,A,4307.8376,N,07726.4614,W,16.48,96.74,240819,,,A*7B
$GPGGA,154609.250,4307.8376,N,07726.4598,W,1,08,1.01,141.2,M,-34.3,M,,*5F
$GPRMC,154609.500,A,4307.8375,N,07726.4582,W,17.98,94.11,240819,,,A*7C
$GPGGA,154609.750,4307.8375,N,07726.4564,W,1,08,1.04,141.2,M,-34.3,M,,*5F
$GPRMC,154610.000,A,4307.8374,N,07726.4546,W,18.80,91.95,240819,,,A*77
$GPGGA,154610.250,4307.8375,N,07726.4528,W,1,08,1.01,141.1,M,-34.3,M,,*5C
$GPRMC,154610.500,A,4307.8375,N,07726.4509,W,19.48,90.13,240819,,,A*72
$GPGGA,154610.750,4307.8375,N,07726.4490,W,1,08,1.01,141.0,M,-34.3,M,,*5A
$GPRMC,154611.000,A,4307.8375,N,07726.4471,W,20.39,88.92,240819,,,A*74
$GPGGA,154611.250,4307.8376,N,07726.4450,W,1,08,1.01,141.0,M,-34.3,M,,*51
$GPRMC,154611.500,A,4307.8377,N,07726.4429,W,21.80,87.36,240819,,,A*7C
$GPGGA,154611.750,4307.8377,N,07726.4406,W,1,08,1.01,140.9,M,-34.3,M,,*5E
$GPRMC,154612.000,A,4307.8378,N,07726.4383,W,23.27,86.49,240819,,,A*74
$GPGGA,154612.250,4307.8381,N,07726.4358,W,1,08,1.01,141.0,M,-34.3,M,,*55
$GPRMC,154612.500,A,4307.8380,N,07726.4331,W,25.66,86.56,240819,,,A*72
$GPGGA,154612.750,4307.8380,N,07726.4303,W,1,08,1.04,141.0,M,-34.3,M,,*5A
$GPRMC,154613.000,A,4307.8381,N,07726.4274,W,28.38,87.83,240819,,,A*78
$GPGGA,154613.250,4307.8381,N,07726.4245,W,1,08,1.01,141.0,M,-34.3,M,,*59
$GPRMC,154613.500,A,4307.8382,N,07726.4215,W,30.53,87.68,240819,,,A*78
$GPGGA,154613.750,4307.8382,N,07726.4183,W,1,08,1.01,141.0,M,-34.3,M,,*56
$GPRMC,154614.000,A,4307.8382,N,07726.4149,W,33.03,89.87,240819,,,A*79
$GPGGA,154614.250,4307.8382,N,07726.4115,W,1,08,1.01,141.1,M,-34.3,M,,*5A
$GPRMC,154614.500,A,4307.8382,N,07726.4082,W,34.65,89.75,240819,,,A*70
$GPGGA,154614.750,4307.8382,N,07726.4047,W,1,08,1.01,141.1,M,-34.3,M,,*59
$GPRMC,154615.000,A,4307.8383,N,07726.4011,W,36.12,89.35,240819,,,A*79
$GPGGA,154615.250,4307.8383,N,07726.3975,W,1,08,1.01,141.0,M,-34.3,M,,*52
$GPRMC,154615.500,A,4307.8381,N,07726.3937,W,36.81,90.44,240819,,,A*70
$GPGGA,154615.750,4307.8381,N,07726.3900,W,1,08,1.01,141.1,M,-34.3,M,,*56
$GPRMC,154616.000,A,4307.8380,N,07726.3862,W,38.97,91.35,240819,,,A*78
$GPGGA,154616.250,4307.8380,N,07726.3824,W,1,08,1.01,141.2,M,-34.3,M,,*55
$GPRMC,154616.500,A,4307.8379,N,07726.3786,W,39.49,91.37,240819,,,A*7E
$GPGGA,154616.750,4307.8379,N,07726.3748,W,1,08,1.01,141.2,M,-34.3,M,,*53
$GPRMC,154617.000,A,4307.8378,N,07726.3710,W,39.85,91.48,240819,,,A*7C
$GPGGA,154617.250,4307.8378,N,07726.3671,W,1,08,1.01,141.1,M,-34.3,M,,*5E
$GPRMC,154617.500,A,4307.8377,N,07726.3633,W,40.29,91.30,240819,,,A*71
$GPGGA,154617.750,4307.8377,N,07726.3593,W,1,08,1.01,141.1,M,-34.3,M,,*5B
$GPRMC,154618.000,A,4307.8376,N,07726.3554,W,40.82,91.09,240819,,,A*73
$GPGGA,154618.250,4307.8376,N,07726.3515,W,1,08,1.01,141.1,M,-34.3,M,,*5E
$GPRMC,154618.500,A,4307.8375,N,07726.3475,W,41.25,90.81,240819,,,A*7A
$GPGGA,154618.750,4307.8375,N,07726.3435,W,1,08,1.01,141.1,M,-34.3,M,,*5B
$GPRMC,154619.000,A,4307.8374,N,07726.3395,W,41.31,91.04,240819,,,A*7F
$GPGGA,154619.250,4307.8374,N,07726.3356,W,1,08,1.01,141.0,M,-34.3,M,,*5D
$GPRMC,154619.500,A,4307.8373,N,07726.3317,W,41.23,91.18,240819,,,A*79
$GPGGA,154619.750,4307.8373,N,07726.3278,W,1,08,1.01,140.9,M,-34.3,M,,*5A
