Vers 70
USE_SERIAL_FEEDBACK=true
DEVELOPMENT_MODE=false
USE_RMC_ONLY=false

$GPRMC,134051.000,A,4308.3943,N,07726.3806,W,22.22,6.75,100519,,,A*4D
$GPGGA,134051.250,4308.3960,N,07726.3803,W,1,04,10.81,173.5,M,-34.4,M,,*66
lng=-77.439674, lat=43.139907, altitude=172.90, speed=22.22, satellites=4, angle=6.7500, fixquality=1
$GPRMC,134051.500,A,4308.3979,N,07726.3800,W,22.66,8.57,100519,,,A*49
$GPGGA,134051.750,4308.3998,N,07726.3795,W,1,04,10.82,174.0,M,-34.4,M,,*65
lng=-77.439666, lat=43.139965, altitude=173.50, speed=22.66, satellites=4, angle=8.5700, fixquality=1
$GPRMC,134052.000,A,4308.4017,N,07726.3791,W,23.19,10.07,100519,,,A*7B
$GPGGA,134052.250,4308.4036,N,07726.3787,W,1,04,10.83,174.5,M,-34.4,M,,*6E
lng=-77.439651, lat=43.140029, altitude=174.00, speed=23.19, satellites=4, angle=10.0700, fixquality=1
$GPRMC,134052.500,A,4308.4055,N,07726.3782,W,23.66,10.73,100519,,,A*71
$GPGGA,134052.750,4308.4074,N,07726.3778,W,1,04,10.84,175.0,M,-34.4,M,,*6E
lng=-77.439643, lat=43.140087, altitude=174.50, speed=23.66, satellites=4, angle=10.7300, fixquality=1
$GPRMC,134053.000,A,4308.4093,N,07726.3774,W,24.11,10.51,100519,,,A*71
$GPGGA,134053.250,4308.4113,N,07726.3769,W,1,04,10.84,175.5,M,-34.4,M,,*6F
lng=-77.439620, lat=43.140151, altitude=175.00, speed=24.11, satellites=4, angle=10.5100, fixquality=1
$GPRMC,134053.500,A,4308.4132,N,07726.3765,W,24.53,10.12,100519,,,A*7F
$GPGGA,134053.750,4308.4151,N,07726.3761,W,1,04,10.85,175.8,M,-34.4,M,,*68
lng=-77.439605, lat=43.140216, altitude=175.50, speed=24.53, satellites=4, angle=10.1200, fixquality=1
$GPRMC,134054.000,A,4308.4170,N,07726.3756,W,24.73,10.19,100519,,,A*72
$GPGGA,134054.250,4308.4189,N,07726.3752,W,1,04,10.86,176.2,M,-34.4,M,,*65
lng=-77.439590, lat=43.140281, altitude=175.80, speed=24.73, satellites=4, angle=10.1900, fixquality=1
$GPRMC,134054.500,A,4308.4208,N,07726.3748,W,24.77,9.89,100519,,,A*41
$GPGGA,134054.750,4308.4226,N,07726.3744,W,1,04,10.87,176.7,M,-34.4,M,,*65
lng=-77.439582, lat=43.140346, altitude=176.20, speed=24.77, satellites=4, angle=9.8900, fixquality=1
$GPRMC,134055.000,A,4308.4245,N,07726.3740,W,24.69,9.67,100519,,,A*4B
$GPGGA,134055.250,4308.4264,N,07726.3737,W,1,04,10.88,177.0,M,-34.4,M,,*6A
lng=-77.439567, lat=43.140403, altitude=176.70, speed=24.69, satellites=4, angle=9.6700, fixquality=1
$GPRMC,134055.500,A,4308.4282,N,07726.3733,W,24.57,9.27,100519,,,A*48
$GPGGA,134055.750,4308.4300,N,07726.3729,W,1,04,10.89,177.3,M,-34.4,M,,*61
lng=-77.439559, lat=43.140468, altitude=177.00, speed=24.57, satellites=4, angle=9.2700, fixquality=1
$GPRMC,134056.000,A,4308.4317,N,07726.3726,W,24.25,9.28,100519,,,A*4D
$GPGGA,134056.250,4308.4334,N,07726.3722,W,1,04,10.90,177.5,M,-34.4,M,,*65
lng=-77.439544, lat=43.140525, altitude=177.30, speed=24.25, satellites=4, angle=9.2800, fixquality=1
$GPRMC,134056.500,V,,,,,23.75,9.53,100519,,,E*76
$GPGGA,134056.750,4308.4366,N,07726.3715,W,6,03,60.61,177.5,M,-34.4,M,,*6A
lng=-77.439537, lat=43.140560, altitude=177.50, speed=23.75, satellites=4, angle=9.5300, fixquality=1
$GPRMC,134056.750,V,,,,,23.54,9.65,100519,,,E*77
$GPGGA,134057.000,4308.4382,N,07726.3711,W,6,03,60.61,177.5,M,-34.4,M,,*67
lng=-77.439529, lat=43.140609, altitude=177.50, speed=23.54, satellites=3, angle=9.6500, fixquality=6
$GPRMC,134057.000,V,,,,,23.50,9.77,100519,,,E*73
$GPGGA,134057.250,4308.4397,N,07726.3707,W,1,04,10.92,177.4,M,-34.4,M,,*69
lng=-77.439521, lat=43.140632, altitude=177.50, speed=23.50, satellites=3, angle=9.7700, fixquality=6
$GPRMC,134057.500,A,4308.4413,N,07726.3704,W,23.05,9.70,100519,,,A*42
$GPGGA,134057.750,4308.4428,N,07726.3701,W,1,04,10.92,177.5,M,-34.4,M,,*68
lng=-77.439506, lat=43.140689, altitude=177.40, speed=23.05, satellites=4, angle=9.7000, fixquality=1
$GPRMC,134058.000,A,4308.4442,N,07726.3697,W,22.43,9.64,100519,,,A*41
$GPGGA,134058.250,4308.4456,N,07726.3694,W,1,04,10.93,177.3,M,-34.4,M,,*61
lng=-77.439491, lat=43.140739, altitude=177.50, speed=22.43, satellites=4, angle=9.6400, fixquality=1
$GPRMC,134058.500,A,4308.4469,N,07726.3690,W,21.81,10.15,100519,,,A*79
$GPGGA,134058.750,4308.4482,N,07726.3687,W,1,04,10.94,177.1,M,-34.4,M,,*6A
lng=-77.439483, lat=43.140781, altitude=177.30, speed=21.81, satellites=4, angle=10.1500, fixquality=1
$GPRMC,134059.000,A,4308.4495,N,07726.3684,W,21.11,9.22,100519,,,A*4E
$GPGGA,134059.250,4308.4507,N,07726.3681,W,1,04,10.96,177.0,M,-34.4,M,,*67
lng=-77.439468, lat=43.140827, altitude=177.10, speed=21.11, satellites=4, angle=9.2200, fixquality=1
$GPRMC,134059.500,A,4308.4518,N,07726.3678,W,19.81,9.23,100519,,,A*4F
$GPGGA,134059.750,4308.4529,N,07726.3675,W,1,04,10.95,176.8,M,-34.4,M,,*6F
lng=-77.439460, lat=43.140861, altitude=177.00, speed=19.81, satellites=4, angle=9.2300, fixquality=1
$GPRMC,134100.000,A,4308.4539,N,07726.3672,W,18.18,8.90,100519,,,A*46
$GPGGA,134100.250,4308.4548,N,07726.3671,W,1,04,10.97,176.6,M,-34.4,M,,*68
lng=-77.439453, lat=43.140903, altitude=176.80, speed=18.18, satellites=4, angle=8.9000, fixquality=1
$GPRMC,134100.500,A,4308.4556,N,07726.3669,W,16.22,7.55,100519,,,A*41
$GPGGA,134100.750,4308.4563,N,07726.3667,W,1,04,10.98,176.5,M,-34.4,M,,*6F
lng=-77.439445, lat=43.140926, altitude=176.60, speed=16.22, satellites=4, angle=7.5500, fixquality=1
$GPRMC,134101.000,A,4308.4571,N,07726.3665,W,14.68,8.45,100519,,,A*4E
$GPGGA,134101.250,4308.4578,N,07726.3663,W,1,04,10.99,176.4,M,-34.4,M,,*65
lng=-77.439445, lat=43.140949, altitude=176.50, speed=14.68, satellites=4, angle=8.4500, fixquality=1
$GPRMC,134101.500,A,4308.4584,N,07726.3662,W,13.39,8.41,100519,,,A*41
$GPGGA,134101.750,4308.4589,N,07726.3661,W,1,04,11.00,176.4,M,-34.4,M,,*6D
lng=-77.439437, lat=43.140975, altitude=176.40, speed=13.39, satellites=4, angle=8.4100, fixquality=1
$GPRMC,134102.000,A,4308.4593,N,07726.3660,W,11.84,8.66,100519,,,A*42
$GPGGA,134102.250,4308.4596,N,07726.3659,W,1,04,10.99,176.2,M,-34.4,M,,*69
lng=-77.439437, lat=43.140991, altitude=176.40, speed=11.84, satellites=4, angle=8.6600, fixquality=1
$GPRMC,134102.500,A,4308.4599,N,07726.3658,W,10.17,9.17,100519,,,A*4A
$GPGGA,134102.750,4308.4603,N,07726.3657,W,1,04,11.01,176.2,M,-34.4,M,,*6D
lng=-77.439430, lat=43.140998, altitude=176.20, speed=10.17, satellites=4, angle=9.1700, fixquality=1
$GPRMC,134103.000,A,4308.4605,N,07726.3655,W,9.01,10.67,100519,,,A*45
$GPGGA,134103.250,4308.4608,N,07726.3654,W,1,04,11.03,176.3,M,-34.4,M,,*62
lng=-77.439430, lat=43.141006, altitude=176.20, speed=9.01, satellites=4, angle=10.6700, fixquality=1
$GPRMC,134103.500,A,4308.4589,N,07726.3661,W,5.29,9.06,100519,,,A*79
$GPGGA,134103.750,4308.4589,N,07726.3656,W,1,04,11.02,175.1,M,-34.4,M,,*6F
lng=-77.439437, lat=43.140983, altitude=176.30, speed=5.29, satellites=4, angle=9.0600, fixquality=1
$GPRMC,134104.000,A,4308.4589,N,07726.3652,W,5.94,1.81,100519,,,A*7A
$GPGGA,134104.250,4308.4588,N,07726.3647,W,1,04,11.04,171.3,M,-34.4,M,,*6C
lng=-77.439422, lat=43.140983, altitude=175.10, speed=5.94, satellites=4, angle=1.8100, fixquality=1
$GPRMC,134104.500,A,4308.4589,N,07726.3645,W,5.97,357.21,100519,,,A*70
$GPGGA,134104.750,4308.4591,N,07726.3644,W,1,04,11.05,169.6,M,-34.4,M,,*6F
lng=-77.439407, lat=43.140983, altitude=171.30, speed=5.97, satellites=4, angle=357.2100, fixquality=1
$GPRMC,134105.000,A,4308.4594,N,07726.3645,W,5.76,349.94,100519,,,A*76
$GPGGA,134105.250,4308.4597,N,07726.3646,W,1,04,11.06,169.0,M,-34.4,M,,*6A
lng=-77.439407, lat=43.140991, altitude=169.60, speed=5.76, satellites=4, angle=349.9400, fixquality=1
$GPRMC,134105.500,A,4308.4600,N,07726.3648,W,5.96,344.88,100519,,,A*7E
$GPGGA,134105.750,4308.4604,N,07726.3651,W,1,04,2.77,168.6,M,-34.4,M,,*53
lng=-77.439414, lat=43.140998, altitude=169.00, speed=5.96, satellites=4, angle=344.8800, fixquality=1
$GPRMC,134106.000,A,4308.4608,N,07726.3654,W,6.97,338.53,100519,,,A*72
$GPGGA,134106.250,4308.4614,N,07726.3658,W,1,04,2.77,168.4,M,-34.4,M,,*5F
lng=-77.439422, lat=43.141014, altitude=168.60, speed=6.97, satellites=4, angle=338.5300, fixquality=1
$GPRMC,134106.500,A,4308.4620,N,07726.3666,W,8.76,328.31,100519,,,A*78
$GPGGA,134106.750,4308.4625,N,07726.3675,W,1,04,2.77,168.2,M,-34.4,M,,*51
lng=-77.439445, lat=43.141033, altitude=168.40, speed=8.76, satellites=4, angle=328.3100, fixquality=1
$GPRMC,134107.000,A,4308.4630,N,07726.3684,W,9.92,313.49,100519,,,A*7D
$GPGGA,134107.250,4308.4636,N,07726.3696,W,1,04,2.77,168.4,M,-34.4,M,,*5C
lng=-77.439468, lat=43.141048, altitude=168.20, speed=9.92, satellites=4, angle=313.4900, fixquality=1
$GPRMC,134107.500,A,4308.4641,N,07726.3707,W,12.24,306.34,100519,,,A*4D
$GPGGA,134107.750,4308.4646,N,07726.3719,W,1,04,2.77,168.6,M,-34.4,M,,*5A
lng=-77.439506, lat=43.141063, altitude=168.40, speed=12.24, satellites=4, angle=306.3400, fixquality=1
$GPRMC,134108.000,A,4308.4650,N,07726.3732,W,14.03,301.43,100519,,,A*45
$GPGGA,134108.250,4308.4654,N,07726.3744,W,1,04,2.77,168.6,M,-34.4,M,,*5B
lng=-77.439552, lat=43.141078, altitude=168.60, speed=14.03, satellites=4, angle=301.4300, fixquality=1
$GPRMC,134108.500,A,4308.4657,N,07726.3757,W,14.83,297.96,100519,,,A*4A
$GPGGA,134108.750,4308.4660,N,07726.3772,W,1,04,2.77,168.6,M,-34.4,M,,*5C
lng=-77.439590, lat=43.141098, altitude=168.60, speed=14.83, satellites=4, angle=297.9600, fixquality=1
$GPRMC,134109.000,A,4308.4663,N,07726.3786,W,15.58,293.83,100519,,,A*42
$GPGGA,134109.250,4308.4666,N,07726.3802,W,1,04,2.77,168.6,M,-34.4,M,,*56
lng=-77.439643, lat=43.141105, altitude=168.60, speed=15.58, satellites=4, angle=293.8300, fixquality=1
$GPRMC,134109.500,A,4308.4667,N,07726.3817,W,16.27,290.74,100519,,,A*44
$GPGGA,134109.750,4308.4670,N,07726.3833,W,1,04,2.77,168.6,M,-34.4,M,,*56
lng=-77.439697, lat=43.141113, altitude=168.60, speed=16.27, satellites=4, angle=290.7400, fixquality=1
$GPRMC,134110.000,A,4308.4671,N,07726.3850,W,16.78,287.81,100519,,,A*4B
$GPGGA,134110.250,4308.4672,N,07726.3866,W,1,04,2.77,168.6,M,-34.4,M,,*59
lng=-77.439743, lat=43.141120, altitude=168.60, speed=16.78, satellites=4, angle=287.8100, fixquality=1
$GPRMC,134110.500,A,4308.4673,N,07726.3883,W,17.13,284.65,100519,,,A*47
$GPGGA,134110.750,4308.4675,N,07726.3900,W,1,04,2.77,168.6,M,-34.4,M,,*5A
lng=-77.439804, lat=43.141120, altitude=168.60, speed=17.13, satellites=4, angle=284.6500, fixquality=1
$GPRMC,134111.000,A,4308.4676,N,07726.3917,W,17.61,283.17,100519,,,A*4D
$GPGGA,134111.250,4308.4677,N,07726.3934,W,1,04,2.77,168.5,M,-34.4,M,,*58
lng=-77.439857, lat=43.141128, altitude=168.60, speed=17.61, satellites=4, angle=283.1700, fixquality=1
$GPRMC,134111.500,A,4308.4677,N,07726.3951,W,17.74,282.29,100519,,,A*43
$GPGGA,134111.750,4308.4678,N,07726.3968,W,1,04,2.77,168.2,M,-34.4,M,,*5C
lng=-77.439918, lat=43.141128, altitude=168.50, speed=17.74, satellites=4, angle=282.2900, fixquality=1
$GPRMC,134112.000,A,4308.4679,N,07726.3984,W,17.81,282.06,100519,,,A*44
$GPGGA,134112.250,4308.4679,N,07726.4001,W,1,04,2.77,168.0,M,-34.4,M,,*58
lng=-77.439971, lat=43.141128, altitude=168.20, speed=17.81, satellites=4, angle=282.0600, fixquality=1
$GPRMC,134112.500,A,4308.4681,N,07726.4017,W,17.75,281.86,100519,,,A*42
$GPGGA,134112.750,4308.4683,N,07726.4033,W,1,04,2.77,168.0,M,-34.4,M,,*59
lng=-77.440032, lat=43.141136, altitude=168.00, speed=17.75, satellites=4, angle=281.8600, fixquality=1
$GPRMC,134113.000,A,4308.4684,N,07726.4049,W,17.23,282.27,100519,,,A*43
$GPGGA,134113.250,4308.4686,N,07726.4066,W,1,04,2.77,168.0,M,-34.4,M,,*58
lng=-77.440078, lat=43.141136, altitude=168.00, speed=17.23, satellites=4, angle=282.2700, fixquality=1
$GPRMC,134113.500,A,4308.4686,N,07726.4082,W,17.09,281.59,100519,,,A*41
$GPGGA,134113.750,4308.4687,N,07726.4098,W,1,04,2.77,167.8,M,-34.4,M,,*5A
lng=-77.440139, lat=43.141147, altitude=168.00, speed=17.09, satellites=4, angle=281.5900, fixquality=1
$GPRMC,134114.000,A,4308.4688,N,07726.4115,W,17.09,280.71,100519,,,A*49
$GPGGA,134114.250,4308.4688,N,07726.4131,W,1,04,2.77,167.5,M,-34.4,M,,*58
lng=-77.440193, lat=43.141147, altitude=167.80, speed=17.09, satellites=4, angle=280.7100, fixquality=1
$GPRMC,134114.500,A,4308.4689,N,07726.4147,W,17.04,279.34,100519,,,A*40
$GPGGA,134114.750,4308.4689,N,07726.4163,W,1,04,2.77,167.4,M,-34.4,M,,*5A
lng=-77.440238, lat=43.141147, altitude=167.50, speed=17.04, satellites=4, angle=279.3400, fixquality=1
$GPRMC,134115.000,A,4308.4689,N,07726.4179,W,16.72,278.14,100519,,,A*4A
$GPGGA,134115.250,4308.4690,N,07726.4195,W,1,04,2.77,167.3,M,-34.4,M,,*58
lng=-77.440299, lat=43.141147, altitude=167.40, speed=16.72, satellites=4, angle=278.1400, fixquality=1
$GPRMC,134115.500,A,4308.4690,N,07726.4211,W,16.67,277.27,100519,,,A*41
$GPGGA,134115.750,4308.4690,N,07726.4227,W,1,04,2.77,167.3,M,-34.4,M,,*57
lng=-77.440345, lat=43.141155, altitude=167.30, speed=16.67, satellites=4, angle=277.2700, fixquality=1
$GPRMC,134116.000,A,4308.4691,N,07726.4243,W,16.60,276.90,100519,,,A*4B
$GPGGA,134116.250,4308.4691,N,07726.4259,W,1,04,2.77,167.2,M,-34.4,M,,*58
lng=-77.440406, lat=43.141155, altitude=167.30, speed=16.60, satellites=4, angle=276.9000, fixquality=1
$GPRMC,134116.500,A,4308.4691,N,07726.4275,W,16.53,277.18,100519,,,A*4A
$GPGGA,134116.750,4308.4691,N,07726.4291,W,1,04,2.77,167.2,M,-34.4,M,,*59
lng=-77.440460, lat=43.141155, altitude=167.20, speed=16.53, satellites=4, angle=277.1800, fixquality=1
$GPRMC,134117.000,A,4308.4692,N,07726.4306,W,16.12,277.13,100519,,,A*46
$GPGGA,134117.250,4308.4693,N,07726.4321,W,1,04,2.77,167.3,M,-34.4,M,,*54
lng=-77.440513, lat=43.141155, altitude=167.20, speed=16.12, satellites=4, angle=277.1300, fixquality=1
$GPRMC,134117.500,A,4308.4693,N,07726.4336,W,15.51,276.56,100519,,,A*45
$GPGGA,134117.750,4308.4694,N,07726.4349,W,1,04,2.77,167.4,M,-34.4,M,,*5F
lng=-77.440559, lat=43.141155, altitude=167.30, speed=15.51, satellites=4, angle=276.5600, fixquality=1
$GPRMC,134118.000,A,4308.4694,N,07726.4361,W,13.99,276.09,100519,,,A*42
$GPGGA,134118.250,4308.4694,N,07726.4373,W,1,04,2.77,167.3,M,-34.4,M,,*5B
lng=-77.440597, lat=43.141155, altitude=167.40, speed=13.99, satellites=4, angle=276.0900, fixquality=1
$GPRMC,134118.500,A,4308.4695,N,07726.4383,W,12.06,275.56,100519,,,A*44
$GPGGA,134118.750,4308.4695,N,07726.4392,W,1,04,2.77,167.3,M,-34.4,M,,*50
lng=-77.440643, lat=43.141162, altitude=167.30, speed=12.06, satellites=4, angle=275.5600, fixquality=1
$GPRMC,134119.000,A,4308.4694,N,07726.4401,W,9.93,273.68,100519,,,A*71
$GPGGA,134119.250,4308.4694,N,07726.4409,W,1,04,2.77,167.3,M,-34.4,M,,*50
lng=-77.440666, lat=43.141155, altitude=167.30, speed=9.93, satellites=4, angle=273.6800, fixquality=1
$GPRMC,134119.500,A,4308.4693,N,07726.4415,W,8.04,271.90,100519,,,A*7C
$GPGGA,134119.750,4308.4693,N,07726.4420,W,1,04,2.77,167.1,M,-34.4,M,,*5B
lng=-77.440689, lat=43.141155, altitude=167.30, speed=8.04, satellites=4, angle=271.9000, fixquality=1
$GPRMC,134120.000,A,4308.4691,N,07726.4424,W,5.52,264.57,100519,,,A*72
$GPGGA,134120.250,4308.4690,N,07726.4427,W,1,04,2.77,167.1,M,-34.4,M,,*50
lng=-77.440704, lat=43.141155, altitude=167.10, speed=5.52, satellites=4, angle=264.5700, fixquality=1
$GPRMC,134120.500,A,4308.4689,N,07726.4429,W,3.57,255.14,100519,,,A*75
$GPGGA,134120.750,4308.4689,N,07726.4430,W,1,04,2.77,167.1,M,-34.4,M,,*5B
lng=-77.440711, lat=43.141147, altitude=167.10, speed=3.57, satellites=4, angle=255.1400, fixquality=1
$GPRMC,134121.000,A,4308.4689,N,07726.4430,W,1.57,255.14,100519,,,A*7B
$GPGGA,134121.250,4308.4688,N,07726.4429,W,1,04,2.77,167.0,M,-34.4,M,,*57
lng=-77.440711, lat=43.141147, altitude=167.10, speed=1.57, satellites=4, angle=255.1400, fixquality=1
$GPRMC,134121.500,A,4308.4687,N,07726.4429,W,1.01,255.14,100519,,,A*7B
$GPGGA,134121.750,4308.4686,N,07726.4428,W,1,04,2.77,166.7,M,-34.4,M,,*5B
lng=-77.440711, lat=43.141147, altitude=167.00, speed=1.01, satellites=4, angle=255.1400, fixquality=1
$GPRMC,134122.000,A,4308.4684,N,07726.4427,W,0.98,255.14,100519,,,A*71
$GPGGA,134122.250,4308.4682,N,07726.4425,W,1,04,2.77,166.2,M,-34.4,M,,*51
lng=-77.440711, lat=43.141136, altitude=166.70, speed=0.98, satellites=4, angle=255.1400, fixquality=1
$GPRMC,134122.500,A,4308.4680,N,07726.4424,W,1.09,255.14,100519,,,A*7A
$GPGGA,134122.750,4308.4677,N,07726.4423,W,1,04,2.77,165.5,M,-34.4,M,,*5C
lng=-77.440704, lat=43.141128, altitude=166.20, speed=1.09, satellites=4, angle=255.1400, fixquality=1
$GPRMC,134123.000,A,4308.4675,N,07726.4422,W,1.15,255.14,100519,,,A*7F
$GPGGA,134123.250,4308.4673,N,07726.4421,W,1,04,2.77,164.5,M,-34.4,M,,*5F
lng=-77.440704, lat=43.141120, altitude=165.50, speed=1.15, satellites=4, angle=255.1400, fixquality=1
$GPRMC,134123.500,A,4308.4670,N,07726.4422,W,0.98,255.14,100519,,,A*7B
$GPGGA,134123.750,4308.4667,N,07726.4421,W,1,04,2.77,163.8,M,-34.4,M,,*55
lng=-77.440704, lat=43.141113, altitude=164.50, speed=0.98, satellites=4, angle=255.1400, fixquality=1
$GPRMC,134124.000,A,4308.4665,N,07726.4421,W,0.92,255.14,100519,,,A*74
$GPGGA,134124.250,4308.4663,N,07726.4421,W,1,04,2.77,162.8,M,-34.4,M,,*52
lng=-77.440696, lat=43.141105, altitude=163.80, speed=0.92, satellites=4, angle=255.1400, fixquality=1
$GPRMC,134128.500,A,4308.4662,N,07726.4421,W,1.14,255.14,100519,,,A*75
$GPGGA,134128.750,4308.4662,N,07726.4423,W,1,04,2.77,162.9,M,-34.4,M,,*59
lng=-77.440696, lat=43.141105, altitude=162.90, speed=1.14, satellites=4, angle=255.1400, fixquality=1
$GPRMC,134129.000,A,4308.4662,N,07726.4424,W,1.39,255.14,100519,,,A*7B
$GPGGA,134129.250,4308.4662,N,07726.4425,W,1,04,2.77,163.0,M,-34.4,M,,*53
lng=-77.440704, lat=43.141105, altitude=162.90, speed=1.39, satellites=4, angle=255.1400, fixquality=1
$GPRMC,134129.500,A,4308.4662,N,07726.4426,W,1.60,255.14,100519,,,A*70
$GPGGA,134129.750,4308.4662,N,07726.4428,W,1,04,2.77,163.0,M,-34.4,M,,*5B
lng=-77.440704, lat=43.141105, altitude=163.00, speed=1.60, satellites=4, angle=255.1400, fixquality=1
$GPRMC,134130.000,A,4308.4663,N,07726.4429,W,1.26,255.14,100519,,,A*71
$GPGGA,134130.250,4308.4662,N,07726.4430,W,1,05,2.59,162.8,M,-34.4,M,,*5B
lng=-77.440711, lat=43.141105, altitude=163.00, speed=1.26, satellites=4, angle=255.1400, fixquality=1
$GPRMC,134130.500,A,4308.4661,N,07726.4423,W,0.61,255.14,100519,,,A*7E
$GPGGA,134130.750,4308.4660,N,07726.4418,W,1,05,2.59,160.2,M,-34.4,M,,*5E
lng=-77.440704, lat=43.141105, altitude=162.80, speed=0.61, satellites=5, angle=255.1400, fixquality=1
$GPRMC,134131.000,A,4308.4659,N,07726.4414,W,0.05,255.14,100519,,,A*77
$GPGGA,134131.250,4308.4657,N,07726.4411,W,1,05,2.59,158.0,M,-34.4,M,,*5E
lng=-77.440689, lat=43.141098, altitude=160.20, speed=0.05, satellites=5, angle=255.1400, fixquality=1
$GPRMC,134131.500,A,4308.4657,N,07726.4411,W,0.02,255.14,100519,,,A*7E
$GPGGA,134131.750,4308.4657,N,07726.4411,W,1,05,2.59,157.9,M,-34.4,M,,*5D
lng=-77.440681, lat=43.141098, altitude=158.00, speed=0.02, satellites=5, angle=255.1400, fixquality=1
$GPGGA,134139.750,4308.4655,N,07726.4411,W,1,05,2.59,157.7,M,-34.4,M,,*59
$GPRMC,134139.750,A,4308.4655,N,07726.4411,W,0.05,255.14,100519,,,A*74
lng=-77.440681, lat=43.141090, altitude=157.70, speed=0.10, satellites=5, angle=255.1400, fixquality=1
$GPGGA,134154.750,4308.4656,N,07726.4410,W,1,06,1.35,157.7,M,-34.4,M,,*5A
$GPRMC,134154.750,A,4308.4656,N,07726.4410,W,0.01,255.14,10051
lng=-77.440681, lat=43.141098, altitude=157.70, speed=0.01, satellites=6, angle=255.1400, fixquality=1
$GPRMC,134212.750,A,4308.4656,N,07726.4410,W,0.85,255.14,100519,,,A*74
$GPGGA,134213.000,4308.4656,N,07726.4410,W,1,08,1.00,157.7,M,-34.4,M,,*50
lng=-77.440681, lat=43.141098, altitude=157.70, speed=0.85, satellites=8, angle=255.1400, fixquality=1
$GPRMC,134213.250,A,4308.4656,N,07726.4411,W,1.06,282.00,100519,,,A*74
$GPGGA,134213.500,4308.4657,N,07726.4412,W,1,08,0.99,157.7,M,-34.4,M,,*57
lng=-77.440681, lat=43.141098, altitude=157.70, speed=1.06, satellites=8, angle=282.0000, fixquality=1
$GPRMC,134213.750,A,4308.4657,N,07726.4413,W,1.55,282.00,100519,,,A*74
$GPGGA,134214.000,4308.4657,N,07726.4415,W,1,08,0.99,157.7,M,-34.4,M,,*52
lng=-77.440689, lat=43.141098, altitude=157.70, speed=1.55, satellites=8, angle=282.0000, fixquality=1
$GPRMC,134214.250,A,4308.4658,N,07726.4416,W,2.64,277.99,100519,,,A*77
$GPGGA,134214.500,4308.4658,N,07726.4419,W,1,08,1.00,157.7,M,-34.4,M,,*55
lng=-77.440689, lat=43.141098, altitude=157.70, speed=2.64, satellites=8, angle=277.9900, fixquality=1
$GPRMC,134214.750,A,4308.4659,N,07726.4422,W,4.20,278.30,100519,,,A*7E
$GPGGA,134215.000,4308.4660,N,07726.4426,W,1,08,1.09,157.7,M,-34.4,M,,*5F
lng=-77.440704, lat=43.141098, altitude=157.70, speed=4.20, satellites=8, angle=278.3000, fixquality=1
$GPRMC,134215.250,A,4308.4661,N,07726.4430,W,5.85,280.28,100519,,,A*72
$GPGGA,134215.500,4308.4662,N,07726.4436,W,1,08,1.09,157.6,M,-34.4,M,,*58
lng=-77.440711, lat=43.141105, altitude=157.70, speed=5.85, satellites=8, angle=280.2800, fixquality=1
$GPRMC,134215.750,A,4308.4664,N,07726.4442,W,7.29,280.06,100519,,,A*7F
$GPGGA,134216.000,4308.4665,N,07726.4448,W,1,08,1.09,157.6,M,-34.4,M,,*50
lng=-77.440742, lat=43.141105, altitude=157.60, speed=7.29, satellites=8, angle=280.0600, fixquality=1
$GPRMC,134216.250,A,4308.4667,N,07726.4456,W,8.76,277.48,100519,,,A*78
$GPGGA,134216.500,4308.4668,N,07726.4464,W,1,08,1.09,157.6,M,-34.4,M,,*56
lng=-77.440765, lat=43.141113, altitude=157.60, speed=8.76, satellites=8, angle=277.4800, fixquality=1
$GPRMC,134216.750,A,4308.4669,N,07726.4472,W,9.95,278.69,100519,,,A*75
$GPGGA,134217.000,4308.4670,N,07726.4482,W,1,08,1.09,157.6,M,-34.4,M,,*53
lng=-77.440788, lat=43.141113, altitude=157.60, speed=9.95, satellites=8, angle=278.6900, fixquality=1
$GPRMC,134217.250,A,4308.4672,N,07726.4492,W,11.20,278.56,100519,,,A*4E
$GPGGA,134217.500,4308.4673,N,07726.4502,W,1,08,1.09,157.6,M,-34.4,M,,*5C
lng=-77.440818, lat=43.141120, altitude=157.60, speed=11.20, satellites=8, angle=278.5600, fixquality=1
$GPRMC,134217.750,A,4308.4674,N,07726.4513,W,12.25,278.50,100519,,,A*45
$GPGGA,134218.000,4308.4675,N,07726.4524,W,1,08,1.09,157.7,M,-34.4,M,,*55
lng=-77.440849, lat=43.141120, altitude=157.60, speed=12.25, satellites=8, angle=278.5000, fixquality=1
$GPRMC,134218.250,A,4308.4677,N,07726.4536,W,13.54,276.56,100519,,,A*44
$GPGGA,134218.500,4308.4678,N,07726.4549,W,1,08,1.09,157.7,M,-34.4,M,,*56
lng=-77.440895, lat=43.141128, altitude=157.70, speed=13.54, satellites=8, angle=276.5600, fixquality=1
$GPRMC,134218.750,A,4308.4680,N,07726.4563,W,14.40,277.14,100519,,,A*4C
$GPGGA,134219.000,4308.4681,N,07726.4576,W,1,08,1.09,157.6,M,-34.4,M,,*59
lng=-77.440933, lat=43.141128, altitude=157.70, speed=14.40, satellites=8, angle=277.1400, fixquality=1
$GPRMC,134219.250,A,4308.4683,N,07726.4591,W,15.53,276.98,100519,,,A*40
$GPGGA,134219.500,4308.4684,N,07726.4606,W,1,08,1.00,157.5,M,-34.4,M,,*57
lng=-77.440986, lat=43.141136, altitude=157.60, speed=15.53, satellites=8, angle=276.9800, fixquality=1
$GPRMC,134219.750,A,4308.4686,N,07726.4622,W,16.91,277.72,100519,,,A*43
$GPGGA,134220.000,4308.4689,N,07726.4639,W,1,08,1.09,157.5,M,-34.4,M,,*50
lng=-77.441040, lat=43.141147, altitude=157.50, speed=16.91, satellites=8, angle=277.7200, fixquality=1
$GPRMC,134220.250,A,4308.4692,N,07726.4656,W,18.83,280.01,100519,,,A*4B
$GPGGA,134220.500,4308.4695,N,07726.4673,W,1,08,0.99,157.4,M,-34.4,M,,*5F
lng=-77.441093, lat=43.141155, altitude=157.50, speed=18.83, satellites=8, angle=280.0100, fixquality=1
$GPRMC,134220.750,A,4308.4697,N,07726.4692,W,20.32,279.54,100519,,,A*44
$GPGGA,134221.000,4308.4700,N,07726.4711,W,1,08,1.09,157.5,M,-34.4,M,,*5A
lng=-77.441154, lat=43.141162, altitude=157.40, speed=20.32, satellites=8, angle=279.5400, fixquality=1
$GPRMC,134221.250,A,4308.4702,N,07726.4731,W,21.94,279.00,100519,,,A*49
$GPGGA,134221.500,4308.4704,N,07726.4751,W,1,08,0.99,157.5,M,-34.4,M,,*57
lng=-77.441215, lat=43.141170, altitude=157.50, speed=21.94, satellites=8, angle=279.0000, fixquality=1
$GPRMC,134221.750,A,4308.4707,N,07726.4773,W,23.71,279.13,100519,,,A*44
$GPGGA,134222.000,4308.4710,N,07726.4795,W,1,08,1.00,157.5,M,-34.4,M,,*5D
lng=-77.441291, lat=43.141178, altitude=157.50, speed=23.71, satellites=8, angle=279.1300, fixquality=1
$GPRMC,134222.250,A,4308.4714,N,07726.4819,W,25.23,280.25,100519,,,A*41
$GPGGA,134222.500,4308.4717,N,07726.4843,W,1,08,1.00,157.6,M,-34.4,M,,*58
lng=-77.441368, lat=43.141185, altitude=157.50, speed=25.23, satellites=8, angle=280.2500, fixquality=1
$GPRMC,134222.750,A,4308.4720,N,07726.4868,W,26.53,279.79,100519,,,A*4E
$GPGGA,134223.000,4308.4723,N,07726.4894,W,1,08,1.00,157.7,M,-34.4,M,,*50
lng=-77.441444, lat=43.141201, altitude=157.60, speed=26.53, satellites=8, angle=279.7900, fixquality=1
$GPRMC,134223.250,A,4308.4726,N,07726.4920,W,27.93,279.09,100519,,,A*4B
$GPGGA,134223.500,4308.4729,N,07726.4947,W,1,08,0.99,157.9,M,-34.4,M,,*5F
lng=-77.441535, lat=43.141212, altitude=157.70, speed=27.93, satellites=8, angle=279.0900, fixquality=1
$GPRMC,134223.750,A,4308.4731,N,07726.4974,W,28.97,278.18,100519,,,A*43
$GPGGA,134224.000,4308.4734,N,07726.5002,W,1,08,1.09,158.0,M,-34.4,M,,*56
lng=-77.441627, lat=43.141220, altitude=157.90, speed=28.97, satellites=8, angle=278.1800, fixquality=1
$GPRMC,134224.250,A,4308.4737,N,07726.5030,W,29.98,277.36,100519,,,A*42
$GPGGA,134224.500,4308.4739,N,07726.5059,W,1,08,0.99,158.2,M,-34.4,M,,*5A
lng=-77.441719, lat=43.141227, altitude=158.00, speed=29.98, satellites=8, angle=277.3600, fixquality=1
$GPRMC,134224.750,A,4308.4741,N,07726.5089,W,31.10,276.00,100519,,,A*49
$GPGGA,134225.000,4308.4743,N,07726.5119,W,1,08,1.09,158.3,M,-34.4,M,,*5F
lng=-77.441810, lat=43.141235, altitude=158.20, speed=31.10, satellites=8, angle=276.0000, fixquality=1
$GPRMC,134225.250,A,4308.4746,N,07726.5150,W,32.09,274.61,100519,,,A*41
$GPGGA,134225.500,4308.4748,N,07726.5181,W,1,08,1.00,158.4,M,-34.4,M,,*5E
lng=-77.441917, lat=43.141242, altitude=158.30, speed=32.09, satellites=8, angle=274.6100, fixquality=1
$GPRMC,134225.750,A,4308.4750,N,07726.5212,W,32.69,274.17,100519,,,A*41
$GPGGA,134226.000,4308.4752,N,07726.5244,W,1,08,1.09,158.5,M,-34.4,M,,*51
lng=-77.442016, lat=43.141250, altitude=158.40, speed=32.69, satellites=8, angle=274.1700, fixquality=1
$GPRMC,134226.250,A,4308.4754,N,07726.5276,W,33.12,273.94,100519,,,A*40
$GPGGA,134226.500,4308.4755,N,07726.5308,W,1,08,1.00,158.6,M,-34.4,M,,*50
lng=-77.442131, lat=43.141258, altitude=158.50, speed=33.12, satellites=8, angle=273.9400, fixquality=1
$GPRMC,134226.750,A,4308.4756,N,07726.5340,W,33.43,272.59,100519,,,A*47
$GPGGA,134227.000,4308.4758,N,07726.5373,W,1,08,1.09,158.6,M,-34.4,M,,*5C
lng=-77.442237, lat=43.141258, altitude=158.60, speed=33.43, satellites=8, angle=272.5900, fixquality=1
$GPRMC,134227.250,A,4308.4759,N,07726.5406,W,34.77,272.96,100519,,,A*4A
$GPGGA,134227.500,4308.4761,N,07726.5440,W,1,08,1.00,158.6,M,-34.4,M,,*5D
lng=-77.442344, lat=43.141269, altitude=158.60, speed=34.77, satellites=8, angle=272.9600, fixquality=1
$GPRMC,134227.750,A,4308.4761,N,07726.5474,W,35.08,272.43,100519,,,A*40
$GPGGA,134228.000,4308.4762,N,07726.5508,W,1,08,1.09,158.7,M,-34.4,M,,*51
lng=-77.442459, lat=43.141269, altitude=158.60, speed=35.08, satellites=8, angle=272.4300, fixquality=1
$GPRMC,134228.250,A,4308.4763,N,07726.5542,W,35.76,271.94,100519,,,A*4C
$GPGGA,134228.500,4308.4764,N,07726.5576,W,1,08,1.00,158.8,M,-34.4,M,,*5D
lng=-77.442573, lat=43.141269, altitude=158.70, speed=35.76, satellites=8, angle=271.9400, fixquality=1
$GPRMC,134228.750,A,4308.4764,N,07726.5612,W,36.67,271.70,100519,,,A*41
$GPGGA,134229.000,4308.4765,N,07726.5648,W,1,08,1.09,158.9,M,-34.4,M,,*5E
lng=-77.442680, lat=43.141277, altitude=158.80, speed=36.67, satellites=8, angle=271.7000, fixquality=1
$GPRMC,134229.250,A,4308.4765,N,07726.5684,W,37.51,271.36,100519,,,A*4D
$GPGGA,134229.500,4308.4765,N,07726.5720,W,1,07,1.08,159.0,M,-34.4,M,,*52
lng=-77.442802, lat=43.141277, altitude=158.90, speed=37.51, satellites=8, angle=271.3600, fixquality=1
$GPRMC,134229.750,A,4308.4764,N,07726.5756,W,37.89,270.79,100519,,,A*48
$GPGGA,134230.000,4308.4765,N,07726.5793,W,1,08,1.09,159.1,M,-34.4,M,,*58
lng=-77.442924, lat=43.141277, altitude=159.00, speed=37.89, satellites=7, angle=270.7900, fixquality=1
$GPRMC,134230.250,A,4308.4766,N,07726.5830,W,38.16,271.93,100519,,,A*44
$GPGGA,134230.500,4308.4767,N,07726.5867,W,1,08,1.00,159.3,M,-34.4,M,,*50
lng=-77.443046, lat=43.141277, altitude=159.10, speed=38.16, satellites=8, angle=271.9300, fixquality=1
$GPRMC,134230.750,A,4308.4767,N,07726.5905,W,38.38,271.46,100519,,,A*43
$GPGGA,134231.000,4308.4767,N,07726.5942,W,1,08,1.09,159.5,M,-34.4,M,,*5D
lng=-77.443168, lat=43.141277, altitude=159.30, speed=38.38, satellites=8, angle=271.4600, fixquality=1
$GPRMC,134231.250,A,4308.4768,N,07726.5980,W,39.48,271.85,100519,,,A*4C
$GPGGA,134231.500,4308.4769,N,07726.6018,W,1,08,1.09,159.6,M,-34.4,M,,*50
lng=-77.443305, lat=43.141277, altitude=159.50, speed=39.48, satellites=8, angle=271.8500, fixquality=1
$GPRMC,134231.750,A,4308.4769,N,07726.6057,W,39.99,271.55,100519,,,A*49
$GPGGA,134232.000,4308.4769,N,07726.6096,W,1,08,1.09,159.9,M,-34.4,M,,*5F
lng=-77.443428, lat=43.141284, altitude=159.60, speed=39.99, satellites=8, angle=271.5500, fixquality=1
$GPRMC,134232.250,A,4308.4769,N,07726.6134,W,40.37,270.68,100519,,,A*4E
$GPGGA,134232.500,4308.4769,N,07726.6173,W,1,08,1.09,160.1,M,-34.4,M,,*52
lng=-77.443557, lat=43.141284, altitude=159.90, speed=40.37, satellites=8, angle=270.6800, fixquality=1
$GPRMC,134232.750,A,4308.4768,N,07726.6212,W,40.75,269.81,100519,,,A*44
$GPGGA,134233.000,4308.4767,N,07726.6252,W,1,07,1.68,160.4,M,-34.4,M,,*55
lng=-77.443687, lat=43.141277, altitude=160.10, speed=40.75, satellites=8, angle=269.8100, fixquality=1
$GPRMC,134233.250,A,4308.4767,N,07726.6291,W,40.99,269.32,100519,,,A*4E
$GPGGA,134233.500,4308.4766,N,07726.6331,W,1,08,1.09,160.7,M,-34.4,M,,*5E
lng=-77.443817, lat=43.141277, altitude=160.40, speed=40.99, satellites=7, angle=269.3200, fixquality=1
$GPRMC,134233.750,A,4308.4765,N,07726.6371,W,41.18,268.63,100519,,,A*4B
$GPGGA,134234.000,4308.4765,N,07726.6412,W,1,07,1.12,160.9,M,-34.4,M,,*52
lng=-77.443954, lat=43.141277, altitude=160.70, speed=41.18, satellites=8, angle=268.6300, fixquality=1
$GPRMC,134234.250,A,4308.4764,N,07726.6453,W,42.42,267.81,100519,,,A*40
$GPGGA,134234.500,4308.4762,N,07726.6494,W,1,07,1.08,161.2,M,-34.4,M,,*5F
lng=-77.444091, lat=43.141277, altitude=160.90, speed=42.42, satellites=7, angle=267.8100, fixquality=1
$GPRMC,134234.750,A,4308.4761,N,07726.6535,W,42.85,267.38,100519,,,A*48
$GPGGA,134235.000,4308.4760,N,07726.6577,W,1,07,1.12,161.4,M,-34.4,M,,*58
lng=-77.444221, lat=43.141269, altitude=161.20, speed=42.85, satellites=7, angle=267.3800, fixquality=1
$GPRMC,134235.250,A,4308.4758,N,07726.6619,W,43.26,266.99,100519,,,A*49
$GPGGA,134235.500,4308.4757,N,07726.6661,W,1,07,1.08,161.6,M,-34.4,M,,*54
lng=-77.444366, lat=43.141258, altitude=161.40, speed=43.26, satellites=7, angle=266.9900, fixquality=1
$GPRMC,134235.750,A,4308.4755,N,07726.6703,W,43.50,266.53,100519,,,A*4C
$GPGGA,134236.000,4308.4754,N,07726.6746,W,1,07,1.12,161.8,M,-34.4,M,,*50
lng=-77.444503, lat=43.141258, altitude=161.60, speed=43.50, satellites=7, angle=266.5300, fixquality=1
$GPRMC,134236.250,A,4308.4752,N,07726.6788,W,43.73,266.36,100519,,,A*4C
$GPGGA,134236.500,4308.4750,N,07726.6830,W,1,07,1.08,162.0,M,-34.4,M,,*5F
lng=-77.444648, lat=43.141250, altitude=161.80, speed=43.73, satellites=7, angle=266.3600, fixquality=1
$GPRMC,134236.750,A,4308.4749,N,07726.6872,W,43.92,266.20,100519,,,A*41
$GPGGA,134237.000,4308.4747,N,07726.6914,W,1,07,1.12,162.2,M,-34.4,M,,*53
lng=-77.444786, lat=43.141250, altitude=162.00, speed=43.92, satellites=7, angle=266.2000, fixquality=1
$GPRMC,134237.250,A,4308.4745,N,07726.6955,W,43.94,266.30,100519,,,A*4A
$GPGGA,134237.500,4308.4743,N,07726.6996,W,1,07,1.08,162.6,M,-34.4,M,,*57
lng=-77.444923, lat=43.141242, altitude=162.20, speed=43.94, satellites=7, angle=266.3000, fixquality=1
$GPRMC,134237.750,A,4308.4742,N,07726.7037,W,43.85,266.50,100519,,,A*42
$GPGGA,134238.000,4308.4740,N,07726.7077,W,1,07,1.08,162.9,M,-34.4,M,,*56
lng=-77.445060, lat=43.141235, altitude=162.60, speed=43.85, satellites=7, angle=266.5000, fixquality=1
$GPRMC,134238.250,A,4308.4737,N,07726.7118,W,43.06,266.17,100519,,,A*4E
$GPGGA,134238.500,4308.4735,N,07726.7159,W,1,07,1.08,163.2,M,-34.4,M,,*56
lng=-77.445198, lat=43.141227, altitude=162.90, speed=43.06, satellites=7, angle=266.1700, fixquality=1
$GPRMC,134238.750,A,4308.4733,N,07726.7199,W,42.83,265.79,100519,,,A*41
$GPGGA,134239.000,4308.4730,N,07726.7240,W,1,07,1.12,163.5,M,-34.4,M,,*50
lng=-77.445327, lat=43.141220, altitude=163.20, speed=42.83, satellites=7, angle=265.7900, fixquality=1
$GPRMC,134239.250,A,4308.4728,N,07726.7280,W,42.60,265.48,100519,,,A*4B
$GPGGA,134239.500,4308.4725,N,07726.7320,W,1,07,1.08,163.8,M,-34.4,M,,*50
lng=-77.445465, lat=43.141212, altitude=163.50, speed=42.60, satellites=7, angle=265.4800, fixquality=1
$GPRMC,134239.750,A,4308.4722,N,07726.7361,W,42.69,265.14,100519,,,A*4A
$GPGGA,134240.000,4308.4719,N,07726.7401,W,1,07,1.12,164.2,M,-34.4,M,,*56
lng=-77.445602, lat=43.141201, altitude=163.80, speed=42.69, satellites=7, angle=265.1400, fixquality=1
$GPRMC,134240.250,A,4308.4716,N,07726.7441,W,42.44,264.97,100519,,,A*46
$GPGGA,134240.500,4308.4714,N,07726.7481,W,1,07,1.08,164.7,M,-34.4,M,,*58
lng=-77.445732, lat=43.141193, altitude=164.20, speed=42.44, satellites=7, angle=264.9700, fixquality=1
$GPRMC,134240.750,A,4308.4711,N,07726.7521,W,42.01,265.31,100519,,,A*4F
$GPGGA,134241.000,4308.4709,N,07726.7561,W,1,07,1.12,165.1,M,-34.4,M,,*53
lng=-77.445869, lat=43.141185, altitude=164.70, speed=42.01, satellites=7, angle=265.3100, fixquality=1
$GPRMC,134241.250,A,4308.4707,N,07726.7601,W,41.95,265.71,100519,,,A*47
$GPGGA,134241.500,4308.4707,N,07726.7641,W,1,07,1.08,165.1,M,-34.4,M,,*52
lng=-77.446006, lat=43.141178, altitude=165.10, speed=41.95, satellites=7, angle=265.7100, fixquality=1
$GPRMC,134241.750,A,4308.4705,N,07726.7680,W,41.73,266.28,100519,,,A*4E
$GPGGA,134242.000,4308.4703,N,07726.7720,W,1,07,1.08,165.5,M,-34.4,M,,*52
lng=-77.446136, lat=43.141178, altitude=165.10, speed=41.73, satellites=7, angle=266.2800, fixquality=1
$GPRMC,134242.250,A,4308.4701,N,07726.7760,W,41.72,266.16,100519,,,A*4F
$GPGGA,134242.500,4308.4699,N,07726.7799,W,1,07,1.08,165.9,M,-34.4,M,,*5B
lng=-77.446266, lat=43.141170, altitude=165.50, speed=41.72, satellites=7, angle=266.1600, fixquality=1
$GPRMC,134242.750,A,4308.4696,N,07726.7838,W,41.51,265.54,100519,,,A*43
$GPGGA,134243.000,4308.4694,N,07726.7877,W,1,07,1.08,166.3,M,-34.4,M,,*54
lng=-77.446395, lat=43.141162, altitude=165.90, speed=41.51, satellites=7, angle=265.5400, fixquality=1
$GPRMC,134243.250,A,4308.4692,N,07726.7917,W,41.52,265.24,100519,,,A*4B
$GPGGA,134243.500,4308.4690,N,07726.7957,W,1,07,1.08,166.6,M,-34.4,M,,*53
lng=-77.446525, lat=43.141155, altitude=166.30, speed=41.52, satellites=7, angle=265.2400, fixquality=1
$GPRMC,134243.750,A,4308.4688,N,07726.7996,W,41.44,264.75,100519,,,A*4E
$GPGGA,134244.000,4308.4685,N,07726.8035,W,1,07,1.12,166.8,M,-34.4,M,,*52
lng=-77.446662, lat=43.141147, altitude=166.60, speed=41.44, satellites=7, angle=264.7500, fixquality=1
$GPRMC,134244.250,A,4308.4683,N,07726.8075,W,41.38,264.48,100519,,,A*49
$GPGGA,134244.500,4308.4680,N,07726.8114,W,1,07,1.08,167.0,M,-34.4,M,,*52
lng=-77.446792, lat=43.141136, altitude=166.80, speed=41.38, satellites=7, angle=264.4800, fixquality=1
$GPRMC,134244.750,A,4308.4678,N,07726.8153,W,41.27,264.13,100519,,,A*4D
$GPGGA,134245.000,4308.4675,N,07726.8192,W,1,07,1.12,167.2,M,-34.4,M,,*5B
lng=-77.446922, lat=43.141128, altitude=167.00, speed=41.27, satellites=7, angle=264.1300, fixquality=1
$GPRMC,134245.250,A,4308.4672,N,07726.8232,W,41.15,263.52,100519,,,A*44
$GPGGA,134245.500,4308.4669,N,07726.8271,W,1,07,1.08,167.3,M,-34.4,M,,*57
lng=-77.447052, lat=43.141120, altitude=167.20, speed=41.15, satellites=7, angle=263.5200, fixquality=1
$GPRMC,134245.750,A,4308.4666,N,07726.8310,W,41.15,263.25,100519,,,A*45
$GPGGA,134246.000,4308.4663,N,07726.8349,W,1,07,1.12,167.4,M,-34.4,M,,*5D
lng=-77.447181, lat=43.141113, altitude=167.30, speed=41.15, satellites=7, angle=263.2500, fixquality=1
$GPRMC,134246.250,A,4308.4660,N,07726.8388,W,41.19,263.21,100519,,,A*4C
$GPGGA,134246.500,4308.4657,N,07726.8427,W,1,08,1.00,167.4,M,-34.4,M,,*5C
lng=-77.447311, lat=43.141098, altitude=167.40, speed=41.19, satellites=7, angle=263.2100, fixquality=1
$GPRMC,134246.750,A,4308.4656,N,07726.8467,W,41.20,264.15,100519,,,A*40
$GPGGA,134247.000,4308.4654,N,07726.8506,W,1,07,1.12,167.3,M,-34.4,M,,*52
lng=-77.447441, lat=43.141098, altitude=167.40, speed=41.20, satellites=8, angle=264.1500, fixquality=1
$GPRMC,134247.250,A,4308.4652,N,07726.8546,W,41.16,264.43,100519,,,A*44
$GPGGA,134247.500,4308.4650,N,07726.8585,W,1,07,1.08,167.3,M,-34.4,M,,*53
lng=-77.447578, lat=43.141090, altitude=167.30, speed=41.16, satellites=7, angle=264.4300, fixquality=1
$GPRMC,134247.750,A,4308.4648,N,07726.8624,W,40.97,263.88,100519,,,A*45
$GPGGA,134248.000,4308.4646,N,07726.8662,W,1,07,1.12,167.3,M,-34.4,M,,*5F
lng=-77.447708, lat=43.141078, altitude=167.30, speed=40.97, satellites=7, angle=263.8800, fixquality=1
$GPRMC,134248.250,A,4308.4643,N,07726.8701,W,40.72,264.15,100519,,,A*4A
$GPGGA,134248.500,4308.4641,N,07726.8740,W,1,07,1.08,167.4,M,-34.4,M,,*50
lng=-77.447837, lat=43.141071, altitude=167.30, speed=40.72, satellites=7, angle=264.1500, fixquality=1
$GPRMC,134248.750,A,4308.4639,N,07726.8778,W,40.64,264.17,100519,,,A*49
$GPGGA,134249.000,4308.4637,N,07726.8816,W,1,07,1.12,167.4,M,-34.4,M,,*52
lng=-77.447967, lat=43.141063, altitude=167.40, speed=40.64, satellites=7, angle=264.1700, fixquality=1
$GPRMC,134249.250,A,4308.4634,N,07726.8854,W,40.07,264.02,100519,,,A*40
$GPGGA,134249.500,4308.4632,N,07726.8892,W,1,07,1.08,167.4,M,-34.4,M,,*55
lng=-77.448089, lat=43.141056, altitude=167.40, speed=40.07, satellites=7, angle=264.0200, fixquality=1
$GPRMC,134249.750,A,4308.4630,N,07726.8930,W,39.80,264.11,100519,,,A*41
$GPGGA,134250.000,4308.4628,N,07726.8967,W,1,07,1.12,167.4,M,-34.4,M,,*53
lng=-77.448219, lat=43.141048, altitude=167.40, speed=39.80, satellites=7, angle=264.1100, fixquality=1
$GPRMC,134250.250,A,4308.4626,N,07726.9004,W,39.45,264.61,100519,,,A*4A
$GPGGA,134250.500,4308.4624,N,07726.9041,W,1,07,1.08,167.4,M,-34.4,M,,*5D
lng=-77.448341, lat=43.141040, altitude=167.40, speed=39.45, satellites=7, angle=264.6100, fixquality=1
$GPRMC,134250.750,A,4308.4623,N,07726.9079,W,39.35,264.88,100519,,,A*40
$GPGGA,134251.000,4308.4621,N,07726.9116,W,1,07,1.12,167.3,M,-34.4,M,,*53
lng=-77.448463, lat=43.141040, altitude=167.40, speed=39.35, satellites=7, angle=264.8800, fixquality=1
$GPRMC,134251.250,A,4308.4619,N,07726.9154,W,39.60,264.14,100519,,,A*46
$GPGGA,134251.500,4308.4616,N,07726.9192,W,1,07,1.08,167.3,M,-34.4,M,,*55
lng=-77.448593, lat=43.141033, altitude=167.30, speed=39.60, satellites=7, angle=264.1400, fixquality=1
$GPRMC,134251.750,A,4308.4614,N,07726.9230,W,39.79,263.94,100519,,,A*48
$GPGGA,134252.000,4308.4612,N,07726.9267,W,1,07,1.12,167.2,M,-34.4,M,,*54
lng=-77.448715, lat=43.141025, altitude=167.30, speed=39.79, satellites=7, angle=263.9400, fixquality=1
$GPRMC,134252.250,A,4308.4611,N,07726.9305,W,39.27,264.14,100519,,,A*48
$GPGGA,134252.500,4308.4609,N,07726.9342,W,1,07,1.08,167.1,M,-34.4,M,,*55
lng=-77.448844, lat=43.141014, altitude=167.20, speed=39.27, satellites=7, angle=264.1400, fixquality=1
$GPRMC,134252.750,A,4308.4607,N,07726.9379,W,39.02,264.22,100519,,,A*43
$GPGGA,134253.000,4308.4605,N,07726.9416,W,1,07,1.12,167.0,M,-34.4,M,,*51
lng=-77.448966, lat=43.141014, altitude=167.10, speed=39.02, satellites=7, angle=264.2200, fixquality=1
$GPRMC,134253.250,A,4308.4603,N,07726.9453,W,39.00,264.10,100519,,,A*4F
$GPGGA,134253.500,4308.4602,N,07726.9490,W,1,07,1.08,166.9,M,-34.4,M,,*5E
lng=-77.449089, lat=43.141006, altitude=167.00, speed=39.00, satellites=7, angle=264.1000, fixquality=1
$GPRMC,134253.750,A,4308.4600,N,07726.9527,W,38.91,264.28,100519,,,A*49
$GPGGA,134254.000,4308.4598,N,07726.9564,W,1,07,1.12,166.8,M,-34.4,M,,*5C
lng=-77.449211, lat=43.140998, altitude=166.90, speed=38.91, satellites=7, angle=264.2800, fixquality=1
$GPRMC,134254.250,A,4308.4597,N,07726.9602,W,38.88,264.79,100519,,,A*4E
$GPGGA,134254.500,4308.4595,N,07726.9639,W,1,07,1.08,166.7,M,-34.4,M,,*5B
lng=-77.449333, lat=43.140991, altitude=166.80, speed=38.88, satellites=7, angle=264.7900, fixquality=1
$GPRMC,134254.750,A,4308.4594,N,07726.9676,W,38.87,265.04,100519,,,A*4F
$GPGGA,134255.000,4308.4592,N,07726.9713,W,1,07,1.12,166.6,M,-34.4,M,,*5B
lng=-77.449462, lat=43.140991, altitude=166.70, speed=38.87, satellites=7, angle=265.0400, fixquality=1
$GPRMC,134255.250,A,4308.4591,N,07726.9751,W,39.16,264.69,100519,,,A*49
$GPGGA,134255.500,4308.4589,N,07726.9788,W,1,07,1.08,166.4,M,-34.4,M,,*5F
lng=-77.449584, lat=43.140983, altitude=166.60, speed=39.16, satellites=7, angle=264.6900, fixquality=1
$GPRMC,134255.750,A,4308.4587,N,07726.9825,W,39.40,264.38,100519,,,A*40
$GPGGA,134256.000,4308.4586,N,07726.9862,W,1,07,1.12,166.2,M,-34.4,M,,*50
lng=-77.449707, lat=43.140975, altitude=166.40, speed=39.40, satellites=7, angle=264.3800, fixquality=1
$GPRMC,134256.250,A,4308.4583,N,07726.9899,W,39.22,264.20,100519,,,A*48
$GPGGA,134256.500,4308.4581,N,07726.9936,W,1,07,1.12,166.0,M,-34.4,M,,*50
lng=-77.449829, lat=43.140975, altitude=166.20, speed=39.22, satellites=7, angle=264.2000, fixquality=1
$GPRMC,134256.750,A,4308.4578,N,07726.9973,W,39.37,264.11,100519,,,A*4A
$GPGGA,134257.000,4308.4576,N,07727.0010,W,1,07,1.13,166.0,M,-34.4,M,,*58
lng=-77.449951, lat=43.140968, altitude=166.00, speed=39.37, satellites=7, angle=264.1100, fixquality=1
$GPRMC,134257.250,A,4308.4573,N,07727.0047,W,39.47,264.10,100519,,,A*45
$GPGGA,134257.500,4308.4571,N,07727.0084,W,1,07,1.08,165.9,M,-34.4,M,,*57
lng=-77.450080, lat=43.140956, altitude=166.00, speed=39.47, satellites=7, angle=264.1000, fixquality=1
$GPRMC,134257.750,A,4308.4569,N,07727.0121,W,39.45,264.48,100519,,,A*45
$GPGGA,134258.000,4308.4567,N,07727.0159,W,1,07,1.12,165.8,M,-34.4,M,,*51
lng=-77.450202, lat=43.140949, altitude=165.90, speed=39.45, satellites=7, angle=264.4800, fixquality=1
$GPRMC,134258.250,A,4308.4566,N,07727.0196,W,39.84,265.56,100519,,,A*4F
$GPGGA,134258.500,4308.4564,N,07727.0235,W,1,07,1.08,165.8,M,-34.4,M,,*55
lng=-77.450325, lat=43.140941, altitude=165.80, speed=39.84, satellites=7, angle=265.5600, fixquality=1
$GPRMC,134258.750,A,4308.4563,N,07727.0273,W,40.09,266.17,100519,,,A*4A
$GPGGA,134259.000,4308.4561,N,07727.0311,W,1,07,1.08,165.8,M,-34.4,M,,*53
lng=-77.450454, lat=43.140933, altitude=165.80, speed=40.09, satellites=7, angle=266.1700, fixquality=1
$GPRMC,134259.250,A,4308.4560,N,07727.0349,W,40.05,266.47,100519,,,A*4C
$GPGGA,134259.500,4308.4559,N,07727.0388,W,1,07,1.08,165.8,M,-34.4,M,,*5D
lng=-77.450576, lat=43.140933, altitude=165.80, speed=40.05, satellites=7, angle=266.4700, fixquality=1
$GPRMC,134259.750,A,4308.4559,N,07727.0427,W,40.07,267.09,100519,,,A*45
$GPGGA,134300.000,4308.4559,N,07727.0465,W,1,07,1.12,165.8,M,-34.4,M,,*5A
lng=-77.450706, lat=43.140933, altitude=165.80, speed=40.07, satellites=7, angle=267.0900, fixquality=1
$GPRMC,134300.250,A,4308.4559,N,07727.0504,W,40.31,268.21,100519,,,A*4D
$GPGGA,134300.500,4308.4558,N,07727.0542,W,1,07,1.08,165.8,M,-34.4,M,,*51
lng=-77.450836, lat=43.140933, altitude=165.80, speed=40.31, satellites=7, angle=268.2100, fixquality=1
$GPRMC,134300.750,A,4308.4558,N,07727.0580,W,40.22,268.76,100519,,,A*45
$GPGGA,134301.000,4308.4559,N,07727.0618,W,1,07,1.08,165.6,M,-34.4,M,,*56
lng=-77.450965, lat=43.140926, altitude=165.80, speed=40.22, satellites=7, angle=268.7600, fixquality=1
$GPRMC,134301.250,A,4308.4562,N,07727.0658,W,40.39,271.52,100519,,,A*4A
$GPGGA,134301.500,4308.4565,N,07727.0696,W,1,07,1.08,165.4,M,-34.4,M,,*58
lng=-77.451095, lat=43.140933, altitude=165.60, speed=40.39, satellites=7, angle=271.5200, fixquality=1
$GPRMC,134301.750,A,4308.4567,N,07727.0735,W,41.15,273.08,100519,,,A*42
$GPGGA,134302.000,4308.4569,N,07727.0774,W,1,07,1.12,165.3,M,-34.4,M,,*53
lng=-77.451225, lat=43.140941, altitude=165.40, speed=41.15, satellites=7, angle=273.0800, fixquality=1
$GPRMC,134302.250,A,4308.4571,N,07727.0812,W,41.14,273.37,100519,,,A*44
$GPGGA,134302.500,4308.4573,N,07727.0851,W,1,07,1.12,165.2,M,-34.4,M,,*54
lng=-77.451347, lat=43.140949, altitude=165.30, speed=41.14, satellites=7, angle=273.3700, fixquality=1
$GPRMC,134302.750,A,4308.4576,N,07727.0890,W,41.26,274.84,100519,,,A*42
$GPGGA,134303.000,4308.4579,N,07727.0929,W,1,07,1.13,165.1,M,-34.4,M,,*56
lng=-77.451484, lat=43.140956, altitude=165.20, speed=41.26, satellites=7, angle=274.8400, fixquality=1
$GPRMC,134303.250,A,4308.4583,N,07727.0967,W,41.35,276.11,100519,,,A*49
$GPGGA,134303.500,4308.4586,N,07727.1006,W,1,07,1.08,164.9,M,-34.4,M,,*55
lng=-77.451614, lat=43.140975, altitude=165.10, speed=41.35, satellites=7, angle=276.1100, fixquality=1
$GPRMC,134303.750,A,4308.4590,N,07727.1044,W,41.39,277.08,100519,,,A*42
$GPGGA,134304.000,4308.4594,N,07727.1082,W,1,07,1.12,164.6,M,-34.4,M,,*5C
lng=-77.451744, lat=43.140983, altitude=164.90, speed=41.39, satellites=7, angle=277.0800, fixquality=1
$GPRMC,134304.250,A,4308.4599,N,07727.1120,W,40.82,278.63,100519,,,A*49
$GPGGA,134304.500,4308.4602,N,07727.1158,W,1,07,1.08,164.2,M,-34.4,M,,*5C
lng=-77.451866, lat=43.140998, altitude=164.60, speed=40.82, satellites=7, angle=278.6300, fixquality=1
$GPRMC,134304.750,A,4308.4607,N,07727.1195,W,40.31,279.28,100519,,,A*40
$GPGGA,134305.000,4308.4611,N,07727.1233,W,1,07,1.13,163.8,M,-34.4,M,,*53
lng=-77.451995, lat=43.141014, altitude=164.20, speed=40.31, satellites=7, angle=279.2800, fixquality=1
$GPRMC,134305.250,A,4308.4615,N,07727.1270,W,40.09,279.93,100519,,,A*44
$GPGGA,134305.500,4308.4620,N,07727.1307,W,1,08,1.00,163.5,M,-34.4,M,,*52
lng=-77.452117, lat=43.141025, altitude=163.80, speed=40.09, satellites=7, angle=279.9300, fixquality=1
$GPRMC,134305.750,A,4308.4625,N,07727.1344,W,40.04,280.22,100519,,,A*45
$GPGGA,134306.000,4308.4630,N,07727.1381,W,1,08,1.09,163.2,M,-34.4,M,,*55
lng=-77.452239, lat=43.141040, altitude=163.50, speed=40.04, satellites=8, angle=280.2200, fixquality=1
$GPRMC,134306.250,A,4308.4636,N,07727.1418,W,39.80,280.41,100519,,,A*48
$GPGGA,134306.500,4308.4641,N,07727.1455,W,1,07,1.08,162.8,M,-34.4,M,,*5D
lng=-77.452362, lat=43.141056, altitude=163.20, speed=39.80, satellites=8, angle=280.4100, fixquality=1
$GPRMC,134306.750,A,4308.4646,N,07727.1492,W,39.58,279.90,100519,,,A*47
$GPGGA,134307.000,4308.4650,N,07727.1528,W,1,07,1.12,162.7,M,-34.4,M,,*56
lng=-77.452491, lat=43.141071, altitude=162.80, speed=39.58, satellites=7, angle=279.9000, fixquality=1
$GPRMC,134307.250,A,4308.4655,N,07727.1565,W,39.51,279.69,100519,,,A*47
$GPGGA,134307.500,4308.4659,N,07727.1602,W,1,07,1.08,162.6,M,-34.4,M,,*5B
lng=-77.452613, lat=43.141090, altitude=162.70, speed=39.51, satellites=7, angle=279.6900, fixquality=1
$GPRMC,134307.750,A,4308.4664,N,07727.1639,W,39.57,279.42,100519,,,A*45
$GPGGA,134308.000,4308.4669,N,07727.1676,W,1,07,1.12,162.4,M,-34.4,M,,*58
lng=-77.452735, lat=43.141105, altitude=162.60, speed=39.57, satellites=7, angle=279.4200, fixquality=1
$GPRMC,134308.250,A,4308.4673,N,07727.1713,W,39.63,279.39,100519,,,A*4B
$GPGGA,134308.500,4308.4678,N,07727.1750,W,1,07,1.08,162.2,M,-34.4,M,,*55
lng=-77.452857, lat=43.141120, altitude=162.40, speed=39.63, satellites=7, angle=279.3900, fixquality=1
$GPRMC,134308.750,A,4308.4682,N,07727.1787,W,39.48,279.42,100519,,,A*48
$GPGGA,134309.000,4308.4686,N,07727.1824,W,1,07,1.13,161.8,M,-34.4,M,,*5F
lng=-77.452980, lat=43.141136, altitude=162.20, speed=39.48, satellites=7, angle=279.4200, fixquality=1
$GPRMC,134309.250,A,4308.4690,N,07727.1861,W,39.35,279.20,100519,,,A*46
$GPGGA,134309.500,4308.4694,N,07727.1897,W,1,07,1.08,161.6,M,-34.4,M,,*55
lng=-77.453102, lat=43.141155, altitude=161.80, speed=39.35, satellites=7, angle=279.2000, fixquality=1
$GPRMC,134309.750,A,4308.4698,N,07727.1934,W,39.38,278.96,100519,,,A*4B
$GPGGA,134310.000,4308.4702,N,07727.1972,W,1,07,1.08,161.4,M,-34.4,M,,*5E
lng=-77.453224, lat=43.141162, altitude=161.60, speed=39.38, satellites=7, angle=278.9600, fixquality=1
$GPRMC,134310.250,A,4308.4706,N,07727.2009,W,39.41,279.19,100519,,,A*4C
$GPGGA,134310.500,4308.4711,N,07727.2046,W,1,08,1.00,161.3,M,-34.4,M,,*54
lng=-77.453346, lat=43.141178, altitude=161.40, speed=39.41, satellites=7, angle=279.1900, fixquality=1
$GPRMC,134310.750,A,4308.4716,N,07727.2083,W,39.46,279.16,100519,,,A*42
$GPGGA,134311.000,4308.4721,N,07727.2120,W,1,08,1.09,161.2,M,-34.4,M,,*5A
lng=-77.453475, lat=43.141193, altitude=161.30, speed=39.46, satellites=8, angle=279.1600, fixquality=1
$GPRMC,134311.250,A,4308.4726,N,07727.2158,W,39.82,279.59,100519,,,A*41
$GPGGA,134311.500,4308.4731,N,07727.2196,W,1,08,1.00,161.0,M,-34.4,M,,*58
lng=-77.453598, lat=43.141212, altitude=161.20, speed=39.82, satellites=8, angle=279.5900, fixquality=1
$GPRMC,134311.750,A,4308.4737,N,07727.2234,W,39.87,279.89,100519,,,A*45
$GPGGA,134312.000,4308.4742,N,07727.2271,W,1,07,1.13,160.7,M,-34.4,M,,*5B
lng=-77.453727, lat=43.141227, altitude=161.00, speed=39.87, satellites=8, angle=279.8900, fixquality=1
$GPRMC,134312.250,A,4308.4748,N,07727.2309,W,39.92,280.43,100519,,,A*40
$GPGGA,134312.500,4308.4753,N,07727.2347,W,1,08,1.00,160.4,M,-34.4,M,,*54
lng=-77.453849, lat=43.141242, altitude=160.70, speed=39.92, satellites=7, angle=280.4300, fixquality=1
$GPRMC,134312.750,A,4308.4758,N,07727.2385,W,39.92,279.89,100519,,,A*40
$GPGGA,134313.000,4308.4763,N,07727.2423,W,1,08,1.09,160.2,M,-34.4,M,,*59
lng=-77.453971, lat=43.141258, altitude=160.40, speed=39.92, satellites=8, angle=279.8900, fixquality=1
$GPRMC,134313.250,A,4308.4768,N,07727.2460,W,39.60,280.17,100519,,,A*47
$GPGGA,134313.500,4308.4773,N,07727.2497,W,1,08,1.09,160.0,M,-34.4,M,,*50
lng=-77.454101, lat=43.141277, altitude=160.20, speed=39.60, satellites=8, angle=280.1700, fixquality=1
$GPRMC,134313.750,A,4308.4778,N,07727.2534,W,39.58,280.19,100519,,,A*46
$GPGGA,134314.000,4308.4783,N,07727.2571,W,1,08,1.09,159.7,M,-34.4,M,,*59
lng=-77.454223, lat=43.141300, altitude=160.00, speed=39.58, satellites=8, angle=280.1900, fixquality=1
$GPRMC,134314.250,A,4308.4788,N,07727.2608,W,39.26,279.81,100519,,,A*49
$GPGGA,134314.500,4308.4792,N,07727.2644,W,1,08,1.00,159.6,M,-34.4,M,,*51
lng=-77.454345, lat=43.141315, altitude=159.70, speed=39.26, satellites=8, angle=279.8100, fixquality=1
$GPRMC,134314.750,A,4308.4797,N,07727.2680,W,39.06,279.67,100519,,,A*48
$GPGGA,134315.000,4308.4801,N,07727.2717,W,1,08,1.09,159.3,M,-34.4,M,,*5B
lng=-77.454467, lat=43.141323, altitude=159.60, speed=39.06, satellites=8, angle=279.6700, fixquality=1
$GPRMC,134315.250,A,4308.4806,N,07727.2753,W,38.86,279.91,100519,,,A*44
$GPGGA,134315.500,4308.4810,N,07727.2789,W,1,08,1.00,159.1,M,-34.4,M,,*52
lng=-77.454589, lat=43.141342, altitude=159.30, speed=38.86, satellites=8, angle=279.9100, fixquality=1
$GPRMC,134315.750,A,4308.4814,N,07727.2825,W,38.72,279.77,100519,,,A*4F
$GPGGA,134316.000,4308.4818,N,07727.2860,W,1,07,1.13,158.9,M,-34.4,M,,*50
lng=-77.454711, lat=43.141357, altitude=159.10, speed=38.72, satellites=8, angle=279.7700, fixquality=1
$GPRMC,134316.250,A,4308.4822,N,07727.2896,W,38.56,279.67,100519,,,A*43
$GPGGA,134316.500,4308.4826,N,07727.2932,W,1,08,1.00,158.7,M,-34.4,M,,*5D
lng=-77.454826, lat=43.141372, altitude=158.90, speed=38.56, satellites=7, angle=279.6700, fixquality=1
$GPRMC,134316.750,A,4308.4830,N,07727.2967,W,37.50,279.49,100519,,,A*4F
$GPGGA,134317.000,4308.4834,N,07727.3003,W,1,07,1.08,158.1,M,-34.4,M,,*51
lng=-77.454948, lat=43.141380, altitude=158.70, speed=37.50, satellites=8, angle=279.4900, fixquality=1
$GPRMC,134317.250,A,4308.4837,N,07727.3038,W,37.27,279.59,100519,,,A*4F
$GPGGA,134317.500,4308.4842,N,07727.3073,W,1,07,1.08,157.8,M,-34.4,M,,*54
lng=-77.455062, lat=43.141399, altitude=158.10, speed=37.27, satellites=7, angle=279.5900, fixquality=1
$GPRMC,134317.750,A,4308.4846,N,07727.3108,W,37.35,279.50,100519,,,A*44
$GPGGA,134318.000,4308.4850,N,07727.3144,W,1,07,1.13,157.7,M,-34.4,M,,*5D
lng=-77.455184, lat=43.141407, altitude=157.80, speed=37.35, satellites=7, angle=279.5000, fixquality=1
$GPRMC,134318.250,A,4308.4854,N,07727.3179,W,37.34,279.61,100519,,,A*48
$GPGGA,134318.500,4308.4858,N,07727.3214,W,1,08,1.00,157.5,M,-34.4,M,,*59
lng=-77.455299, lat=43.141422, altitude=157.70, speed=37.34, satellites=7, angle=279.6100, fixquality=1
$GPRMC,134318.750,A,4308.4862,N,07727.3249,W,37.58,279.40,100519,,,A*41
$GPGGA,134319.000,4308.4866,N,07727.3285,W,1,07,1.13,157.4,M,-34.4,M,,*54
lng=-77.455413, lat=43.141437, altitude=157.50, speed=37.58, satellites=8, angle=279.4000, fixquality=1
$GPRMC,134319.250,A,4308.4870,N,07727.3320,W,37.63,279.09,100519,,,A*4D
$GPGGA,134319.500,4308.4874,N,07727.3355,W,1,07,1.08,157.2,M,-34.4,M,,*52
lng=-77.455535, lat=43.141445, altitude=157.40, speed=37.63, satellites=7, angle=279.0900, fixquality=1
$GPRMC,134319.750,A,4308.4879,N,07727.3390,W,37.69,279.14,100519,,,A*4C
$GPGGA,134320.000,4308.4884,N,07727.3425,W,1,07,1.13,157.1,M,-34.4,M,,*5B
lng=-77.455650, lat=43.141464, altitude=157.20, speed=37.69, satellites=7, angle=279.1400, fixquality=1
$GPRMC,134320.250,A,4308.4888,N,07727.3461,W,37.77,278.71,100519,,,A*49
$GPGGA,134320.500,4308.4892,N,07727.3496,W,1,07,1.08,156.9,M,-34.4,M,,*52
lng=-77.455772, lat=43.141479, altitude=157.10, speed=37.77, satellites=7, angle=278.7100, fixquality=1
$GPRMC,134320.750,A,4308.4896,N,07727.3532,W,37.97,278.43,100519,,,A*4B
$GPGGA,134321.000,4308.4900,N,07727.3567,W,1,08,1.09,156.8,M,-34.4,M,,*5C
lng=-77.455886, lat=43.141494, altitude=156.90, speed=37.97, satellites=7, angle=278.4300, fixquality=1
$GPRMC,134321.250,A,4308.4904,N,07727.3603,W,38.00,278.36,100519,,,A*47
$GPGGA,134321.500,4308.4908,N,07727.3638,W,1,07,1.08,156.6,M,-34.4,M,,*58
lng=-77.456008, lat=43.141502, altitude=156.80, speed=38.00, satellites=8, angle=278.3600, fixquality=1
$GPRMC,134321.750,A,4308.4913,N,07727.3674,W,38.05,278.68,100519,,,A*4A
$GPGGA,134322.000,4308.4917,N,07727.3710,W,1,08,1.09,156.6,M,-34.4,M,,*55
lng=-77.456123, lat=43.141521, altitude=156.60, speed=38.05, satellites=7, angle=278.6800, fixquality=1
$GPRMC,134322.250,A,4308.4922,N,07727.3746,W,38.15,279.21,100519,,,A*43
$GPGGA,134322.500,4308.4927,N,07727.3781,W,1,08,1.00,156.5,M,-34.4,M,,*51
lng=-77.456245, lat=43.141536, altitude=156.60, speed=38.15, satellites=8, angle=279.2100, fixquality=1
$GPRMC,134322.750,A,4308.4932,N,07727.3817,W,38.16,279.73,100519,,,A*48
$GPGGA,134323.000,4308.4937,N,07727.3852,W,1,08,1.09,156.4,M,-34.4,M,,*5D
lng=-77.456367, lat=43.141551, altitude=156.50, speed=38.16, satellites=8, angle=279.7300, fixquality=1
$GPRMC,134323.250,A,4308.4942,N,07727.3888,W,38.13,280.19,100519,,,A*42
$GPGGA,134323.500,4308.4946,N,07727.3923,W,1,08,1.09,156.2,M,-34.4,M,,*5F
lng=-77.456474, lat=43.141567, altitude=156.40, speed=38.13, satellites=8, angle=280.1900, fixquality=1
$GPRMC,134323.750,A,4308.4951,N,07727.3959,W,38.15,280.04,100519,,,A*42
$GPGGA,134324.000,4308.4955,N,07727.3995,W,1,08,1.09,156.0,M,-34.4,M,,*50
lng=-77.456596, lat=43.141586, altitude=156.20, speed=38.15, satellites=8, angle=280.0400, fixquality=1
$GPRMC,134324.250,A,4308.4960,N,07727.4030,W,38.11,279.90,100519,,,A*4C
$GPGGA,134324.500,4308.4964,N,07727.4066,W,1,08,1.09,155.9,M,-34.4,M,,*5F
lng=-77.456710, lat=43.141601, altitude=156.00, speed=38.11, satellites=8, angle=279.9000, fixquality=1
$GPRMC,134324.750,A,4308.4969,N,07727.4101,W,37.92,279.76,100519,,,A*4F
$GPGGA,134325.000,4308.4973,N,07727.4136,W,1,07,1.13,155.8,M,-34.4,M,,*5C
lng=-77.456832, lat=43.141616, altitude=155.90, speed=37.92, satellites=8, angle=279.7600, fixquality=1
$GPRMC,134325.250,A,4308.4977,N,07727.4172,W,37.71,279.81,100519,,,A*45
$GPGGA,134325.500,4308.4982,N,07727.4207,W,1,07,1.08,155.7,M,-34.4,M,,*53
lng=-77.456947, lat=43.141624, altitude=155.80, speed=37.71, satellites=7, angle=279.8100, fixquality=1
$GPRMC,134325.750,A,4308.4986,N,07727.4242,W,37.45,279.42,100519,,,A*46
$GPGGA,134326.000,4308.4990,N,07727.4277,W,1,08,1.09,155.7,M,-34.4,M,,*5F
lng=-77.457069, lat=43.141643, altitude=155.70, speed=37.45, satellites=7, angle=279.4200, fixquality=1
$GPRMC,134326.250,A,4308.4994,N,07727.4313,W,37.47,279.74,100519,,,A*41
$GPGGA,134326.500,4308.4999,N,07727.4348,W,1,07,1.08,155.5,M,-34.4,M,,*52
lng=-77.457183, lat=43.141658, altitude=155.70, speed=37.47, satellites=8, angle=279.7400, fixquality=1
$GPRMC,134326.750,A,4308.5003,N,07727.4383,W,37.22,279.32,100519,,,A*4A
$GPGGA,134327.000,4308.5007,N,07727.4418,W,1,07,1.13,155.5,M,-34.4,M,,*51
lng=-77.457305, lat=43.141674, altitude=155.50, speed=37.22, satellites=7, angle=279.3200, fixquality=1
$GPRMC,134327.250,A,4308.5011,N,07727.4453,W,37.18,279.48,100519,,,A*43
$GPGGA,134327.500,4308.5016,N,07727.4488,W,1,07,1.08,155.3,M,-34.4,M,,*51
lng=-77.457420, lat=43.141681, altitude=155.50, speed=37.18, satellites=7, angle=279.4800, fixquality=1
$GPRMC,134327.750,A,4308.5021,N,07727.4523,W,37.35,280.53,100519,,,A*40
$GPGGA,134328.000,4308.5025,N,07727.4558,W,1,07,1.13,155.2,M,-34.4,M,,*5C
lng=-77.457534, lat=43.141700, altitude=155.30, speed=37.35, satellites=7, angle=280.5300, fixquality=1
$GPRMC,134328.250,A,4308.5029,N,07727.4593,W,37.13,279.54,100519,,,A*4C
$GPGGA,134328.500,4308.5032,N,07727.4628,W,1,08,1.00,155.2,M,-34.4,M,,*56
lng=-77.457656, lat=43.141716, altitude=155.20, speed=37.13, satellites=7, angle=279.5400, fixquality=1
$GPRMC,134328.750,A,4308.5036,N,07727.4663,W,37.37,279.14,100519,,,A*49
$GPGGA,134329.000,4308.5040,N,07727.4698,W,1,07,1.08,155.2,M,-34.4,M,,*5B
lng=-77.457771, lat=43.141723, altitude=155.20, speed=37.37, satellites=8, angle=279.1400, fixquality=1
$GPRMC,134329.250,A,4308.5044,N,07727.4734,W,37.60,279.43,100519,,,A*4B
$GPGGA,134329.500,4308.5049,N,07727.4769,W,1,07,1.08,155.3,M,-34.4,M,,*59
lng=-77.457893, lat=43.141738, altitude=155.20, speed=37.60, satellites=7, angle=279.4300, fixquality=1
$GPRMC,134329.750,A,4308.5053,N,07727.4804,W,37.60,279.53,100519,,,A*45
$GPGGA,134330.000,4308.5057,N,07727.4839,W,1,07,1.13,155.3,M,-34.4,M,,*5B
lng=-77.458007, lat=43.141757, altitude=155.30, speed=37.60, satellites=7, angle=279.5300, fixquality=1
$GPRMC,134330.250,A,4308.5061,N,07727.4874,W,37.50,279.37,100519,,,A*4F
$GPGGA,134330.500,4308.5065,N,07727.4909,W,1,07,1.08,155.3,M,-34.4,M,,*57
lng=-77.458122, lat=43.141765, altitude=155.30, speed=37.50, satellites=7, angle=279.3700, fixquality=1
$GPRMC,134330.750,A,4308.5069,N,07727.4944,W,37.07,279.40,100519,,,A*42
$GPGGA,134331.000,4308.5073,N,07727.4979,W,1,08,1.09,155.1,M,-34.4,M,,*5F
lng=-77.458244, lat=43.141780, altitude=155.30, speed=37.07, satellites=7, angle=279.4000, fixquality=1
$GPRMC,134331.250,A,4308.5077,N,07727.5014,W,36.80,279.45,100519,,,A*4F
$GPGGA,134331.500,4308.5081,N,07727.5048,W,1,07,1.08,155.1,M,-34.4,M,,*53
lng=-77.458358, lat=43.141796, altitude=155.10, speed=36.80, satellites=8, angle=279.4500, fixquality=1
$GPRMC,134331.750,A,4308.5085,N,07727.5082,W,36.58,279.43,100519,,,A*4B
$GPGGA,134332.000,4308.5089,N,07727.5116,W,1,07,1.13,155.1,M,-34.4,M,,*5D
lng=-77.458473, lat=43.141803, altitude=155.10, speed=36.58, satellites=7, angle=279.4300, fixquality=1
$GPRMC,134332.250,A,4308.5093,N,07727.5149,W,35.72,279.58,100519,,,A*4D
$GPGGA,134332.500,4308.5097,N,07727.5183,W,1,06,1.35,155.0,M,-34.4,M,,*5F
lng=-77.458587, lat=43.141822, altitude=155.10, speed=35.72, satellites=7, angle=279.5800, fixquality=1
$GPRMC,134332.750,A,4308.5101,N,07727.5216,W,35.64,279.99,100519,,,A*41
$GPGGA,134333.000,4308.5106,N,07727.5249,W,1,06,1.36,154.9,M,-34.4,M,,*5C
lng=-77.458694, lat=43.141838, altitude=155.00, speed=35.64, satellites=6, angle=279.9900, fixquality=1
$GPRMC,134333.250,A,4308.5111,N,07727.5283,W,35.86,280.56,100519,,,A*41
$GPGGA,134333.500,4308.5116,N,07727.5316,W,1,07,1.08,154.8,M,-34.4,M,,*5E
lng=-77.458808, lat=43.141853, altitude=154.90, speed=35.86, satellites=6, angle=280.5600, fixquality=1
$GPRMC,134333.750,A,4308.5121,N,07727.5350,W,36.07,280.78,100519,,,A*4E
$GPGGA,134334.000,4308.5125,N,07727.5384,W,1,07,1.13,154.7,M,-34.4,M,,*52
lng=-77.458915, lat=43.141868, altitude=154.80, speed=36.07, satellites=7, angle=280.7800, fixquality=1
$GPRMC,134334.250,A,4308.5130,N,07727.5418,W,36.14,280.63,100519,,,A*4F
