Vers 81
USE_SERIAL_FEEDBACK=true
DEVELOPMENT_MODE=false
USE_RMC_ONLY=false

$GPRMC,152909.250,A,4308.3043,N,07726.2615,W,0.07,109.46,120819,,,A*7C
$GPGGA,152909.500,4308.3042,N,07726.2616,W,1,07,1.16,150.4,M,-34.4,M,,*5F
$GPRMC,152909.750,A,4308.3042,N,07726.2616,W,0.06,109.42,120819,,,A*7E
$GPGGA,152910.000,4308.3042,N,07726.2617,W,1,07,1.16,150.4,M,-34.4,M,,*53
$GPRMC,152910.250,A,4308.3042,N,07726.2617,W,0.03,120.51,120819,,,A*7E
$GPGGA,152910.500,4308.3042,N,07726.2617,W,1,08,1.04,150.4,M,-34.4,M,,*5A
$GPRMC,152910.750,A,4308.3042,N,07726.2618,W,0.03,126.34,120819,,,A*71
$GPGGA,152911.000,4308.3042,N,07726.2618,W,1,08,1.04,150.3,M,-34.4,M,,*56
$GPRMC,152911.250,A,4308.3042,N,07726.2618,W,0.02,120.87,120819,,,A*7A
$GPGGA,152911.500,4308.3042,N,07726.2619,W,1,08,1.04,150.3,M,-34.4,M,,*52
$GPRMC,152911.750,A,4308.3042,N,07726.2619,W,0.01,306.45,120819,,,A*75
$GPGGA,152912.000,4308.3042,N,07726.2619,W,1,08,1.04,150.3,M,-34.4,M,,*54
$GPRMC,152912.250,A,4308.3042,N,07726.2619,W,0.03,314.71,120819,,,A*75
$GPGGA,152912.500,4308.3042,N,07726.2620,W,1,08,1.04,150.3,M,-34.4,M,,*5B
$GPRMC,152912.750,A,4308.3042,N,07726.2620,W,0.02,282.34,120819,,,A*74
$GPGGA,152913.000,4308.3042,N,07726.2619,W,1,07,1.16,150.3,M,-34.4,M,,*59
$GPRMC,152913.250,A,4308.3041,N,07726.2619,W,0.01,205.05,120819,,,A*77
$GPGGA,152913.500,4308.3041,N,07726.2618,W,1,07,1.16,150.2,M,-34.4,M,,*5F
$GPRMC,152913.750,A,4308.3041,N,07726.2618,W,0.03,217.95,120819,,,A*7B
$GPGGA,152914.000,4308.3041,N,07726.2618,W,1,08,1.04,150.2,M,-34.4,M,,*51
$GPRMC,152914.250,A,4308.3040,N,07726.2618,W,0.02,181.79,120819,,,A*77
$GPGGA,152914.500,4308.3040,N,07726.2617,W,1,08,1.04,150.2,M,-34.4,M,,*5A
$GPRMC,152914.750,A,4308.3040,N,07726.2617,W,0.01,194.03,120819,,,A*77
$GPGGA,152915.000,4308.3040,N,07726.2617,W,1,07,1.16,150.2,M,-34.4,M,,*52
$GPRMC,152915.250,A,4308.3040,N,07726.2617,W,0.05,280.49,120819,,,A*7F
$GPGGA,152915.500,4308.3040,N,07726.2617,W,1,08,1.04,150.2,M,-34.4,M,,*5B
$GPRMC,152915.750,A,4308.3040,N,07726.2617,W,0.04,295.23,120819,,,A*73
$GPGGA,152916.000,4308.3040,N,07726.2617,W,1,08,1.04,150.2,M,-34.4,M,,*5D
$GPRMC,152916.250,A,4308.3040,N,07726.2616,W,0.02,31.58,120819,,,A*42
$GPGGA,152916.500,4308.3040,N,07726.2616,W,1,07,1.16,150.2,M,-34.4,M,,*55
$GPRMC,152916.750,A,4308.3039,N,07726.2616,W,0.05,118.37,120819,,,A*7D
$GPGGA,152917.000,4308.3040,N,07726.2617,W,1,08,1.04,150.2,M,-34.4,M,,*5C
$GPRMC,152917.250,A,4308.3040,N,07726.2617,W,0.05,200.20,120819,,,A*7A
$GPGGA,152917.500,4308.3040,N,07726.2617,W,1,08,1.04,150.2,M,-34.4,M,,*59
$GPRMC,152917.750,A,4308.3040,N,07726.2617,W,0.04,149.22,120819,,,A*72
$GPGGA,152918.000,4308.3040,N,07726.2617,W,1,07,1.16,150.2,M,-34.4,M,,*5F
$GPRMC,152918.250,A,4308.3040,N,07726.2617,W,0.07,285.25,120819,,,A*7F
$GPGGA,152918.500,4308.3040,N,07726.2618,W,1,08,1.04,150.1,M,-34.4,M,,*5A
$GPRMC,152918.750,A,4308.3040,N,07726.2618,W,0.24,354.81,120819,,,A*77
$GPGGA,152919.000,4308.3040,N,07726.2618,W,1,08,1.09,150.2,M,-34.4,M,,*50
$GPRMC,152919.250,A,4308.3040,N,07726.2618,W,0.28,316.70,120819,,,A*77
$GPGGA,152919.500,4308.3041,N,07726.2618,W,1,08,1.04,150.2,M,-34.4,M,,*59
$GPRMC,152919.750,A,4308.3041,N,07726.2618,W,0.29,319.13,120819,,,A*78
$GPGGA,152920.000,4308.3041,N,07726.2618,W,1,08,1.04,150.2,M,-34.4,M,,*56
$GPRMC,152920.250,A,4308.3041,N,07726.2618,W,0.27,328.34,120819,,,A*7E
$GPGGA,152920.500,4308.3041,N,07726.2618,W,1,08,1.04,150.2,M,-34.4,M,,*53
$GPRMC,152920.750,A,4308.3041,N,07726.2618,W,0.22,324.27,120819,,,A*70
$GPGGA,152921.000,4308.3041,N,07726.2618,W,1,08,1.04,150.3,M,-34.4,M,,*56
$GPRMC,152921.250,A,4308.3041,N,07726.2618,W,0.15,309.83,120819,,,A*71
$GPGGA,152921.500,4308.3041,N,07726.2618,W,1,08,1.04,150.3,M,-34.4,M,,*53
$GPRMC,152921.750,A,4308.3041,N,07726.2618,W,0.17,286.21,120819,,,A*78
$GPGGA,152922.000,4308.3041,N,07726.2619,W,1,08,1.04,150.3,M,-34.4,M,,*54
$GPRMC,152922.250,A,4308.3042,N,07726.2619,W,0.33,285.93,120819,,,A*70
$GPGGA,152922.500,4308.3042,N,07726.2620,W,1,08,1.04,150.3,M,-34.4,M,,*58
$GPRMC,152922.750,A,4308.3042,N,07726.2620,W,0.41,290.09,120819,,,A*7D
$GPGGA,152923.000,4308.3042,N,07726.2620,W,1,07,1.16,150.3,M,-34.4,M,,*50
$GPRMC,152923.250,A,4308.3042,N,07726.2621,W,0.35,273.54,120819,,,A*7E
$GPGGA,152923.500,4308.3042,N,07726.2620,W,1,08,1.04,150.3,M,-34.4,M,,*59
$GPRMC,152923.750,A,4308.3042,N,07726.2620,W,0.21,285.20,120819,,,A*75
$GPGGA,152924.000,4308.3042,N,07726.2620,W,1,07,1.16,150.3,M,-34.4,M,,*57
$GPRMC,152924.250,A,4308.3042,N,07726.2620,W,0.16,284.58,120819,,,A*7D
$GPGGA,152924.500,4308.3041,N,07726.2620,W,1,07,1.16,150.3,M,-34.4,M,,*51
$GPRMC,152924.750,A,4308.3041,N,07726.2621,W,0.13,287.48,120819,,,A*7D
$GPGGA,152925.000,4308.3041,N,07726.2621,W,1,07,1.16,150.3,M,-34.4,M,,*54
$GPRMC,152925.250,A,4308.3041,N,07726.2621,W,0.11,242.58,120819,,,A*73
$GPGGA,152925.500,4308.3041,N,07726.2621,W,1,07,1.16,150.3,M,-34.4,M,,*51
$GPRMC,152925.750,A,4308.3041,N,07726.2621,W,0.03,243.54,120819,,,A*78
$GPGGA,152926.000,4308.3041,N,07726.2621,W,1,08,1.04,150.3,M,-34.4,M,,*5B
$GPRMC,152926.250,A,4308.3041,N,07726.2621,W,0.06,118.66,120819,,,A*77
$GPGGA,152926.500,4308.3041,N,07726.2621,W,1,08,1.04,150.3,M,-34.4,M,,*5E
$GPRMC,152926.750,A,4308.3041,N,07726.2621,W,0.10,106.11,120819,,,A*7A
$GPGGA,152927.000,4308.3041,N,07726.2621,W,1,08,1.04,150.4,M,-34.4,M,,*5D
$GPRMC,152927.250,A,4308.3040,N,07726.2621,W,0.03,247.46,120819,,,A*79
$GPGGA,152927.500,4308.3041,N,07726.2621,W,1,08,1.04,150.3,M,-34.4,M,,*5F
$GPRMC,152927.750,A,4308.3041,N,07726.2621,W,0.07,309.34,120819,,,A*77
$GPGGA,152928.000,4308.3041,N,07726.2621,W,1,08,1.04,150.3,M,-34.4,M,,*55
$GPRMC,152928.250,A,4308.3040,N,07726.2621,W,0.06,129.30,120819,,,A*79
$GPGGA,152928.500,4308.3040,N,07726.2622,W,1,08,1.04,150.3,M,-34.4,M,,*52
$GPRMC,152928.750,A,4308.3040,N,07726.2622,W,0.02,223.40,120819,,,A*75
$GPGGA,152929.000,4308.3040,N,07726.2622,W,1,08,1.04,150.3,M,-34.4,M,,*56
$GPRMC,152929.250,A,4308.3040,N,07726.2621,W,0.07,113.78,120819,,,A*7C
$GPGGA,152929.500,4308.3040,N,07726.2621,W,1,07,1.16,150.3,M,-34.4,M,,*5C
$GPRMC,152929.750,A,4308.3041,N,07726.2621,W,0.01,60.93,120819,,,A*4E
$GPGGA,152930.000,4308.3041,N,07726.2621,W,1,07,1.16,150.3,M,-34.4,M,,*50
$GPRMC,152930.250,A,4308.3041,N,07726.2621,W,0.01,318.22,120819,,,A*75
$GPGGA,152930.500,4308.3040,N,07726.2621,W,1,08,1.04,150.3,M,-34.4,M,,*58
$GPRMC,152930.750,A,4308.3040,N,07726.2621,W,0.02,345.50,120819,,,A*7F
$GPGGA,152931.000,4308.3040,N,07726.2621,W,1,07,1.19,150.3,M,-34.4,M,,*5F
$GPRMC,152931.250,A,4308.3040,N,07726.2621,W,0.05,190.37,120819,,,A*77
$GPGGA,152931.500,4308.3041,N,07726.2622,W,1,07,1.16,150.3,M,-34.4,M,,*57
$GPRMC,152931.750,A,4308.3041,N,07726.2622,W,0.04,271.41,120819,,,A*7C
$GPGGA,152932.000,4308.3041,N,07726.2622,W,1,07,1.16,150.3,M,-34.4,M,,*51
$GPRMC,152932.250,A,4308.3041,N,07726.2622,W,0.05,74.71,120819,,,A*4F
$GPGGA,152932.500,4308.3041,N,07726.2622,W,1,07,1.16,150.3,M,-34.4,M,,*54
$GPRMC,152932.750,A,4308.3041,N,07726.2622,W,0.06,278.34,120819,,,A*76
$GPGGA,152933.000,4308.3041,N,07726.2622,W,1,08,1.04,150.3,M,-34.4,M,,*5C
$GPRMC,152933.250,A,4308.3041,N,07726.2622,W,0.05,307.60,120819,,,A*79
$GPGGA,152933.500,4308.3041,N,07726.2622,W,1,08,1.04,150.3,M,-34.4,M,,*59
$GPRMC,152933.750,A,4308.3041,N,07726.2623,W,0.03,218.11,120819,,,A*72
$GPGGA,152934.000,4308.3041,N,07726.2623,W,1,07,1.16,150.3,M,-34.4,M,,*56
$GPRMC,152934.250,A,4308.3041,N,07726.2623,W,0.04,87.49,120819,,,A*4E
$GPGGA,152934.500,4308.3041,N,07726.2623,W,1,08,1.04,150.3,M,-34.4,M,,*5F
$GPRMC,152934.750,A,4308.3041,N,07726.2623,W,0.02,318.91,120819,,,A*7D
$GPGGA,152935.000,4308.3041,N,07726.2623,W,1,08,1.04,150.3,M,-34.4,M,,*5B
$GPRMC,152935.250,A,4308.3041,N,07726.2623,W,0.02,238.43,120819,,,A*75
$GPGGA,152935.500,4308.3041,N,07726.2623,W,1,08,1.04,150.3,M,-34.4,M,,*5E
$GPRMC,152935.750,A,4308.3041,N,07726.2623,W,0.04,239.21,120819,,,A*73
$GPGGA,152936.000,4308.3041,N,07726.2623,W,1,08,1.04,150.3,M,-34.4,M,,*58
$GPRMC,152936.250,A,4308.3041,N,07726.2623,W,0.02,102.42,120819,,,A*7D
$GPGGA,152936.500,4308.3041,N,07726.2623,W,1,07,1.16,150.3,M,-34.4,M,,*51
$GPRMC,152936.750,A,4308.3041,N,07726.2623,W,0.05,171.04,120819,,,A*79
$GPGGA,152937.000,4308.3041,N,07726.2623,W,1,07,1.16,150.3,M,-34.4,M,,*55
$GPRMC,152937.250,A,4308.3041,N,07726.2623,W,0.02,332.25,120819,,,A*7C
$GPGGA,152937.500,4308.3041,N,07726.2623,W,1,07,1.16,150.3,M,-34.4,M,,*50
$GPRMC,152937.750,A,4308.3041,N,07726.2623,W,0.04,35.55,120819,,,A*4C
$GPGGA,152938.000,4308.3041,N,07726.2623,W,1,07,1.16,150.3,M,-34.4,M,,*5A
$GPRMC,152938.250,A,4308.3041,N,07726.2623,W,0.04,181.03,120819,,,A*7B
$GPGGA,152938.500,4308.3041,N,07726.2623,W,1,07,1.16,150.2,M,-34.4,M,,*5E
$GPRMC,152938.750,A,4308.3041,N,07726.2623,W,0.03,284.37,120819,,,A*78
$GPGGA,152939.000,4308.3041,N,07726.2623,W,1,07,1.16,150.2,M,-34.4,M,,*5A
$GPRMC,152939.250,A,4308.3041,N,07726.2623,W,0.03,138.96,120819,,,A*73
$GPGGA,152939.500,4308.3041,N,07726.2623,W,1,07,1.16,150.2,M,-34.4,M,,*5F
$GPRMC,152939.750,A,4308.3041,N,07726.2623,W,0.04,10.19,120819,,,A*4D
$GPGGA,152940.000,4308.3041,N,07726.2623,W,1,07,1.18,150.2,M,-34.4,M,,*5A
$GPRMC,152940.250,A,4308.3041,N,07726.2623,W,0.04,318.49,120819,,,A*78
$GPGGA,152940.500,4308.3041,N,07726.2623,W,1,07,1.16,150.2,M,-34.4,M,,*51
$GPRMC,152940.750,A,4308.3041,N,07726.2623,W,0.01,205.20,120819,,,A*7A
$GPGGA,152941.000,4308.3041,N,07726.2623,W,1,07,1.16,150.2,M,-34.4,M,,*55
$GPRMC,152941.250,A,4308.3041,N,07726.2623,W,0.04,87.73,120819,,,A*45
$GPGGA,152941.500,4308.3041,N,07726.2623,W,1,07,1.16,150.2,M,-34.4,M,,*50
$GPRMC,152941.750,A,4308.3041,N,07726.2623,W,0.01,320.82,120819,,,A*75
$GPGGA,152942.000,4308.3041,N,07726.2623,W,1,07,1.16,150.2,M,-34.4,M,,*56
$GPRMC,152942.250,A,4308.3041,N,07726.2623,W,0.71,5.16,120819,,,A*7D
$GPGGA,152942.500,4308.3042,N,07726.2624,W,1,08,1.09,150.2,M,-34.4,M,,*56
$GPRMC,152942.750,A,4308.3043,N,07726.2624,W,2.53,1.48,120819,,,A*70
$GPGGA,152943.000,4308.3045,N,07726.2624,W,1,09,0.98,150.2,M,-34.4,M,,*5D
$GPRMC,152943.250,A,4308.3047,N,07726.2624,W,3.73,0.66,120819,,,A*7E
$GPGGA,152943.500,4308.3050,N,07726.2625,W,1,09,0.98,150.3,M,-34.4,M,,*5C
$GPRMC,152943.750,A,4308.3053,N,07726.2625,W,4.80,359.27,120819,,,A*7E
$GPGGA,152944.000,4308.3056,N,07726.2625,W,1,09,0.98,150.2,M,-34.4,M,,*59
$GPRMC,152944.250,A,4308.3060,N,07726.2625,W,5.01,358.51,120819,,,A*74
$GPGGA,152944.500,4308.3063,N,07726.2626,W,1,09,0.98,150.3,M,-34.4,M,,*58
$GPRMC,152944.750,A,4308.3066,N,07726.2626,W,5.16,354.59,120819,,,A*76
$GPGGA,152945.000,4308.3070,N,07726.2627,W,1,09,0.98,150.3,M,-34.4,M,,*5F
$GPRMC,152945.250,A,4308.3073,N,07726.2628,W,5.29,353.78,120819,,,A*70
$GPGGA,152945.500,4308.3077,N,07726.2628,W,1,08,1.10,150.3,M,-34.4,M,,*52
$GPRMC,152945.750,A,4308.3081,N,07726.2629,W,5.88,353.41,120819,,,A*78
$GPGGA,152946.000,4308.3085,N,07726.2630,W,1,09,0.98,150.2,M,-34.4,M,,*51
$GPRMC,152946.250,A,4308.3089,N,07726.2631,W,5.94,355.03,120819,,,A*72
$GPGGA,152946.500,4308.3093,N,07726.2631,W,1,08,1.10,150.2,M,-34.4,M,,*52
$GPRMC,152946.750,A,4308.3097,N,07726.2632,W,6.01,356.37,120819,,,A*70
$GPGGA,152947.000,4308.3101,N,07726.2633,W,1,08,1.10,150.2,M,-34.4,M,,*5E
$GPRMC,152947.250,A,4308.3105,N,07726.2633,W,5.85,355.19,120819,,,A*7F
$GPGGA,152947.500,4308.3109,N,07726.2634,W,1,09,0.98,150.2,M,-34.4,M,,*54
$GPRMC,152947.750,A,4308.3112,N,07726.2635,W,5.57,359.54,120819,,,A*70
$GPGGA,152948.000,4308.3116,N,07726.2635,W,1,09,0.98,150.2,M,-34.4,M,,*51
$GPRMC,152948.250,A,4308.3120,N,07726.2635,W,5.34,1.85,120819,,,A*7C
$GPGGA,152948.500,4308.3123,N,07726.2635,W,1,09,0.98,150.2,M,-34.4,M,,*52
$GPRMC,152948.750,A,4308.3127,N,07726.2634,W,4.92,7.39,120819,,,A*73
$GPGGA,152949.000,4308.3130,N,07726.2634,W,1,09,0.98,150.2,M,-34.4,M,,*55
$GPRMC,152949.250,A,4308.3133,N,07726.2633,W,4.37,17.00,120819,,,A*41
$GPGGA,152949.500,4308.3136,N,07726.2632,W,1,09,0.98,150.1,M,-34.4,M,,*53
$GPRMC,152949.750,A,4308.3138,N,07726.2630,W,3.80,22.50,120819,,,A*44
$GPGGA,152950.000,4308.3141,N,07726.2628,W,1,09,0.95,150.1,M,-34.4,M,,*58
$GPRMC,152950.250,A,4308.3143,N,07726.2626,W,4.35,36.20,120819,,,A*49
$GPGGA,152950.500,4308.3146,N,07726.2623,W,1,09,0.98,150.1,M,-34.4,M,,*5C
$GPRMC,152950.750,A,4308.3148,N,07726.2621,W,4.28,36.39,120819,,,A*44
$GPGGA,152951.000,4308.3150,N,07726.2617,W,1,09,0.98,150.1,M,-34.4,M,,*58
$GPRMC,152951.250,A,4308.3152,N,07726.2614,W,4.13,58.18,120819,,,A*4E
$GPGGA,152951.500,4308.3153,N,07726.2610,W,1,09,0.98,150.2,M,-34.4,M,,*5A
$GPRMC,152951.750,A,4308.3155,N,07726.2606,W,4.29,61.86,120819,,,A*4B
$GPGGA,152952.000,4308.3156,N,07726.2603,W,1,09,0.98,150.2,M,-34.4,M,,*5B
$GPRMC,152952.250,A,4308.3156,N,07726.2599,W,3.28,75.34,120819,,,A*41
$GPGGA,152952.500,4308.3157,N,07726.2596,W,1,09,0.95,150.2,M,-34.4,M,,*5D
$GPRMC,152952.750,A,4308.3157,N,07726.2593,W,3.33,87.96,120819,,,A*40
$GPGGA,152953.000,4308.3157,N,07726.2590,W,1,09,0.95,150.1,M,-34.4,M,,*5C
$GPRMC,152953.250,A,4308.3157,N,07726.2587,W,2.60,84.22,120819,,,A*4A
$GPGGA,152953.500,4308.3157,N,07726.2585,W,1,09,0.95,150.1,M,-34.4,M,,*5D
$GPRMC,152953.750,A,4308.3156,N,07726.2584,W,1.39,89.48,120819,,,A*43
$GPGGA,152954.000,4308.3156,N,07726.2584,W,1,09,0.95,150.1,M,-34.4,M,,*5F
$GPRMC,152954.250,A,4308.3156,N,07726.2585,W,0.62,255.05,120819,,,A*75
$GPGGA,152954.500,4308.3155,N,07726.2588,W,1,09,0.95,150.2,M,-34.4,M,,*56
$GPRMC,152954.750,A,4308.3155,N,07726.2590,W,1.43,257.35,120819,,,A*74
$GPGGA,152955.000,4308.3155,N,07726.2593,W,1,09,0.95,150.2,M,-34.4,M,,*58
$GPRMC,152955.250,A,4308.3155,N,07726.2597,W,3.73,264.31,120819,,,A*72
$GPGGA,152955.500,4308.3155,N,07726.2603,W,1,09,0.95,150.2,M,-34.4,M,,*57
$GPRMC,152955.750,A,4308.3155,N,07726.2608,W,5.98,268.15,120819,,,A*7B
$GPGGA,152956.000,4308.3156,N,07726.2615,W,1,09,0.98,150.2,M,-34.4,M,,*58
$GPRMC,152956.250,A,4308.3156,N,07726.2623,W,8.19,275.05,120819,,,A*7E
$GPGGA,152956.500,4308.3157,N,07726.2631,W,1,09,0.98,150.2,M,-34.4,M,,*5A
$GPRMC,152956.750,A,4308.3158,N,07726.2640,W,9.43,278.11,120819,,,A*76
$GPGGA,152957.000,4308.3159,N,07726.2650,W,1,09,0.98,150.1,M,-34.4,M,,*54
$GPRMC,152957.250,A,4308.3160,N,07726.2660,W,11.55,281.67,120819,,,A*42
$GPGGA,152957.500,4308.3162,N,07726.2671,W,1,09,0.98,150.1,M,-34.4,M,,*5A
$GPRMC,152957.750,A,4308.3163,N,07726.2682,W,12.61,283.16,120819,,,A*48
$GPGGA,152958.000,4308.3165,N,07726.2694,W,1,09,0.95,150.1,M,-34.4,M,,*51
$GPRMC,152958.250,A,4308.3168,N,07726.2707,W,13.80,284.35,120819,,,A*4D
$GPGGA,152958.500,4308.3170,N,07726.2720,W,1,09,0.98,150.0,M,-34.4,M,,*52
$GPRMC,152958.750,A,4308.3172,N,07726.2734,W,14.64,284.70,120819,,,A*4F
$GPGGA,152959.000,4308.3175,N,07726.2748,W,1,09,0.98,150.0,M,-34.4,M,,*5D
$GPRMC,152959.250,A,4308.3178,N,07726.2763,W,15.96,287.09,120819,,,A*42
$GPGGA,152959.500,4308.3181,N,07726.2778,W,1,09,0.98,150.1,M,-34.4,M,,*51
$GPRMC,152959.750,A,4308.3185,N,07726.2794,W,17.32,288.47,120819,,,A*44
$GPGGA,153000.000,4308.3189,N,07726.2810,W,1,09,0.95,150.1,M,-34.4,M,,*54
$GPRMC,153000.250,A,4308.3193,N,07726.2826,W,18.10,290.37,120819,,,A*45
$GPGGA,153000.500,4308.3197,N,07726.2842,W,1,09,0.98,150.2,M,-34.4,M,,*57
$GPRMC,153000.750,A,4308.3202,N,07726.2857,W,18.45,290.96,120819,,,A*46
$GPGGA,153001.000,4308.3206,N,07726.2874,W,1,09,0.98,150.3,M,-34.4,M,,*5C
$GPRMC,153001.250,A,4308.3212,N,07726.2891,W,19.84,292.30,120819,,,A*4B
$GPGGA,153001.500,4308.3217,N,07726.2908,W,1,09,0.98,150.5,M,-34.4,M,,*55
$GPRMC,153001.750,A,4308.3222,N,07726.2926,W,20.83,294.29,120819,,,A*43
$GPGGA,153002.000,4308.3229,N,07726.2946,W,1,09,0.98,150.6,M,-34.4,M,,*57
$GPRMC,153002.250,A,4308.3236,N,07726.2965,W,22.54,297.45,120819,,,A*46
$GPGGA,153002.500,4308.3244,N,07726.2985,W,1,09,0.98,150.8,M,-34.4,M,,*58
$GPRMC,153002.750,A,4308.3251,N,07726.3004,W,23.51,298.87,120819,,,A*48
$GPGGA,153003.000,4308.3260,N,07726.3024,W,1,09,0.98,150.9,M,-34.4,M,,*58
$GPRMC,153003.250,A,4308.3269,N,07726.3045,W,24.82,299.96,120819,,,A*4A
$GPGGA,153003.500,4308.3278,N,07726.3066,W,1,09,0.98,151.1,M,-34.4,M,,*5B
$GPRMC,153003.750,A,4308.3287,N,07726.3087,W,25.36,300.40,120819,,,A*45
$GPGGA,153004.000,4308.3296,N,07726.3109,W,1,09,0.95,151.2,M,-34.4,M,,*5F
$GPRMC,153004.250,A,4308.3306,N,07726.3130,W,25.80,301.06,120819,,,A*4C
$GPGGA,153004.500,4308.3316,N,07726.3152,W,1,09,0.98,151.4,M,-34.4,M,,*56
$GPRMC,153004.750,A,4308.3325,N,07726.3174,W,26.04,301.77,120819,,,A*41
$GPGGA,153005.000,4308.3335,N,07726.3195,W,1,09,0.95,151.6,M,-34.4,M,,*57
$GPRMC,153005.250,A,4308.3346,N,07726.3217,W,26.77,302.29,120819,,,A*4A
$GPGGA,153005.500,4308.3356,N,07726.3240,W,1,09,0.95,151.8,M,-34.4,M,,*52
$GPRMC,153005.750,A,4308.3366,N,07726.3261,W,27.23,302.92,120819,,,A*4C
$GPGGA,153006.000,4308.3377,N,07726.3283,W,1,09,0.95,152.0,M,-34.4,M,,*53
$GPRMC,153006.250,A,4308.3388,N,07726.3305,W,27.27,302.99,120819,,,A*46
$GPGGA,153006.500,4308.3398,N,07726.3326,W,1,09,0.98,152.3,M,-34.4,M,,*57
$GPRMC,153006.750,A,4308.3409,N,07726.3348,W,27.27,303.16,120819,,,A*42
$GPGGA,153007.000,4308.3420,N,07726.3370,W,1,09,0.98,152.5,M,-34.4,M,,*52
$GPRMC,153007.250,A,4308.3430,N,07726.3391,W,26.97,303.40,120819,,,A*41
$GPGGA,153007.500,4308.3441,N,07726.3412,W,1,09,0.98,152.8,M,-34.4,M,,*5E
$GPRMC,153007.750,A,4308.3452,N,07726.3433,W,26.59,303.78,120819,,,A*46
$GPGGA,153008.000,4308.3462,N,07726.3453,W,1,09,0.98,153.1,M,-34.4,M,,*58
$GPRMC,153008.250,A,4308.3473,N,07726.3473,W,25.71,304.97,120819,,,A*44
$GPGGA,153008.500,4308.3483,N,07726.3493,W,1,09,0.98,153.3,M,-34.4,M,,*5C
$GPRMC,153008.750,A,4308.3494,N,07726.3512,W,25.38,306.63,120819,,,A*4A
$GPGGA,153009.000,4308.3505,N,07726.3530,W,1,09,0.95,153.5,M,-34.4,M,,*54
$GPRMC,153009.250,A,4308.3516,N,07726.3547,W,24.35,310.61,120819,,,A*4C
$GPGGA,153009.500,4308.3527,N,07726.3565,W,1,09,0.98,153.8,M,-34.4,M,,*51
$GPRMC,153009.750,A,4308.3539,N,07726.3582,W,23.97,313.88,120819,,,A*46
$GPGGA,153010.000,4308.3551,N,07726.3597,W,1,09,0.98,154.0,M,-34.4,M,,*5F
$GPRMC,153010.250,A,4308.3563,N,07726.3613,W,23.64,318.93,120819,,,A*42
$GPGGA,153010.500,4308.3576,N,07726.3627,W,1,09,0.98,154.2,M,-34.4,M,,*55
$GPRMC,153010.750,A,4308.3589,N,07726.3641,W,23.66,323.49,120819,,,A*49
$GPGGA,153011.000,4308.3602,N,07726.3654,W,1,09,0.98,154.3,M,-34.4,M,,*54
$GPRMC,153011.250,A,4308.3616,N,07726.3667,W,23.66,327.40,120819,,,A*41
$GPGGA,153011.500,4308.3630,N,07726.3678,W,1,09,0.98,154.5,M,-34.4,M,,*58
$GPRMC,153011.750,A,4308.3645,N,07726.3689,W,23.68,331.72,120819,,,A*4A
$GPGGA,153012.000,4308.3659,N,07726.3698,W,1,09,0.98,154.7,M,-34.4,M,,*5D
$GPRMC,153012.250,A,4308.3674,N,07726.3707,W,23.24,337.27,120819,,,A*47
$GPGGA,153012.500,4308.3689,N,07726.3716,W,1,09,0.98,154.8,M,-34.4,M,,*5D
$GPRMC,153012.750,A,4308.3705,N,07726.3723,W,23.20,341.70,120819,,,A*44
$GPGGA,153013.000,4308.3720,N,07726.3730,W,1,09,0.98,154.8,M,-34.4,M,,*5F
$GPRMC,153013.250,A,4308.3737,N,07726.3735,W,23.25,347.10,120819,,,A*43
$GPGGA,153013.500,4308.3753,N,07726.3741,W,1,09,0.98,154.9,M,-34.4,M,,*59
$GPRMC,153013.750,A,4308.3768,N,07726.3745,W,23.30,350.27,120819,,,A*4D
$GPGGA,153014.000,4308.3785,N,07726.3748,W,1,09,0.98,155.1,M,-34.4,M,,*50
$GPRMC,153014.250,A,4308.3801,N,07726.3751,W,23.53,352.95,120819,,,A*44
$GPGGA,153014.500,4308.3818,N,07726.3752,W,1,09,0.98,155.2,M,-34.4,M,,*56
$GPRMC,153014.750,A,4308.3834,N,07726.3754,W,23.77,355.71,120819,,,A*49
$GPGGA,153015.000,4308.3852,N,07726.3754,W,1,09,0.98,155.3,M,-34.4,M,,*5B
$GPRMC,153015.250,A,4308.3869,N,07726.3753,W,24.24,359.25,120819,,,A*4E
$GPGGA,153015.500,4308.3886,N,07726.3752,W,1,09,0.98,155.4,M,-34.4,M,,*56
$GPRMC,153015.750,A,4308.3903,N,07726.3750,W,24.42,3.03,120819,,,A*4D
$GPGGA,153016.000,4308.3921,N,07726.3748,W,1,09,0.98,155.5,M,-34.4,M,,*56
$GPRMC,153016.250,A,4308.3939,N,07726.3745,W,25.18,5.34,120819,,,A*4A
$GPGGA,153016.500,4308.3957,N,07726.3743,W,1,08,1.47,155.4,M,-34.4,M,,*5A
$GPRMC,153016.750,A,4308.3975,N,07726.3741,W,25.84,5.67,120819,,,A*40
$GPGGA,153017.000,4308.3994,N,07726.3738,W,1,09,0.98,155.5,M,-34.4,M,,*5E
$GPRMC,153017.250,A,4308.4014,N,07726.3736,W,26.68,7.20,120819,,,A*4D
$GPGGA,153017.500,4308.4033,N,07726.3733,W,1,08,1.34,155.6,M,-34.4,M,,*56
$GPRMC,153017.750,A,4308.4052,N,07726.3730,W,27.10,8.44,120819,,,A*4F
$GPGGA,153018.000,4308.4072,N,07726.3727,W,1,08,1.34,155.6,M,-34.4,M,,*5C
$GPRMC,153018.250,A,4308.4091,N,07726.3723,W,27.59,9.64,120819,,,A*46
$GPGGA,153018.500,4308.4111,N,07726.3719,W,1,09,0.98,155.6,M,-34.4,M,,*56
$GPRMC,153018.750,A,4308.4130,N,07726.3715,W,27.69,10.40,120819,,,A*71
$GPGGA,153019.000,4308.4150,N,07726.3711,W,1,09,0.95,155.7,M,-34.4,M,,*53
$GPRMC,153019.250,A,4308.4169,N,07726.3706,W,27.60,10.73,120819,,,A*72
$GPGGA,153019.500,4308.4189,N,07726.3702,W,1,09,0.98,155.7,M,-34.4,M,,*5D
$GPRMC,153019.750,A,4308.4208,N,07726.3697,W,27.42,10.82,120819,,,A*74
$GPGGA,153020.000,4308.4227,N,07726.3693,W,1,09,0.95,155.7,M,-34.4,M,,*51
$GPRMC,153020.250,A,4308.4246,N,07726.3689,W,27.39,8.43,120819,,,A*46
$GPGGA,153020.500,4308.4265,N,07726.3686,W,1,09,0.98,155.7,M,-34.4,M,,*5B
$GPRMC,153020.750,A,4308.4283,N,07726.3682,W,26.41,8.15,120819,,,A*4C
$GPGGA,153021.000,4308.4301,N,07726.3678,W,1,08,1.03,155.8,M,-34.4,M,,*50
$GPRMC,153021.250,A,4308.4320,N,07726.3674,W,25.98,8.72,120819,,,A*4F
$GPGGA,153021.500,4308.4338,N,07726.3670,W,1,09,0.98,155.9,M,-34.4,M,,*54
$GPRMC,153021.750,A,4308.4356,N,07726.3666,W,25.42,9.17,120819,,,A*4D
$GPGGA,153022.000,4308.4373,N,07726.3662,W,1,09,0.95,156.0,M,-34.4,M,,*59
$GPRMC,153022.250,A,4308.4390,N,07726.3659,W,24.27,8.75,120819,,,A*4A
$GPGGA,153022.500,4308.4407,N,07726.3656,W,1,08,1.47,156.1,M,-34.4,M,,*51
$GPRMC,153022.750,A,4308.4423,N,07726.3652,W,22.33,9.35,120819,,,A*4D
$GPGGA,153023.000,4308.4438,N,07726.3648,W,1,09,0.98,156.2,M,-34.4,M,,*57
$GPRMC,153023.250,A,4308.4453,N,07726.3645,W,20.52,9.62,120819,,,A*4F
$GPGGA,153023.500,4308.4467,N,07726.3642,W,1,09,0.98,156.2,M,-34.4,M,,*52
$GPRMC,153023.750,A,4308.4480,N,07726.3639,W,18.27,9.48,120819,,,A*4E
$GPGGA,153024.000,4308.4493,N,07726.3636,W,1,09,0.98,156.3,M,-34.4,M,,*59
$GPRMC,153024.250,A,4308.4504,N,07726.3633,W,15.19,10.70,120819,,,A*78
$GPGGA,153024.500,4308.4517,N,07726.3631,W,1,09,0.98,156.3,M,-34.4,M,,*56
$GPRMC,153024.750,A,4308.4528,N,07726.3629,W,12.21,10.82,120819,,,A*79
$GPGGA,153025.000,4308.4537,N,07726.3627,W,1,08,1.08,156.4,M,-34.4,M,,*59
$GPRMC,153025.250,A,4308.4545,N,07726.3625,W,9.03,11.10,120819,,,A*4A
$GPGGA,153025.500,4308.4551,N,07726.3623,W,1,08,1.08,156.5,M,-34.4,M,,*59
$GPRMC,153025.750,A,4308.4556,N,07726.3621,W,6.54,11.48,120819,,,A*49
$GPGGA,153026.000,4308.4561,N,07726.3619,W,1,08,1.08,156.5,M,-34.4,M,,*55
$GPRMC,153026.250,A,4308.4566,N,07726.3618,W,6.05,11.03,120819,,,A*4D
$GPGGA,153026.500,4308.4570,N,07726.3617,W,1,09,0.98,156.6,M,-34.4,M,,*54
$GPRMC,153026.750,A,4308.4575,N,07726.3616,W,6.91,5.44,120819,,,A*7F
$GPGGA,153027.000,4308.4580,N,07726.3615,W,1,09,0.98,156.6,M,-34.4,M,,*5D
$GPRMC,153027.250,A,4308.4586,N,07726.3615,W,8.67,356.03,120819,,,A*75
$GPGGA,153027.500,4308.4593,N,07726.3616,W,1,09,0.98,156.7,M,-34.4,M,,*58
$GPRMC,153027.750,A,4308.4599,N,07726.3617,W,8.64,350.13,120819,,,A*78
$GPGGA,153028.000,4308.4606,N,07726.3620,W,1,09,0.98,156.8,M,-34.4,M,,*57
$GPRMC,153028.250,A,4308.4613,N,07726.3625,W,9.86,332.79,120819,,,A*77
$GPGGA,153028.500,4308.4619,N,07726.3631,W,1,09,0.98,156.9,M,-34.4,M,,*5D
$GPRMC,153028.750,A,4308.4625,N,07726.3637,W,10.56,316.93,120819,,,A*43
$GPGGA,153029.000,4308.4630,N,07726.3644,W,1,09,0.98,156.9,M,-34.4,M,,*50
$GPRMC,153029.250,A,4308.4635,N,07726.3652,W,11.18,304.58,120819,,,A*4A
$GPGGA,153029.500,4308.4640,N,07726.3663,W,1,09,0.98,156.9,M,-34.4,M,,*57
$GPRMC,153029.750,A,4308.4644,N,07726.3673,W,12.81,299.56,120819,,,A*42
$GPGGA,153030.000,4308.4647,N,07726.3683,W,1,09,0.95,156.9,M,-34.4,M,,*5E
$GPRMC,153030.250,A,4308.4650,N,07726.3695,W,13.45,290.42,120819,,,A*47
$GPGGA,153030.500,4308.4651,N,07726.3707,W,1,09,0.98,156.9,M,-34.4,M,,*5C
$GPRMC,153030.750,A,4308.4653,N,07726.3720,W,14.31,282.73,120819,,,A*4B
$GPGGA,153031.000,4308.4654,N,07726.3735,W,1,09,0.98,156.9,M,-34.4,M,,*5C
$GPRMC,153031.250,A,4308.4654,N,07726.3750,W,16.10,276.60,120819,,,A*47
$GPGGA,153031.500,4308.4655,N,07726.3766,W,1,09,0.98,157.0,M,-34.4,M,,*56
$GPRMC,153031.750,A,4308.4655,N,07726.3782,W,17.47,275.33,120819,,,A*4A
$GPGGA,153032.000,4308.4656,N,07726.3800,W,1,09,0.95,157.0,M,-34.4,M,,*51
$GPRMC,153032.250,A,4308.4654,N,07726.3819,W,19.58,274.31,120819,,,A*43
$GPGGA,153032.500,4308.4653,N,07726.3838,W,1,09,0.98,157.1,M,-34.4,M,,*56
$GPRMC,153032.750,A,4308.4654,N,07726.3857,W,21.00,274.28,120819,,,A*42
$GPGGA,153033.000,4308.4654,N,07726.3877,W,1,09,0.95,157.2,M,-34.4,M,,*50
$GPRMC,153033.250,A,4308.4654,N,07726.3899,W,22.84,276.06,120819,,,A*45
$GPGGA,153033.500,4308.4655,N,07726.3922,W,1,09,0.98,157.3,M,-34.4,M,,*59
$GPRMC,153033.750,A,4308.4656,N,07726.3944,W,24.06,276.61,120819,,,A*4E
$GPGGA,153034.000,4308.4658,N,07726.3968,W,1,09,0.95,157.3,M,-34.4,M,,*55
$GPRMC,153034.250,A,4308.4659,N,07726.3993,W,25.61,277.63,120819,,,A*4A
$GPGGA,153034.500,4308.4661,N,07726.4018,W,1,09,0.98,157.4,M,-34.4,M,,*59
$GPRMC,153034.750,A,4308.4663,N,07726.4043,W,26.61,277.59,120819,,,A*4F
$GPGGA,153035.000,4308.4665,N,07726.4068,W,1,09,0.98,157.4,M,-34.4,M,,*5E
$GPRMC,153035.250,A,4308.4668,N,07726.4094,W,27.82,277.18,120819,,,A*43
$GPGGA,153035.500,4308.4669,N,07726.4120,W,1,09,0.98,157.4,M,-34.4,M,,*5A
$GPRMC,153035.750,A,4308.4671,N,07726.4146,W,28.23,276.73,120819,,,A*48
$GPGGA,153036.000,4308.4673,N,07726.4171,W,1,09,0.98,157.6,M,-34.4,M,,*51
$GPRMC,153036.250,A,4308.4675,N,07726.4197,W,27.81,276.92,120819,,,A*4E
$GPGGA,153036.500,4308.4677,N,07726.4223,W,1,09,0.98,157.8,M,-34.4,M,,*5A
$GPRMC,153036.750,A,4308.4679,N,07726.4248,W,27.85,277.40,120819,,,A*4C
$GPGGA,153037.000,4308.4681,N,07726.4273,W,1,09,0.98,157.9,M,-34.4,M,,*53
$GPRMC,153037.250,A,4308.4684,N,07726.4298,W,25.90,278.49,120819,,,A*47
$GPGGA,153037.500,4308.4686,N,07726.4322,W,1,09,0.98,157.8,M,-34.4,M,,*55
$GPRMC,153037.750,A,4308.4688,N,07726.4345,W,24.32,278.25,120819,,,A*4C
$GPGGA,153038.000,4308.4690,N,07726.4367,W,1,09,0.98,157.8,M,-34.4,M,,*59
$GPRMC,153038.250,A,4308.4691,N,07726.4388,W,22.15,277.33,120819,,,A*44
$GPGGA,153038.500,4308.4693,N,07726.4409,W,1,09,0.98,157.7,M,-34.4,M,,*5F
$GPRMC,153038.750,A,4308.4693,N,07726.4429,W,21.02,275.24,120819,,,A*4E
$GPGGA,153039.000,4308.4694,N,07726.4448,W,1,09,0.98,157.6,M,-34.4,M,,*58
$GPRMC,153039.250,A,4308.4694,N,07726.4467,W,19.90,272.37,120819,,,A*42
$GPGGA,153039.500,4308.4693,N,07726.4485,W,1,09,0.98,157.5,M,-34.4,M,,*58
$GPRMC,153039.750,A,4308.4690,N,07726.4502,W,18.84,266.13,120819,,,A*46
$GPGGA,153040.000,4308.4686,N,07726.4517,W,1,09,0.95,157.2,M,-34.4,M,,*57
$GPRMC,153040.250,A,4308.4682,N,07726.4531,W,17.32,253.37,120819,,,A*4C
$GPGGA,153040.500,4308.4677,N,07726.4546,W,1,08,1.08,157.2,M,-34.4,M,,*5C
$GPRMC,153040.750,A,4308.4671,N,07726.4559,W,16.76,248.48,120819,,,A*48
$GPGGA,153041.000,4308.4667,N,07726.4573,W,1,09,0.95,157.2,M,-34.4,M,,*5B
$GPRMC,153041.250,A,4308.4662,N,07726.4587,W,16.22,246.60,120819,,,A*48
$GPGGA,153041.500,4308.4655,N,07726.4598,W,1,09,0.98,157.1,M,-34.4,M,,*54
$GPRMC,153041.750,A,4308.4649,N,07726.4609,W,15.01,244.26,120819,,,A*43
$GPGGA,153042.000,4308.4642,N,07726.4620,W,1,09,0.98,157.1,M,-34.4,M,,*54
$GPRMC,153042.250,A,4308.4634,N,07726.4630,W,14.50,239.13,120819,,,A*4C
$GPGGA,153042.500,4308.4626,N,07726.4639,W,1,09,0.98,157.2,M,-34.4,M,,*58
$GPRMC,153042.750,A,4308.4618,N,07726.4648,W,14.86,234.80,120819,,,A*44
$GPGGA,153043.000,4308.4609,N,07726.4656,W,1,09,0.95,157.3,M,-34.4,M,,*54
$GPRMC,153043.250,A,4308.4597,N,07726.4664,W,15.64,227.91,120819,,,A*45
$GPGGA,153043.500,4308.4584,N,07726.4669,W,1,09,0.98,157.4,M,-34.4,M,,*51
$GPRMC,153043.750,A,4308.4572,N,07726.4676,W,16.88,220.24,120819,,,A*40
$GPGGA,153044.000,4308.4557,N,07726.4683,W,1,09,0.98,157.5,M,-34.4,M,,*58
$GPRMC,153044.250,A,4308.4540,N,07726.4689,W,20.71,215.76,120819,,,A*41
$GPGGA,153044.500,4308.4522,N,07726.4695,W,1,09,0.95,157.5,M,-34.4,M,,*55
$GPRMC,153044.750,A,4308.4503,N,07726.4701,W,23.40,211.33,120819,,,A*46
$GPGGA,153045.000,4308.4471,N,07726.4695,W,1,09,0.95,157.1,M,-34.4,M,,*52
$GPRMC,153045.250,A,4308.4449,N,07726.4699,W,27.45,198.85,120819,,,A*43
$GPGGA,153045.500,4308.4429,N,07726.4706,W,1,09,0.98,157.0,M,-34.4,M,,*5D
$GPRMC,153045.750,A,4308.4409,N,07726.4713,W,28.32,198.75,120819,,,A*41
$GPGGA,153046.000,4308.4388,N,07726.4721,W,1,09,0.95,156.9,M,-34.4,M,,*57
$GPRMC,153046.250,A,4308.4368,N,07726.4728,W,29.88,198.76,120819,,,A*4C
$GPGGA,153046.500,4308.4346,N,07726.4736,W,1,09,0.98,156.7,M,-34.4,M,,*55
$GPRMC,153046.750,A,4308.4323,N,07726.4746,W,31.31,199.20,120819,,,A*47
$GPGGA,153047.000,4308.4302,N,07726.4756,W,1,09,0.95,155.6,M,-34.4,M,,*58
$GPRMC,153047.250,A,4308.4279,N,07726.4765,W,32.26,199.35,120819,,,A*4D
$GPGGA,153047.500,4308.4257,N,07726.4775,W,1,09,0.98,155.2,M,-34.4,M,,*54
$GPRMC,153047.750,A,4308.4234,N,07726.4784,W,32.93,197.31,120819,,,A*4A
$GPGGA,153048.000,4308.4211,N,07726.4795,W,1,09,0.95,154.6,M,-34.4,M,,*5A
$GPRMC,153048.250,A,4308.4188,N,07726.4806,W,34.15,198.78,120819,,,A*4B
$GPGGA,153048.500,4308.4165,N,07726.4815,W,1,09,0.98,154.4,M,-34.4,M,,*57
$GPRMC,153048.750,A,4308.4141,N,07726.4825,W,35.03,198.96,120819,,,A*4C
$GPGGA,153049.000,4308.4118,N,07726.4835,W,1,09,0.95,154.3,M,-34.4,M,,*51
$GPRMC,153049.250,A,4308.4094,N,07726.4846,W,35.37,199.07,120819,,,A*4A
$GPGGA,153049.500,4308.4070,N,07726.4856,W,1,09,0.98,154.1,M,-34.4,M,,*51
$GPRMC,153049.750,A,4308.4046,N,07726.4867,W,35.65,198.79,120819,,,A*4C
$GPGGA,153050.000,4308.4021,N,07726.4877,W,1,09,0.95,153.9,M,-34.4,M,,*59
$GPRMC,153050.250,A,4308.3997,N,07726.4887,W,36.62,198.41,120819,,,A*42
$GPGGA,153050.500,4308.3971,N,07726.4897,W,1,09,0.98,153.6,M,-34.4,M,,*5B
$GPRMC,153050.750,A,4308.3946,N,07726.4907,W,37.02,197.43,120819,,,A*48
$GPGGA,153051.000,4308.3920,N,07726.4918,W,1,09,0.95,153.3,M,-34.4,M,,*55
$GPRMC,153051.250,A,4308.3893,N,07726.4928,W,38.29,196.68,120819,,,A*46
$GPGGA,153051.500,4308.3867,N,07726.4938,W,1,09,0.95,153.1,M,-34.4,M,,*52
$GPRMC,153051.750,A,4308.3840,N,07726.4947,W,38.97,195.07,120819,,,A*4B
$GPGGA,153052.000,4308.3813,N,07726.4956,W,1,09,0.95,152.9,M,-34.4,M,,*56
$GPRMC,153052.250,A,4308.3785,N,07726.4965,W,39.43,193.71,120819,,,A*44
$GPGGA,153052.500,4308.3757,N,07726.4973,W,1,09,0.95,152.7,M,-34.4,M,,*55
$GPRMC,153052.750,A,4308.3729,N,07726.4981,W,39.78,193.18,120819,,,A*4A
$GPGGA,153053.000,4308.3701,N,07726.4990,W,1,09,0.98,152.4,M,-34.4,M,,*51
$GPRMC,153053.250,A,4308.3673,N,07726.4996,W,40.01,192.25,120819,,,A*49
$GPGGA,153053.500,4308.3645,N,07726.5003,W,1,09,0.98,152.4,M,-34.4,M,,*57
$GPRMC,153053.750,A,4308.3616,N,07726.5009,W,40.21,191.03,120819,,,A*44
$GPGGA,153054.000,4308.3587,N,07726.5016,W,1,09,0.98,152.4,M,-34.4,M,,*5C
$GPRMC,153054.250,A,4308.3558,N,07726.5022,W,41.27,190.16,120819,,,A*44
$GPGGA,153054.500,4308.3528,N,07726.5028,W,1,09,0.98,152.4,M,-34.4,M,,*51
$GPRMC,153054.750,A,4308.3498,N,07726.5034,W,42.21,189.28,120819,,,A*4B
$GPGGA,153055.000,4308.3467,N,07726.5039,W,1,09,0.98,152.3,M,-34.4,M,,*58
$GPRMC,153055.250,A,4308.3436,N,07726.5045,W,43.08,188.07,120819,,,A*4B
$GPGGA,153055.500,4308.3405,N,07726.5050,W,1,09,0.98,152.3,M,-34.4,M,,*56
$GPRMC,153055.750,A,4308.3374,N,07726.5055,W,43.53,186.91,120819,,,A*41
$GPGGA,153056.000,4308.3342,N,07726.5059,W,1,09,0.98,152.5,M,-34.4,M,,*5B
$GPRMC,153056.250,A,4308.3311,N,07726.5063,W,43.90,186.17,120819,,,A*40
$GPGGA,153056.500,4308.3280,N,07726.5067,W,1,09,0.98,152.5,M,-34.4,M,,*5C
$GPRMC,153056.750,A,4308.3250,N,07726.5071,W,44.00,185.68,120819,,,A*47
$GPGGA,153057.000,4308.3219,N,07726.5075,W,1,09,0.98,152.5,M,-34.4,M,,*5B
$GPRMC,153057.250,A,4308.3188,N,07726.5079,W,43.80,184.90,120819,,,A*44
$GPGGA,153057.500,4308.3157,N,07726.5083,W,1,09,0.98,152.7,M,-34.4,M,,*5C
$GPRMC,153057.750,A,4308.3126,N,07726.5086,W,44.03,184.22,120819,,,A*40
$GPGGA,153058.000,4308.3095,N,07726.5088,W,1,09,0.98,152.8,M,-34.4,M,,*5D
$GPRMC,153058.250,A,4308.3064,N,07726.5091,W,44.28,183.32,120819,,,A*44
$GPGGA,153058.500,4308.3033,N,07726.5092,W,1,09,0.98,153.0,M,-34.4,M,,*56
$GPRMC,153058.750,A,4308.3001,N,07726.5095,W,44.83,183.00,120819,,,A*46
$GPGGA,153059.000,4308.2970,N,07726.5096,W,1,09,0.95,153.1,M,-34.4,M,,*55
$GPRMC,153059.250,A,4308.2938,N,07726.5097,W,45.41,182.81,120819,,,A*45
$GPGGA,153059.500,4308.2906,N,07726.5098,W,1,09,0.98,153.0,M,-34.4,M,,*53
$GPRMC,153059.750,A,4308.2874,N,07726.5100,W,45.52,182.64,120819,,,A*4F
$GPGGA,153100.000,4308.2843,N,07726.5102,W,1,09,0.98,153.0,M,-34.4,M,,*59
$GPRMC,153100.250,A,4308.2811,N,07726.5104,W,45.08,183.14,120819,,,A*49
$GPGGA,153100.500,4308.2779,N,07726.5105,W,1,09,0.98,153.0,M,-34.4,M,,*5D
$GPRMC,153100.750,A,4308.2748,N,07726.5107,W,44.74,182.11,120819,,,A*42
$GPGGA,153101.000,4308.2717,N,07726.5107,W,1,09,0.95,152.9,M,-34.4,M,,*56
$GPRMC,153101.250,A,4308.2686,N,07726.5108,W,44.53,179.67,120819,,,A*4A
$GPGGA,153101.500,4308.2655,N,07726.5108,W,1,09,0.98,152.9,M,-34.4,M,,*56
$GPRMC,153101.750,A,4308.2624,N,07726.5108,W,43.92,179.23,120819,,,A*4D
$GPGGA,153102.000,4308.2594,N,07726.5109,W,1,09,0.98,153.0,M,-34.4,M,,*57
$GPRMC,153102.250,A,4308.2563,N,07726.5109,W,43.63,179.76,120819,,,A*44
$GPGGA,153102.500,4308.2533,N,07726.5110,W,1,08,1.09,153.2,M,-34.4,M,,*5D
$GPRMC,153102.750,A,4308.2503,N,07726.5111,W,43.39,180.28,120819,,,A*4C
$GPGGA,153103.000,4308.2473,N,07726.5111,W,1,09,0.98,153.4,M,-34.4,M,,*53
$GPRMC,153103.250,A,4308.2443,N,07726.5112,W,43.30,180.86,120819,,,A*43
$GPGGA,153103.500,4308.2414,N,07726.5112,W,1,08,1.09,153.5,M,-34.4,M,,*5D
$GPRMC,153103.750,A,4308.2384,N,07726.5113,W,43.10,181.20,120819,,,A*44
$GPGGA,153104.000,4308.2355,N,07726.5114,W,1,08,1.08,153.5,M,-34.4,M,,*5A
$GPRMC,153104.250,A,4308.2326,N,07726.5115,W,42.90,181.87,120819,,,A*4C
$GPGGA,153104.500,4308.2297,N,07726.5117,W,1,09,0.98,153.6,M,-34.4,M,,*59
$GPRMC,153104.750,A,4308.2268,N,07726.5118,W,41.87,181.72,120819,,,A*40
$GPGGA,153105.000,4308.2239,N,07726.5118,W,1,09,0.98,153.6,M,-34.4,M,,*56
$GPRMC,153105.250,A,4308.2210,N,07726.5119,W,41.40,181.45,120819,,,A*45
$GPGGA,153105.500,4308.2181,N,07726.5121,W,1,08,1.09,153.7,M,-34.4,M,,*50
$GPRMC,153105.750,A,4308.2153,N,07726.5121,W,41.04,181.59,120819,,,A*42
$GPGGA,153106.000,4308.2125,N,07726.5122,W,1,08,1.09,153.7,M,-34.4,M,,*5B
$GPRMC,153106.250,A,4308.2097,N,07726.5122,W,40.48,182.20,120819,,,A*4A
$GPGGA,153106.500,4308.2069,N,07726.5123,W,1,08,1.09,153.5,M,-34.4,M,,*54
$GPRMC,153106.750,A,4308.2041,N,07726.5125,W,40.20,182.57,120819,,,A*4D
$GPGGA,153107.000,4308.2013,N,07726.5126,W,1,09,0.98,153.4,M,-34.4,M,,*51
$GPRMC,153107.250,A,4308.1985,N,07726.5126,W,40.10,182.41,120819,,,A*4C
$GPGGA,153107.500,4308.1957,N,07726.5128,W,1,09,0.98,153.3,M,-34.4,M,,*57
$GPRMC,153107.750,A,4308.1930,N,07726.5130,W,39.96,182.85,120819,,,A*48
$GPGGA,153108.000,4308.1902,N,07726.5131,W,1,09,0.98,153.2,M,-34.4,M,,*54
$GPRMC,153108.250,A,4308.1874,N,07726.5132,W,39.77,182.42,120819,,,A*45
$GPGGA,153108.500,4308.1847,N,07726.5133,W,1,09,0.98,153.1,M,-34.4,M,,*50
$GPRMC,153108.750,A,4308.1819,N,07726.5133,W,39.57,181.48,120819,,,A*41
$GPGGA,153109.000,4308.1792,N,07726.5134,W,1,09,0.98,153.1,M,-34.4,M,,*54
$GPRMC,153109.250,A,4308.1764,N,07726.5134,W,39.48,181.48,120819,,,A*49
$GPGGA,153109.500,4308.1737,N,07726.5135,W,1,09,0.98,153.0,M,-34.4,M,,*5E
$GPRMC,153109.750,A,4308.1710,N,07726.5137,W,39.16,181.57,120819,,,A*49
$GPGGA,153110.000,4308.1682,N,07726.5138,W,1,09,0.98,152.8,M,-34.4,M,,*58
$GPRMC,153110.250,A,4308.1655,N,07726.5138,W,39.06,181.21,120819,,,A*4B
$GPGGA,153110.500,4308.1628,N,07726.5138,W,1,09,0.98,153.0,M,-34.4,M,,*54
$GPRMC,153110.750,A,4308.1601,N,07726.5139,W,38.90,181.11,120819,,,A*43
$GPGGA,153111.000,4308.1574,N,07726.5140,W,1,09,0.98,153.0,M,-34.4,M,,*55
$GPRMC,153111.250,A,4308.1547,N,07726.5140,W,38.76,180.74,120819,,,A*42
$GPGGA,153111.500,4308.1521,N,07726.5141,W,1,09,0.98,153.0,M,-34.4,M,,*51
$GPRMC,153111.750,A,4308.1495,N,07726.5142,W,37.89,181.06,120819,,,A*40
$GPGGA,153112.000,4308.1468,N,07726.5144,W,1,09,0.98,152.9,M,-34.4,M,,*56
$GPRMC,153112.250,A,4308.1442,N,07726.5144,W,37.50,180.71,120819,,,A*4F
$GPGGA,153112.500,4308.1416,N,07726.5145,W,1,09,0.98,152.8,M,-34.4,M,,*5A
$GPRMC,153112.750,A,4308.1390,N,07726.5146,W,37.41,181.08,120819,,,A*4F
$GPGGA,153113.000,4308.1364,N,07726.5147,W,1,09,0.98,152.8,M,-34.4,M,,*5E
$GPRMC,153113.250,A,4308.1338,N,07726.5147,W,37.15,181.05,120819,,,A*44
$GPGGA,153113.500,4308.1312,N,07726.5148,W,1,09,0.98,152.8,M,-34.4,M,,*55
$GPRMC,153113.750,A,4308.1287,N,07726.5148,W,36.86,180.31,120819,,,A*46
$GPGGA,153114.000,4308.1261,N,07726.5148,W,1,09,0.98,152.8,M,-34.4,M,,*52
$GPRMC,153114.250,A,4308.1236,N,07726.5149,W,36.53,180.34,120819,,,A*42
$GPGGA,153114.500,4308.1211,N,07726.5149,W,1,09,0.98,152.7,M,-34.4,M,,*5E
$GPRMC,153114.750,A,4308.1185,N,07726.5150,W,36.22,181.17,120819,,,A*42
$GPGGA,153115.000,4308.1160,N,07726.5152,W,1,09,0.98,152.7,M,-34.4,M,,*55
$GPRMC,153115.250,A,4308.1136,N,07726.5153,W,35.93,182.24,120819,,,A*47
$GPGGA,153115.500,4308.1111,N,07726.5155,W,1,09,0.98,152.6,M,-34.4,M,,*50
$GPRMC,153115.750,A,4308.1086,N,07726.5157,W,35.83,183.15,120819,,,A*4E
$GPGGA,153116.000,4308.1061,N,07726.5159,W,1,09,0.98,152.6,M,-34.4,M,,*5C
$GPRMC,153116.250,A,4308.1037,N,07726.5162,W,35.46,183.99,120819,,,A*49
$GPGGA,153116.500,4308.1012,N,07726.5164,W,1,09,0.98,152.7,M,-34.4,M,,*52
$GPRMC,153116.750,A,4308.0987,N,07726.5167,W,35.37,183.69,120819,,,A*43
$GPGGA,153117.000,4308.0963,N,07726.5169,W,1,09,0.98,152.7,M,-34.4,M,,*55
$GPRMC,153117.250,A,4308.0938,N,07726.5171,W,35.52,182.77,120819,,,A*49
$GPGGA,153117.500,4308.0913,N,07726.5172,W,1,09,0.98,152.7,M,-34.4,M,,*5D
$GPRMC,153117.750,A,4308.0888,N,07726.5173,W,35.65,181.37,120819,,,A*47
$GPGGA,153118.000,4308.0863,N,07726.5174,W,1,09,0.98,152.7,M,-34.4,M,,*57
$GPRMC,153118.250,A,4308.0838,N,07726.5174,W,35.81,179.73,120819,,,A*4C
$GPGGA,153118.500,4308.0813,N,07726.5174,W,1,09,0.98,152.7,M,-34.4,M,,*55
$GPRMC,153118.750,A,4308.0789,N,07726.5173,W,35.55,178.46,120819,,,A*45
$GPGGA,153119.000,4308.0763,N,07726.5171,W,1,09,0.98,152.6,M,-34.4,M,,*5D
$GPRMC,153119.250,A,4308.0738,N,07726.5170,W,35.78,177.29,120819,,,A*41
$GPGGA,153119.500,4308.0712,N,07726.5167,W,1,09,0.98,152.4,M,-34.4,M,,*5B
$GPRMC,153119.750,A,4308.0686,N,07726.5165,W,37.20,176.85,120819,,,A*4C
$GPGGA,153120.000,4308.0660,N,07726.5163,W,1,09,0.98,152.2,M,-34.4,M,,*52
$GPRMC,153120.250,A,4308.0634,N,07726.5160,W,38.11,177.01,120819,,,A*4F
$GPGGA,153120.500,4308.0608,N,07726.5158,W,1,09,0.98,152.0,M,-34.4,M,,*53
$GPRMC,153120.750,A,4308.0581,N,07726.5156,W,38.34,177.37,120819,,,A*40
$GPGGA,153121.000,4308.0555,N,07726.5154,W,1,09,0.97,151.8,M,-34.4,M,,*54
$GPRMC,153121.250,A,4308.0528,N,07726.5152,W,38.61,177.68,120819,,,A*49
$GPGGA,153121.500,4308.0502,N,07726.5150,W,1,09,0.98,151.5,M,-34.4,M,,*55
$GPRMC,153121.750,A,4308.0475,N,07726.5149,W,38.38,178.11,120819,,,A*42
$GPGGA,153122.000,4308.0448,N,07726.5147,W,1,09,0.98,151.2,M,-34.4,M,,*5D
$GPRMC,153122.250,A,4308.0422,N,07726.5145,W,38.46,177.93,120819,,,A*46
$GPGGA,153122.500,4308.0395,N,07726.5143,W,1,09,0.98,150.9,M,-34.4,M,,*51
$GPRMC,153122.750,A,4308.0368,N,07726.5141,W,38.42,177.15,120819,,,A*44
$GPGGA,153123.000,4308.0342,N,07726.5139,W,1,09,0.98,150.5,M,-34.3,M,,*59
$GPRMC,153123.250,A,4308.0315,N,07726.5136,W,38.38,176.21,120819,,,A*41
$GPGGA,153123.500,4308.0288,N,07726.5133,W,1,09,0.97,150.3,M,-34.3,M,,*58
$GPRMC,153123.750,A,4308.0261,N,07726.5130,W,38.34,175.33,120819,,,A*4C
$GPGGA,153124.000,4308.0235,N,07726.5123,W,1,09,0.98,151.2,M,-34.3,M,,*52
$GPRMC,153124.250,A,4308.0208,N,07726.5119,W,38.57,174.14,120819,,,A*4B
$GPGGA,153124.500,4308.0181,N,07726.5114,W,1,09,0.98,151.3,M,-34.3,M,,*5E
$GPRMC,153124.750,A,4308.0155,N,07726.5109,W,38.53,173.01,120819,,,A*43
$GPGGA,153125.000,4308.0128,N,07726.5104,W,1,09,0.98,151.3,M,-34.3,M,,*58
$GPRMC,153125.250,A,4308.0101,N,07726.5099,W,38.51,173.05,120819,,,A*48
$GPGGA,153125.500,4308.0074,N,07726.5094,W,1,09,0.98,151.3,M,-34.3,M,,*5D
$GPRMC,153125.750,A,4308.0048,N,07726.5089,W,38.32,172.32,120819,,,A*40
$GPGGA,153126.000,4308.0022,N,07726.5084,W,1,09,0.97,151.1,M,-34.3,M,,*54
$GPRMC,153126.250,A,4307.9995,N,07726.5078,W,38.25,172.16,120819,,,A*47
$GPGGA,153126.500,4307.9969,N,07726.5073,W,1,09,0.98,151.1,M,-34.3,M,,*56
$GPRMC,153126.750,A,4307.9943,N,07726.5068,W,38.05,172.41,120819,,,A*48
$GPGGA,153127.000,4307.9917,N,07726.5063,W,1,09,0.97,151.0,M,-34.3,M,,*54
$GPRMC,153127.250,A,4307.9891,N,07726.5058,W,37.54,171.85,120819,,,A*41
$GPGGA,153127.500,4307.9865,N,07726.5052,W,1,09,0.97,150.9,M,-34.3,M,,*5F
$GPRMC,153127.750,A,4307.9840,N,07726.5047,W,37.01,171.60,120819,,,A*4D
$GPGGA,153128.000,4307.9815,N,07726.5041,W,1,09,0.98,150.9,M,-34.3,M,,*5F
$GPRMC,153128.250,A,4307.9789,N,07726.5036,W,36.41,171.30,120819,,,A*4B
$GPGGA,153128.500,4307.9764,N,07726.5030,W,1,09,0.98,150.9,M,-34.3,M,,*55
$GPRMC,153128.750,A,4307.9739,N,07726.5024,W,36.14,171.09,120819,,,A*4C
$GPGGA,153129.000,4307.9715,N,07726.5018,W,1,09,0.98,150.9,M,-34.3,M,,*5D
$GPRMC,153129.250,A,4307.9690,N,07726.5012,W,35.86,170.69,120819,,,A*40
$GPGGA,153129.500,4307.9666,N,07726.5006,W,1,09,0.98,150.9,M,-34.3,M,,*52
$GPRMC,153129.750,A,4307.9642,N,07726.5000,W,35.70,170.70,120819,,,A*48
$GPGGA,153130.000,4307.9618,N,07726.4994,W,1,09,0.97,151.0,M,-34.3,M,,*52
$GPRMC,153130.250,A,4307.9594,N,07726.4988,W,34.77,171.20,120819,,,A*47
$GPGGA,153130.500,4307.9570,N,07726.4983,W,1,09,0.98,150.9,M,-34.3,M,,*5B
$GPRMC,153130.750,A,4307.9546,N,07726.4977,W,34.53,170.67,120819,,,A*49
$GPGGA,153131.000,4307.9523,N,07726.4972,W,1,09,0.98,150.9,M,-34.3,M,,*57
$GPRMC,153131.250,A,4307.9499,N,07726.4967,W,34.15,170.24,120819,,,A*4A
$GPGGA,153131.500,4307.9476,N,07726.4962,W,1,09,0.97,150.9,M,-34.3,M,,*5D
$GPRMC,153131.750,A,4307.9453,N,07726.4957,W,33.99,170.97,120819,,,A*41
$GPGGA,153132.000,4307.9429,N,07726.4952,W,1,09,0.97,150.9,M,-34.3,M,,*52
$GPRMC,153132.250,A,4307.9406,N,07726.4948,W,33.80,172.18,120819,,,A*44
$GPGGA,153132.500,4307.9383,N,07726.4943,W,1,09,0.97,150.9,M,-34.3,M,,*50
$GPRMC,153132.750,A,4307.9361,N,07726.4939,W,33.65,172.63,120819,,,A*46
$GPGGA,153133.000,4307.9338,N,07726.4935,W,1,09,0.97,150.7,M,-34.3,M,,*5B
$GPRMC,153133.250,A,4307.9315,N,07726.4930,W,32.67,172.92,120819,,,A*45
$GPGGA,153133.500,4307.9293,N,07726.4927,W,1,09,0.97,150.7,M,-34.3,M,,*5D
$GPRMC,153133.750,A,4307.9270,N,07726.4923,W,32.54,173.20,120819,,,A*48
$GPGGA,153134.000,4307.9248,N,07726.4918,W,1,09,0.97,150.6,M,-34.3,M,,*54
$GPRMC,153134.250,A,4307.9225,N,07726.4914,W,32.25,172.95,120819,,,A*47
$GPGGA,153134.500,4307.9203,N,07726.4910,W,1,09,0.97,150.5,M,-34.3,M,,*55
$GPRMC,153134.750,A,4307.9181,N,07726.4906,W,32.05,173.25,120819,,,A*44
$GPGGA,153135.000,4307.9159,N,07726.4903,W,1,09,0.97,150.4,M,-34.3,M,,*5E
$GPRMC,153135.250,A,4307.9137,N,07726.4900,W,31.98,173.91,120819,,,A*43
$GPGGA,153135.500,4307.9115,N,07726.4897,W,1,09,0.97,150.2,M,-34.3,M,,*59
$GPRMC,153135.750,A,4307.9093,N,07726.4893,W,31.43,173.89,120819,,,A*4D
$GPGGA,153136.000,4307.9071,N,07726.4890,W,1,09,0.97,150.1,M,-34.3,M,,*58
$GPRMC,153136.250,A,4307.9050,N,07726.4887,W,31.17,173.90,120819,,,A*48
$GPGGA,153136.500,4307.9028,N,07726.4883,W,1,09,0.97,150.1,M,-34.3,M,,*53
$GPRMC,153136.750,A,4307.9007,N,07726.4880,W,30.51,173.35,120819,,,A*44
$GPGGA,153137.000,4307.8987,N,07726.4877,W,1,09,0.97,150.1,M,-34.3,M,,*51
$GPRMC,153137.250,A,4307.8968,N,07726.4875,W,28.05,173.79,120819,,,A*4B
$GPGGA,153137.500,4307.8949,N,07726.4872,W,1,09,0.97,150.1,M,-34.3,M,,*53
$GPRMC,153137.750,A,4307.8931,N,07726.4869,W,26.80,174.40,120819,,,A*41
$GPGGA,153138.000,4307.8913,N,07726.4867,W,1,09,0.97,150.1,M,-34.3,M,,*52
$GPRMC,153138.250,A,4307.8895,N,07726.4865,W,25.37,174.78,120819,,,A*4C
$GPGGA,153138.500,4307.8878,N,07726.4863,W,1,09,0.97,150.0,M,-34.3,M,,*5E
$GPRMC,153138.750,A,4307.8862,N,07726.4861,W,24.04,174.55,120819,,,A*4B
$GPGGA,153139.000,4307.8846,N,07726.4859,W,1,09,0.98,149.8,M,-34.3,M,,*51
$GPRMC,153139.250,A,4307.8831,N,07726.4858,W,22.38,174.38,120819,,,A*41
$GPGGA,153139.500,4307.8816,N,07726.4856,W,1,09,0.95,149.8,M,-34.3,M,,*53
$GPRMC,153139.750,A,4307.8801,N,07726.4855,W,21.20,174.64,120819,,,A*49
$GPGGA,153140.000,4307.8787,N,07726.4853,W,1,09,0.95,149.7,M,-34.3,M,,*55
$GPRMC,153140.250,A,4307.8773,N,07726.4852,W,19.95,174.69,120819,,,A*47
$GPGGA,153140.500,4307.8759,N,07726.4850,W,1,09,0.98,149.6,M,-34.3,M,,*5C
$GPRMC,153140.750,A,4307.8746,N,07726.4849,W,18.29,175.72,120819,,,A*43
$GPGGA,153141.000,4307.8734,N,07726.4848,W,1,09,0.97,149.6,M,-34.3,M,,*55
$GPRMC,153141.250,A,4307.8722,N,07726.4847,W,16.75,175.13,120819,,,A*4B
$GPGGA,153141.500,4307.8711,N,07726.4846,W,1,09,0.97,149.5,M,-34.3,M,,*5A
$GPRMC,153141.750,A,4307.8701,N,07726.4846,W,14.94,175.03,120819,,,A*42
$GPGGA,153142.000,4307.8692,N,07726.4846,W,1,09,0.97,149.5,M,-34.3,M,,*56
$GPRMC,153142.250,A,4307.8684,N,07726.4846,W,12.31,175.37,120819,,,A*46
$GPGGA,153142.500,4307.8676,N,07726.4846,W,1,09,0.97,149.3,M,-34.3,M,,*5F
$GPRMC,153142.750,A,4307.8669,N,07726.4846,W,9.33,175.55,120819,,,A*7C
$GPGGA,153143.000,4307.8663,N,07726.4845,W,1,09,0.97,149.1,M,-34.3,M,,*5E
$GPRMC,153143.250,A,4307.8658,N,07726.4845,W,6.51,174.81,120819,,,A*7A
$GPGGA,153143.500,4307.8654,N,07726.4845,W,1,09,0.97,149.0,M,-34.3,M,,*5E
$GPRMC,153143.750,A,4307.8651,N,07726.4845,W,4.96,172.13,120819,,,A*72
$GPGGA,153144.000,4307.8648,N,07726.4845,W,1,09,0.97,149.0,M,-34.3,M,,*51
$GPRMC,153144.250,A,4307.8646,N,07726.4845,W,3.46,174.29,120819,,,A*73
$GPGGA,153144.500,4307.8644,N,07726.4845,W,1,09,0.95,149.0,M,-34.3,M,,*5A
$GPRMC,153144.750,A,4307.8643,N,07726.4844,W,1.99,174.29,120819,,,A*72
$GPGGA,153145.000,4307.8642,N,07726.4844,W,1,09,0.95,149.1,M,-34.3,M,,*58
$GPRMC,153145.250,A,4307.8642,N,07726.4844,W,0.06,174.29,120819,,,A*70
$GPGGA,153145.500,4307.8642,N,07726.4844,W,1,09,0.95,149.1,M,-34.3,M,,*5D
$GPRMC,153145.750,A,4307.8643,N,07726.4845,W,0.03,174.29,120819,,,A*70
$GPGGA,153146.000,4307.8643,N,07726.4845,W,1,09,0.95,149.0,M,-34.3,M,,*5A
$GPRMC,153146.250,A,4307.8644,N,07726.4845,W,0.01,174.29,120819,,,A*73
$GPGGA,153146.500,4307.8644,N,07726.4845,W,1,09,0.95,149.1,M,-34.3,M,,*59
$GPRMC,153146.750,A,4307.8645,N,07726.4845,W,0.00,174.29,120819,,,A*76
$GPGGA,153147.000,4307.8645,N,07726.4845,W,1,09,0.95,149.1,M,-34.3,M,,*5C
$GPRMC,153147.250,A,4307.8646,N,07726.4845,W,0.00,174.29,120819,,,A*71
$GPGGA,153147.500,4307.8646,N,07726.4845,W,1,09,0.95,149.0,M,-34.3,M,,*5B
$GPRMC,153147.750,A,4307.8647,N,07726.4845,W,0.00,174.29,120819,,,A*75
$GPGGA,153148.000,4307.8647,N,07726.4844,W,1,09,0.95,149.0,M,-34.3,M,,*51
$GPRMC,153148.250,A,4307.8647,N,07726.4844,W,0.00,174.29,120819,,,A*7E
$GPGGA,153148.500,4307.8647,N,07726.4844,W,1,09,0.95,149.0,M,-34.3,M,,*54
$GPRMC,153148.750,A,4307.8647,N,07726.4844,W,0.00,174.29,120819,,,A*7B
$GPGGA,153149.000,4307.8647,N,07726.4844,W,1,09,0.95,149.0,M,-34.3,M,,*50
$GPRMC,153149.250,A,4307.8647,N,07726.4844,W,0.00,174.29,120819,,,A*7F
$GPGGA,153149.500,4307.8647,N,07726.4844,W,1,09,0.95,149.0,M,-34.3,M,,*55
$GPRMC,153149.750,A,4307.8647,N,07726.4844,W,0.01,174.29,120819,,,A*7B
$GPGGA,153150.000,4307.8647,N,07726.4844,W,1,09,0.95,149.0,M,-34.3,M,,*58
$GPRMC,153150.250,A,4307.8647,N,07726.4844,W,0.00,174.29,120819,,,A*77
$GPGGA,153150.500,4307.8647,N,07726.4844,W,1,09,0.95,149.0,M,-34.3,M,,*5D
$GPRMC,153150.750,A,4307.8647,N,07726.4844,W,0.00,174.29,120819,,,A*72
$GPGGA,153151.000,4307.8647,N,07726.4844,W,1,09,0.97,149.0,M,-34.3,M,,*5B
$GPRMC,153151.250,A,4307.8648,N,07726.4844,W,0.00,174.29,120819,,,A*79
$GPGGA,153151.500,4307.8648,N,07726.4844,W,1,09,0.95,149.0,M,-34.3,M,,*53
$GPRMC,153151.750,A,4307.8647,N,07726.4844,W,0.00,174.29,120819,,,A*73
$GPGGA,153152.000,4307.8647,N,07726.4844,W,1,09,0.95,149.0,M,-34.3,M,,*5A
$GPRMC,153152.250,A,4307.8647,N,07726.4844,W,0.00,174.29,120819,,,A*75
$GPGGA,153152.500,4307.8647,N,07726.4844,W,1,09,0.95,149.0,M,-34.3,M,,*5F
$GPRMC,153152.750,A,4307.8647,N,07726.4844,W,0.00,174.29,120819,,,A*70
$GPGGA,153153.000,4307.8647,N,07726.4844,W,1,09,0.95,149.0,M,-34.3,M,,*5B
$GPRMC,153153.250,A,4307.8648,N,07726.4844,W,0.00,174.29,120819,,,A*7B
$GPGGA,153153.500,4307.8647,N,07726.4844,W,1,09,0.95,149.0,M,-34.3,M,,*5E
$GPRMC,153153.750,A,4307.8648,N,07726.4844,W,0.00,174.29,120819,,,A*7E
$GPGGA,153154.000,4307.8647,N,07726.4844,W,1,09,0.95,149.0,M,-34.3,M,,*5C
$GPRMC,153154.250,A,4307.8648,N,07726.4844,W,0.00,174.29,120819,,,A*7C
$GPGGA,153154.500,4307.8648,N,07726.4844,W,1,09,0.95,149.0,M,-34.3,M,,*56
$GPRMC,153154.750,A,4307.8648,N,07726.4844,W,0.00,174.29,120819,,,A*79
$GPGGA,153155.000,4307.8647,N,07726.4844,W,1,09,0.95,149.0,M,-34.3,M,,*5D
$GPRMC,153155.250,A,4307.8648,N,07726.4844,W,0.00,174.29,120819,,,A*7D
$GPGGA,153155.500,4307.8648,N,07726.4844,W,1,09,0.95,149.0,M,-34.3,M,,*57
$GPRMC,153155.750,A,4307.8648,N,07726.4844,W,0.00,174.29,120819,,,A*78
$GPGGA,153156.000,4307.8648,N,07726.4844,W,1,09,0.97,149.0,M,-34.3,M,,*53
$GPRMC,153156.250,A,4307.8647,N,07726.4844,W,0.00,174.29,120819,,,A*71
$GPGGA,153156.500,4307.8648,N,07726.4844,W,1,09,0.95,149.0,M,-34.3,M,,*54
$GPRMC,153156.750,A,4307.8648,N,07726.4844,W,0.00,174.29,120819,,,A*7B
$GPGGA,153157.000,4307.8648,N,07726.4844,W,1,09,0.95,149.0,M,-34.3,M,,*50
$GPRMC,153157.250,A,4307.8647,N,07726.4844,W,0.00,174.29,120819,,,A*70
$GPGGA,153157.500,4307.8648,N,07726.4844,W,1,09,0.95,149.0,M,-34.3,M,,*55
$GPRMC,153157.750,A,4307.8647,N,07726.4844,W,0.01,174.29,120819,,,A*74
$GPGGA,153158.000,4307.8647,N,07726.4844,W,1,09,0.95,149.0,M,-34.3,M,,*50
$GPRMC,153158.250,A,4307.8647,N,07726.4844,W,0.01,174.29,120819,,,A*7E
$GPGGA,153158.500,4307.8648,N,07726.4844,W,1,09,0.95,149.0,M,-34.3,M,,*5A
$GPRMC,153158.750,A,4307.8648,N,07726.4844,W,0.00,174.29,120819,,,A*75
$GPGGA,153159.000,4307.8647,N,07726.4844,W,1,09,0.95,149.0,M,-34.3,M,,*51
$GPRMC,153159.250,A,4307.8648,N,07726.4844,W,0.00,174.29,120819,,,A*71
$GPGGA,153159.500,4307.8648,N,07726.4844,W,1,09,0.95,149.0,M,-34.3,M,,*5B
$GPRMC,153159.750,A,4307.8648,N,07726.4844,W,0.01,174.29,120819,,,A*75
$GPGGA,153200.000,4307.8648,N,07726.4844,W,1,09,0.95,149.0,M,-34.3,M,,*51
$GPRMC,153200.250,A,4307.8648,N,07726.4844,W,0.00,174.29,120819,,,A*7E
$GPGGA,153200.500,4307.8648,N,07726.4844,W,1,09,0.95,149.0,M,-34.3,M,,*54
$GPRMC,153200.750,A,4307.8648,N,07726.4844,W,0.00,174.29,120819,,,A*7B
$GPGGA,153201.000,4307.8648,N,07726.4844,W,1,09,0.95,149.0,M,-34.3,M,,*50
$GPRMC,153201.250,A,4307.8648,N,07726.4844,W,0.00,174.29,120819,,,A*7F
$GPGGA,153201.500,4307.8648,N,07726.4844,W,1,09,0.95,149.0,M,-34.3,M,,*55
$GPRMC,153201.750,A,4307.8648,N,07726.4844,W,0.00,174.29,120819,,,A*7A
$GPGGA,153202.000,4307.8648,N,07726.4844,W,1,09,0.95,149.0,M,-34.3,M,,*53
$GPRMC,153202.250,A,4307.8648,N,07726.4844,W,0.00,174.29,120819,,,A*7C
$GPGGA,153202.500,4307.8648,N,07726.4844,W,1,09,0.95,149.0,M,-34.3,M,,*56
$GPRMC,153202.750,A,4307.8648,N,07726.4844,W,0.00,174.29,120819,,,A*79
$GPGGA,153203.000,4307.8648,N,07726.4844,W,1,09,0.95,149.0,M,-34.3,M,,*52
$GPRMC,153203.250,A,4307.8648,N,07726.4844,W,0.00,174.29,120819,,,A*7D
$GPGGA,153203.500,4307.8648,N,07726.4844,W,1,09,0.95,149.0,M,-34.3,M,,*57
$GPRMC,153203.750,A,4307.8648,N,07726.4844,W,0.00,174.29,120819,,,A*78
$GPGGA,153204.000,4307.8648,N,07726.4844,W,1,09,0.97,149.0,M,-34.3,M,,*57
$GPRMC,153204.250,A,4307.8648,N,07726.4844,W,0.01,174.29,120819,,,A*7B
$GPGGA,153204.500,4307.8648,N,07726.4844,W,1,09,0.97,149.0,M,-34.3,M,,*52
$GPRMC,153204.750,A,4307.8648,N,07726.4844,W,0.01,174.29,120819,,,A*7E
$GPGGA,153205.000,4307.8648,N,07726.4844,W,1,09,0.95,149.0,M,-34.3,M,,*54
$GPRMC,153205.250,A,4307.8648,N,07726.4844,W,0.01,174.29,120819,,,A*7A
$GPGGA,153205.500,4307.8648,N,07726.4844,W,1,09,0.95,149.0,M,-34.3,M,,*51
$GPRMC,153205.750,A,4307.8648,N,07726.4844,W,0.00,174.29,120819,,,A*7E
$GPGGA,153206.000,4307.8648,N,07726.4844,W,1,09,0.95,149.0,M,-34.3,M,,*57
$GPRMC,153206.250,A,4307.8648,N,07726.4844,W,0.01,174.29,120819,,,A*79
$GPGGA,153206.500,4307.8648,N,07726.4845,W,1,09,0.95,149.0,M,-34.3,M,,*53
$GPRMC,153206.750,A,4307.8648,N,07726.4845,W,0.00,174.29,120819,,,A*7C
$GPGGA,153207.000,4307.8648,N,07726.4845,W,1,09,0.95,149.0,M,-34.3,M,,*57
$GPRMC,153207.250,A,4307.8648,N,07726.4845,W,0.00,174.29,120819,,,A*78
$GPGGA,153207.500,4307.8648,N,07726.4845,W,1,09,0.95,149.0,M,-34.3,M,,*52
$GPRMC,153207.750,A,4307.8648,N,07726.4845,W,0.00,174.29,120819,,,A*7D
$GPGGA,153208.000,4307.8648,N,07726.4845,W,1,09,0.95,149.0,M,-34.3,M,,*58
$GPRMC,153208.250,A,4307.8648,N,07726.4845,W,0.00,174.29,120819,,,A*77
$GPGGA,153208.500,4307.8648,N,07726.4845,W,1,09,0.95,149.0,M,-34.3,M,,*5D
$GPRMC,153208.750,A,4307.8648,N,07726.4845,W,0.00,174.29,120819,,,A*72
$GPGGA,153209.000,4307.8648,N,07726.4845,W,1,09,0.95,149.0,M,-34.3,M,,*59
$GPRMC,153209.250,A,4307.8648,N,07726.4845,W,0.04,174.29,120819,,,A*72
$GPGGA,153209.500,4307.8648,N,07726.4845,W,1,09,0.95,149.0,M,-34.3,M,,*5C
$GPRMC,153209.750,A,4307.8648,N,07726.4845,W,0.03,174.29,120819,,,A*70
$GPGGA,153210.000,4307.8648,N,07726.4845,W,1,09,0.95,149.0,M,-34.3,M,,*51
$GPRMC,153210.250,A,4307.8648,N,07726.4845,W,0.06,174.29,120819,,,A*78
$GPGGA,153210.500,4307.8648,N,07726.4845,W,1,09,0.95,149.0,M,-34.3,M,,*54
$GPRMC,153210.750,A,4307.8648,N,07726.4845,W,0.04,174.29,120819,,,A*7F
$GPGGA,153211.000,4307.8648,N,07726.4845,W,1,09,0.95,149.0,M,-34.3,M,,*50
$GPRMC,153211.250,A,4307.8648,N,07726.4845,W,0.08,174.29,120819,,,A*77
$GPGGA,153211.500,4307.8648,N,07726.4845,W,1,09,0.95,149.0,M,-34.3,M,,*55
$GPRMC,153211.750,A,4307.8648,N,07726.4845,W,0.04,174.29,120819,,,A*7E
$GPGGA,153212.000,4307.8648,N,07726.4845,W,1,09,0.97,149.0,M,-34.3,M,,*51
$GPRMC,153212.250,A,4307.8648,N,07726.4845,W,0.01,174.29,120819,,,A*7D
$GPGGA,153212.500,4307.8648,N,07726.4845,W,1,09,0.97,149.0,M,-34.3,M,,*54
$GPRMC,153212.750,A,4307.8648,N,07726.4845,W,0.06,174.29,120819,,,A*7F
$GPGGA,153213.000,4307.8648,N,07726.4845,W,1,09,0.97,149.0,M,-34.3,M,,*50
$GPRMC,153213.250,A,4307.8648,N,07726.4845,W,0.11,174.29,120819,,,A*7D
$GPGGA,153213.500,4307.8648,N,07726.4845,W,1,09,0.95,149.0,M,-34.3,M,,*57
$GPRMC,153213.750,A,4307.8648,N,07726.4845,W,0.06,174.29,120819,,,A*7E
$GPGGA,153214.000,4307.8648,N,07726.4844,W,1,09,0.95,149.0,M,-34.3,M,,*54
$GPRMC,153214.250,A,4307.8648,N,07726.4844,W,0.02,174.29,120819,,,A*79
$GPGGA,153214.500,4307.8648,N,07726.4844,W,1,09,0.95,149.0,M,-34.3,M,,*51
$GPRMC,153214.750,A,4307.8648,N,07726.4845,W,0.09,174.29,120819,,,A*76
$GPGGA,153215.000,4307.8648,N,07726.4844,W,1,09,0.95,149.0,M,-34.3,M,,*55
$GPRMC,153215.250,A,4307.8648,N,07726.4844,W,0.06,174.29,120819,,,A*7C
$GPGGA,153215.500,4307.8648,N,07726.4845,W,1,09,0.95,149.0,M,-34.3,M,,*51
$GPRMC,153215.750,A,4307.8648,N,07726.4845,W,0.02,174.29,120819,,,A*7C
$GPGGA,153216.000,4307.8648,N,07726.4845,W,1,09,0.95,149.0,M,-34.3,M,,*57
$GPRMC,153216.250,A,4307.8648,N,07726.4844,W,0.03,174.29,120819,,,A*7A
$GPGGA,153216.500,4307.8648,N,07726.4845,W,1,09,0.95,149.0,M,-34.3,M,,*52
$GPRMC,153216.750,A,4307.8648,N,07726.4844,W,0.03,174.29,120819,,,A*7F
$GPGGA,153217.000,4307.8648,N,07726.4844,W,1,09,0.95,149.0,M,-34.3,M,,*57
$GPRMC,153217.250,A,4307.8648,N,07726.4844,W,0.03,174.29,120819,,,A*7B
$GPGGA,153217.500,4307.8648,N,07726.4844,W,1,09,0.95,149.0,M,-34.3,M,,*52
$GPRMC,153217.750,A,4307.8648,N,07726.4844,W,0.05,174.29,120819,,,A*78
$GPGGA,153218.000,4307.8648,N,07726.4845,W,1,09,0.95,149.0,M,-34.3,M,,*59
$GPRMC,153218.250,A,4307.8648,N,07726.4844,W,0.04,174.29,120819,,,A*73
$GPGGA,153218.500,4307.8648,N,07726.4844,W,1,09,0.95,149.0,M,-34.3,M,,*5D
$GPRMC,153218.750,A,4307.8648,N,07726.4845,W,0.04,174.29,120819,,,A*77
$GPGGA,153219.000,4307.8648,N,07726.4844,W,1,09,0.95,149.0,M,-34.3,M,,*59
$GPRMC,153219.250,A,4307.8648,N,07726.4844,W,0.00,174.29,120819,,,A*76
$GPGGA,153219.500,4307.8648,N,07726.4844,W,1,09,0.95,149.0,M,-34.3,M,,*5C
$GPRMC,153219.750,A,4307.8648,N,07726.4845,W,0.03,174.29,120819,,,A*71
$GPGGA,153220.000,4307.8648,N,07726.4844,W,1,09,0.95,149.0,M,-34.3,M,,*53
$GPRMC,153220.250,A,4307.8648,N,07726.4844,W,0.02,174.29,120819,,,A*7E
$GPGGA,153220.500,4307.8648,N,07726.4844,W,1,09,0.95,149.0,M,-34.3,M,,*56
$GPRMC,153220.750,A,4307.8648,N,07726.4844,W,0.05,174.29,120819,,,A*7C
$GPGGA,153221.000,4307.8648,N,07726.4845,W,1,09,0.95,149.0,M,-34.3,M,,*53
$GPRMC,153221.250,A,4307.8648,N,07726.4845,W,0.01,174.29,120819,,,A*7D
$GPGGA,153221.500,4307.8648,N,07726.4845,W,1,09,0.97,149.0,M,-34.3,M,,*54
$GPRMC,153221.750,A,4307.8648,N,07726.4845,W,0.01,174.29,120819,,,A*78
$GPGGA,153222.000,4307.8648,N,07726.4845,W,1,09,0.97,149.0,M,-34.3,M,,*52
$GPRMC,153222.250,A,4307.8648,N,07726.4845,W,0.01,174.29,120819,,,A*7E
$GPGGA,153222.500,4307.8648,N,07726.4845,W,1,09,0.97,149.0,M,-34.3,M,,*57
$GPRMC,153222.750,A,4307.8648,N,07726.4845,W,0.01,174.29,120819,,,A*7B
$GPGGA,153223.000,4307.8648,N,07726.4845,W,1,09,0.97,149.0,M,-34.3,M,,*53
$GPRMC,153223.250,A,4307.8648,N,07726.4845,W,0.01,174.29,120819,,,A*7F
$GPGGA,153223.500,4307.8648,N,07726.4845,W,1,09,0.97,149.0,M,-34.3,M,,*56
$GPRMC,153223.750,A,4307.8648,N,07726.4845,W,0.19,174.29,120819,,,A*73
$GPGGA,153224.000,4307.8648,N,07726.4845,W,1,09,0.97,149.0,M,-34.3,M,,*54
$GPRMC,153224.250,A,4307.8647,N,07726.4845,W,2.46,189.56,120819,,,A*7C
$GPGGA,153224.500,4307.8645,N,07726.4845,W,1,09,0.95,149.0,M,-34.3,M,,*5E
$GPRMC,153224.750,A,4307.8642,N,07726.4845,W,4.28,177.78,120819,,,A*7F
$GPGGA,153225.000,4307.8638,N,07726.4845,W,1,09,0.97,149.0,M,-34.3,M,,*52
$GPRMC,153225.250,A,4307.8634,N,07726.4844,W,6.70,175.60,120819,,,A*7F
$GPGGA,153225.500,4307.8629,N,07726.4844,W,1,09,0.97,149.0,M,-34.3,M,,*56
$GPRMC,153225.750,A,4307.8624,N,07726.4843,W,8.54,177.44,120819,,,A*70
$GPGGA,153226.000,4307.8617,N,07726.4843,W,1,09,0.97,149.0,M,-34.3,M,,*5A
$GPRMC,153226.250,A,4307.8610,N,07726.4842,W,10.46,176.67,120819,,,A*4A
$GPGGA,153226.500,4307.8603,N,07726.4842,W,1,09,0.97,149.0,M,-34.3,M,,*5B
$GPRMC,153226.750,A,4307.8595,N,07726.4841,W,12.08,176.75,120819,,,A*49
$GPGGA,153227.000,4307.8586,N,07726.4841,W,1,09,0.97,149.0,M,-34.3,M,,*52
$GPRMC,153227.250,A,4307.8576,N,07726.4840,W,13.85,177.19,120819,,,A*4E
$GPGGA,153227.500,4307.8566,N,07726.4840,W,1,09,0.97,149.0,M,-34.3,M,,*58
$GPRMC,153227.750,A,4307.8556,N,07726.4839,W,15.45,177.32,120819,,,A*44
$GPGGA,153228.000,4307.8545,N,07726.4838,W,1,09,0.97,149.0,M,-34.3,M,,*5C
$GPRMC,153228.250,A,4307.8533,N,07726.4837,W,17.38,176.33,120819,,,A*4B
$GPGGA,153228.500,4307.8520,N,07726.4835,W,1,09,0.97,149.1,M,-34.3,M,,*56
$GPRMC,153228.750,A,4307.8508,N,07726.4834,W,18.33,178.18,120819,,,A*46
$GPGGA,153229.000,4307.8494,N,07726.4834,W,1,09,0.97,149.3,M,-34.3,M,,*5F
$GPRMC,153229.250,A,4307.8480,N,07726.4833,W,20.00,177.93,120819,,,A*43
$GPGGA,153229.500,4307.8466,N,07726.4832,W,1,09,0.97,149.4,M,-34.3,M,,*56
$GPRMC,153229.750,A,4307.8452,N,07726.4831,W,20.86,177.22,120819,,,A*4F
$GPGGA,153230.000,4307.8436,N,07726.4830,W,1,09,0.97,149.4,M,-34.3,M,,*5C
$GPRMC,153230.250,A,4307.8421,N,07726.4829,W,21.72,176.82,120819,,,A*4E
$GPGGA,153230.500,4307.8405,N,07726.4828,W,1,09,0.97,149.4,M,-34.3,M,,*50
$GPRMC,153230.750,A,4307.8390,N,07726.4828,W,22.67,180.02,120819,,,A*41
$GPGGA,153231.000,4307.8373,N,07726.4827,W,1,09,0.97,149.5,M,-34.3,M,,*5C
$GPRMC,153231.250,A,4307.8355,N,07726.4826,W,24.96,179.28,120819,,,A*44
$GPGGA,153231.500,4307.8337,N,07726.4825,W,1,09,0.97,149.6,M,-34.3,M,,*58
$GPRMC,153231.750,A,4307.8319,N,07726.4825,W,27.07,179.89,120819,,,A*4A
$GPGGA,153232.000,4307.8300,N,07726.4824,W,1,09,0.97,149.7,M,-34.3,M,,*5A
$GPRMC,153232.250,A,4307.8280,N,07726.4823,W,28.03,178.74,120819,,,A*43
$GPGGA,153232.500,4307.8259,N,07726.4822,W,1,09,0.97,149.6,M,-34.3,M,,*55
$GPRMC,153232.750,A,4307.8239,N,07726.4822,W,29.98,178.46,120819,,,A*47
$GPGGA,153233.001,4307.8217,N,07726.4821,W,1,09,0.97,149.6,M,-34.3,M,,*59
$GPRMC,153233.250,A,4307.8196,N,07726.4821,W,30.40,178.43,120819,,,A*4E
$GPGGA,153233.500,4307.8175,N,07726.4820,W,1,09,0.97,149.6,M,-34.3,M,,*5B
$GPRMC,153233.750,A,4307.8153,N,07726.4820,W,30.67,178.37,120819,,,A*45
$GPGGA,153234.000,4307.8131,N,07726.4818,W,1,09,0.97,149.6,M,-34.3,M,,*52
$GPRMC,153234.250,A,4307.8109,N,07726.4817,W,31.71,177.76,120819,,,A*40
$GPGGA,153234.500,4307.8085,N,07726.4815,W,1,09,0.97,149.5,M,-34.3,M,,*57
$GPRMC,153234.750,A,4307.8063,N,07726.4813,W,32.67,176.76,120819,,,A*49
$GPGGA,153235.000,4307.8039,N,07726.4811,W,1,09,0.97,149.6,M,-34.3,M,,*53
