Vers 81
USE_SERIAL_FEEDBACK=true
DEVELOPMENT_MODE=false
USE_RMC_ONLY=false

$GPRMC,135143.250,A,4308.3041,N,07726.2629,W,0.01,130.48,310819,,,A*75
$GPGGA,135143.500,4308.3041,N,07726.2628,W,1,09,1.05,152.0,M,-34.4,M,,*5C
$GPRMC,135143.750,A,4308.3041,N,07726.2628,W,0.01,170.81,310819,,,A*70
$GPGGA,135144.000,4308.3040,N,07726.2627,W,1,09,1.05,151.9,M,-34.4,M,,*5A
$GPRMC,135144.250,A,4308.3040,N,07726.2627,W,0.01,193.63,310819,,,A*7D
$GPGGA,135144.500,4308.3040,N,07726.2627,W,1,09,1.05,151.9,M,-34.4,M,,*5F
$GPRMC,135144.750,A,4308.3040,N,07726.2627,W,0.01,185.02,310819,,,A*78
$GPGGA,135145.000,4308.3040,N,07726.2627,W,1,09,1.05,151.9,M,-34.4,M,,*5B
$GPRMC,135145.250,A,4308.3041,N,07726.2627,W,0.01,263.41,310819,,,A*71
$GPGGA,135145.500,4308.3041,N,07726.2627,W,1,09,1.05,151.9,M,-34.4,M,,*5F
$GPRMC,135145.750,A,4308.3041,N,07726.2627,W,0.00,195.81,310819,,,A*73
$GPGGA,135146.000,4308.3041,N,07726.2627,W,1,09,1.05,151.9,M,-34.4,M,,*59
$GPRMC,135146.250,A,4308.3041,N,07726.2627,W,0.01,183.61,310819,,,A*7D
$GPGGA,135146.500,4308.3041,N,07726.2627,W,1,09,1.05,151.8,M,-34.4,M,,*5D
$GPRMC,135146.750,A,4308.3041,N,07726.2627,W,0.05,277.35,310819,,,A*75
$GPGGA,135147.000,4308.3041,N,07726.2627,W,1,09,1.05,151.8,M,-34.4,M,,*59
$GPRMC,135147.250,A,4308.3041,N,07726.2627,W,0.03,326.25,310819,,,A*73
$GPGGA,135147.500,4308.3041,N,07726.2627,W,1,09,1.05,151.8,M,-34.4,M,,*5C
$GPRMC,135147.750,A,4308.3041,N,07726.2627,W,0.03,191.15,310819,,,A*7B
$GPGGA,135148.000,4308.3041,N,07726.2627,W,1,09,1.05,151.8,M,-34.4,M,,*56
$GPRMC,135148.250,A,4308.3041,N,07726.2627,W,0.04,96.29,310819,,,A*4F
$GPGGA,135148.500,4308.3042,N,07726.2627,W,1,09,1.05,151.8,M,-34.4,M,,*50
$GPRMC,135148.750,A,4308.3042,N,07726.2627,W,0.04,215.54,310819,,,A*7A
$GPGGA,135149.000,4308.3042,N,07726.2627,W,1,09,1.05,151.7,M,-34.4,M,,*5B
$GPRMC,135149.250,A,4308.3042,N,07726.2627,W,0.01,259.44,310819,,,A*72
$GPGGA,135149.500,4308.3042,N,07726.2627,W,1,09,1.05,151.7,M,-34.4,M,,*5E
$GPRMC,135149.750,A,4308.3042,N,07726.2627,W,0.02,171.49,310819,,,A*70
$GPGGA,135150.000,4308.3042,N,07726.2627,W,1,09,1.05,151.7,M,-34.4,M,,*53
$GPRMC,135150.250,A,4308.3042,N,07726.2627,W,0.01,204.36,310819,,,A*77
$GPGGA,135150.500,4308.3042,N,07726.2627,W,1,09,1.05,151.7,M,-34.4,M,,*56
$GPRMC,135150.750,A,4308.3042,N,07726.2628,W,0.02,300.34,310819,,,A*79
$GPGGA,135151.000,4308.3042,N,07726.2628,W,1,09,1.05,151.7,M,-34.4,M,,*5D
$GPRMC,135151.250,A,4308.3042,N,07726.2628,W,0.03,334.05,310819,,,A*79
$GPGGA,135151.500,4308.3042,N,07726.2628,W,1,09,1.05,151.7,M,-34.4,M,,*58
$GPRMC,135151.750,A,4308.3042,N,07726.2628,W,0.02,286.38,310819,,,A*7B
$GPGGA,135152.000,4308.3042,N,07726.2628,W,1,09,1.05,151.7,M,-34.4,M,,*5E
$GPRMC,135152.250,A,4308.3042,N,07726.2628,W,0.01,151.85,310819,,,A*71
$GPGGA,135152.500,4308.3042,N,07726.2628,W,1,09,1.05,151.7,M,-34.4,M,,*5B
$GPRMC,135152.750,A,4308.3042,N,07726.2628,W,0.05,326.04,310819,,,A*7B
$GPGGA,135153.000,4308.3042,N,07726.2629,W,1,09,1.05,151.7,M,-34.4,M,,*5E
$GPRMC,135153.250,A,4308.3042,N,07726.2629,W,0.01,184.08,310819,,,A*7C
$GPGGA,135153.500,4308.3042,N,07726.2629,W,1,09,1.05,151.7,M,-34.4,M,,*5B
$GPRMC,135153.750,A,4308.3042,N,07726.2629,W,0.03,318.98,310819,,,A*75
$GPGGA,135154.000,4308.3042,N,07726.2629,W,1,09,1.05,151.7,M,-34.4,M,,*59
$GPRMC,135154.250,A,4308.3042,N,07726.2629,W,0.01,183.99,310819,,,A*74
$GPGGA,135154.500,4308.3042,N,07726.2630,W,1,09,1.05,151.7,M,-34.4,M,,*54
$GPRMC,135154.750,A,4308.3042,N,07726.2630,W,0.01,67.53,310819,,,A*44
$GPGGA,135155.000,4308.3042,N,07726.2630,W,1,09,1.05,151.7,M,-34.4,M,,*50
$GPRMC,135155.250,A,4308.3042,N,07726.2630,W,0.05,346.26,310819,,,A*76
$GPGGA,135155.500,4308.3042,N,07726.2630,W,1,09,1.18,151.7,M,-34.4,M,,*59
$GPRMC,135155.750,A,4308.3042,N,07726.2630,W,0.01,91.01,310819,,,A*4B
$GPGGA,135156.000,4308.3042,N,07726.2630,W,1,09,1.05,151.8,M,-34.4,M,,*5C
$GPRMC,135156.250,A,4308.3042,N,07726.2630,W,0.02,149.44,310819,,,A*7B
$GPGGA,135156.500,4308.3042,N,07726.2630,W,1,09,1.05,151.8,M,-34.4,M,,*59
$GPRMC,135156.750,A,4308.3041,N,07726.2630,W,0.02,354.04,310819,,,A*77
$GPGGA,135157.000,4308.3041,N,07726.2630,W,1,09,1.18,151.8,M,-34.4,M,,*52
$GPRMC,135157.250,A,4308.3041,N,07726.2630,W,0.01,4.02,310819,,,A*70
$GPGGA,135157.500,4308.3041,N,07726.2631,W,1,09,1.18,151.8,M,-34.4,M,,*56
$GPRMC,135157.750,A,4308.3041,N,07726.2631,W,0.03,346.65,310819,,,A*72
$GPGGA,135158.000,4308.3041,N,07726.2631,W,1,09,1.18,151.8,M,-34.4,M,,*5C
$GPRMC,135158.250,A,4308.3041,N,07726.2631,W,0.03,167.96,310819,,,A*75
$GPGGA,135158.500,4308.3041,N,07726.2631,W,1,09,1.05,151.8,M,-34.4,M,,*55
$GPRMC,135158.750,A,4308.3041,N,07726.2631,W,0.02,230.35,310819,,,A*79
$GPGGA,135159.000,4308.3041,N,07726.2631,W,1,09,1.05,151.8,M,-34.4,M,,*51
$GPRMC,135159.250,A,4308.3041,N,07726.2631,W,0.02,276.96,310819,,,A*76
$GPGGA,135159.500,4308.3041,N,07726.2631,W,1,09,1.05,151.8,M,-34.4,M,,*54
$GPRMC,135159.750,A,4308.3041,N,07726.2631,W,0.00,254.71,310819,,,A*78
$GPGGA,135200.000,4308.3041,N,07726.2631,W,1,09,1.05,151.8,M,-34.4,M,,*5E
$GPRMC,135200.250,A,4308.3041,N,07726.2631,W,0.02,28.89,310819,,,A*4E
$GPGGA,135200.500,4308.3041,N,07726.2631,W,1,09,1.05,151.8,M,-34.4,M,,*5B
$GPRMC,135200.750,A,4308.3041,N,07726.2631,W,0.01,77.97,310819,,,A*4D
$GPGGA,135201.000,4308.3041,N,07726.2631,W,1,09,1.05,151.8,M,-34.4,M,,*5F
$GPRMC,135201.250,A,4308.3041,N,07726.2631,W,0.02,329.07,310819,,,A*7B
$GPGGA,135201.500,4308.3041,N,07726.2631,W,1,09,1.05,151.9,M,-34.4,M,,*5B
$GPRMC,135201.750,A,4308.3041,N,07726.2631,W,0.02,225.74,310819,,,A*77
$GPGGA,135202.000,4308.3041,N,07726.2631,W,1,09,1.05,151.9,M,-34.4,M,,*5D
$GPRMC,135202.250,A,4308.3041,N,07726.2631,W,0.03,201.86,310819,,,A*7B
$GPGGA,135202.500,4308.3041,N,07726.2631,W,1,09,1.05,151.9,M,-34.4,M,,*58
$GPRMC,135202.750,A,4308.3041,N,07726.2631,W,0.04,77.34,310819,,,A*43
$GPGGA,135203.000,4308.3041,N,07726.2631,W,1,09,1.05,151.9,M,-34.4,M,,*5C
$GPRMC,135203.250,A,4308.3040,N,07726.2631,W,0.04,132.91,310819,,,A*79
$GPGGA,135203.500,4308.3040,N,07726.2631,W,1,09,1.05,151.9,M,-34.4,M,,*58
$GPRMC,135203.750,A,4308.3040,N,07726.2631,W,0.04,165.29,310819,,,A*7D
$GPGGA,135204.000,4308.3040,N,07726.2631,W,1,09,1.05,151.9,M,-34.4,M,,*5A
$GPRMC,135204.250,A,4308.3040,N,07726.2631,W,0.03,317.06,310819,,,A*72
$GPGGA,135204.500,4308.3040,N,07726.2631,W,1,09,1.05,151.9,M,-34.4,M,,*5F
$GPRMC,135204.750,A,4308.3040,N,07726.2631,W,0.03,125.60,310819,,,A*74
$GPGGA,135205.000,4308.3040,N,07726.2631,W,1,09,1.05,151.9,M,-34.4,M,,*5B
$GPRMC,135205.250,A,4308.3040,N,07726.2630,W,0.03,276.35,310819,,,A*74
$GPGGA,135205.500,4308.3040,N,07726.2630,W,1,09,1.05,151.9,M,-34.4,M,,*5F
$GPRMC,135205.750,A,4308.3040,N,07726.2630,W,0.01,54.05,310819,,,A*42
$GPGGA,135206.000,4308.3040,N,07726.2630,W,1,09,1.05,151.9,M,-34.4,M,,*59
$GPRMC,135206.250,A,4308.3040,N,07726.2630,W,0.03,310.48,310819,,,A*7C
$GPGGA,135206.500,4308.3041,N,07726.2630,W,1,09,1.05,151.8,M,-34.4,M,,*5C
$GPRMC,135206.750,A,4308.3041,N,07726.2630,W,0.02,37.96,310819,,,A*4C
$GPGGA,135207.000,4308.3041,N,07726.2630,W,1,09,1.05,151.8,M,-34.4,M,,*58
$GPRMC,135207.250,A,4308.3041,N,07726.2630,W,0.02,156.76,310819,,,A*70
$GPGGA,135207.500,4308.3041,N,07726.2630,W,1,09,1.05,151.8,M,-34.4,M,,*5D
$GPRMC,135207.750,A,4308.3041,N,07726.2630,W,0.03,198.85,310819,,,A*7A
$GPGGA,135208.000,4308.3040,N,07726.2630,W,1,09,1.05,151.8,M,-34.4,M,,*56
$GPRMC,135208.250,A,4308.3041,N,07726.2630,W,0.02,230.17,310819,,,A*7B
$GPGGA,135208.500,4308.3041,N,07726.2630,W,1,09,1.05,151.8,M,-34.4,M,,*52
$GPRMC,135208.750,A,4308.3040,N,07726.2630,W,0.02,315.45,310819,,,A*7E
$GPGGA,135209.000,4308.3041,N,07726.2630,W,1,09,1.05,151.8,M,-34.4,M,,*56
$GPRMC,135209.250,A,4308.3041,N,07726.2630,W,0.02,130.58,310819,,,A*72
$GPGGA,135209.500,4308.3040,N,07726.2630,W,1,09,1.05,151.8,M,-34.4,M,,*52
$GPRMC,135209.750,A,4308.3040,N,07726.2630,W,0.02,157.26,310819,,,A*7E
$GPGGA,135210.000,4308.3040,N,07726.2630,W,1,09,1.05,151.8,M,-34.4,M,,*5F
$GPRMC,135210.250,A,4308.3040,N,07726.2630,W,0.02,23.36,310819,,,A*40
$GPGGA,135210.500,4308.3040,N,07726.2630,W,1,09,1.05,151.8,M,-34.4,M,,*5A
$GPRMC,135210.750,A,4308.3040,N,07726.2630,W,0.05,342.63,310819,,,A*76
$GPGGA,135211.000,4308.3040,N,07726.2630,W,1,09,1.05,151.8,M,-34.4,M,,*5E
$GPRMC,135211.250,A,4308.3040,N,07726.2630,W,0.01,171.65,310819,,,A*72
$GPGGA,135211.500,4308.3040,N,07726.2630,W,1,09,1.05,151.8,M,-34.4,M,,*5B
$GPRMC,135211.750,A,4308.3040,N,07726.2630,W,0.00,191.96,310819,,,A*74
$GPGGA,135212.000,4308.3040,N,07726.2630,W,1,09,1.05,151.8,M,-34.4,M,,*5D
$GPRMC,135212.250,A,4308.3040,N,07726.2630,W,0.06,153.85,310819,,,A*78
$GPGGA,135212.500,4308.3040,N,07726.2630,W,1,09,1.05,151.8,M,-34.4,M,,*58
$GPRMC,135212.750,A,4308.3040,N,07726.2630,W,0.03,143.68,310819,,,A*7A
$GPGGA,135213.000,4308.3040,N,07726.2630,W,1,09,1.05,151.8,M,-34.4,M,,*5C
$GPRMC,135213.250,A,4308.3040,N,07726.2630,W,0.01,155.15,310819,,,A*71
$GPGGA,135213.500,4308.3040,N,07726.2630,W,1,09,1.05,151.8,M,-34.4,M,,*59
$GPRMC,135213.750,A,4308.3040,N,07726.2630,W,0.03,194.23,310819,,,A*7E
$GPGGA,135214.000,4308.3040,N,07726.2630,W,1,09,1.05,151.8,M,-34.4,M,,*5B
$GPRMC,135214.250,A,4308.3040,N,07726.2630,W,0.02,30.22,310819,,,A*43
$GPGGA,135214.500,4308.3040,N,07726.2630,W,1,09,1.05,151.8,M,-34.4,M,,*5E
$GPRMC,135214.750,A,4308.3040,N,07726.2630,W,0.02,55.59,310819,,,A*49
$GPGGA,135215.000,4308.3040,N,07726.2630,W,1,09,1.05,151.8,M,-34.4,M,,*5A
$GPRMC,135215.250,A,4308.3040,N,07726.2630,W,0.03,110.42,310819,,,A*76
$GPGGA,135215.500,4308.3040,N,07726.2630,W,1,09,1.18,151.8,M,-34.4,M,,*53
$GPRMC,135215.750,A,4308.3040,N,07726.2630,W,0.01,150.19,310819,,,A*7B
$GPGGA,135216.000,4308.3040,N,07726.2630,W,1,09,1.18,151.8,M,-34.4,M,,*55
$GPRMC,135216.250,A,4308.3040,N,07726.2630,W,0.00,270.23,310819,,,A*74
$GPGGA,135216.500,4308.3040,N,07726.2630,W,1,09,1.18,151.8,M,-34.4,M,,*50
$GPRMC,135216.750,A,4308.3040,N,07726.2630,W,0.01,131.41,310819,,,A*72
$GPGGA,135217.000,4308.3040,N,07726.2630,W,1,09,1.18,151.8,M,-34.4,M,,*54
$GPRMC,135217.250,A,4308.3040,N,07726.2630,W,0.00,179.28,310819,,,A*74
$GPGGA,135217.500,4308.3040,N,07726.2630,W,1,09,1.18,151.8,M,-34.4,M,,*51
$GPRMC,135217.750,A,4308.3040,N,07726.2630,W,0.00,292.82,310819,,,A*77
$GPGGA,135218.000,4308.3040,N,07726.2630,W,1,09,1.18,151.8,M,-34.4,M,,*5B
$GPRMC,135218.250,A,4308.3040,N,07726.2630,W,0.01,78.11,310819,,,A*40
$GPGGA,135218.500,4308.3040,N,07726.2630,W,1,09,1.18,151.8,M,-34.4,M,,*5E
$GPRMC,135218.750,A,4308.3040,N,07726.2630,W,0.01,295.80,310819,,,A*7C
$GPGGA,135219.000,4308.3040,N,07726.2630,W,1,09,1.18,151.8,M,-34.4,M,,*5A
$GPRMC,135219.250,A,4308.3040,N,07726.2630,W,0.01,79.54,310819,,,A*41
$GPGGA,135219.500,4308.3040,N,07726.2630,W,1,09,1.18,151.8,M,-34.4,M,,*5F
$GPRMC,135219.750,A,4308.3040,N,07726.2630,W,0.01,290.08,310819,,,A*78
$GPGGA,135220.000,4308.3040,N,07726.2630,W,1,09,1.18,151.8,M,-34.4,M,,*50
$GPRMC,135220.250,A,4308.3040,N,07726.2630,W,0.00,150.24,310819,,,A*77
$GPGGA,135220.500,4308.3040,N,07726.2630,W,1,09,1.18,151.8,M,-34.4,M,,*55
$GPRMC,135220.750,A,4308.3040,N,07726.2630,W,0.01,295.82,310819,,,A*75
$GPGGA,135221.000,4308.3040,N,07726.2630,W,1,09,1.18,151.8,M,-34.4,M,,*51
$GPRMC,135221.250,A,4308.3040,N,07726.2630,W,0.01,358.09,310819,,,A*72
$GPGGA,135221.500,4308.3040,N,07726.2630,W,1,09,1.18,151.8,M,-34.4,M,,*54
$GPRMC,135221.750,A,4308.3040,N,07726.2630,W,0.00,73.06,310819,,,A*43
$GPGGA,135222.000,4308.3040,N,07726.2630,W,1,09,1.18,151.8,M,-34.4,M,,*52
$GPRMC,135222.250,A,4308.3040,N,07726.2630,W,0.01,170.74,310819,,,A*73
$GPGGA,135222.500,4308.3040,N,07726.2630,W,1,09,1.18,151.8,M,-34.4,M,,*57
$GPRMC,135222.750,A,4308.3040,N,07726.2630,W,0.01,55.62,310819,,,A*47
$GPGGA,135223.000,4308.3040,N,07726.2630,W,1,09,1.18,151.8,M,-34.4,M,,*53
$GPRMC,135223.250,A,4308.3040,N,07726.2630,W,0.01,333.57,310819,,,A*76
$GPGGA,135223.500,4308.3040,N,07726.2630,W,1,09,1.18,151.8,M,-34.4,M,,*56
$GPRMC,135223.750,A,4308.3040,N,07726.2630,W,0.01,340.72,310819,,,A*70
$GPGGA,135224.000,4308.3040,N,07726.2630,W,1,09,1.18,151.8,M,-34.4,M,,*54
$GPRMC,135224.250,A,4308.3040,N,07726.2630,W,0.00,23.05,310819,,,A*45
$GPGGA,135224.500,4308.3040,N,07726.2630,W,1,09,1.18,151.8,M,-34.4,M,,*51
$GPRMC,135224.750,A,4308.3040,N,07726.2630,W,0.00,227.11,310819,,,A*73
$GPGGA,135225.000,4308.3040,N,07726.2630,W,1,09,1.18,151.8,M,-34.4,M,,*55
$GPRMC,135225.250,A,4308.3040,N,07726.2630,W,0.01,316.48,310819,,,A*79
$GPGGA,135225.500,4308.3040,N,07726.2630,W,1,09,1.18,151.8,M,-34.4,M,,*50
$GPRMC,135225.750,A,4308.3040,N,07726.2630,W,0.01,197.84,310819,,,A*77
$GPGGA,135226.000,4308.3040,N,07726.2630,W,1,09,1.18,151.8,M,-34.4,M,,*56
$GPRMC,135226.250,A,4308.3040,N,07726.2630,W,0.01,251.69,310819,,,A*7B
$GPGGA,135226.500,4308.3040,N,07726.2630,W,1,09,1.18,151.8,M,-34.4,M,,*53
$GPRMC,135226.750,A,4308.3040,N,07726.2630,W,0.02,158.00,310819,,,A*78
$GPGGA,135227.000,4308.3040,N,07726.2630,W,1,09,1.18,151.8,M,-34.4,M,,*57
$GPRMC,135227.250,A,4308.3040,N,07726.2630,W,0.01,2.78,310819,,,A*7E
$GPGGA,135227.500,4308.3040,N,07726.2630,W,1,09,1.18,151.8,M,-34.4,M,,*52
$GPRMC,135227.750,A,4308.3040,N,07726.2630,W,0.01,341.30,310819,,,A*73
$GPGGA,135228.000,4308.3040,N,07726.2630,W,1,09,1.18,151.8,M,-34.4,M,,*58
$GPRMC,135228.250,A,4308.3040,N,07726.2630,W,0.01,324.93,310819,,,A*73
$GPGGA,135228.500,4308.3040,N,07726.2630,W,1,09,1.18,151.8,M,-34.4,M,,*5D
$GPRMC,135228.750,A,4308.3040,N,07726.2630,W,0.01,8.42,310819,,,A*77
$GPGGA,135229.000,4308.3040,N,07726.2630,W,1,09,1.18,151.8,M,-34.4,M,,*59
$GPRMC,135229.250,A,4308.3040,N,07726.2630,W,0.01,340.81,310819,,,A*73
$GPGGA,135229.500,4308.3040,N,07726.2630,W,1,09,1.18,151.8,M,-34.4,M,,*5C
$GPRMC,135229.750,A,4308.3041,N,07726.2630,W,0.00,264.58,310819,,,A*75
$GPGGA,135230.000,4308.3041,N,07726.2630,W,1,09,1.18,151.8,M,-34.4,M,,*50
$GPRMC,135230.250,A,4308.3041,N,07726.2630,W,0.01,148.18,310819,,,A*70
$GPGGA,135230.500,4308.3041,N,07726.2630,W,1,09,1.18,151.8,M,-34.4,M,,*55
$GPRMC,135230.750,A,4308.3041,N,07726.2630,W,0.00,270.95,310819,,,A*79
$GPGGA,135231.000,4308.3041,N,07726.2630,W,1,09,1.18,151.8,M,-34.4,M,,*51
$GPRMC,135231.250,A,4308.3041,N,07726.2630,W,0.01,356.66,310819,,,A*75
$GPGGA,135231.500,4308.3041,N,07726.2630,W,1,09,1.18,151.8,M,-34.4,M,,*54
$GPRMC,135231.750,A,4308.3041,N,07726.2630,W,0.01,346.74,310819,,,A*72
$GPGGA,135232.000,4308.3041,N,07726.2630,W,1,09,1.18,151.8,M,-34.4,M,,*52
$GPRMC,135232.250,A,4308.3041,N,07726.2630,W,0.01,126.33,310819,,,A*73
$GPGGA,135232.500,4308.3041,N,07726.2630,W,1,09,1.18,151.8,M,-34.4,M,,*57
$GPRMC,135232.750,A,4308.3041,N,07726.2630,W,0.00,188.27,310819,,,A*76
$GPGGA,135233.000,4308.3041,N,07726.2630,W,1,09,1.18,151.8,M,-34.4,M,,*53
$GPRMC,135233.250,A,4308.3041,N,07726.2630,W,0.01,245.39,310819,,,A*7E
$GPGGA,135233.500,4308.3041,N,07726.2630,W,1,09,1.18,151.8,M,-34.4,M,,*56
$GPRMC,135233.750,A,4308.3041,N,07726.2630,W,0.01,6.16,310819,,,A*73
$GPGGA,135234.000,4308.3041,N,07726.2630,W,1,09,1.18,151.8,M,-34.4,M,,*54
$GPRMC,135234.250,A,4308.3041,N,07726.2630,W,0.01,333.47,310819,,,A*70
$GPGGA,135234.500,4308.3041,N,07726.2630,W,1,09,1.18,151.8,M,-34.4,M,,*51
$GPRMC,135234.750,A,4308.3041,N,07726.2630,W,0.01,103.66,310819,,,A*77
$GPGGA,135235.000,4308.3041,N,07726.2630,W,1,09,1.18,151.8,M,-34.4,M,,*55
$GPRMC,135235.250,A,4308.3041,N,07726.2630,W,0.01,321.20,310819,,,A*73
$GPGGA,135235.500,4308.3041,N,07726.2630,W,1,09,1.18,151.8,M,-34.4,M,,*50
$GPRMC,135235.750,A,4308.3041,N,07726.2630,W,0.01,134.74,310819,,,A*71
$GPGGA,135236.000,4308.3041,N,07726.2630,W,1,09,1.18,151.8,M,-34.4,M,,*56
$GPRMC,135236.250,A,4308.3041,N,07726.2630,W,0.00,272.10,310819,,,A*75
$GPGGA,135236.500,4308.3041,N,07726.2630,W,1,09,1.18,151.8,M,-34.4,M,,*53
$GPRMC,135236.750,A,4308.3041,N,07726.2630,W,0.01,148.96,310819,,,A*75
$GPGGA,135237.000,4308.3041,N,07726.2630,W,1,09,1.18,151.8,M,-34.4,M,,*57
$GPRMC,135237.250,A,4308.3041,N,07726.2630,W,0.01,133.54,310819,,,A*73
$GPGGA,135237.500,4308.3041,N,07726.2630,W,1,09,1.18,151.8,M,-34.4,M,,*52
$GPRMC,135237.750,A,4308.3041,N,07726.2630,W,0.01,134.38,310819,,,A*7B
$GPGGA,135238.000,4308.3041,N,07726.2630,W,1,09,1.18,151.8,M,-34.4,M,,*58
$GPRMC,135238.250,A,4308.3041,N,07726.2630,W,0.01,69.47,310819,,,A*40
$GPGGA,135238.500,4308.3041,N,07726.2630,W,1,09,1.18,151.8,M,-34.4,M,,*5D
$GPRMC,135238.750,A,4308.3041,N,07726.2630,W,0.02,172.39,310819,,,A*74
$GPGGA,135239.000,4308.3041,N,07726.2630,W,1,09,1.18,151.8,M,-34.4,M,,*59
$GPRMC,135239.250,A,4308.3041,N,07726.2630,W,0.01,358.97,310819,,,A*7D
$GPGGA,135239.500,4308.3041,N,07726.2630,W,1,09,1.18,151.8,M,-34.4,M,,*5C
$GPRMC,135239.750,A,4308.3041,N,07726.2630,W,0.01,112.75,310819,,,A*78
$GPGGA,135240.000,4308.3041,N,07726.2630,W,1,09,1.18,151.8,M,-34.4,M,,*57
$GPRMC,135240.250,A,4308.3041,N,07726.2630,W,0.00,32.23,310819,,,A*42
$GPGGA,135240.500,4308.3041,N,07726.2630,W,1,09,1.18,151.8,M,-34.4,M,,*52
$GPRMC,135240.750,A,4308.3041,N,07726.2630,W,0.00,332.44,310819,,,A*75
$GPGGA,135241.000,4308.3041,N,07726.2630,W,1,09,1.18,151.8,M,-34.4,M,,*56
$GPRMC,135241.250,A,4308.3041,N,07726.2630,W,0.01,177.48,310819,,,A*7F
$GPGGA,135241.500,4308.3041,N,07726.2630,W,1,09,1.18,151.8,M,-34.4,M,,*53
$GPRMC,135241.750,A,4308.3041,N,07726.2630,W,0.01,77.98,310819,,,A*46
$GPGGA,135242.000,4308.3041,N,07726.2630,W,1,09,1.18,151.8,M,-34.4,M,,*55
$GPRMC,135242.250,A,4308.3041,N,07726.2630,W,0.00,63.00,310819,,,A*45
$GPGGA,135242.500,4308.3041,N,07726.2630,W,1,09,1.18,151.8,M,-34.4,M,,*50
$GPRMC,135242.750,A,4308.3041,N,07726.2630,W,0.01,277.52,310819,,,A*71
$GPGGA,135243.000,4308.3041,N,07726.2630,W,1,09,1.18,151.8,M,-34.4,M,,*54
$GPRMC,135243.250,A,4308.3041,N,07726.2630,W,0.00,69.42,310819,,,A*48
$GPGGA,135243.500,4308.3041,N,07726.2630,W,1,09,1.18,151.8,M,-34.4,M,,*51
$GPRMC,135243.750,A,4308.3041,N,07726.2630,W,0.01,11.43,310819,,,A*42
$GPGGA,135244.000,4308.3041,N,07726.2630,W,1,09,1.18,151.8,M,-34.4,M,,*53
$GPRMC,135244.250,A,4308.3041,N,07726.2630,W,0.00,45.47,310819,,,A*44
$GPGGA,135244.500,4308.3041,N,07726.2630,W,1,09,1.18,151.8,M,-34.4,M,,*56
$GPRMC,135244.750,A,4308.3041,N,07726.2630,W,0.00,134.37,310819,,,A*71
$GPGGA,135245.000,4308.3041,N,07726.2630,W,1,09,1.18,151.8,M,-34.4,M,,*52
$GPRMC,135245.250,A,4308.3041,N,07726.2630,W,0.01,153.67,310819,,,A*70
$GPGGA,135245.500,4308.3041,N,07726.2630,W,1,09,1.18,151.8,M,-34.4,M,,*57
$GPRMC,135245.750,A,4308.3041,N,07726.2630,W,0.01,109.43,310819,,,A*7C
$GPGGA,135246.000,4308.3041,N,07726.2630,W,1,09,1.18,151.8,M,-34.4,M,,*51
$GPRMC,135246.250,A,4308.3041,N,07726.2630,W,0.01,331.23,310819,,,A*75
$GPGGA,135246.500,4308.3041,N,07726.2630,W,1,09,1.18,151.8,M,-34.4,M,,*54
$GPRMC,135246.750,A,4308.3041,N,07726.2630,W,0.01,320.86,310819,,,A*7F
$GPGGA,135247.000,4308.3041,N,07726.2630,W,1,09,1.18,151.8,M,-34.4,M,,*50
$GPRMC,135247.250,A,4308.3041,N,07726.2630,W,0.01,148.66,310819,,,A*79
$GPGGA,135247.500,4308.3041,N,07726.2630,W,1,09,1.18,151.8,M,-34.4,M,,*55
$GPRMC,135247.750,A,4308.3041,N,07726.2630,W,0.00,282.10,310819,,,A*79
$GPGGA,135248.000,4308.3041,N,07726.2630,W,1,09,1.18,151.8,M,-34.4,M,,*5F
$GPRMC,135248.250,A,4308.3041,N,07726.2630,W,0.00,90.50,310819,,,A*46
$GPGGA,135248.500,4308.3041,N,07726.2630,W,1,09,1.18,151.8,M,-34.4,M,,*5A
$GPRMC,135248.750,A,4308.3041,N,07726.2630,W,0.01,357.07,310819,,,A*78
$GPGGA,135249.000,4308.3041,N,07726.2630,W,1,09,1.18,151.8,M,-34.4,M,,*5E
$GPRMC,135249.250,A,4308.3041,N,07726.2630,W,0.01,316.22,310819,,,A*7E
$GPGGA,135249.500,4308.3041,N,07726.2630,W,1,09,1.18,151.8,M,-34.4,M,,*5B
$GPRMC,135249.750,A,4308.3041,N,07726.2630,W,0.01,343.45,310819,,,A*7A
$GPGGA,135250.000,4308.3041,N,07726.2630,W,1,09,1.18,151.8,M,-34.4,M,,*56
$GPRMC,135250.250,A,4308.3041,N,07726.2630,W,0.00,56.36,310819,,,A*45
$GPGGA,135250.500,4308.3041,N,07726.2630,W,1,09,1.18,151.8,M,-34.4,M,,*53
$GPRMC,135250.750,A,4308.3041,N,07726.2630,W,0.01,223.64,310819,,,A*76
$GPGGA,135251.000,4308.3041,N,07726.2630,W,1,09,1.18,151.8,M,-34.4,M,,*57
$GPRMC,135251.250,A,4308.3041,N,07726.2630,W,0.00,132.70,310819,,,A*75
$GPGGA,135251.500,4308.3041,N,07726.2630,W,1,09,1.18,151.8,M,-34.4,M,,*52
$GPRMC,135251.750,A,4308.3041,N,07726.2630,W,0.01,101.84,310819,,,A*7A
$GPGGA,135252.000,4308.3041,N,07726.2630,W,1,09,1.18,151.8,M,-34.4,M,,*54
$GPRMC,135252.250,A,4308.3041,N,07726.2630,W,0.01,239.95,310819,,,A*74
$GPGGA,135252.500,4308.3041,N,07726.2630,W,1,09,1.18,151.8,M,-34.4,M,,*51
$GPRMC,135252.750,A,4308.3041,N,07726.2630,W,0.00,161.07,310819,,,A*75
$GPGGA,135253.000,4308.3041,N,07726.2630,W,1,09,1.18,151.8,M,-34.4,M,,*55
$GPRMC,135253.250,A,4308.3041,N,07726.2630,W,0.01,55.55,310819,,,A*41
$GPGGA,135253.500,4308.3041,N,07726.2630,W,1,09,1.18,151.8,M,-34.4,M,,*50
$GPRMC,135253.750,A,4308.3041,N,07726.2630,W,0.01,119.06,310819,,,A*7B
$GPGGA,135254.000,4308.3041,N,07726.2630,W,1,09,1.18,151.8,M,-34.4,M,,*52
$GPRMC,135254.250,A,4308.3041,N,07726.2630,W,0.00,328.33,310819,,,A*7E
$GPGGA,135254.500,4308.3041,N,07726.2630,W,1,09,1.18,151.8,M,-34.4,M,,*57
$GPRMC,135254.750,A,4308.3041,N,07726.2630,W,0.02,285.65,310819,,,A*7C
$GPGGA,135255.000,4308.3041,N,07726.2630,W,1,09,1.18,151.8,M,-34.4,M,,*53
$GPRMC,135255.250,A,4308.3041,N,07726.2630,W,0.01,35.61,310819,,,A*46
$GPGGA,135255.500,4308.3041,N,07726.2630,W,1,09,1.18,151.8,M,-34.4,M,,*56
$GPRMC,135255.750,A,4308.3041,N,07726.2630,W,0.01,4.60,310819,,,A*70
$GPGGA,135256.000,4308.3041,N,07726.2630,W,1,09,1.18,151.8,M,-34.4,M,,*50
$GPRMC,135256.250,A,4308.3041,N,07726.2630,W,0.01,312.05,310819,,,A*71
$GPGGA,135256.500,4308.3041,N,07726.2630,W,1,09,1.18,151.8,M,-34.4,M,,*55
$GPRMC,135256.750,A,4308.3041,N,07726.2630,W,0.00,300.51,310819,,,A*77
$GPGGA,135257.000,4308.3041,N,07726.2629,W,1,09,1.18,151.8,M,-34.4,M,,*59
$GPRMC,135257.250,A,4308.3041,N,07726.2629,W,0.01,163.72,310819,,,A*7C
$GPGGA,135257.500,4308.3041,N,07726.2629,W,1,09,1.18,151.8,M,-34.4,M,,*5C
$GPRMC,135257.750,A,4308.3041,N,07726.2629,W,0.00,21.32,310819,,,A*4B
$GPGGA,135258.000,4308.3041,N,07726.2629,W,1,09,1.18,151.8,M,-34.4,M,,*56
$GPRMC,135258.250,A,4308.3041,N,07726.2629,W,0.01,170.54,310819,,,A*75
$GPGGA,135258.500,4308.3041,N,07726.2629,W,1,09,1.18,151.8,M,-34.4,M,,*53
$GPRMC,135258.750,A,4308.3041,N,07726.2629,W,0.00,36.02,310819,,,A*41
$GPGGA,135259.000,4308.3041,N,07726.2629,W,1,09,1.18,151.8,M,-34.4,M,,*57
$GPRMC,135259.250,A,4308.3041,N,07726.2629,W,0.01,325.25,310819,,,A*70
$GPGGA,135259.500,4308.3041,N,07726.2629,W,2,09,1.18,151.8,M,-34.4,M,0000,0000*51
$GPRMC,135259.750,A,4308.3041,N,07726.2629,W,0.01,111.32,310819,,,D*73
$GPGGA,135300.000,4308.3041,N,07726.2629,W,2,09,1.18,151.8,M,-34.4,M,0000,0000*59
$GPRMC,135300.250,A,4308.3041,N,07726.2629,W,0.00,163.61,310819,,,D*79
$GPGGA,135300.500,4308.3041,N,07726.2628,W,2,09,1.18,151.8,M,-34.4,M,0000,0000*5D
$GPRMC,135300.750,A,4308.3041,N,07726.2628,W,0.01,136.81,310819,,,D*72
$GPGGA,135301.000,4308.3041,N,07726.2628,W,2,09,1.18,151.8,M,-34.4,M,0000,0000*59
$GPRMC,135301.250,A,4308.3041,N,07726.2628,W,0.01,127.76,310819,,,D*7E
$GPGGA,135301.500,4308.3041,N,07726.2628,W,2,09,1.18,151.8,M,-34.4,M,0000,0000*5C
$GPRMC,135301.750,A,4308.3041,N,07726.2628,W,0.00,171.06,310819,,,D*7E
$GPGGA,135302.000,4308.3041,N,07726.2627,W,2,09,1.18,151.8,M,-34.4,M,0000,0000*55
$GPRMC,135302.250,A,4308.3041,N,07726.2627,W,0.00,324.44,310819,,,D*73
$GPGGA,135302.500,4308.3041,N,07726.2627,W,2,09,1.18,151.7,M,-34.4,M,0000,0000*5F
$GPRMC,135302.750,A,4308.3041,N,07726.2627,W,0.00,151.28,310819,,,D*7C
$GPGGA,135303.000,4308.3041,N,07726.2627,W,2,09,1.18,151.8,M,-34.4,M,0000,0000*54
$GPRMC,135303.250,A,4308.3041,N,07726.2626,W,0.01,307.37,310819,,,D*77
$GPGGA,135303.500,4308.3041,N,07726.2626,W,2,09,1.18,151.7,M,-34.4,M,0000,0000*5F
$GPRMC,135303.750,A,4308.3041,N,07726.2626,W,0.00,341.60,310819,,,D*73
$GPGGA,135304.000,4308.3041,N,07726.2626,W,2,08,1.25,151.7,M,-34.4,M,0000,0000*52
$GPRMC,135304.250,A,4308.3041,N,07726.2626,W,0.00,140.55,310819,,,D*74
$GPGGA,135304.500,4308.3041,N,07726.2626,W,2,08,1.24,151.7,M,-34.4,M,0000,0000*56
$GPRMC,135304.750,A,4308.3041,N,07726.2625,W,0.00,96.70,310819,,,D*4F
$GPGGA,135305.000,4308.3040,N,07726.2625,W,2,08,1.24,151.7,M,-34.4,M,0000,0000*50
$GPRMC,135305.250,A,4308.3040,N,07726.2625,W,0.01,75.87,310819,,,D*4E
$GPGGA,135305.500,4308.3040,N,07726.2625,W,2,08,1.25,151.7,M,-34.4,M,0000,0000*54
$GPRMC,135305.750,A,4308.3040,N,07726.2625,W,0.00,163.43,310819,,,D*74
$GPGGA,135306.000,4308.3040,N,07726.2625,W,2,08,1.24,151.7,M,-34.4,M,0000,0000*53
$GPRMC,135306.250,A,4308.3040,N,07726.2624,W,0.00,264.43,310819,,,D*77
$GPGGA,135306.500,4308.3040,N,07726.2624,W,2,08,1.24,151.7,M,-34.4,M,0000,0000*57
$GPRMC,135306.750,A,4308.3040,N,07726.2624,W,0.01,354.91,310819,,,D*7E
$GPGGA,135307.000,4308.3040,N,07726.2624,W,2,08,1.24,151.7,M,-34.4,M,0000,0000*53
$GPRMC,135307.250,A,4308.3040,N,07726.2624,W,0.00,305.59,310819,,,D*7B
$GPGGA,135307.500,4308.3040,N,07726.2624,W,2,08,1.25,151.7,M,-34.4,M,0000,0000*57
$GPRMC,135307.750,A,4308.3040,N,07726.2624,W,0.01,337.10,310819,,,D*73
$GPGGA,135308.000,4308.3040,N,07726.2624,W,2,08,1.24,151.7,M,-34.4,M,0000,0000*5C
$GPRMC,135308.250,A,4308.3040,N,07726.2624,W,0.00,129.30,310819,,,D*77
$GPGGA,135308.500,4308.3040,N,07726.2623,W,2,08,1.24,151.7,M,-34.4,M,0000,0000*5E
$GPRMC,135308.750,A,4308.3040,N,07726.2623,W,0.01,171.97,310819,,,D*74
$GPGGA,135309.000,4308.3040,N,07726.2623,W,2,08,1.24,151.7,M,-34.4,M,0000,0000*5A
$GPRMC,135309.250,A,4308.3040,N,07726.2623,W,0.01,170.22,310819,,,D*7F
$GPGGA,135309.500,4308.3040,N,07726.2623,W,2,08,1.24,151.7,M,-34.4,M,0000,0000*5F
$GPRMC,135309.750,A,4308.3040,N,07726.2623,W,0.00,70.82,310819,,,D*40
$GPGGA,135310.000,4308.3040,N,07726.2623,W,2,08,1.24,151.7,M,-34.4,M,0000,0000*52
$GPRMC,135310.250,A,4308.3040,N,07726.2623,W,0.01,210.83,310819,,,D*79
$GPGGA,135310.500,4308.3040,N,07726.2622,W,2,08,1.24,151.7,M,-34.4,M,0000,0000*56
$GPRMC,135310.750,A,4308.3041,N,07726.2622,W,0.01,264.50,310819,,,D*71
$GPGGA,135311.000,4308.3041,N,07726.2622,W,2,08,1.24,151.8,M,-34.4,M,0000,0000*5C
$GPRMC,135311.250,A,4308.3041,N,07726.2622,W,0.01,39.87,310819,,,D*45
$GPGGA,135311.500,4308.3041,N,07726.2622,W,2,08,1.24,151.8,M,-34.4,M,0000,0000*59
$GPRMC,135311.750,A,4308.3041,N,07726.2622,W,0.00,68.99,310819,,,D*4A
$GPGGA,135312.000,4308.3041,N,07726.2622,W,2,08,1.24,151.8,M,-34.4,M,0000,0000*5F
$GPRMC,135312.250,A,4308.3041,N,07726.2622,W,0.01,258.15,310819,,,D*78
$GPGGA,135312.500,4308.3041,N,07726.2622,W,2,08,1.24,151.8,M,-34.4,M,0000,0000*5A
$GPRMC,135312.750,A,4308.3041,N,07726.2622,W,0.01,149.05,310819,,,D*7F
$GPGGA,135313.000,4308.3041,N,07726.2622,W,2,08,1.24,151.9,M,-34.4,M,0000,0000*5F
$GPRMC,135313.250,A,4308.3041,N,07726.2622,W,0.00,40.94,310819,,,D*4A
$GPGGA,135313.500,4308.3041,N,07726.2622,W,2,08,1.24,151.9,M,-34.4,M,0000,0000*5A
$GPRMC,135313.750,A,4308.3041,N,07726.2621,W,0.00,104.11,310819,,,D*70
$GPGGA,135314.000,4308.3041,N,07726.2621,W,2,08,1.24,151.9,M,-34.4,M,0000,0000*5B
$GPRMC,135314.250,A,4308.3042,N,07726.2621,W,0.01,304.86,310819,,,D*7C
$GPGGA,135314.500,4308.3042,N,07726.2621,W,2,08,1.24,151.9,M,-34.4,M,0000,0000*5D
$GPRMC,135314.750,A,4308.3042,N,07726.2621,W,0.01,21.45,310819,,,D*42
$GPGGA,135315.000,4308.3042,N,07726.2621,W,2,08,1.24,151.9,M,-34.4,M,0000,0000*59
$GPRMC,135315.250,A,4308.3042,N,07726.2621,W,0.01,179.05,310819,,,D*7E
$GPGGA,135315.500,4308.3042,N,07726.2620,W,2,08,1.24,151.9,M,-34.4,M,0000,0000*5D
$GPRMC,135315.750,A,4308.3042,N,07726.2620,W,0.01,234.94,310819,,,D*78
$GPGGA,135316.000,4308.3042,N,07726.2620,W,2,08,1.24,151.8,M,-34.4,M,0000,0000*5A
$GPRMC,135316.250,A,4308.3042,N,07726.2620,W,0.00,238.27,310819,,,D*7B
$GPGGA,135316.500,4308.3042,N,07726.2620,W,2,08,1.24,151.8,M,-34.4,M,0000,0000*5F
$GPRMC,135316.750,A,4308.3042,N,07726.2620,W,0.01,338.35,310819,,,D*7D
$GPGGA,135317.000,4308.3043,N,07726.2620,W,2,08,1.24,151.8,M,-34.4,M,0000,0000*5A
$GPRMC,135317.250,A,4308.3043,N,07726.2620,W,0.00,304.27,310819,,,D*75
$GPGGA,135317.500,4308.3043,N,07726.2620,W,2,08,1.24,151.8,M,-34.4,M,0000,0000*5F
$GPRMC,135317.750,A,4308.3043,N,07726.2620,W,0.01,138.19,310819,,,D*71
$GPGGA,135318.000,4308.3043,N,07726.2620,W,2,08,1.24,151.8,M,-34.4,M,0000,0000*55
$GPRMC,135318.250,A,4308.3043,N,07726.2620,W,0.00,270.37,310819,,,D*79
$GPGGA,135318.500,4308.3043,N,07726.2620,W,2,08,1.24,151.7,M,-34.4,M,0000,0000*5F
$GPRMC,135318.750,A,4308.3043,N,07726.2620,W,0.01,130.99,310819,,,D*7E
$GPGGA,135319.000,4308.3043,N,07726.2620,W,2,08,1.24,151.7,M,-34.4,M,0000,0000*5B
$GPRMC,135319.250,A,4308.3043,N,07726.2620,W,0.01,65.17,310819,,,D*4D
$GPGGA,135319.500,4308.3043,N,07726.2620,W,2,08,1.24,151.7,M,-34.4,M,0000,0000*5E
$GPRMC,135319.750,A,4308.3043,N,07726.2620,W,0.02,41.93,310819,,,D*41
$GPGGA,135320.000,4308.3043,N,07726.2620,W,2,08,1.24,151.7,M,-34.4,M,0000,0000*51
$GPRMC,135320.250,A,4308.3043,N,07726.2620,W,0.00,106.48,310819,,,D*78
$GPGGA,135320.500,4308.3043,N,07726.2620,W,2,08,1.24,151.7,M,-34.4,M,0000,0000*54
$GPRMC,135320.750,A,4308.3043,N,07726.2620,W,0.01,168.39,310819,,,D*72
$GPGGA,135321.000,4308.3043,N,07726.2620,W,2,08,1.24,151.6,M,-34.4,M,0000,0000*51
$GPRMC,135321.250,A,4308.3043,N,07726.2620,W,0.01,275.70,310819,,,D*74
$GPGGA,135321.500,4308.3043,N,07726.2620,W,2,08,1.24,151.6,M,-34.4,M,0000,0000*54
$GPRMC,135321.750,A,4308.3043,N,07726.2620,W,0.00,333.19,310819,,,D*7C
$GPGGA,135322.000,4308.3043,N,07726.2620,W,2,08,1.24,151.6,M,-34.4,M,0000,0000*52
$GPRMC,135322.250,A,4308.3043,N,07726.2620,W,0.00,120.83,310819,,,D*79
$GPGGA,135322.500,4308.3043,N,07726.2620,W,2,08,1.24,151.6,M,-34.4,M,0000,0000*57
$GPRMC,135322.750,A,4308.3043,N,07726.2620,W,0.01,4.63,310819,,,D*74
$GPGGA,135323.000,4308.3043,N,07726.2620,W,2,08,1.24,151.6,M,-34.4,M,0000,0000*53
$GPRMC,135323.250,A,4308.3043,N,07726.2620,W,0.00,91.71,310819,,,D*4E
$GPGGA,135323.500,4308.3043,N,07726.2620,W,2,08,1.24,151.5,M,-34.4,M,0000,0000*55
$GPRMC,135323.750,A,4308.3043,N,07726.2620,W,0.01,12.28,310819,,,D*4D
$GPGGA,135324.000,4308.3043,N,07726.2620,W,2,09,1.18,151.5,M,-34.4,M,0000,0000*59
$GPRMC,135324.250,A,4308.3043,N,07726.2620,W,0.00,116.38,310819,,,D*7A
$GPGGA,135324.500,4308.3043,N,07726.2620,W,2,09,1.18,151.5,M,-34.4,M,0000,0000*5C
$GPRMC,135324.750,A,4308.3043,N,07726.2620,W,0.01,115.30,310819,,,D*75
$GPGGA,135325.000,4308.3043,N,07726.2620,W,2,09,1.17,151.5,M,-34.4,M,0000,0000*57
$GPRMC,135325.250,A,4308.3043,N,07726.2620,W,0.01,109.47,310819,,,D*7C
$GPGGA,135325.500,4308.3043,N,07726.2620,W,2,09,1.17,151.5,M,-34.4,M,0000,0000*52
$GPRMC,135325.750,A,4308.3043,N,07726.2620,W,0.01,345.71,310819,,,D*76
$GPGGA,135326.000,4308.3043,N,07726.2620,W,2,09,1.17,151.5,M,-34.4,M,0000,0000*54
$GPRMC,135326.250,A,4308.3043,N,07726.2620,W,0.01,19.28,310819,,,D*46
$GPGGA,135326.500,4308.3043,N,07726.2620,W,2,09,1.18,151.5,M,-34.4,M,0000,0000*5E
$GPRMC,135326.750,A,4308.3042,N,07726.2620,W,0.00,205.05,310819,,,D*73
$GPGGA,135327.000,4308.3042,N,07726.2620,W,2,09,1.17,151.5,M,-34.4,M,0000,0000*54
$GPRMC,135327.250,A,4308.3042,N,07726.2620,W,0.01,175.96,310819,,,D*78
$GPGGA,135327.500,4308.3042,N,07726.2620,W,2,09,1.17,151.5,M,-34.4,M,0000,0000*51
$GPRMC,135327.750,A,4308.3042,N,07726.2620,W,0.01,137.66,310819,,,D*74
$GPGGA,135328.000,4308.3042,N,07726.2621,W,2,09,1.17,151.5,M,-34.4,M,0000,0000*5A
$GPRMC,135328.250,A,4308.3042,N,07726.2621,W,0.01,150.41,310819,,,D*7B
$GPGGA,135328.500,4308.3042,N,07726.2621,W,2,09,1.17,151.5,M,-34.4,M,0000,0000*5F
$GPRMC,135328.750,A,4308.3042,N,07726.2621,W,0.01,106.49,310819,,,D*75
$GPGGA,135329.000,4308.3042,N,07726.2621,W,2,09,1.18,151.5,M,-34.4,M,0000,0000*54
$GPRMC,135329.250,A,4308.3042,N,07726.2621,W,0.01,352.19,310819,,,D*77
$GPGGA,135329.500,4308.3042,N,07726.2621,W,2,09,1.17,151.5,M,-34.4,M,0000,0000*5E
$GPRMC,135329.750,A,4308.3042,N,07726.2621,W,0.02,1.79,310819,,,D*72
$GPGGA,135330.000,4308.3042,N,07726.2621,W,2,09,1.17,151.5,M,-34.4,M,0000,0000*53
$GPRMC,135330.250,A,4308.3042,N,07726.2621,W,0.01,142.94,310819,,,D*79
$GPGGA,135330.500,4308.3042,N,07726.2621,W,2,09,1.17,151.5,M,-34.4,M,0000,0000*56
$GPRMC,135330.750,A,4308.3042,N,07726.2621,W,0.01,27.02,310819,,,D*41
$GPGGA,135331.000,4308.3042,N,07726.2621,W,2,09,1.17,151.5,M,-34.4,M,0000,0000*52
$GPRMC,135331.250,A,4308.3042,N,07726.2621,W,0.00,153.95,310819,,,D*78
$GPGGA,135331.500,4308.3042,N,07726.2621,W,2,09,1.17,151.5,M,-34.4,M,0000,0000*57
$GPRMC,135331.750,A,4308.3042,N,07726.2621,W,0.00,0.00,310819,,,D*76
$GPGGA,135332.000,4308.3042,N,07726.2621,W,2,09,1.17,151.5,M,-34.4,M,0000,0000*51
$GPRMC,135332.250,A,4308.3042,N,07726.2621,W,0.01,161.64,310819,,,D*75
$GPGGA,135332.500,4308.3042,N,07726.2621,W,2,09,1.17,151.5,M,-34.4,M,0000,0000*54
$GPRMC,135332.750,A,4308.3042,N,07726.2621,W,0.01,248.09,310819,,,D*73
$GPGGA,135333.000,4308.3042,N,07726.2621,W,2,09,1.17,151.5,M,-34.4,M,0000,0000*50
$GPRMC,135333.250,A,4308.3042,N,07726.2621,W,0.00,121.06,310819,,,D*75
$GPGGA,135333.500,4308.3042,N,07726.2621,W,2,09,1.17,151.5,M,-34.4,M,0000,0000*55
$GPRMC,135333.750,A,4308.3042,N,07726.2621,W,0.01,254.06,310819,,,D*70
$GPGGA,135334.000,4308.3042,N,07726.2621,W,2,09,1.17,151.5,M,-34.4,M,0000,0000*57
$GPRMC,135334.250,A,4308.3042,N,07726.2621,W,0.01,197.30,310819,,,D*7B
$GPGGA,135334.500,4308.3042,N,07726.2621,W,2,09,1.17,151.5,M,-34.4,M,0000,0000*52
$GPRMC,135334.750,A,4308.3042,N,07726.2621,W,0.00,92.27,310819,,,D*4D
$GPGGA,135335.000,4308.3042,N,07726.2622,W,2,09,1.17,151.5,M,-34.4,M,0000,0000*55
$GPRMC,135335.250,A,4308.3042,N,07726.2622,W,0.01,198.94,310819,,,D*78
$GPGGA,135335.500,4308.3042,N,07726.2622,W,2,09,1.17,151.6,M,-34.4,M,0000,0000*53
$GPRMC,135335.750,A,4308.3042,N,07726.2622,W,0.01,71.30,310819,,,D*45
$GPGGA,135336.000,4308.3042,N,07726.2622,W,2,09,1.17,151.6,M,-34.4,M,0000,0000*55
$GPRMC,135336.250,A,4308.3043,N,07726.2622,W,0.01,308.60,310819,,,D*7A
$GPGGA,135336.500,4308.3043,N,07726.2622,W,2,09,1.17,151.6,M,-34.4,M,0000,0000*51
$GPRMC,135336.750,A,4308.3043,N,07726.2622,W,0.01,312.14,310819,,,D*77
$GPGGA,135337.000,4308.3043,N,07726.2622,W,2,09,1.17,151.6,M,-34.4,M,0000,0000*55
$GPRMC,135337.250,A,4308.3043,N,07726.2622,W,0.00,208.60,310819,,,D*7B
$GPGGA,135337.500,4308.3043,N,07726.2622,W,2,09,1.17,151.7,M,-34.4,M,0000,0000*51
$GPRMC,135337.750,A,4308.3043,N,07726.2622,W,0.01,149.78,310819,,,D*70
$GPGGA,135338.000,4308.3043,N,07726.2622,W,2,09,1.17,151.7,M,-34.4,M,0000,0000*5B
$GPRMC,135338.250,A,4308.3043,N,07726.2622,W,0.00,71.15,310819,,,D*4A
$GPGGA,135338.500,4308.3043,N,07726.2622,W,2,09,1.17,151.7,M,-34.4,M,0000,0000*5E
$GPRMC,135338.750,A,4308.3043,N,07726.2622,W,0.01,319.10,310819,,,D*76
$GPGGA,135339.000,4308.3043,N,07726.2622,W,2,09,1.17,151.8,M,-34.4,M,0000,0000*55
$GPRMC,135339.250,A,4308.3043,N,07726.2622,W,0.01,246.65,310819,,,D*7B
$GPGGA,135339.500,4308.3043,N,07726.2622,W,2,09,1.17,151.8,M,-34.4,M,0000,0000*50
$GPRMC,135339.750,A,4308.3043,N,07726.2622,W,0.01,241.22,310819,,,D*7A
$GPGGA,135340.000,4308.3043,N,07726.2622,W,2,09,1.17,151.9,M,-34.4,M,0000,0000*5A
$GPRMC,135340.250,A,4308.3043,N,07726.2622,W,0.01,278.18,310819,,,D*72
$GPGGA,135340.500,4308.3044,N,07726.2622,W,2,09,1.17,151.9,M,-34.4,M,0000,0000*58
$GPRMC,135340.750,A,4308.3044,N,07726.2622,W,0.00,216.79,310819,,,D*7E
$GPGGA,135341.000,4308.3044,N,07726.2622,W,2,09,1.17,151.9,M,-34.4,M,0000,0000*5C
$GPRMC,135341.250,A,4308.3044,N,07726.2622,W,0.00,56.41,310819,,,D*47
$GPGGA,135341.500,4308.3044,N,07726.2622,W,2,09,1.17,152.0,M,-34.4,M,0000,0000*53
$GPRMC,135341.750,A,4308.3044,N,07726.2622,W,0.00,359.59,310819,,,D*77
$GPGGA,135342.000,4308.3044,N,07726.2623,W,2,09,1.17,152.0,M,-34.4,M,0000,0000*54
$GPRMC,135342.250,A,4308.3044,N,07726.2623,W,0.00,293.47,310819,,,D*78
$GPGGA,135342.500,4308.3044,N,07726.2623,W,2,09,1.17,152.0,M,-34.4,M,0000,0000*51
$GPRMC,135342.750,A,4308.3044,N,07726.2623,W,0.01,170.34,310819,,,D*76
$GPGGA,135343.000,4308.3044,N,07726.2623,W,2,09,1.17,152.0,M,-34.4,M,0000,0000*55
$GPRMC,135343.250,A,4308.3044,N,07726.2623,W,0.01,230.90,310819,,,D*7B
$GPGGA,135343.500,4308.3044,N,07726.2623,W,2,09,1.17,152.0,M,-34.4,M,0000,0000*50
$GPRMC,135343.750,A,4308.3044,N,07726.2623,W,0.00,272.63,310819,,,D*75
$GPGGA,135344.000,4308.3044,N,07726.2623,W,2,09,1.17,152.0,M,-34.4,M,0000,0000*52
$GPRMC,135344.250,A,4308.3044,N,07726.2623,W,0.00,6.22,310819,,,D*73
$GPGGA,135344.500,4308.3044,N,07726.2623,W,2,09,1.17,152.0,M,-34.4,M,0000,0000*57
$GPRMC,135344.750,A,4308.3045,N,07726.2623,W,0.01,356.39,310819,,,D*7A
$GPGGA,135345.000,4308.3045,N,07726.2623,W,2,09,1.17,152.0,M,-34.4,M,0000,0000*52
$GPRMC,135345.250,A,4308.3045,N,07726.2623,W,0.00,104.61,310819,,,D*77
$GPGGA,135345.500,4308.3045,N,07726.2623,W,2,09,1.17,152.0,M,-34.4,M,0000,0000*57
$GPRMC,135345.750,A,4308.3045,N,07726.2623,W,0.01,342.13,310819,,,D*76
$GPGGA,135346.000,4308.3045,N,07726.2623,W,2,09,1.17,152.0,M,-34.4,M,0000,0000*51
$GPRMC,135346.250,A,4308.3045,N,07726.2623,W,0.01,187.05,310819,,,D*7C
$GPGGA,135346.500,4308.3045,N,07726.2623,W,2,09,1.17,152.0,M,-34.4,M,0000,0000*54
$GPRMC,135346.750,A,4308.3045,N,07726.2623,W,0.00,331.30,310819,,,D*71
$GPGGA,135347.000,4308.3045,N,07726.2623,W,2,09,1.17,152.0,M,-34.4,M,0000,0000*50
$GPRMC,135347.250,A,4308.3045,N,07726.2623,W,0.01,289.47,310819,,,D*76
$GPGGA,135347.500,4308.3045,N,07726.2623,W,2,09,1.17,152.0,M,-34.4,M,0000,0000*55
$GPRMC,135347.750,A,4308.3045,N,07726.2623,W,0.00,209.05,310819,,,D*7C
$GPGGA,135348.000,4308.3045,N,07726.2623,W,2,09,1.17,152.0,M,-34.4,M,0000,0000*5F
$GPRMC,135348.250,A,4308.3045,N,07726.2623,W,0.00,292.95,310819,,,D*7D
$GPGGA,135348.500,4308.3045,N,07726.2623,W,2,09,1.17,152.0,M,-34.4,M,0000,0000*5A
$GPRMC,135348.750,A,4308.3045,N,07726.2623,W,0.00,0.00,310819,,,D*7D
$GPGGA,135349.000,4308.3045,N,07726.2623,W,2,09,1.17,152.0,M,-34.4,M,0000,0000*5E
$GPRMC,135349.250,A,4308.3045,N,07726.2623,W,0.00,272.33,310819,,,D*7E
$GPGGA,135349.500,4308.3045,N,07726.2623,W,2,09,1.17,152.0,M,-34.4,M,0000,0000*5B
$GPRMC,135349.750,A,4308.3045,N,07726.2623,W,0.01,155.68,310819,,,D*72
$GPGGA,135350.000,4308.3045,N,07726.2623,W,2,09,1.17,152.0,M,-34.4,M,0000,0000*56
$GPRMC,135350.250,A,4308.3045,N,07726.2623,W,0.01,133.55,310819,,,D*71
$GPGGA,135350.500,4308.3045,N,07726.2623,W,2,09,1.17,152.0,M,-34.4,M,0000,0000*53
$GPRMC,135350.750,A,4308.3045,N,07726.2623,W,0.00,220.93,310819,,,D*7E
$GPGGA,135351.000,4308.3045,N,07726.2623,W,2,09,1.17,152.0,M,-34.4,M,0000,0000*57
$GPRMC,135351.250,A,4308.3045,N,07726.2623,W,0.01,118.61,310819,,,D*7E
$GPGGA,135351.500,4308.3045,N,07726.2623,W,2,09,1.17,152.0,M,-34.4,M,0000,0000*52
$GPRMC,135351.750,A,4308.3045,N,07726.2623,W,0.01,134.50,310819,,,D*77
$GPGGA,135352.000,4308.3045,N,07726.2623,W,2,09,1.17,152.0,M,-34.4,M,0000,0000*54
$GPRMC,135352.250,A,4308.3045,N,07726.2623,W,0.00,26.94,310819,,,D*4A
$GPGGA,135352.500,4308.3045,N,07726.2623,W,2,09,1.17,152.0,M,-34.4,M,0000,0000*51
$GPRMC,135352.750,A,4308.3045,N,07726.2623,W,0.01,63.27,310819,,,D*47
$GPGGA,135353.000,4308.3045,N,07726.2623,W,2,09,1.17,152.0,M,-34.4,M,0000,0000*55
$GPRMC,135353.250,A,4308.3045,N,07726.2623,W,0.00,312.76,310819,,,D*73
$GPGGA,135353.500,4308.3045,N,07726.2623,W,2,09,1.17,152.0,M,-34.4,M,0000,0000*50
$GPRMC,135353.750,A,4308.3045,N,07726.2623,W,0.01,142.53,310819,,,D*77
$GPGGA,135354.000,4308.3045,N,07726.2623,W,2,09,1.17,152.0,M,-34.4,M,0000,0000*52
$GPRMC,135354.250,A,4308.3045,N,07726.2623,W,0.01,127.88,310819,,,D*70
$GPGGA,135354.500,4308.3045,N,07726.2623,W,2,09,1.17,152.0,M,-34.4,M,0000,0000*57
$GPRMC,135354.750,A,4308.3045,N,07726.2623,W,0.01,279.65,310819,,,D*7E
$GPGGA,135355.000,4308.3045,N,07726.2623,W,2,09,1.17,152.0,M,-34.4,M,0000,0000*53
$GPRMC,135355.250,A,4308.3045,N,07726.2623,W,0.01,193.11,310819,,,D*7E
$GPGGA,135355.500,4308.3045,N,07726.2623,W,2,09,1.17,152.0,M,-34.4,M,0000,0000*56
$GPRMC,135355.750,A,4308.3045,N,07726.2623,W,0.01,97.29,310819,,,D*45
$GPGGA,135356.000,4308.3045,N,07726.2623,W,2,09,1.17,152.0,M,-34.4,M,0000,0000*50
$GPRMC,135356.250,A,4308.3045,N,07726.2623,W,0.02,111.87,310819,,,D*7B
$GPGGA,135356.500,4308.3045,N,07726.2623,W,2,09,1.17,152.0,M,-34.4,M,0000,0000*55
$GPRMC,135356.750,A,4308.3045,N,07726.2623,W,0.01,297.93,310819,,,D*75
$GPGGA,135357.000,4308.3045,N,07726.2623,W,2,09,1.17,152.0,M,-34.4,M,0000,0000*51
$GPRMC,135357.250,A,4308.3045,N,07726.2623,W,0.01,124.88,310819,,,D*70
$GPGGA,135357.500,4308.3045,N,07726.2623,W,2,09,1.17,152.0,M,-34.4,M,0000,0000*54
$GPRMC,135357.750,A,4308.3045,N,07726.2623,W,0.01,296.64,310819,,,D*7D
$GPGGA,135358.000,4308.3045,N,07726.2623,W,2,09,1.17,152.0,M,-34.4,M,0000,0000*5E
$GPRMC,135358.250,A,4308.3045,N,07726.2623,W,0.01,339.48,310819,,,D*7D
$GPGGA,135358.500,4308.3045,N,07726.2623,W,2,09,1.17,152.0,M,-34.4,M,0000,0000*5B
$GPRMC,135358.750,A,4308.3045,N,07726.2623,W,0.01,84.13,310819,,,D*43
$GPGGA,135359.000,4308.3045,N,07726.2623,W,2,09,1.17,152.0,M,-34.4,M,0000,0000*5F
$GPRMC,135359.250,A,4308.3045,N,07726.2623,W,0.00,346.88,310819,,,D*79
$GPGGA,135359.500,4308.3045,N,07726.2623,W,2,09,1.17,152.0,M,-34.4,M,0000,0000*5A
$GPRMC,135359.750,A,4308.3045,N,07726.2623,W,0.01,127.47,310819,,,D*7B
$GPGGA,135400.000,4308.3045,N,07726.2623,W,2,09,1.17,152.0,M,-34.4,M,0000,0000*54
$GPRMC,135400.250,A,4308.3045,N,07726.2623,W,0.00,84.90,310819,,,D*46
$GPGGA,135400.500,4308.3045,N,07726.2623,W,2,09,1.17,152.0,M,-34.4,M,0000,0000*51
$GPRMC,135400.750,A,4308.3045,N,07726.2623,W,0.00,139.27,310819,,,D*78
$GPGGA,135401.000,4308.3045,N,07726.2623,W,2,09,1.17,152.0,M,-34.4,M,0000,0000*55
$GPRMC,135401.250,A,4308.3045,N,07726.2623,W,0.01,111.92,310819,,,D*79
$GPGGA,135401.500,4308.3045,N,07726.2623,W,2,09,1.17,152.0,M,-34.4,M,0000,0000*50
$GPRMC,135401.750,A,4308.3045,N,07726.2623,W,0.01,263.90,310819,,,D*78
$GPGGA,135402.000,4308.3045,N,07726.2623,W,2,09,1.17,152.0,M,-34.4,M,0000,0000*56
$GPRMC,135402.250,A,4308.3045,N,07726.2623,W,0.00,108.08,310819,,,D*70
$GPGGA,135402.500,4308.3045,N,07726.2623,W,2,09,1.17,152.0,M,-34.4,M,0000,0000*53
$GPRMC,135402.750,A,4308.3045,N,07726.2623,W,0.01,268.73,310819,,,D*7D
$GPGGA,135403.000,4308.3045,N,07726.2623,W,2,09,1.17,152.0,M,-34.4,M,0000,0000*57
$GPRMC,135403.250,A,4308.3045,N,07726.2623,W,0.00,28.47,310819,,,D*49
$GPGGA,135403.500,4308.3045,N,07726.2623,W,2,09,1.17,152.0,M,-34.4,M,0000,0000*52
$GPRMC,135403.750,A,4308.3045,N,07726.2623,W,0.02,204.66,310819,,,D*71
$GPGGA,135404.000,4308.3045,N,07726.2623,W,2,09,1.17,152.0,M,-34.4,M,0000,0000*50
$GPRMC,135404.250,A,4308.3045,N,07726.2623,W,0.01,200.79,310819,,,D*7A
$GPGGA,135404.500,4308.3045,N,07726.2623,W,2,09,1.17,152.0,M,-34.4,M,0000,0000*55
$GPRMC,135404.750,A,4308.3045,N,07726.2623,W,0.02,54.96,310819,,,D*4E
$GPGGA,135405.000,4308.3045,N,07726.2623,W,2,09,1.17,152.0,M,-34.4,M,0000,0000*51
$GPRMC,135405.250,A,4308.3045,N,07726.2623,W,0.01,261.24,310819,,,D*74
$GPGGA,135405.500,4308.3045,N,07726.2623,W,2,09,1.17,152.0,M,-34.4,M,0000,0000*54
$GPRMC,135405.750,A,4308.3045,N,07726.2623,W,0.03,51.08,310819,,,D*4C
$GPGGA,135406.000,4308.3045,N,07726.2623,W,2,09,1.17,152.0,M,-34.4,M,0000,0000*52
$GPRMC,135406.250,A,4308.3045,N,07726.2623,W,0.02,187.01,310819,,,D*78
$GPGGA,135406.500,4308.3045,N,07726.2623,W,2,09,1.17,152.0,M,-34.4,M,0000,0000*57
$GPRMC,135406.750,A,4308.3045,N,07726.2623,W,0.03,11.73,310819,,,D*47
$GPGGA,135407.000,4308.3045,N,07726.2623,W,2,09,1.17,152.0,M,-34.4,M,0000,0000*53
$GPRMC,135407.250,A,4308.3045,N,07726.2623,W,0.01,228.72,310819,,,D*78
$GPGGA,135407.500,4308.3045,N,07726.2623,W,2,09,1.17,152.0,M,-34.4,M,0000,0000*56
$GPRMC,135407.750,A,4308.3045,N,07726.2623,W,0.00,50.16,310819,,,D*43
$GPGGA,135408.000,4308.3045,N,07726.2623,W,2,09,1.17,152.0,M,-34.4,M,0000,0000*5C
$GPRMC,135408.250,A,4308.3045,N,07726.2623,W,0.01,45.59,310819,,,D*47
$GPGGA,135408.500,4308.3045,N,07726.2623,W,2,09,1.17,152.0,M,-34.4,M,0000,0000*59
$GPRMC,135408.750,A,4308.3045,N,07726.2623,W,0.00,233.19,310819,,,D*74
$GPGGA,135409.000,4308.3045,N,07726.2623,W,2,09,1.17,152.0,M,-34.4,M,0000,0000*5D
$GPRMC,135409.250,A,4308.3045,N,07726.2623,W,0.00,118.41,310819,,,D*77
$GPGGA,135409.500,4308.3045,N,07726.2623,W,2,09,1.17,152.0,M,-34.4,M,0000,0000*58
$GPRMC,135409.750,A,4308.3045,N,07726.2623,W,0.00,106.21,310819,,,D*7B
$GPGGA,135410.000,4308.3045,N,07726.2623,W,2,09,1.17,152.0,M,-34.4,M,0000,0000*55
$GPRMC,135410.250,A,4308.3045,N,07726.2623,W,0.01,56.66,310819,,,D*40
$GPGGA,135410.500,4308.3045,N,07726.2623,W,2,09,1.17,152.0,M,-34.4,M,0000,0000*50
$GPRMC,135410.750,A,4308.3045,N,07726.2623,W,0.01,173.12,310819,,,D*70
$GPGGA,135411.000,4308.3045,N,07726.2623,W,2,09,1.17,152.0,M,-34.4,M,0000,0000*54
$GPRMC,135411.250,A,4308.3045,N,07726.2623,W,0.01,173.32,310819,,,D*76
$GPGGA,135411.500,4308.3045,N,07726.2623,W,2,09,1.17,152.0,M,-34.4,M,0000,0000*51
$GPRMC,135411.750,A,4308.3045,N,07726.2623,W,0.01,118.35,310819,,,D*79
$GPGGA,135412.000,4308.3045,N,07726.2623,W,2,09,1.17,152.0,M,-34.4,M,0000,0000*57
$GPRMC,135412.250,A,4308.3045,N,07726.2623,W,0.00,93.66,310819,,,D*4A
$GPGGA,135412.500,4308.3045,N,07726.2623,W,2,09,1.17,152.0,M,-34.4,M,0000,0000*52
$GPRMC,135412.750,A,4308.3045,N,07726.2623,W,0.00,233.85,310819,,,D*7A
$GPGGA,135413.000,4308.3045,N,07726.2623,W,2,09,1.17,152.0,M,-34.4,M,0000,0000*56
$GPRMC,135413.250,A,4308.3045,N,07726.2623,W,0.00,308.81,310819,,,D*73
$GPGGA,135413.500,4308.3045,N,07726.2623,W,2,09,1.17,152.0,M,-34.4,M,0000,0000*53
$GPRMC,135413.750,A,4308.3045,N,07726.2623,W,0.00,280.28,310819,,,D*74
$GPGGA,135414.000,4308.3045,N,07726.2623,W,2,09,1.17,152.0,M,-34.4,M,0000,0000*51
$GPRMC,135414.250,A,4308.3045,N,07726.2623,W,0.00,0.00,310819,,,D*76
$GPGGA,135414.500,4308.3045,N,07726.2623,W,2,09,1.17,152.0,M,-34.4,M,0000,0000*54
$GPRMC,135414.750,A,4308.3045,N,07726.2623,W,0.00,329.27,310819,,,D*7E
$GPGGA,135415.000,4308.3045,N,07726.2623,W,2,09,1.17,152.0,M,-34.4,M,0000,0000*50
$GPRMC,135415.250,A,4308.3045,N,07726.2623,W,0.00,0.00,310819,,,D*77
$GPGGA,135415.500,4308.3045,N,07726.2623,W,2,09,1.17,152.0,M,-34.4,M,0000,0000*55
$GPRMC,135415.750,A,4308.3045,N,07726.2623,W,0.00,119.54,310819,,,D*7A
$GPGGA,135416.000,4308.3045,N,07726.2623,W,2,09,1.17,152.0,M,-34.4,M,0000,0000*53
$GPRMC,135416.250,A,4308.3045,N,07726.2623,W,0.00,0.00,310819,,,D*74
$GPGGA,135416.500,4308.3045,N,07726.2623,W,2,09,1.17,152.0,M,-34.4,M,0000,0000*56
$GPRMC,135416.750,A,4308.3045,N,07726.2623,W,0.01,42.28,310819,,,D*4C
$GPGGA,135417.000,4308.3045,N,07726.2623,W,2,09,1.17,152.0,M,-34.4,M,0000,0000*52
$GPRMC,135417.250,A,4308.3045,N,07726.2623,W,0.01,3.07,310819,,,D*70
$GPGGA,135417.500,4308.3045,N,07726.2623,W,2,09,1.17,152.0,M,-34.4,M,0000,0000*57
$GPRMC,135417.750,A,4308.3045,N,07726.2623,W,0.00,286.99,310819,,,D*7C
$GPGGA,135418.000,4308.3045,N,07726.2623,W,2,09,1.17,152.0,M,-34.4,M,0000,0000*5D
$GPRMC,135418.250,A,4308.3045,N,07726.2623,W,0.00,77.54,310819,,,D*4B
$GPGGA,135418.500,4308.3045,N,07726.2623,W,2,09,1.17,152.0,M,-34.4,M,0000,0000*58
$GPRMC,135418.750,A,4308.3045,N,07726.2623,W,0.00,64.35,310819,,,D*4B
$GPGGA,135419.000,4308.3045,N,07726.2623,W,2,09,1.17,152.0,M,-34.4,M,0000,0000*5C
$GPRMC,135419.250,A,4308.3045,N,07726.2623,W,0.00,295.03,310819,,,D*76
$GPGGA,135419.500,4308.3045,N,07726.2623,W,2,09,1.17,152.0,M,-34.4,M,0000,0000*59
$GPRMC,135419.750,A,4308.3045,N,07726.2623,W,0.01,276.71,310819,,,D*7A
$GPGGA,135420.000,4308.3045,N,07726.2623,W,2,09,1.17,152.0,M,-34.4,M,0000,0000*56
$GPRMC,135420.250,A,4308.3045,N,07726.2623,W,0.00,344.44,310819,,,D*72
$GPGGA,135420.500,4308.3045,N,07726.2623,W,2,09,1.17,152.0,M,-34.4,M,0000,0000*53
$GPRMC,135420.750,A,4308.3045,N,07726.2623,W,0.01,262.94,310819,,,D*7E
$GPGGA,135421.000,4308.3045,N,07726.2623,W,2,09,1.17,152.0,M,-34.4,M,0000,0000*57
$GPRMC,135421.250,A,4308.3045,N,07726.2623,W,0.00,325.46,310819,,,D*76
$GPGGA,135421.500,4308.3045,N,07726.2623,W,2,09,1.17,152.0,M,-34.4,M,0000,0000*52
$GPRMC,135421.750,A,4308.3045,N,07726.2623,W,0.00,0.00,310819,,,D*75
$GPGGA,135422.000,4308.3045,N,07726.2623,W,2,09,1.17,152.0,M,-34.4,M,0000,0000*54
$GPRMC,135422.250,A,4308.3045,N,07726.2623,W,0.01,15.80,310819,,,D*4E
$GPGGA,135422.500,4308.3045,N,07726.2623,W,2,09,1.17,152.0,M,-34.4,M,0000,0000*51
$GPRMC,135422.750,A,4308.3045,N,07726.2623,W,0.02,211.74,310819,,,D*75
$GPGGA,135423.000,4308.3045,N,07726.2623,W,2,09,1.17,152.0,M,-34.4,M,0000,0000*55
$GPRMC,135423.250,A,4308.3045,N,07726.2623,W,0.01,36.19,310819,,,D*4E
$GPGGA,135423.500,4308.3045,N,07726.2623,W,2,09,1.17,152.0,M,-34.4,M,0000,0000*50
$GPRMC,135423.750,A,4308.3045,N,07726.2623,W,0.01,220.74,310819,,,D*75
$GPGGA,135424.000,4308.3045,N,07726.2623,W,2,09,1.17,152.0,M,-34.4,M,0000,0000*52
$GPRMC,135424.250,A,4308.3045,N,07726.2623,W,0.00,203.87,310819,,,D*7B
$GPGGA,135424.500,4308.3045,N,07726.2623,W,2,09,1.17,152.0,M,-34.4,M,0000,0000*57
$GPRMC,135424.750,A,4308.3045,N,07726.2623,W,0.01,320.08,310819,,,D*78
$GPGGA,135425.000,4308.3045,N,07726.2623,W,2,09,1.17,152.0,M,-34.4,M,0000,0000*53
$GPRMC,135425.250,A,4308.3045,N,07726.2623,W,0.01,166.62,310819,,,D*70
$GPGGA,135425.500,4308.3045,N,07726.2623,W,2,09,1.17,152.0,M,-34.4,M,0000,0000*56
$GPRMC,135425.750,A,4308.3045,N,07726.2623,W,0.01,338.92,310819,,,D*73
$GPGGA,135426.000,4308.3045,N,07726.2623,W,2,09,1.17,152.0,M,-34.4,M,0000,0000*50
$GPRMC,135426.250,A,4308.3045,N,07726.2623,W,0.01,214.89,310819,,,D*70
$GPGGA,135426.500,4308.3045,N,07726.2623,W,2,09,1.17,152.0,M,-34.4,M,0000,0000*55
$GPRMC,135426.750,A,4308.3045,N,07726.2623,W,0.01,327.33,310819,,,D*75
$GPGGA,135427.000,4308.3045,N,07726.2623,W,2,09,1.17,152.0,M,-34.4,M,0000,0000*51
$GPRMC,135427.250,A,4308.3045,N,07726.2623,W,0.00,0.00,310819,,,D*76
$GPGGA,135427.500,4308.3045,N,07726.2623,W,2,09,1.17,152.0,M,-34.4,M,0000,0000*54
$GPRMC,135427.750,A,4308.3045,N,07726.2623,W,0.01,198.80,310819,,,D*7A
$GPGGA,135428.000,4308.3045,N,07726.2623,W,2,09,1.17,152.0,M,-34.4,M,0000,0000*5E
$GPRMC,135428.250,A,4308.3045,N,07726.2623,W,0.01,184.35,310819,,,D*73
$GPGGA,135428.500,4308.3045,N,07726.2623,W,2,09,1.17,152.0,M,-34.4,M,0000,0000*5B
$GPRMC,135428.750,A,4308.3045,N,07726.2623,W,0.01,148.67,310819,,,D*71
$GPGGA,135429.000,4308.3045,N,07726.2623,W,2,09,1.17,152.0,M,-34.4,M,0000,0000*5F
$GPRMC,135429.250,A,4308.3045,N,07726.2623,W,0.00,115.30,310819,,,D*7E
$GPGGA,135429.500,4308.3045,N,07726.2623,W,2,09,1.17,152.0,M,-34.4,M,0000,0000*5A
$GPRMC,135429.750,A,4308.3045,N,07726.2623,W,0.00,74.17,310819,,,D*48
$GPGGA,135430.000,4308.3045,N,07726.2623,W,2,09,1.17,152.0,M,-34.4,M,0000,0000*57
$GPRMC,135430.250,A,4308.3045,N,07726.2623,W,0.01,179.58,310819,,,D*73
$GPGGA,135430.500,4308.3045,N,07726.2623,W,2,09,1.17,152.0,M,-34.4,M,0000,0000*52
$GPRMC,135430.750,A,4308.3045,N,07726.2623,W,0.00,99.78,310819,,,D*4A
$GPGGA,135431.000,4308.3045,N,07726.2623,W,2,09,1.17,152.0,M,-34.4,M,0000,0000*56
$GPRMC,135431.250,A,4308.3045,N,07726.2623,W,0.01,98.86,310819,,,D*4F
$GPGGA,135431.500,4308.3045,N,07726.2623,W,2,09,1.17,152.0,M,-34.4,M,0000,0000*53
$GPRMC,135431.750,A,4308.3045,N,07726.2623,W,0.00,34.32,310819,,,D*42
$GPGGA,135432.000,4308.3045,N,07726.2623,W,2,09,1.17,152.0,M,-34.4,M,0000,0000*55
$GPRMC,135432.250,A,4308.3045,N,07726.2623,W,0.07,16.33,310819,,,D*42
$GPGGA,135432.500,4308.3045,N,07726.2623,W,2,09,1.17,152.0,M,-34.4,M,0000,0000*50
$GPRMC,135432.750,A,4308.3045,N,07726.2623,W,0.54,48.39,310819,,,D*40
$GPGGA,135433.000,4308.3045,N,07726.2623,W,2,09,1.05,152.0,M,-34.4,M,0000,0000*57
$GPRMC,135433.250,A,4308.3047,N,07726.2623,W,3.68,3.53,310819,,,D*79
$GPGGA,135433.500,4308.3050,N,07726.2623,W,2,09,1.17,152.0,M,-34.4,M,0000,0000*55
$GPRMC,135433.750,A,4308.3053,N,07726.2622,W,5.05,3.30,310819,,,D*70
$GPGGA,135434.000,4308.3057,N,07726.2622,W,2,09,1.17,151.9,M,-34.4,M,0000,0000*5B
$GPRMC,135434.250,A,4308.3061,N,07726.2622,W,6.36,0.48,310819,,,D*7C
$GPGGA,135434.500,4308.3066,N,07726.2622,W,2,09,1.17,151.9,M,-34.4,M,0000,0000*5C
$GPRMC,135434.750,A,4308.3071,N,07726.2622,W,7.40,358.28,310819,,,D*70
$GPGGA,135435.000,4308.3076,N,07726.2622,W,2,09,1.17,151.9,M,-34.4,M,0000,0000*59
$GPRMC,135435.250,A,4308.3081,N,07726.2623,W,7.59,356.38,310819,,,D*7D
$GPGGA,135435.500,4308.3087,N,07726.2624,W,2,09,1.17,151.8,M,-34.4,M,0000,0000*55
$GPRMC,135435.750,A,4308.3092,N,07726.2624,W,7.38,352.95,310819,,,D*79
$GPGGA,135436.000,4308.3097,N,07726.2626,W,2,09,1.17,151.7,M,-34.4,M,0000,0000*5F
$GPRMC,135436.250,A,4308.3102,N,07726.2628,W,7.18,343.45,310819,,,D*74
$GPGGA,135436.500,4308.3106,N,07726.2630,W,2,09,1.17,151.6,M,-34.4,M,0000,0000*55
$GPRMC,135436.750,A,4308.3111,N,07726.2632,W,6.26,340.33,310819,,,D*76
$GPGGA,135437.000,4308.3114,N,07726.2633,W,2,09,1.17,151.6,M,-34.4,M,0000,0000*51
$GPRMC,135437.250,A,4308.3117,N,07726.2634,W,4.80,348.31,310819,,,D*76
$GPGGA,135437.500,4308.3120,N,07726.2635,W,2,09,1.17,151.6,M,-34.4,M,0000,0000*55
$GPRMC,135437.750,A,4308.3123,N,07726.2635,W,3.66,355.01,310819,,,D*75
$GPGGA,135438.000,4308.3125,N,07726.2636,W,2,09,1.17,151.5,M,-34.4,M,0000,0000*5A
$GPRMC,135438.250,A,4308.3127,N,07726.2635,W,2.97,1.55,310819,,,D*77
$GPGGA,135438.500,4308.3129,N,07726.2635,W,2,09,1.17,151.4,M,-34.4,M,0000,0000*51
$GPRMC,135438.750,A,4308.3131,N,07726.2635,W,2.96,8.20,310819,,,D*7F
$GPGGA,135439.000,4308.3133,N,07726.2634,W,2,09,1.17,151.3,M,-34.4,M,0000,0000*58
$GPRMC,135439.250,A,4308.3135,N,07726.2634,W,2.69,7.20,310819,,,D*71
$GPGGA,135439.500,4308.3137,N,07726.2633,W,2,09,1.17,151.3,M,-34.4,M,0000,0000*5E
$GPRMC,135439.750,A,4308.3139,N,07726.2632,W,2.99,21.64,310819,,,D*45
$GPGGA,135440.000,4308.3140,N,07726.2630,W,2,09,1.05,151.3,M,-34.4,M,0000,0000*55
$GPRMC,135440.250,A,4308.3142,N,07726.2628,W,3.54,36.86,310819,,,D*43
$GPGGA,135440.500,4308.3144,N,07726.2625,W,2,09,1.05,151.2,M,-34.4,M,0000,0000*51
$GPRMC,135440.750,A,4308.3146,N,07726.2623,W,3.54,46.31,310819,,,D*42
$GPGGA,135441.000,4308.3147,N,07726.2621,W,2,09,1.05,151.2,M,-34.4,M,0000,0000*52
$GPRMC,135441.250,A,4308.3148,N,07726.2618,W,3.03,58.15,310819,,,D*4B
$GPGGA,135441.500,4308.3148,N,07726.2615,W,2,09,1.05,151.2,M,-34.4,M,0000,0000*5F
$GPRMC,135441.750,A,4308.3149,N,07726.2613,W,2.86,71.53,310819,,,D*41
$GPGGA,135442.000,4308.3150,N,07726.2610,W,2,09,1.05,151.2,M,-34.4,M,0000,0000*55
$GPRMC,135442.250,A,4308.3150,N,07726.2607,W,3.49,80.25,310819,,,D*47
$GPGGA,135442.500,4308.3150,N,07726.2604,W,2,09,1.05,151.2,M,-34.4,M,0000,0000*55
$GPRMC,135442.750,A,4308.3150,N,07726.2601,W,3.01,86.83,310819,,,D*42
$GPGGA,135443.000,4308.3150,N,07726.2599,W,2,09,1.05,151.2,M,-34.4,M,0000,0000*56
$GPRMC,135443.250,A,4308.3150,N,07726.2596,W,2.88,96.75,310819,,,D*43
$GPGGA,135443.500,4308.3149,N,07726.2594,W,2,09,1.05,151.1,M,-34.4,M,0000,0000*55
$GPRMC,135443.750,A,4308.3149,N,07726.2592,W,2.31,101.35,310819,,,D*73
$GPGGA,135444.000,4308.3149,N,07726.2592,W,2,09,1.05,151.1,M,-34.4,M,0000,0000*51
$GPRMC,135444.250,A,4308.3148,N,07726.2592,W,0.14,128.99,310819,,,D*78
$GPGGA,135444.500,4308.3148,N,07726.2592,W,2,09,1.05,151.1,M,-34.4,M,0000,0000*55
$GPRMC,135444.750,A,4308.3149,N,07726.2594,W,0.59,276.47,310819,,,D*78
$GPGGA,135445.000,4308.3149,N,07726.2596,W,2,09,1.05,151.2,M,-34.4,M,0000,0000*57
$GPRMC,135445.250,A,4308.3149,N,07726.2599,W,1.38,276.33,310819,,,D*74
$GPGGA,135445.500,4308.3150,N,07726.2602,W,2,09,1.05,151.2,M,-34.4,M,0000,0000*54
$GPRMC,135445.750,A,4308.3150,N,07726.2607,W,2.34,273.07,310819,,,D*70
$GPGGA,135446.000,4308.3151,N,07726.2612,W,2,09,1.05,151.2,M,-34.4,M,0000,0000*52
$GPRMC,135446.250,A,4308.3151,N,07726.2618,W,4.69,274.13,310819,,,D*75
$GPGGA,135446.500,4308.3153,N,07726.2624,W,2,09,1.17,151.1,M,-34.4,M,0000,0000*50
$GPRMC,135446.750,A,4308.3154,N,07726.2631,W,6.93,277.77,310819,,,D*78
$GPGGA,135447.000,4308.3156,N,07726.2640,W,2,09,1.17,151.1,M,-34.4,M,0000,0000*53
$GPRMC,135447.250,A,4308.3157,N,07726.2649,W,8.89,280.40,310819,,,D*79
$GPGGA,135447.500,4308.3158,N,07726.2659,W,2,09,1.17,151.1,M,-34.4,M,0000,0000*50
$GPRMC,135447.750,A,4308.3160,N,07726.2669,W,10.09,278.89,310819,,,D*49
$GPGGA,135448.000,4308.3161,N,07726.2680,W,2,09,1.17,151.2,M,-34.4,M,0000,0000*57
$GPRMC,135448.250,A,4308.3163,N,07726.2691,W,10.82,278.53,310819,,,D*43
$GPGGA,135448.500,4308.3165,N,07726.2703,W,2,09,1.17,151.2,M,-34.4,M,0000,0000*5C
$GPRMC,135448.750,A,4308.3167,N,07726.2715,W,11.83,280.12,310819,,,D*4D
$GPGGA,135449.000,4308.3170,N,07726.2727,W,2,09,1.17,151.2,M,-34.4,M,0000,0000*5A
$GPRMC,135449.250,A,4308.3172,N,07726.2741,W,12.70,280.65,310819,,,D*43
$GPGGA,135449.500,4308.3175,N,07726.2754,W,2,09,1.17,151.3,M,-34.4,M,0000,0000*5F
$GPRMC,135449.750,A,4308.3177,N,07726.2769,W,13.48,280.86,310819,,,D*4E
$GPGGA,135450.000,4308.3179,N,07726.2783,W,2,09,1.17,151.3,M,-34.4,M,0000,0000*54
$GPRMC,135450.250,A,4308.3181,N,07726.2798,W,14.06,280.96,310819,,,D*48
$GPGGA,135450.500,4308.3183,N,07726.2812,W,2,09,1.17,151.3,M,-34.4,M,0000,0000*53
$GPRMC,135450.750,A,4308.3186,N,07726.2827,W,14.56,281.41,310819,,,D*4F
$GPGGA,135451.000,4308.3189,N,07726.2842,W,2,09,1.17,151.4,M,-34.4,M,0000,0000*5F
$GPRMC,135451.250,A,4308.3194,N,07726.2857,W,15.36,285.33,310819,,,D*49
$GPGGA,135451.500,4308.3200,N,07726.2873,W,2,09,1.17,151.5,M,-34.4,M,0000,0000*5B
$GPRMC,135451.750,A,4308.3205,N,07726.2888,W,16.52,289.89,310819,,,D*49
$GPGGA,135452.000,4308.3210,N,07726.2902,W,2,09,1.17,151.8,M,-34.4,M,0000,0000*56
$GPRMC,135452.250,A,4308.3216,N,07726.2917,W,16.73,293.51,310819,,,D*47
$GPGGA,135452.500,4308.3224,N,07726.2933,W,2,08,1.21,152.0,M,-34.4,M,0000,0000*59
$GPRMC,135452.750,A,4308.3231,N,07726.2950,W,17.87,296.68,310819,,,D*41
$GPGGA,135453.000,4308.3238,N,07726.2967,W,2,09,1.17,152.2,M,-34.4,M,0000,0000*57
$GPRMC,135453.250,A,4308.3245,N,07726.2983,W,18.48,297.83,310819,,,D*40
$GPGGA,135453.500,4308.3253,N,07726.3000,W,2,09,1.17,152.4,M,-34.4,M,0000,0000*50
$GPRMC,135453.750,A,4308.3261,N,07726.3017,W,19.47,300.33,310819,,,D*4C
$GPGGA,135454.000,4308.3270,N,07726.3034,W,2,08,1.21,152.6,M,-34.4,M,0000,0000*52
$GPRMC,135454.250,A,4308.3278,N,07726.3051,W,20.03,301.99,310819,,,D*4F
$GPGGA,135454.500,4308.3286,N,07726.3069,W,2,08,1.21,152.8,M,-34.4,M,0000,0000*58
$GPRMC,135454.750,A,4308.3295,N,07726.3087,W,20.99,303.31,310819,,,D*41
$GPGGA,135455.000,4308.3305,N,07726.3105,W,2,08,1.21,153.0,M,-34.4,M,0000,0000*54
$GPRMC,135455.250,A,4308.3314,N,07726.3124,W,21.53,303.86,310819,,,D*4E
$GPGGA,135455.500,4308.3323,N,07726.3142,W,2,09,1.16,153.2,M,-34.4,M,0000,0000*51
$GPRMC,135455.750,A,4308.3333,N,07726.3160,W,22.40,304.42,310819,,,D*40
$GPGGA,135456.000,4308.3343,N,07726.3179,W,2,09,1.16,153.4,M,-34.4,M,0000,0000*5F
$GPRMC,135456.250,A,4308.3352,N,07726.3198,W,23.14,304.57,310819,,,D*42
$GPGGA,135456.500,4308.3363,N,07726.3217,W,2,08,1.24,153.6,M,-34.4,M,0000,0000*51
$GPRMC,135456.750,A,4308.3372,N,07726.3236,W,24.00,303.64,310819,,,D*47
$GPGGA,135457.000,4308.3382,N,07726.3256,W,2,08,1.24,153.8,M,-34.4,M,0000,0000*51
$GPRMC,135457.250,A,4308.3392,N,07726.3276,W,24.40,303.31,310819,,,D*4D
$GPGGA,135457.500,4308.3402,N,07726.3296,W,2,09,1.16,154.1,M,-34.4,M,0000,0000*59
$GPRMC,135457.750,A,4308.3411,N,07726.3315,W,24.32,303.77,310819,,,D*47
$GPGGA,135458.000,4308.3421,N,07726.3335,W,2,09,1.16,154.3,M,-34.4,M,0000,0000*58
$GPRMC,135458.250,A,4308.3430,N,07726.3354,W,24.24,303.40,310819,,,D*48
$GPGGA,135458.500,4308.3440,N,07726.3374,W,2,09,1.16,154.5,M,-34.4,M,0000,0000*59
$GPRMC,135458.750,A,4308.3449,N,07726.3393,W,24.20,303.65,310819,,,D*4B
$GPGGA,135459.000,4308.3459,N,07726.3412,W,2,08,1.24,154.9,M,-34.4,M,0000,0000*5E
$GPRMC,135459.250,A,4308.3468,N,07726.3431,W,24.24,304.25,310819,,,D*44
$GPGGA,135459.500,4308.3478,N,07726.3450,W,2,08,1.24,155.0,M,-34.4,M,0000,0000*56
$GPRMC,135459.750,A,4308.3487,N,07726.3469,W,24.11,305.72,310819,,,D*48
$GPGGA,135500.000,4308.3497,N,07726.3489,W,2,08,1.21,155.3,M,-34.4,M,0000,0000*5D
$GPRMC,135500.250,A,4308.3508,N,07726.3507,W,24.17,307.91,310819,,,D*46
$GPGGA,135500.500,4308.3518,N,07726.3525,W,2,09,1.16,155.6,M,-34.4,M,0000,0000*59
$GPRMC,135500.750,A,4308.3529,N,07726.3543,W,24.47,310.91,310819,,,D*43
$GPGGA,135501.000,4308.3541,N,07726.3560,W,2,09,1.16,155.8,M,-34.4,M,0000,0000*5E
$GPRMC,135501.250,A,4308.3553,N,07726.3578,W,24.70,313.83,310819,,,D*46
$GPGGA,135501.500,4308.3565,N,07726.3594,W,2,09,1.16,156.3,M,-34.4,M,0000,0000*5E
$GPRMC,135501.750,A,4308.3578,N,07726.3611,W,25.13,317.28,310819,,,D*47
$GPGGA,135502.000,4308.3592,N,07726.3626,W,2,09,1.16,156.4,M,-34.4,M,0000,0000*5D
$GPRMC,135502.250,A,4308.3605,N,07726.3641,W,24.74,321.12,310819,,,D*41
$GPGGA,135502.500,4308.3619,N,07726.3655,W,2,09,1.16,156.6,M,-34.4,M,0000,0000*5E
$GPRMC,135502.750,A,4308.3633,N,07726.3668,W,24.53,324.40,310819,,,D*4D
$GPGGA,135503.000,4308.3647,N,07726.3681,W,2,09,1.16,157.0,M,-34.4,M,0000,0000*5F
