Vers 81
USE_SERIAL_FEEDBACK=true
DEVELOPMENT_MODE=false
USE_RMC_ONLY=false

$GPRMC,142557.500,A,4308.3149,N,07726.2509,W,0.19,90.96,190919,,,A*44
$GPGGA,142557.750,4308.3148,N,07726.2509,W,1,04,1.99,180.5,M,-34.4,M,,*50
$GPGGA,142558.250,4308.3148,N,07726.2509,W,1,04,1.99,179.9,M,-34.4,M,,*50
$GPRMC,142558.250,A,4308.3148,N,07726.2509,W,0.33,97.88,190919,,,A*48
$GPRMC,142558.750,A,4308.3147,N,07726.2510,W,0.25,81.66,190919,,,A*4A
$GPGGA,142559.000,4308.3146,N,07726.2511,W,1,04,1.99,179.1,M,-34.4,M,,*59
$GPGGA,142559.500,4308.3145,N,07726.2511,W,1,04,1.99,178.6,M,-34.4,M,,*59
$GPRMC,142559.500,A,4308.3145,N,07726.2511,W,0.24,71.63,190919,,*5D
$GPRMC,142559.750,A,4308.3145,N,07726.2511,W,0.24,68.95,190919,4C
$GPGGA,142600.250,4308.3144,N,07726.2512,W,1,04,1.98,178.0,M,-34.4,M,,*51
$GPGGA,142600.750,4308.3142,N,07726.2514,W,1,04,1.98,177.6,M,-34.4,M,,*5D
$GPRMC,142600.750,A,4308.3142,N,07726.2514,W,0.29,91.31,190919,,A*4A
$GPRMC,142601.250,A,4308.3140,N,07726.2515,W,0.28,104.82,190919,,,A*79
$GPGGA,142601.500,4308.3140,N,07726.2516,W,1,04,1.98,176.9,M,-34.4,M,,*55
$GPRMC,142602.000,A,4308.3139,N,07726.2517,W,0.27,83.47,190919,,,A*49
$GPGGA,142602.250,4308.3137,N,07726.2525,W,1,05,1.70,176.5,M,-34.4,M,,*5F
$GPRMC,142602.250,A,4308.3137,N,07726.2525,W,0.16,80.56,190919,B
$GPGGA,142602.750,4308.3136,N,07726.2534,W,1,05,1.70,176.4,M,-34.4,M,,*5A
$GPGGA,142603.250,4308.3134,N,07726.2540,W,1,05,1.70,176.3,M,-34.4,M,,*58
$GPRMC,142603.250,A,4308.3134,N,07726.2540,W,0.07,20.54,190919,,,A*49
$GPRMC,142603.750,A,4308.3133,N,07726.2544,W,0.11,77.81,190919,,,A*42
$GPGGA,142604.000,4308.3133,N,07726.2546,W,1,05,1.70,176.2,M,-34.4,M,,*58
$GPRMC,142604.000,A,4308.3133,N,07726.2546,W,0.10,60.93,190919,41
$GPGGA,142604.500,4308.3132,N,07726.2549,W,1,05,1.70,176.2,M,-34.4,M,,*53
$GPGGA,142605.000,4308.3131,N,07726.2553,W,1,05,1.70,176.3,M,-34.4,M,,*5E
$GPRMC,142605.000,A,4308.3131,N,07726.2553,W,0.06,324.00,190919,,A*78
$GPRMC,142605.500,A,4308.3132,N,07726.2555,W,0.16,17.65,190919,,,A*49
$GPGGA,142605.750,4308.3133,N,07726.2555,W,1,05,1.70,176.3,M,-34.4,M,,*58
$GPRMC,142606.250,A,4308.3133,N,07726.2558,W,0.32,339.65,190919,,,A*7D
$GPGGA,142606.500,4308.3133,N,07726.2559,W,1,05,1.70,176.4,M,-34.4,M,,*57
$GPGGA,142607.000,4308.3133,N,07726.2560,W,1,05,1.70,176.5,M,-34.4,M,,*58
$GPRMC,142607.000,A,4308.3133,N,07726.2560,W,0.31,347.18,190919,,,A*70
$GPRMC,142607.500,A,4308.3133,N,07726.2562,W,0.30,346.91,190919,,,A*76
$GPGGA,142607.750,4308.3133,N,07726.2564,W,1,05,3.67,176.7,M,-34.4,M,,*58
$GPGGA,142608.250,4308.3133,N,07726.2566,W,1,05,1.70,176.8,M,-34.4,M,,*5B
$GPRMC,142608.250,A,4308.3133,N,07726.2566,W,0.30,338.79,190919176.8,M,-34.4,M,,*50
$GPGGA,142609.000,4308.3132,N,07726.2568,W,1,05,1.70,176.8,M,-34.4,M,,*52
$GPRMC,142609.000,A,4308.3132,N,07726.2568,W,0.25,339.87,190919,,A*7D
$GPRMC,142609.500,A,4308.3131,N,07726.2571,W,0.21,314.92,190919,,,A*7C
$GPGGA,142609.750,4308.3131,N,07726.2572,W,1,05,1.69,176.7,M,-34.4,M,,*5F
$GPGGA,142610.250,4308.3130,N,07726.2575,W,1,05,1.70,176.7,M,-34.4,M,,*5C
$GPRMC,142610.250,A,4308.3130,N,07726.2575,W,0.25,297.64,190919,,A*74
$GPRMC,142610.750,A,4308.3130,N,07726.2577,W,0.20,307.73,190919,,,A*78
$GPGGA,142611.000,4308.3129,N,07726.2578,W,1,05,1.69,176.6,M,-34.4,M,,*56
$GPGGA,142611.500,4308.3129,N,07726.2580,W,1,05,1.69,176.5,M,-34.4,M,,*57
$GPRMC,142611.500,A,4308.3129,N,07726.2580,W,0.22,310.44,190919,,A*7E
$GPRMC,142612.000,A,4308.3128,N,07726.2581,W,0.14,336.46,190919,,,A*7B
$GPGGA,142612.250,4308.3128,N,07726.2582,W,1,05,1.69,176.4,M,-34.4,M,,*54
$GPGGA,142612.750,4308.3128,N,07726.2583,W,1,05,3.66,176.4,M,-34.4,M,,*5D
$GPRMC,142612.750,A,4308.3128,N,07726.2583,W,0.17,7.80,190919,,7,176.4,M,-34.4,M,,*58
$GPRMC,142613.000,A,4308.3128,N,07726.2584,W,0.18,5.66,190919,,72
$GPGGA,142613.500,4308.3128,N,07726.2586,W,1,05,3.66,176.3,M,-34.4,M,,*59
$GPGGA,142614.000,4308.3127,N,07726.2587,W,1,05,3.67,176.2,M,-34.4,M,,*55
$GPRMC,142614.000,A,4308.3127,N,07726.2587,W,0.16,346.31,190919,,,A*71
$GPRMC,142614.500,A,4308.3126,N,07726.2589,W,0.11,304.33,190919,,,A*78
$GPGGA,142614.750,4308.3126,N,07726.2590,W,1,05,1.69,176.1,M,-34.4,M,,*5F
$GPRMC,142615.250,A,4308.3126,N,07726.2591,W,0.13,293.92,190919,,,A*74
$GPGGA,142615.500,4308.3125,N,07726.2591,W,1,05,1.69,176.1,M,-34.4,M,,*5B
$GPGGA,142616.000,4308.3124,N,07726.2592,W,1,05,1.69,176.0,M,-34.4,M,,*5E
$GPRMC,142616.000,A,4308.3124,N,07726.2592,W,0.04,196.36,190919,,,A*7F
$GPRMC,142616.500,A,4308.3123,N,07726.2593,W,0.13,217.06,190919,,,A*73
$GPGGA,142616.750,4308.3123,N,07726.2594,W,1,05,1.69,175.9,M,-34.4,M,,*57
$GPGGA,142617.250,4308.3122,N,07726.2595,W,1,05,1.69,175.8,M,-34.4,M,,*52
$GPRMC,142617.250,A,4308.3122,N,07726.2595,W,0.24,248.59,19091969,175.8,M,-34.4,M,,*53
$GPRMC,142617.500,A,4308.3122,N,07726.2596,W,0.25,250.87,19091979
$GPGGA,142618.000,4308.3122,N,07726.2597,W,1,05,1.69,175.7,M,-34.4,M,,*57
$GPGGA,142618.500,4308.3121,N,07726.2596,W,1,05,1.69,175.5,M,-34.4,M,,*52
$GPRMC,142618.500,A,4308.3121,N,07726.2596,W,0.16,216.55,190919,,A*78
$GPRMC,142619.000,A,4308.3122,N,07726.2597,W,0.12,236.98,190919,,,A*79
$GPGGA,142619.250,4308.3122,N,07726.2597,W,1,05,1.69,175.4,M,-34.4,M,,*52
$GPRMC,142619.750,A,4308.3122,N,07726.2598,W,0.20,278.86,190919,,,A*70
$GPGGA,142620.000,4308.3123,N,07726.2598,W,1,05,1.69,175.3,M,-34.4,M,,*56
$GPGGA,142620.500,4308.3122,N,07726.2598,W,1,05,1.69,175.2,M,-34.4,M,,*53
$GPRMC,142620.500,A,4308.3122,N,07726.2598,W,0.21,286.84,190919,,A*7F
$GPRMC,142621.000,A,4308.3121,N,07726.2599,W,0.20,268.43,190919,,,A*73
$GPGGA,142621.250,4308.3120,N,07726.2599,W,1,05,1.69,175.2,M,-34.4,M,,*53
$GPGGA,142621.750,4308.3121,N,07726.2600,W,1,05,1.69,175.3,M,-34.4,M,,*55
$GPRMC,142621.750,A,4308.3121,N,07726.2600,W,0.19,241.90,190919,175.3,M,-34.4,M,,*54
$GPGGA,142622.500,4308.3121,N,07726.2601,W,1,05,1.69,175.4,M,-34.4,M,,*57
$GPRMC,142622.500,A,4308.3121,N,07726.2601,W,0.23,247.01,190919,,A*7F
$GPRMC,142623.000,A,4308.3121,N,07726.2602,W,0.25,238.55,190919,,,A*77
$GPGGA,142623.250,4308.3121,N,07726.2602,W,1,05,1.69,175.6,M,-34.4,M,,*55
$GPRMC,142623.750,A,4308.3121,N,07726.2602,W,0.10,249.75,190919,,,A*77
$GPGGA,142624.000,4308.3121,N,07726.2602,W,1,05,1.69,175.7,M,-34.4,M,,*54
$GPRMC,142624.500,A,4308.3121,N,07726.2602,W,0.08,317.32,190919,,,A*77
$GPGGA,142624.750,4308.3121,N,07726.2602,W,1,05,1.69,175.7,M,-34.4,M,,*56
$GPGGA,142625.250,4308.3122,N,07726.2602,W,1,05,1.69,175.7,M,-34.4,M,,*51
$GPRMC,142625.250,A,4308.3122,N,07726.2602,W,0.18,320.46,190919,,,A*71
$GPRMC,142625.750,A,4308.3122,N,07726.2602,W,0.19,349.42,190919,,,A*7E
$GPGGA,142626.000,4308.3122,N,07726.2602,W,1,05,3.65,175.7,M,-34.4,M,,*5B
$GPGGA,142626.500,4308.3122,N,07726.2602,W,1,05,1.69,175.7,M,-34.4,M,,*50
$GPRMC,142626.500,A,4308.3122,N,07726.2602,W,0.08,336.12,190919175.7,M,-34.4,M,,*57
$GPGGA,142627.250,4308.3122,N,07726.2602,W,1,05,3.65,175.7,M,-34.4,M,,*5D
$GPRMC,142627.250,A,4308.3122,N,07726.2602,W,0.07,34.53,190919,,A*4F
$GPRMC,142627.750,A,4308.3122,N,07726.2602,W,0.10,88.61,190919,,,A*4A
$GPGGA,142628.000,4308.3122,N,07726.2602,W,1,05,1.69,175.7,M,-34.4,M,,*5B
$GPGGA,142628.500,4308.3122,N,07726.2602,W,1,05,1.69,175.7,M,-34.4,M,,*5E
$GPRMC,142628.500,A,4308.3122,N,07726.2602,W,0.03,26.04,190919,,A*47
$GPRMC,142629.000,A,4308.3122,N,07726.2602,W,0.05,283.83,190919,,,A*77
$GPGGA,142629.250,4308.3122,N,07726.2602,W,1,05,1.69,175.7,M,-34.4,M,,*5D
$GPGGA,142629.750,4308.3122,N,07726.2602,W,1,05,1.69,175.7,M,-34.4,M,,*58
$GPRMC,142629.750,A,4308.3122,N,07726.2602,W,0.04,31.56,190919,,,A*47
$GPRMC,142630.250,A,4308.3122,N,07726.2602,W,0.09,26.33,190919,,,A*42
$GPGGA,142630.500,4308.3123,N,07726.2602,W,1,05,1.69,175.7,M,-34.4,M,,*56
$GPGGA,142631.000,4308.3123,N,07726.2602,W,1,05,1.69,175.7,M,-34.4,M,,*52
$GPRMC,142631.000,A,4308.3123,N,07726.2602,W,0.26,7.27,190919,,7,M,-34.4,M,,*5A
$GPRMC,142631.750,A,4308.3126,N,07726.2603,W,1.03,330.23,190919,,,A*7D
$GPGGA,142632.000,4308.3128,N,07726.2604,W,1,05,1.69,175.8,M,-34.4,M,,*53
$GPGGA,142632.500,4308.3139,N,07726.2607,W,1,06,1.62,174.5,M,-34.4,M,,*51
$GPRMC,142632.500,A,4308.3139,N,07726.2607,W,4.19,338.31,190919,,A*76
$GPRMC,142633.000,A,4308.3143,N,07726.2611,W,5.53,344.72,190919,,,A*7B
$GPGGA,142633.250,4308.3146,N,07726.2612,W,1,06,1.97,172.6,M,-34.4,M,,*51
$GPRMC,142633.750,A,4308.3151,N,07726.2614,W,6.66,1.80,190919,,,A*75
$GPGGA,142634.000,4308.3153,N,07726.2614,W,1,06,1.97,170.9,M,-34.4,M,,*5E
$GPGGA,142634.500,4308.3158,N,07726.2615,W,1,06,1.97,169.8,M,-34.4,M,,*58
$GPRMC,142634.500,A,4308.3158,N,07726.2615,W,6.81,7.08,190919,,A*72
$GPRMC,142635.000,A,4308.3164,N,07726.2614,W,6.75,7.78,190919,,,A*74
$GPGGA,142635.250,4308.3166,N,07726.2613,W,1,06,1.97,169.1,M,-34.4,M,,*59
$GPGGA,142635.750,4308.3173,N,07726.2608,W,1,06,1.97,169.0,M,-34.4,M,,*53
$GPRMC,142635.750,A,4308.3173,N,07726.2608,W,6.37,21.20,190919,,168.7,M,-34.4,M,,*5F
$GPRMC,142636.000,A,4308.3175,N,07726.2605,W,6.22,30.14,190919,9
$GPGGA,142636.500,4308.3179,N,07726.2599,W,1,06,1.97,168.4,M,-34.4,M,,*53
$GPGGA,142637.000,4308.3179,N,07726.2593,W,1,06,1.97,167.7,M,-34.4,M,,*51
$GPRMC,142637.000,A,4308.3179,N,07726.2593,W,5.74,48.68,190919,,A*4E
$GPRMC,142637.500,A,4308.3180,N,07726.2586,W,5.05,56.99,190919,,,A*4E
$GPGGA,142637.750,4308.3180,N,07726.2582,W,1,06,1.97,167.4,M,-34.4,M,,*56
$GPRMC,142638.250,A,4308.3180,N,07726.2576,W,4.10,63.98,190919,,,A*4E
$GPGGA,142638.500,4308.3180,N,07726.2574,W,1,06,1.97,167.2,M,-34.4,M,,*51
$GPGGA,142639.000,4308.3180,N,07726.2571,W,1,06,1.62,167.0,M,-34.4,M,,*58
$GPRMC,142639.000,A,4308.3180,N,07726.2571,W,2.26,40.64,190919,,A*4E
$GPRMC,142639.500,A,4308.3180,N,07726.2574,W,1.91,344.29,190919,,,A*7F
$GPGGA,142639.750,4308.3179,N,07726.2577,W,1,06,1.62,166.7,M,-34.4,M,,*5C
$GPRMC,142640.250,A,4308.3176,N,07726.2586,W,4.63,286.79,190919,,,A*75
$GPGGA,142640.500,4308.3175,N,07726.2593,W,1,06,1.97,166.4,M,-34.4,M,,*5A
$GPRMC,142640.500,A,4308.3175,N,07726.2593,W,5.86,280.04,19091976
$GPGGA,142641.000,4308.3174,N,07726.2610,W,1,06,1.62,166.2,M,-34.4,M,,*5B
$GPGGA,142641.500,4308.3171,N,07726.2631,W,1,06,1.96,165.8,M,-34.4,M,,*5A
$GPRMC,142641.500,A,4308.3171,N,07726.2631,W,10.52,278.35,19091,,,A*40
$GPRMC,142642.000,A,4308.3169,N,07726.2658,W,12.82,280.38,190919,,,A*45
$GPGGA,142642.250,4308.3169,N,07726.2672,W,1,06,1.96,164.6,M,-34.4,M,,*5A
$GPRMC,142642.750,A,4308.3175,N,07726.2699,W,15.32,284.13,190919,,,A*46
$GPGGA,142643.000,4308.3177,N,07726.2713,W,1,06,1.62,164.0,M,-34.4,M,,*58
$GPGGA,142643.500,4308.3182,N,07726.2747,W,1,06,1.96,163.8,M,-34.4,M,,*52
$GPRMC,142643.500,A,4308.3182,N,07726.2747,W,17.41,286.57,19091,,,A*4E
$GPRMC,142644.000,A,4308.3189,N,07726.2782,W,18.96,289.25,190919,,,A*41
$GPGGA,142644.250,4308.3195,N,07726.2801,W,1,06,1.96,163.2,M,-34.4,M,,*56
$GPGGA,142644.750,4308.3206,N,07726.2838,W,1,06,1.96,162.9,M,-34.4,M,,*5A
$GPRMC,142644.750,A,4308.3206,N,07726.2838,W,21.19,291.79,19091.62,162.8,M,-34.4,M,,*53
$GPGGA,142645.500,4308.3223,N,07726.2898,W,1,06,1.96,162.7,M,-34.4,M,,*5F
$GPRMC,142645.500,A,4308.3223,N,07726.2898,W,22.22,293.46,19091,,,A*4A
$GPRMC,142646.000,A,4308.3235,N,07726.2937,W,22.64,295.83,190919,,,A*42
$GPGGA,142646.250,4308.3241,N,07726.2957,W,1,06,1.62,162.0,M,-34.4,M,,*54
$GPGGA,142646.750,4308.3256,N,07726.2997,W,1,06,1.62,161.5,M,-34.4,M,,*5D
$GPRMC,142646.750,A,4308.3256,N,07726.2997,W,23.23,299.31,19091,,,A*48
$GPRMC,142647.250,A,4308.3271,N,07726.3035,W,23.44,300.47,190919,,,A*48
$GPGGA,142647.500,4308.3281,N,07726.3054,W,1,05,1.82,160.7,M,-34.4,M,,*58
$GPRMC,142648.000,A,4308.3299,N,07726.3093,W,24.43,302.02,190919,,,A*49
$GPGGA,142648.250,4308.3308,N,07726.3112,W,1,06,1.62,159.9,M,-34.4,M,,*5F
$GPGGA,142648.750,4308.3328,N,07726.3150,W,1,06,1.96,159.6,M,-34.4,M,,*5A
$GPRMC,142648.750,A,4308.3328,N,07726.3150,W,25.04,303.59,190919,,,A*43
$GPRMC,142649.250,A,4308.3347,N,07726.3189,W,25.18,303.51,190919,,,A*4F
$GPGGA,142649.500,4308.3357,N,07726.3208,W,1,06,1.96,159.2,M,-34.4,M,,*5E
$GPGGA,142650.000,4308.3376,N,07726.3249,W,1,06,1.62,158.9,M,-34.4,M,,*54
$GPRMC,142650.000,A,4308.3376,N,07726.3249,W,25.82,304.14,190919,,,A*48
$GPRMC,142650.500,A,4308.3395,N,07726.3290,W,26.02,304.76,190919,,,A*4B
$GPGGA,142650.750,4308.3405,N,07726.3311,W,1,06,1.96,158.5,M,-34.4,M,,*5E
$GPGGA,142651.250,4308.3426,N,07726.3352,W,1,06,1.62,158.0,M,-34.4,M,,*52
$GPRMC,142651.250,A,4308.3426,N,07726.3352,W,26.49,304.51,19091,,,A*42
$GPRMC,142651.750,A,4308.3446,N,07726.3395,W,26.68,304.44,190919,,,A*4D
$GPGGA,142652.000,4308.3456,N,07726.3415,W,1,06,1.62,157.5,M,-34.4,M,,*5F
$GPGGA,142652.500,4308.3476,N,07726.3457,W,1,06,1.96,157.2,M,-34.4,M,,*52
$GPRMC,142652.500,A,4308.3476,N,07726.3457,W,26.44,304.64,19091,,,A*4F
$GPRMC,142653.000,A,4308.3497,N,07726.3498,W,26.45,305.58,190919,,,A*48
$GPGGA,142653.250,4308.3508,N,07726.3518,W,1,06,1.62,157.0,M,-34.4,M,,*5A
$GPGGA,142653.750,4308.3530,N,07726.3558,W,1,06,1.62,157.0,M,-34.4,M,,*50
$GPRMC,142653.750,A,4308.3530,N,07726.3558,W,26.45,309.60,190912,157.0,M,-34.4,M,,*5D
$GPGGA,142654.500,4308.3566,N,07726.3611,W,1,06,1.62,157.0,M,-34.4,M,,*5D
$GPRMC,142654.500,A,4308.3566,N,07726.3611,W,25.71,313.45,190919,,,A*49
$GPRMC,142655.000,A,4308.3591,N,07726.3643,W,25.12,315.67,190919,,,A*41
$GPGGA,142655.250,4308.3602,N,07726.3658,W,1,06,1.62,157.2,M,-34.4,M,,*50
$GPGGA,142655.750,4308.3628,N,07726.3689,W,1,06,1.62,157.4,M,-34.4,M,,*57
$GPRMC,142655.750,A,4308.3628,N,07726.3689,W,24.53,317.93,190919,,,A*49
$GPRMC,142656.250,A,4308.3656,N,07726.3718,W,24.52,321.37,190919,,,A*45
$GPGGA,142656.500,4308.3673,N,07726.3730,W,1,06,1.61,157.7,M,-34.4,M,,*5E
$GPGGA,142657.000,4308.3703,N,07726.3754,W,1,06,1.61,157.9,M,-34.4,M,,*50
$GPRMC,142657.000,A,4308.3703,N,07726.3754,W,24.57,327.30,190919,,,A*4E
$GPRMC,142657.500,A,4308.3733,N,07726.3775,W,24.31,329.31,190919,,,A*44
$GPGGA,142657.750,4308.3749,N,07726.3785,W,1,06,1.61,158.2,M,-34.4,M,,*54
$GPGGA,142658.250,4308.3781,N,07726.3801,W,1,06,1.61,158.5,M,-34.4,M,,*5E
$GPRMC,142658.250,A,4308.3781,N,07726.3801,W,23.80,334.42,190916,1.61,158.6,M,-34.4,M,,*50
$GPGGA,142659.000,4308.3831,N,07726.3821,W,1,06,1.61,158.8,M,-34.4,M,,*53
$GPRMC,142659.000,A,4308.3831,N,07726.3821,W,24.05,339.09,19091,,,A*41
$GPRMC,142659.500,A,4308.3867,N,07726.3827,W,24.09,343.13,190919,,,A*4B
$GPGGA,142659.750,4308.3885,N,07726.3828,W,1,06,1.61,159.1,M,-34.4,M,,*5F
$GPGGA,142700.250,4308.3924,N,07726.3820,W,1,06,1.95,159.3,M,-34.4,M,,*5C
$GPRMC,142700.250,A,4308.3924,N,07726.3820,W,23.64,352.63,19091,,,A*4E
$GPRMC,142700.750,A,4308.3962,N,07726.3811,W,23.74,357.64,190919,,,A*48
$GPGGA,142701.000,4308.3982,N,07726.3806,W,1,06,1.95,159.6,M,-34.4,M,,*57
$GPGGA,142701.500,4308.4022,N,07726.3796,W,1,06,1.95,159.7,M,-34.4,M,,*51
$GPRMC,142701.500,A,4308.4022,N,07726.3796,W,24.67,3.64,190919,,A*43
$GPRMC,142702.000,A,4308.4062,N,07726.3785,W,24.99,5.63,190919,,,A*43
$GPGGA,142702.250,4308.4083,N,07726.3779,W,1,06,1.95,159.7,M,-34.4,M,,*5A
$GPGGA,142702.750,4308.4120,N,07726.3769,W,1,06,1.95,159.9,M,-34.4,M,,*58
$GPRMC,142702.750,A,4308.4120,N,07726.3769,W,25.06,7.35,190919,.95,160.0,M,-34.4,M,,*5D
$GPRMC,142703.000,A,4308.4139,N,07726.3764,W,25.10,7.74,190919,,,A*46
$GPGGA,142703.500,4308.4176,N,07726.3754,W,1,06,1.95,160.1,M,-34.4,M,,*51
$GPRMC,142704.000,A,4308.4213,N,07726.3743,W,24.82,8.82,190919,,,A*43
$GPGGA,142704.250,4308.4231,N,07726.3738,W,1,06,1.95,160.3,M,-34.4,M,,*5C
$GPGGA,142704.750,4308.4266,N,07726.3730,W,1,06,1.95,160.5,M,-34.4,M,,*55
$GPRMC,142704.750,A,4308.4266,N,07726.3730,W,24.56,9.24,190919,,,A*43
$GPRMC,142705.250,A,4308.4299,N,07726.3720,W,24.21,9.51,190919,,,A*44
$GPGGA,142705.500,4308.4316,N,07726.3716,W,1,06,1.95,160.9,M,-34.4,M,,*5D
$GPGGA,142706.000,4308.4349,N,07726.3708,W,1,06,1.95,161.1,M,-34.4,M,,*57
$GPRMC,142706.000,A,4308.4349,N,07726.3708,W,23.73,8.91,190919,,,A*4B
$GPRMC,142706.500,A,4308.4381,N,07726.3699,W,23.25,9.59,190919,,,A*45
$GPGGA,142706.750,4308.4396,N,07726.3694,W,1,06,1.95,161.4,M,-34.4,M,,*56
$GPGGA,142707.250,4308.4425,N,07726.3686,W,1,06,1.95,161.6,M,-34.4,M,,*5C
$GPRMC,142707.250,A,4308.4425,N,07726.3686,W,22.23,10.77,1909196,1.95,161.7,M,-34.4,M,,*54
$GPGGA,142708.000,4308.4464,N,07726.3671,W,1,06,1.95,161.8,M,-34.4,M,,*57
$GPRMC,142708.000,A,4308.4464,N,07726.3671,W,21.04,12.29,190919,,A*78
$GPGGA,142708.250,4308.4476,N,07726.3666,W,1,06,1.95,161.8,M,-37
$GPGGA,142708.500,4308.4488,N,07726.3661,W,1,06,1.95,161.9,M,-34.4,M,,*50
$GPGGA,142709.000,4308.4508,N,07726.3652,W,1,06,1.95,161.9,M,-34.4,M,,*5D
$GPRMC,142709.000,A,4308.4508,N,07726.3652,W,18.26,14.05,190919,,A*71
$GPRMC,142709.500,A,4308.4524,N,07726.3644,W,16.33,15.27,190919,,,A*76
$GPGGA,142709.750,4308.4529,N,07726.3643,W,1,06,1.61,161.7,M,-34.4,M,,*59
$GPGGA,142710.250,4308.4540,N,07726.3638,W,1,06,1.95,161.8,M,-34.4,M,,*53
$GPRMC,142710.250,A,4308.4540,N,07726.3638,W,12.37,13.87,190919,,A*79
$GPRMC,142710.750,A,4308.4551,N,07726.3632,W,10.28,13.46,190919,,,A*77
$GPGGA,142711.000,4308.4555,N,07726.3629,W,1,06,1.95,161.5,M,-34.4,M,,*5C
$GPRMC,142711.500,A,4308.4565,N,07726.3625,W,8.31,12.73,190919,,,A*46
$GPGGA,142711.750,4308.4567,N,07726.3625,W,1,06,1.95,161.2,M,-34.4,M,,*54
$GPGGA,142712.250,4308.4576,N,07726.3624,W,1,06,1.95,161.1,M,-34.4,M,,*50
$GPRMC,142712.250,A,4308.4576,N,07726.3624,W,7.07,4.17,190919,,,A*7B
$GPRMC,142712.750,A,4308.4586,N,07726.3622,W,7.31,3.45,190919,,,A*72
$GPGGA,142713.000,4308.4591,N,07726.3623,W,1,06,1.94,161.1,M,-34.4,M,,*59
$GPGGA,142713.500,4308.4603,N,07726.3625,W,1,06,1.94,161.2,M,-34.4,M,,*51
$GPRMC,142713.500,A,4308.4603,N,07726.3625,W,8.26,351.97,190919,,,A*7F
$GPRMC,142714.000,A,4308.4615,N,07726.3630,W,8.58,347.26,190919,,,A*7A
$GPGGA,142714.250,4308.4626,N,07726.3636,W,1,06,1.94,161.2,M,-34.4,M,,*51
$GPGGA,142714.750,4308.4638,N,07726.3647,W,1,06,1.61,161.1,M,-34.4,M,,*54
$GPRMC,142714.750,A,4308.4638,N,07726.3647,W,11.61,332.18,19091,,,A*4A
$GPRMC,142715.250,A,4308.4645,N,07726.3669,W,12.59,320.09,190919,,,A*43
$GPGGA,142715.500,4308.4649,N,07726.3682,W,1,06,1.61,160.9,M,-34.4,M,,*54
$GPRMC,142715.500,A,4308.4649,N,07726.3682,W,13.26,315.49,190919,,,A*43
$GPGGA,142716.000,4308.4658,N,07726.3704,W,1,06,1.61,160.9,M,-34.4,M,,*5D
$GPGGA,142716.500,4308.4665,N,07726.3731,W,1,06,1.61,160.9,M,-34.4,M,,*50
$GPRMC,142716.500,A,4308.4665,N,07726.3731,W,14.75,305.10,190919,,,A*4B
$GPRMC,142717.000,A,4308.4674,N,07726.3758,W,15.49,301.90,190919,,,A*42
$GPGGA,142717.250,4308.4678,N,07726.3773,W,1,06,1.61,160.8,M,-34.4,M,,*58
$GPGGA,142717.750,4308.4687,N,07726.3805,W,1,06,1.61,160.7,M,-34.4,M,,*5C
$GPRMC,142717.750,A,4308.4687,N,07726.3805,W,16.85,298.68,19091,,,A*4E
$GPRMC,142718.250,A,4308.4695,N,07726.3839,W,17.76,296.97,190919,,,A*4B
$GPGGA,142718.500,4308.4699,N,07726.3858,W,1,06,1.61,160.6,M,-34.4,M,,*52
$GPGGA,142719.000,4308.4705,N,07726.3902,W,1,06,1.61,160.6,M,-34.4,M,,*5C
$GPRMC,142719.000,A,4308.4705,N,07726.3902,W,20.52,292.98,19091,,,A*45
$GPRMC,142719.500,A,4308.4711,N,07726.3946,W,21.61,291.27,190919,,,A*43
$GPGGA,142719.750,4308.4707,N,07726.3983,W,1,06,1.61,160.5,M,-34.4,M,,*56
$GPGGA,142720.250,4308.4709,N,07726.4039,W,1,06,1.61,160.4,M,-34.4,M,,*59
$GPRMC,142720.250,A,4308.4709,N,07726.4039,W,26.09,284.72,19091.61,160.3,M,-34.4,M,,*5F
$GPGGA,142721.000,4308.4714,N,07726.4126,W,1,06,1.61,160.2,M,-34.4,M,,*5A
$GPRMC,142721.000,A,4308.4714,N,07726.4126,W,28.67,282.61,19091,,,A*4E
$GPRMC,142721.500,A,4308.4717,N,07726.4189,W,30.63,281.57,190919,,,A*46
$GPGGA,142721.750,4308.4717,N,07726.4222,W,1,06,1.61,160.2,M,-34.4,M,,*5C
$GPGGA,142722.250,4308.4722,N,07726.4284,W,1,06,1.61,160.1,M,-34.4,M,,*53
$GPRMC,142722.250,A,4308.4722,N,07726.4284,W,32.14,280.81,19091,,,A*47
$GPRMC,142722.750,A,4308.4727,N,07726.4346,W,32.71,280.43,190919,,,A*45
$GPGGA,142723.000,4308.4731,N,07726.4378,W,1,06,1.61,159.9,M,-34.4,M,,*57
$GPGGA,142723.500,4308.4737,N,07726.4443,W,1,06,1.61,159.7,M,-34.4,M,,*55
$GPRMC,142723.500,A,4308.4737,N,07726.4443,W,33.55,280.61,19091,,,A*47
$GPRMC,142724.000,A,4308.4741,N,07726.4511,W,34.32,280.41,190919,,,A*46
$GPGGA,142724.250,4308.4743,N,07726.4546,W,1,06,1.61,159.6,M,-34.4,M,,*56
$GPGGA,142724.750,4308.4747,N,07726.4615,W,1,06,1.60,159.6,M,-34.4,M,,*53
$GPRMC,142724.750,A,4308.4747,N,07726.4615,W,35.03,278.82,19091.61,159.6,M,-34.4,M,,*5E
$GPGGA,142725.500,4308.4752,N,07726.4719,W,1,06,1.60,159.5,M,-34.4,M,,*5F
$GPRMC,142725.500,A,4308.4752,N,07726.4719,W,35.28,278.26,19091,,,A*46
$GPRMC,142726.000,A,4308.4755,N,07726.4790,W,35.34,278.04,190919,,,A*4B
$GPGGA,142726.250,4308.4756,N,07726.4826,W,1,06,1.60,159.5,M,-34.4,M,,*59
$GPRMC,142726.250,A,4308.4756,N,07726.4826,W,35.82,277.76,19091919,,,A*42
$GPGGA,142726.750,4308.4758,N,07726.4898,W,1,06,1.60,159.6,M,-34.4,M,,*54
$GPRMC,142727.250,A,4308.4762,N,07726.4971,W,36.42,276.42,190919,,,A*46
$GPGGA,142727.500,4308.4763,N,07726.5009,W,1,06,1.60,159.8,M,-34.4,M,,*55
$GPGGA,142728.000,4308.4767,N,07726.5083,W,1,06,1.60,160.1,M,-34.4,M,,*5A
$GPRMC,142728.000,A,4308.4767,N,07726.5083,W,37.83,276.52,190919,,,A*43
$GPRMC,142728.500,A,4308.4769,N,07726.5158,W,38.15,276.15,190919,,,A*4C
$GPGGA,142728.750,4308.4771,N,07726.5195,W,1,06,1.60,160.4,M,-34.4,M,,*5C
$GPRMC,142728.750,A,4308.4771,N,07726.5195,W,38.44,276.16,19091919,,,A*4C
$GPGGA,142729.250,4308.4774,N,07726.5270,W,1,06,1.60,160.6,M,-34.4,M,,*57
$GPGGA,142729.750,4308.4776,N,07726.5347,W,1,06,1.60,160.9,M,-34.4,M,,*5A
$GPRMC,142729.750,A,4308.4776,N,07726.5347,W,39.05,275.50,19091,,,A*4A
$GPRMC,142730.250,A,4308.4779,N,07726.5424,W,39.45,275.12,190919,,,A*48
$GPGGA,142730.500,4308.4780,N,07726.5463,W,1,06,1.60,161.2,M,-34.4,M,,*57
$GPGGA,142731.000,4308.4781,N,07726.5540,W,1,06,1.60,161.4,M,-34.4,M,,*54
$GPRMC,142731.000,A,4308.4781,N,07726.5540,W,39.92,274.25,19091,,,A*45
$GPRMC,142731.500,A,4308.4783,N,07726.5619,W,40.19,274.08,190919,,,A*4F
$GPGGA,142731.750,4308.4784,N,07726.5658,W,1,06,1.60,161.7,M,-34.4,M,,*5A
$GPGGA,142732.250,4308.4786,N,07726.5736,W,1,06,1.60,162.0,M,-34.4,M,,*53
$GPRMC,142732.250,A,4308.4786,N,07726.5736,W,40.32,273.66,19091,,,A*41
$GPRMC,142732.750,A,4308.4787,N,07726.5814,W,40.36,273.29,190919,,,A*45
$GPGGA,142733.000,4308.4788,N,07726.5853,W,1,06,1.60,162.4,M,-34.4,M,,*53
$GPGGA,142733.500,4308.4788,N,07726.5932,W,1,06,1.60,162.7,M,-34.4,M,,*53
$GPRMC,142733.500,A,4308.4788,N,07726.5932,W,40.43,272.57,19091-34.4,M,,*5D
$GPGGA,142734.250,4308.4789,N,07726.6048,W,1,06,1.60,163.2,M,-34.4,M,,*54
$GPRMC,142734.250,A,4308.4789,N,07726.6048,W,39.76,272.23,19091,,,A*4B
$GPRMC,142734.750,A,4308.4789,N,07726.6124,W,39.65,272.30,190919,,,A*45
$GPGGA,142735.000,4308.4790,N,07726.6162,W,1,06,1.60,163.7,M,-34.4,M,,*56
$GPGGA,142735.500,4308.4792,N,07726.6237,W,1,06,1.60,164.1,M,-34.4,M,,*53
$GPRMC,142735.500,A,4308.4792,N,07726.6237,W,39.20,272.38,190919,,,A*41
$GPRMC,142736.000,A,4308.4794,N,07726.6313,W,38.96,272.28,190919,,,A*4B
$GPGGA,142736.250,4308.4794,N,07726.6350,W,1,06,1.60,164.4,M,-34.4,M,,*51
$GPGGA,142736.750,4308.4793,N,07726.6426,W,1,06,1.60,164.8,M,-34.4,M,,*59
$GPRMC,142736.750,A,4308.4793,N,07726.6426,W,38.67,271.11,190919,,,A*48
$GPRMC,142737.250,A,4308.4792,N,07726.6501,W,38.64,270.74,190919,,,A*48
$GPGGA,142737.500,4308.4790,N,07726.6539,W,1,06,1.60,165.1,M,-34.4,M,,*5B
$GPGGA,142738.000,4308.4789,N,07726.6614,W,1,06,1.60,165.4,M,-34.4,M,,*50
$GPRMC,142738.000,A,4308.4789,N,07726.6614,W,38.61,269.83,19091.60,165.5,M,-34.4,M,,*5A
$GPRMC,142738.750,A,4308.4785,N,07726.6728,W,38.66,268.81,190919,,,A*4C
$GPGGA,142739.000,4308.4784,N,07726.6766,W,1,06,1.60,165.8,M,-34.4,M,,*54
$GPGGA,142739.500,4308.4782,N,07726.6842,W,1,06,1.60,165.8,M,-34.4,M,,*5E
$GPRMC,142739.500,A,4308.4782,N,07726.6842,W,38.68,268.35,190919,,,A*4F
$GPRMC,142740.000,A,4308.4779,N,07726.6917,W,38.70,267.95,190919,,,A*4D
$GPGGA,142740.250,4308.4776,N,07726.6956,W,1,06,1.60,166.1,M,-34.4,M,,*57
$GPRMC,142740.750,A,4308.4771,N,07726.7032,W,39.03,266.79,190919,,,A*4E
$GPGGA,142741.000,4308.4769,N,07726.7070,W,1,06,1.60,166.4,M,-34.4,M,,*56
$GPGGA,142741.500,4308.4764,N,07726.7148,W,1,06,1.60,166.5,M,-34.4,M,,*55
$GPRMC,142741.500,A,4308.4764,N,07726.7148,W,39.60,266.49,19091,,,A*46
$GPRMC,142742.000,A,4308.4760,N,07726.7225,W,39.98,266.09,190919,,,A*4F
$GPGGA,142742.250,4308.4757,N,07726.7265,W,1,06,1.60,166.7,M,-34.4,M,,*5A
$GPGGA,142742.750,4308.4753,N,07726.7343,W,1,06,1.60,167.0,M,-34.4,M,,*58
$GPRMC,142742.750,A,4308.4753,N,07726.7343,W,40.65,265.61,19091,*5D
$GPRMC,142743.000,A,4308.4751,N,07726.7383,W,40.95,265.66,190914C
$GPGGA,142743.500,4308.4745,N,07726.7462,W,1,06,1.60,167.3,M,-34.4,M,,*5E
$GPGGA,142744.000,4308.4742,N,07726.7540,W,1,06,1.60,167.6,M,-34.4,M,,*5F
$GPRMC,142744.000,A,4308.4742,N,07726.7540,W,40.96,265.35,190919,,,A*41
$GPRMC,142744.500,A,4308.4738,N,07726.7618,W,40.61,265.18,190919,,,A*40
$GPGGA,142744.750,4308.4737,N,07726.7656,W,1,06,1.60,167.8,M,-34.4,M,,*55
$GPRMC,142745.250,A,4308.4733,N,07726.7732,W,40.50,265.16,190919,,,A*4D
$GPGGA,142745.500,4308.4731,N,07726.7769,W,1,06,1.60,168.1,M,-34.4,M,,*5E
$GPGGA,142746.000,4308.4728,N,07726.7843,W,1,06,1.60,168.5,M,-34.4,M,,*53
$GPRMC,142746.000,A,4308.4728,N,07726.7843,W,38.89,265.53,19091,,,A*40
$GPRMC,142746.500,A,4308.4724,N,07726.7915,W,38.40,265.50,190919,,,A*4D
$GPGGA,142746.750,4308.4723,N,07726.7951,W,1,06,1.60,168.8,M,-34.4,M,,*55
$GPGGA,142747.250,4308.4724,N,07726.8022,W,1,06,1.60,168.9,M,-34.4,M,,*55
$GPRMC,142747.250,A,4308.4724,N,07726.8022,W,38.04,266.74,190911.60,169.1,M,-34.4,M,,*54
$GPGGA,142748.000,4308.4720,N,07726.8132,W,1,06,1.60,169.3,M,-34.4,M,,*52
$GPRMC,142748.000,A,4308.4720,N,07726.8132,W,38.02,266.89,19091,,,A*41
$GPGGA,142748.250,4308.4719,N,07726.8168,W,1,06,1.60,169.4,M,-3
$GPGGA,142748.500,4308.4717,N,07726.8204,W,1,06,1.60,169.5,M,-34.4,M,,*53
$GPGGA,142749.000,4308.4714,N,07726.8278,W,1,06,1.60,169.7,M,-34.4,M,,*5D
$GPRMC,142749.000,A,4308.4714,N,07726.8278,W,38.48,267.09,19091,,,A*4D
$GPRMC,142749.500,A,4308.4716,N,07726.8362,W,39.15,266.30,190919,,,A*42
$GPGGA,142749.750,4308.4716,N,07726.8403,W,1,06,1.60,169.5,M,-34.4,M,,*55
$GPGGA,142750.250,4308.4713,N,07726.8480,W,1,06,1.60,169.4,M,-34.4,M,,*57
$GPRMC,142750.250,A,4308.4713,N,07726.8480,W,39.84,266.23,19091,,,A*4C
$GPRMC,142750.750,A,4308.4709,N,07726.8557,W,40.10,265.79,190919,,,A*46
$GPGGA,142751.000,4308.4712,N,07726.8592,W,1,06,1.60,168.7,M,-34.4,M,,*50
$GPGGA,142751.500,4308.4715,N,07726.8665,W,1,06,1.92,168.1,M,-34.4,M,,*52
$GPRMC,142751.500,A,4308.4715,N,07726.8665,W,40.47,265.72,19091.92,167.9,M,-34.4,M,,*51
$GPGGA,142752.250,4308.4715,N,07726.8776,W,1,06,1.60,167.4,M,-34.4,M,,*57
$GPRMC,142752.250,A,4308.4715,N,07726.8776,W,40.98,265.52,19091,,,A*44
$GPGGA,142752.500,4308.4714,N,07726.8814,W,1,06,1.60,167.3,M,-34F
$GPGGA,142752.750,4308.4714,N,07726.8851,W,1,06,1.92,167.0,M,-34.4,M,,*50
$GPGGA,142753.250,4308.4713,N,07726.8929,W,1,06,1.59,166.7,M,-34.4,M,,*5C
$GPRMC,142753.250,A,4308.4713,N,07726.8929,W,41.69,265.57,19091,,,A*4D
$GPRMC,142753.750,A,4308.4710,N,07726.9008,W,41.80,265.99,190919,,,A*45
$GPGGA,142754.000,4308.4708,N,07726.9048,W,1,06,1.59,166.7,M,-34.4,M,,*59
$GPGGA,142754.500,4308.4704,N,07726.9127,W,1,06,1.92,166.7,M,-34.4,M,,*5F
$GPRMC,142754.500,A,4308.4704,N,07726.9127,W,41.98,266.21,190919,,,A*45
$GPRMC,142755.000,A,4308.4700,N,07726.9208,W,42.06,266.44,190919,,,A*4C
$GPGGA,142755.250,4308.4700,N,07726.9248,W,1,06,1.60,166.7,M,-34.4,M,,*5F
$GPGGA,142755.750,4308.4696,N,07726.9328,W,1,06,1.92,166.7,M,-34.4,M,,*5E
$GPRMC,142755.750,A,4308.4696,N,07726.9328,W,42.11,266.30,19091W,1,06,1.59,166.8,M,-34.4,M,,*50
$GPGGA,142756.500,4308.4692,N,07726.9447,W,1,06,1.59,166.8,M,-34.4,M,,*58
$GPRMC,142756.500,A,4308.4692,N,07726.9447,W,41.85,266.49,19091,,,A*48
$GPRMC,142757.000,A,4308.4691,N,07726.9526,W,41.97,266.46,190919,,,A*45
$GPGGA,142757.250,4308.4689,N,07726.9566,W,1,06,1.59,166.8,M,-34.4,M,,*53
$GPGGA,142757.750,4308.4685,N,07726.9647,W,1,06,1.59,166.8,M,-34.4,M,,*5A
$GPRMC,142757.750,A,4308.4685,N,07726.9647,W,42.12,265.81,19091.9687,W,1,06,1.59,166.8,M,-34.4,M,,*5D
$GPRMC,142758.500,A,4308.4680,N,07726.9767,W,41.93,266.38,190919,,,A*45
$GPGGA,142758.750,4308.4677,N,07726.9808,W,1,06,1.92,167.0,M,-34.4,M,,*53
$GPGGA,142759.250,4308.4672,N,07726.9889,W,1,06,1.59,167.3,M,-34.4,M,,*5F
$GPRMC,142759.250,A,4308.4672,N,07726.9889,W,42.49,266.80,19091,,,A*43
$GPGGA,142759.750,4308.4668,N,07726.9971,W,1,06,1.92,167.6,M,-34.4,M,,*55
$GPRMC,142759.750,A,4308.4668,N,07726.9971,W,42.60,267.03,19091,,,A*4A
$GPRMC,142800.250,A,4308.4664,N,07727.0054,W,43.02,266.92,190919,,,A*4A
$GPGGA,142800.500,4308.4662,N,07727.0096,W,1,06,1.59,167.8,M,-34.4,M,,*5A
$GPGGA,142801.000,4308.4657,N,07727.0180,W,1,06,1.59,167.9,M,-34.4,M,,*5F
$GPRMC,142801.000,A,4308.4657,N,07727.0180,W,43.50,266.82,19091,,,A*42
$GPGGA,142801.250,4308.4655,N,07727.0222,W,1,06,1.59,167.9,M,-34D
$GPGGA,142801.500,4308.4653,N,07727.0264,W,1,06,1.59,167.9,M,-34.4,M,,*57
$GPGGA,142802.000,4308.4646,N,07727.0350,W,1,06,1.59,167.2,M,-34.4,M,,*58
$GPRMC,142802.000,A,4308.4646,N,07727.0350,W,43.85,267.68,190911.59,166.8,M,-34.4,M,,*5E
$GPGGA,142802.750,4308.4640,N,07727.0477,W,1,06,1.59,166.5,M,-34.4,M,,*58
$GPRMC,142802.750,A,4308.4640,N,07727.0477,W,43.92,268.52,190919,,,A*45
$GPGGA,142803.000,4308.4639,N,07727.0519,W,1,06,1.59,166.5,M,-342
$GPGGA,142803.250,4308.4638,N,07727.0561,W,1,06,1.59,166.4,M,-34.4,M,,*54
$GPGGA,142803.750,4308.4637,N,07727.0645,W,1,06,1.59,166.4,M,-34.4,M,,*5B
$GPRMC,142803.750,A,4308.4637,N,07727.0645,W,43.89,269.33,19091,,,A*4B
$GPRMC,142804.250,A,4308.4637,N,07727.0728,W,43.58,270.21,190919,,,A*44
$GPGGA,142804.500,4308.4637,N,07727.0770,W,1,06,1.59,166.3,M,-34.4,M,,*5B
$GPGGA,142805.000,4308.4638,N,07727.0855,W,1,06,1.59,165.8,M,-34.4,M,,*50
$GPRMC,142805.000,A,4308.4638,N,07727.0855,W,43.71,272.31,19091,,,A*40
$GPGGA,142805.500,4308.4640,N,07727.0939,W,1,06,1.59,165.3,M,-34.4,M,,*5A
$GPRMC,142805.500,A,4308.4640,N,07727.0939,W,43.66,274.06,19091,,,A*45
$GPRMC,142806.000,A,4308.4641,N,07727.1022,W,43.56,274.78,190919,,,A*4A
$GPGGA,142806.250,4308.4643,N,07727.1063,W,1,06,1.59,164.7,M,-34.4,M,,*5A
$GPGGA,142806.750,4308.4649,N,07727.1144,W,1,06,1.59,164.2,M,-34.4,M,,*54
$GPRMC,142806.750,A,4308.4649,N,07727.1144,W,42.79,277.61,190919,,,A*46
$GPGGA,142807.000,4308.4654,N,07727.1183,W,1,06,1.59,163.9,M,-341
$GPGGA,142807.250,4308.4659,N,07727.1222,W,1,06,1.91,163.7,M,-34.4,M,,*54
$GPGGA,142807.750,4308.4666,N,07727.1303,W,1,06,1.91,163.7,M,-34.4,M,,*5F
$GPRMC,142807.750,A,4308.4666,N,07727.1303,W,42.61,279.20,190919,,,A*49
$GPRMC,142808.250,A,4308.4674,N,07727.1384,W,42.85,279.40,190919,,,A*43
$GPGGA,142808.500,4308.4677,N,07727.1425,W,1,06,1.59,163.7,M,-34.4,M,,*50
$GPGGA,142809.000,4308.4683,N,07727.1508,W,1,06,1.59,163.4,M,-34.4,M,,*52
$GPRMC,142809.000,A,4308.4683,N,07727.1508,W,43.23,279.25,190919,,,A*41
$GPRMC,142809.500,A,4308.4690,N,07727.1591,W,43.74,279.31,190919,,,A*41
$GPGGA,142809.750,4308.4694,N,07727.1632,W,1,06,1.59,163.3,M,-34.4,M,,*5B
$GPGGA,142810.250,4308.4702,N,07727.1715,W,1,06,1.59,163.4,M,-34.4,M,,*5B
$GPRMC,142810.250,A,4308.4702,N,07727.1715,W,43.78,279.46,190916,1.59,163.4,M,-34.4,M,,*5A
$GPGGA,142811.000,4308.4714,N,07727.1834,W,1,06,1.59,163.3,M,-34.4,M,,*51
$GPRMC,142811.000,A,4308.4714,N,07727.1834,W,44.12,280.65,190919,,,A*42
$GPGGA,142811.250,4308.4719,N,07727.1874,W,1,06,1.59,163.2,M,-3C
$GPGGA,142811.500,4308.4724,N,07727.1914,W,1,06,1.59,163.1,M,-34.4,M,,*56
$GPGGA,142812.000,4308.4732,N,07727.1997,W,1,06,1.59,162.9,M,-34.4,M,,*55
$GPRMC,142812.000,A,4308.4732,N,07727.1997,W,44.20,280.38,190919,,,A*44
$GPRMC,142812.500,A,4308.4740,N,07727.2080,W,44.25,279.92,190919,,,A*4B
$GPGGA,142812.750,4308.4743,N,07727.2121,W,1,06,1.59,162.6,M,-34.4,M,,*58
$GPRMC,142812.750,A,4308.4743,N,07727.2121,W,44.26,279.40,190915
$GPGGA,142813.250,4308.4751,N,07727.2204,W,1,06,1.59,162.4,M,-34.4,M,,*59
$GPGGA,142813.750,4308.4760,N,07727.2287,W,1,06,1.91,162.1,M,-34.4,M,,*54
$GPRMC,142813.750,A,4308.4760,N,07727.2287,W,44.06,279.54,19091,,,A*41
$GPGGA,142814.000,4308.4764,N,07727.2329,W,1,06,1.59,161.9,M,-36
$GPGGA,142814.250,4308.4768,N,07727.2369,W,1,06,1.59,161.7,M,-34.4,M,,*5E
$GPGGA,142814.750,4308.4777,N,07727.2451,W,1,06,1.91,161.4,M,-34.4,M,,*5E
$GPRMC,142814.750,A,4308.4777,N,07727.2451,W,43.85,279.38,19091,,,A*4B
$GPGGA,142815.000,4308.4781,N,07727.2492,W,1,06,1.59,161.3,M,-
$GPGGA,142815.250,4308.4784,N,07727.2533,W,1,06,1.59,161.1,M,-34.4,M,,*52
$GPGGA,142815.750,4308.4792,N,07727.2616,W,1,06,1.91,160.9,M,-34.4,M,,*59
$GPRMC,142815.750,A,4308.4792,N,07727.2616,W,43.71,279.12,19091,,,A*43
$GPRMC,142816.250,A,4308.4801,N,07727.2698,W,43.09,279.28,190919,,,A*40
$GPGGA,142816.500,4308.4805,N,07727.2738,W,1,06,1.91,160.5,M,-34.4,M,,*5D
$GPGGA,142817.000,4308.4816,N,07727.2815,W,1,06,1.59,160.0,M,-34.4,M,,*5A
$GPRMC,142817.000,A,4308.4816,N,07727.2815,W,42.45,279.73,190919,,,A*4C
$GPRMC,142817.500,A,4308.4826,N,07727.2892,W,42.12,279.61,190919,,,A*44
$GPGGA,142817.750,4308.4830,N,07727.2931,W,1,06,1.90,159.4,M,-34.4,M,,*50
$GPGGA,142818.250,4308.4839,N,07727.3007,W,1,06,1.59,159.1,M,-34.4,M,,*5E
$GPRMC,142818.250,A,4308.4839,N,07727.3007,W,41.40,279.74,1909105,279.72,190919,,,A*4A
$GPGGA,142819.000,4308.4854,N,07727.3120,W,1,06,1.59,158.4,M,-34D
$GPGGA,142819.250,4308.4858,N,07727.3158,W,1,06,1.90,158.2,M,-34.4,M,,*54
$GPRMC,142819.250,A,4308.4858,N,07727.3158,W,40.68,279.65,190914B
$GPGGA,142819.750,4308.4867,N,07727.3235,W,1,06,1.90,158.0,M,-34.4,M,,*57
$GPGGA,142820.250,4308.4876,N,07727.3312,W,1,07,1.84,157.8,M,-34.4,M,,*5F
$GPRMC,142820.250,A,4308.4876,N,07727.3312,W,40.78,280.04,19091,,,A*4E
$GPRMC,142820.750,A,4308.4884,N,07727.3390,W,41.00,279.79,190919,,,A*4E
$GPGGA,142821.000,4308.4888,N,07727.3429,W,1,07,1.48,157.5,M,-34.4,M,,*5A
$GPGGA,142821.500,4308.4897,N,07727.3508,W,1,07,1.84,157.3,M,-34.4,M,,*55
$GPRMC,142821.500,A,4308.4897,N,07727.3508,W,41.17,279.97,19091,,,A*4B
$GPGGA,142821.750,4308.4901,N,07727.3548,W,1,07,1.84,157.3,M,-3
$GPGGA,142822.000,4308.4906,N,07727.3587,W,1,07,1.48,157.2,M,-34.4,M,,*5C
$GPGGA,142822.500,4308.4914,N,07727.3666,W,1,07,1.84,157.1,M,-34.4,M,,*55
$GPRMC,142822.500,A,4308.4914,N,07727.3666,W,41.23,279.64,19091,,,A*42
$GPRMC,142823.000,A,4308.4923,N,07727.3744,W,41.31,279.65,190919,,,A*41
$GPGGA,142823.250,4308.4926,N,07727.3784,W,1,07,1.48,156.9,M,-34.4,M,,*53
$GPGGA,142823.750,4308.4933,N,07727.3863,W,1,07,1.84,156.7,M,-34.4,M,,*5A
$GPRMC,142823.750,A,4308.4933,N,07727.3863,W,41.59,278.56,190919,,,A*47
$GPGGA,142824.000,4308.4937,N,07727.3903,W,1,07,1.48,156.6,M,-34.4,M,,*5D
$GPRMC,142824.000,A,4308.4937,N,07727.3903,W,41.62,278.42,190919,,,A*4C
$GPGGA,142824.500,4308.4944,N,07727.3983,W,1,07,1.84,156.5,M,-34.4,M,,*57
$GPRMC,142824.500,A,4308.4944,N,07727.3983,W,41.44,278.59,190911.84,156.5,M,-34.4,M,,*59
$GPGGA,142825.250,4308.4956,N,07727.4100,W,1,07,1.84,156.4,M,-34.4,M,,*52
$GPRMC,142825.250,A,4308.4956,N,07727.4100,W,40.95,278.94,19091,,,A*43
$GPGGA,142825.500,4308.4959,N,07727.4138,W,1,07,1.84,156.4,M,-345
$GPGGA,142825.750,4308.4963,N,07727.4176,W,1,07,1.84,156.5,M,-34.4,M,,*51
$GPGGA,142826.250,4308.4971,N,07727.4252,W,1,07,1.48,156.5,M,-34.4,M,,*51
$GPRMC,142826.250,A,4308.4971,N,07727.4252,W,39.71,279.12,19091,,,A*4A
$GPRMC,142826.750,A,4308.4979,N,07727.4325,W,38.95,279.54,190919,,,A*4F
$GPGGA,142827.000,4308.4985,N,07727.4362,W,1,07,1.48,156.5,M,-34.4,M,,*5E
$GPGGA,142827.500,4308.4994,N,07727.4434,W,1,07,1.84,156.6,M,-34.4,M,,*5C
$GPRMC,142827.500,A,4308.4994,N,07727.4434,W,38.19,280.32,19091,,,A*4F
$GPGGA,142827.750,4308.4999,N,07727.4469,W,1,07,1.48,156.7,M,-
$GPGGA,142828.000,4308.5003,N,07727.4505,W,1,07,1.48,156.7,M,-34.4,M,,*52
$GPGGA,142828.500,4308.5015,N,07727.4575,W,1,07,1.84,156.6,M,-34.4,M,,*56
$GPRMC,142828.500,A,4308.5015,N,07727.4575,W,37.70,280.40,190911.84,156.7,M,-34.4,M,,*54
$GPGGA,142829.250,4308.5027,N,07727.4679,W,1,07,1.84,156.9,M,-34.4,M,,*54
$GPRMC,142829.250,A,4308.5027,N,07727.4679,W,36.64,279.24,19091,,,A*4D
$GPGGA,142829.500,4308.5030,N,07727.4713,W,1,07,1.84,156.9,M,-3
$GPGGA,142829.750,4308.5032,N,07727.4748,W,1,07,1.48,157.0,M,-34.4,M,,*5E
$GPGGA,142830.250,4308.5038,N,07727.4816,W,1,07,1.48,157.2,M,-34.4,M,,*5F
$GPRMC,142830.250,A,4308.5038,N,07727.4816,W,36.20,278.02,19091,,,A*49
$GPRMC,142830.750,A,4308.5046,N,07727.4884,W,35.97,278.67,190919,,,A*42
$GPGGA,142831.000,4308.5049,N,07727.4918,W,1,07,1.48,157.4,M,-34.4,M,,*56
$GPGGA,142831.500,4308.5057,N,07727.4985,W,1,07,1.84,157.6,M,-34.4,M,,*5A
$GPRMC,142831.500,A,4308.5057,N,07727.4985,W,35.69,279.09,19091,,,A*4C
$GPGGA,142831.750,4308.5061,N,07727.5018,W,1,07,1.84,157.7,M,-
$GPGGA,142832.000,4308.5065,N,07727.5052,W,1,07,1.48,157.8,M,-34.4,M,,*51
$GPGGA,142832.500,4308.5071,N,07727.5120,W,1,07,1.48,158.0,M,-34.4,M,,*52
$GPRMC,142832.500,A,4308.5071,N,07727.5120,W,35.81,279.13,190911.84,158.0,M,-34.4,M,,*53
$GPGGA,142833.250,4308.5081,N,07727.5223,W,1,07,1.48,158.0,M,-34.4,M,,*5E
$GPRMC,142833.250,A,4308.5081,N,07727.5223,W,35.76,279.50,19091,,,A*43
$GPGGA,142833.500,4308.5084,N,07727.5256,W,1,07,1.48,157.9,M,-343
$GPGGA,142833.750,4308.5088,N,07727.5289,W,1,07,1.48,157.7,M,-34.4,M,,*5A
$GPRMC,142834.250,A,4308.5094,N,07727.5357,W,35.47,278.44,190919,,,A*44
$GPGGA,142834.500,4308.5097,N,07727.5390,W,1,07,1.48,157.5,M,-34.4,M,,*5F
$GPRMC,142835.000,A,4308.5104,N,07727.5456,W,35.01,278.63,190919,,,A*4B
$GPGGA,142835.250,4308.5108,N,07727.5489,W,1,07,1.48,157.2,M,-34.4,M,,*53
$GPGGA,142835.750,4308.5114,N,07727.5554,W,1,07,1.83,157.1,M,-34.4,M,,*5E
$GPRMC,142835.750,A,4308.5114,N,07727.5554,W,34.44,279.60,190919,,,A*49
$GPGGA,142836.000,4308.5118,N,07727.5586,W,1,07,1.48,157.0,M,-
$GPGGA,142836.250,4308.5121,N,07727.5618,W,1,07,1.48,156.9,M,-34.4,M,,*5B
$GPGGA,142836.750,4308.5127,N,07727.5681,W,1,07,1.83,156.8,M,-34.4,M,,*5E
$GPRMC,142836.750,A,4308.5127,N,07727.5681,W,33.89,279.40,190911,07,1.48,156.7,M,-34.4,M,,*58
$GPRMC,142837.500,A,4308.5139,N,07727.5776,W,33.95,280.01,190919,,,A*4B
$GPGGA,142837.750,4308.5143,N,07727.5808,W,1,07,1.48,156.5,M,-34.4,M,,*58
$GPGGA,142838.250,4308.5151,N,07727.5873,W,1,07,1.48,156.4,M,-34.4,M,,*5C
$GPRMC,142838.250,A,4308.5151,N,07727.5873,W,34.08,280.55,19091,,,A*40
$GPRMC,142838.750,A,4308.5159,N,07727.5938,W,34.35,280.70,190919,,,A*4A
$GPGGA,142839.000,4308.5163,N,07727.5970,W,1,07,1.83,156.2,M,-34.4,M,,*58
$GPRMC,142839.500,A,4308.5170,N,07727.6035,W,34.38,279.95,190919,,,A*40
$GPGGA,142839.750,4308.5174,N,07727.6068,W,1,07,1.83,155.9,M,-34.4,M,,*57
$GPGGA,142840.250,4308.5181,N,07727.6134,W,1,07,1.83,155.8,M,-34.4,M,,*5F
$GPRMC,142840.250,A,4308.5181,N,07727.6134,W,34.60,279.33,190919,,,A*43
$GPRMC,142840.750,A,4308.5188,N,07727.6199,W,34.29,278.98,190919,,,A*45
$GPGGA,142841.000,4308.5190,N,07727.6232,W,1,07,1.83,155.8,M,-34.4,M,,*5C
$GPGGA,142841.500,4308.5196,N,07727.6297,W,1,07,1.48,155.7,M,-34.4,M,,*58
$GPRMC,142841.500,A,4308.5196,N,07727.6297,W,34.26,278.68,1909183,155.7,M,-34.4,M,,*5B
$GPRMC,142842.250,A,4308.5204,N,07727.6396,W,34.11,277.90,190919,,,A*44
$GPGGA,142842.500,4308.5205,N,07727.6429,W,1,07,1.83,155.7,M,-34.4,M,,*56
$GPGGA,142843.000,4308.5209,N,07727.6494,W,1,07,1.48,155.6,M,-34.4,M,,*5E
$GPRMC,142843.000,A,4308.5209,N,07727.6494,W,33.66,276.79,190919,,,A*4B
$GPRMC,142843.500,A,4308.5218,N,07727.6557,W,33.63,277.32,190919,,,A*4B
$GPGGA,142843.750,4308.5224,N,07727.6586,W,1,07,1.83,154.7,M,-34.4,M,,*56
$GPGGA,142844.250,4308.5229,N,07727.6650,W,1,07,1.48,154.8,M,-34.4,M,,*59
$GPRMC,142844.250,A,4308.5229,N,07727.6650,W,33.40,277.36,190919,,,A*4D
$GPRMC,142844.750,A,4308.5233,N,07727.6714,W,33.45,276.79,190919,,,A*4D
$GPGGA,142845.000,4308.5235,N,07727.6747,W,1,07,1.48,154.8,M,-34.4,M,,*55
$GPGGA,142845.500,4308.5239,N,07727.6810,W,1,07,1.83,154.8,M,-34.4,M,,*56
$GPRMC,142845.500,A,4308.5239,N,07727.6810,W,33.06,276.42,19091,,,A*45
$GPRMC,142846.000,A,4308.5244,N,07727.6872,W,32.79,276.66,190919,,,A*42
$GPGGA,142846.250,4308.5246,N,07727.6903,W,1,07,1.83,154.8,M,-34.4,M,,*5C
$GPGGA,142846.750,4308.5250,N,07727.6965,W,1,07,1.83,154.8,M,-34.4,M,,*5E
$GPRMC,142846.750,A,4308.5250,N,07727.6965,W,32.09,276.79,19091,,,A*4B
$GPGGA,142847.000,4308.5253,N,07727.6995,W,1,07,1.48,154.8,M,-3
$GPGGA,142847.250,4308.5255,N,07727.7025,W,1,07,1.83,154.7,M,-34.4,M,,*5C
$GPGGA,142847.750,4308.5257,N,07727.7087,W,1,07,1.83,154.8,M,-34.4,M,,*5C
$GPRMC,142847.750,A,4308.5257,N,07727.7087,W,31.71,275.79,190917,1.83,154.8,M,-34.4,M,,*56
$GPGGA,142848.500,4308.5260,N,07727.7178,W,1,07,1.83,154.8,M,-34.4,M,,*51
$GPRMC,142848.500,A,4308.5260,N,07727.7178,W,31.99,275.25,19091,,,A*44
$GPGGA,142848.750,4308.5261,N,07727.7209,W,1,07,1.48,154.9,M,-346
$GPGGA,142849.000,4308.5262,N,07727.7240,W,1,07,1.48,154.9,M,-34.4,M,,*59
$GPRMC,142849.000,A,4308.5262,N,07727.7240,W,32.34,274.59,19091
$GPGGA,142849.500,4308.5264,N,07727.7302,W,1,07,1.48,155.1,M,-34.4,M,,*54
$GPRMC,142850.000,A,4308.5267,N,07727.7364,W,32.47,274.25,190919,,,A*41
$GPGGA,142850.250,4308.5269,N,07727.7396,W,1,07,1.48,155.2,M,-34.4,M,,*5D
$GPGGA,142850.750,4308.5271,N,07727.7458,W,1,07,1.83,155.4,M,-34.4,M,,*55
$GPRMC,142850.750,A,4308.5271,N,07727.7458,W,32.60,273.85,19091,,,A*44
$GPGGA,142851.000,4308.5273,N,07727.7489,W,1,07,1.48,155.5,M,-345
$GPGGA,142851.250,4308.5274,N,07727.7520,W,1,07,1.48,155.6,M,-34.4,M,,*5F
$GPRMC,142851.250,A,4308.5274,N,07727.7520,W,32.61,273.65,190913.56,190919,,,A*46
$GPGGA,142851.750,4308.5277,N,07727.7582,W,1,07,1.83,155.9,M,-34.4,M,,*59
$GPGGA,142852.250,4308.5282,N,07727.7642,W,1,07,1.83,155.8,M,-34.4,M,,*5B
$GPRMC,142852.250,A,4308.5282,N,07727.7642,W,31.78,273.76,190919,,,A*40
$GPGGA,142852.500,4308.5286,N,07727.7672,W,1,07,1.83,155.8,M,-340
$GPGGA,142852.750,4308.5289,N,07727.7702,W,1,07,1.83,155.7,M,-34.4,M,,*5F
$GPGGA,142853.250,4308.5298,N,07727.7758,W,1,07,1.83,155.2,M,-34.4,M,,*51
$GPRMC,142853.250,A,4308.5298,N,07727.7758,W,30.45,273.74,190919,,,A*4D
$GPGGA,142853.500,4308.5302,N,07727.7785,W,1,07,1.83,155.0,M,-3E
$GPGGA,142853.750,4308.5305,N,07727.7813,W,1,07,1.83,154.9,M,-34.4,M,,*5B
$GPGGA,142854.250,4308.5312,N,07727.7866,W,1,07,1.83,154.6,M,-34.4,M,,*52
$GPRMC,142854.250,A,4308.5312,N,07727.7866,W,28.77,273.58,19091,,,A*4D
$GPGGA,142854.750,4308.5318,N,07727.7917,W,1,07,1.83,154.3,M,-34.4,M,,*5F
$GPRMC,142854.750,A,4308.5318,N,07727.7917,W,27.10,273.77,19091,,,A*46
$GPRMC,142855.250,A,4308.5322,N,07727.7964,W,24.82,273.71,190919,,,A*41
$GPGGA,142855.500,4308.5322,N,07727.7987,W,1,07,1.83,154.1,M,-34.4,M,,*5B
$GPRMC,142856.000,A,4308.5324,N,07727.8026,W,20.81,273.64,190919,,,A*40
$GPGGA,142856.250,4308.5325,N,07727.8043,W,1,07,1.82,154.0,M,-34.4,M,,*53
$GPGGA,142856.750,4308.5326,N,07727.8073,W,1,07,1.83,154.0,M,-34.4,M,,*57
$GPRMC,142856.750,A,4308.5326,N,07727.8073,W,15.61,271.72,19091,,,A*4D
$GPGGA,142857.000,4308.5327,N,07727.8086,W,1,07,1.83,153.9,M,-39
$GPGGA,142857.250,4308.5329,N,07727.8097,W,1,07,1.82,153.8,M,-34.4,M,,*58
$GPGGA,142857.750,4308.5331,N,07727.8113,W,1,07,1.82,153.7,M,-34.4,M,,*56
$GPRMC,142857.750,A,4308.5331,N,07727.8113,W,9.08,273.26,1909191,07,1.82,153.7,M,-34.4,M,,*5B
$GPGGA,142858.500,4308.5333,N,07727.8132,W,1,07,1.82,153.7,M,-34.4,M,,*5F
$GPRMC,142858.500,A,4308.5333,N,07727.8132,W,6.39,274.49,190919,,A*76
$GPGGA,142859.000,4308.5336,N,07727.8143,W,1,07,1.82,153.8,M,-34.4,M,,*57
$GPRMC,142859.000,A,4308.5336,N,07727.8143,W,6.12,278.85,190919,,,A*74
$GPGGA,142859.250,4308.5338,N,07727.8148,W,1,07,1.82,153.9,M,-376
$GPGGA,142859.500,4308.5340,N,07727.8154,W,1,07,1.82,154.0,M,-34.4,M,,*5A
$GPRMC,142900.000,A,4308.5345,N,07727.8166,W,7.60,300.11,190919,,,A*7D
$GPGGA,142900.250,4308.5348,N,07727.8172,W,1,07,1.82,154.3,M,-34.4,M,,*5A
$GPGGA,142900.750,4308.5358,N,07727.8185,W,1,07,1.82,154.3,M,-34.4,M,,*56
$GPRMC,142900.750,A,4308.5358,N,07727.8185,W,9.31,311.25,190919,,A*73
$GPGGA,142901.000,4308.5362,N,07727.8192,W,1,07,1.47,154.4,M,-37B
$GPGGA,142901.250,4308.5367,N,07727.8198,W,1,07,1.82,154.6,M,-34.4,M,,*57
$GPGGA,142901.750,4308.5383,N,07727.8207,W,1,07,1.82,155.0,M,-34.4,M,,*5A
$GPRMC,142901.750,A,4308.5383,N,07727.8207,W,10.89,329.82,19091,W,1,07,1.47,155.2,M,-34.4,M,,*54
$GPGGA,142902.500,4308.5415,N,07727.8214,W,1,07,1.82,155.7,M,-34.4,M,,*53
$GPRMC,142902.500,A,4308.5415,N,07727.8214,W,14.08,350.55,190919,,,A*47
$GPRMC,142903.000,A,4308.5441,N,07727.8214,W,16.67,358.14,190919,,,A*44
$GPGGA,142903.250,4308.5455,N,07727.8211,W,1,07,1.82,156.5,M,-34.4,M,,*50
$GPGGA,142903.750,4308.5490,N,07727.8208,W,1,07,1.82,157.0,M,-34.4,M,,*50
$GPRMC,142903.750,A,4308.5490,N,07727.8208,W,21.94,4.40,190919,,-34.4,M,,*57
$GPGGA,142904.500,4308.5546,N,07727.8201,W,1,07,1.82,157.9,M,-34.4,M,,*5A
$GPRMC,142904.500,A,4308.5546,N,07727.8201,W,26.06,4.63,190919,,A*4A
$GPGGA,142904.750,4308.5566,N,07727.8200,W,1,07,1.82,158.2,M,-3
$GPGGA,142905.000,4308.5589,N,07727.8198,W,1,07,1.47,157.7,M,-34.4,M,,*59
$GPGGA,142905.500,4308.5633,N,07727.8194,W,1,07,1.82,158.4,M,-34.4,M,,*57
$GPRMC,142905.500,A,4308.5633,N,07727.8194,W,31.29,3.56,190919,,A*4F
$GPGGA,142905.750,4308.5656,N,07727.8192,W,1,07,1.82,158.7,M,-34
$GPGGA,142906.000,4308.5680,N,07727.8190,W,1,07,1.47,158.4,M,-34.4,M,,*54
$GPGGA,142906.500,4308.5731,N,07727.8186,W,1,07,1.82,159.0,M,-34.4,M,,*51
$GPRMC,142906.500,A,4308.5731,N,07727.8186,W,35.41,2.71,190919,,A*42
$GPGGA,142906.750,4308.5757,N,07727.8184,W,1,07,1.82,159.4,M,-30
$GPGGA,142907.000,4308.5784,N,07727.8182,W,1,07,1.47,159.7,M,-34.4,M,,*51
$GPGGA,142907.500,4308.5843,N,07727.8178,W,1,07,1.47,159.8,M,-34.4,M,,*5A
$GPRMC,142907.500,A,4308.5843,N,07727.8178,W,38.08,2.86,190919,,A*40
$GPRMC,142908.000,A,4308.5900,N,07727.8174,W,40.13,2.92,190919,,,A*40
$GPGGA,142908.250,4308.5930,N,07727.8171,W,1,07,1.47,160.3,M,-34.4,M,,*5A
$GPGGA,142908.750,4308.5990,N,07727.8166,W,1,07,1.82,160.8,M,-34.4,M,,*51
$GPRMC,142908.750,A,4308.5990,N,07727.8166,W,42.24,3.10,190919,,A*45
$GPGGA,142909.250,4308.6049,N,07727.8162,W,1,07,1.47,161.3,M,-34.4,M,,*5C
$GPRMC,142909.250,A,4308.6049,N,07727.8162,W,42.32,3.16,190919,,A*4A
$GPGGA,142909.500,4308.6081,N,07727.8160,W,1,07,1.47,161.2,M,-345
$GPGGA,142909.750,4308.6111,N,07727.8157,W,1,07,1.47,161.5,M,-34.4,M,,*55
$GPGGA,142910.250,4308.6170,N,07727.8154,W,1,07,1.47,162.0,M,-34.4,M,,*5A
$GPRMC,142910.250,A,4308.6170,N,07727.8154,W,42.97,2.56,190919,,,A*46
$GPRMC,142910.750,A,4308.6232,N,07727.8151,W,43.13,1.81,190919,,,A*47
$GPGGA,142911.000,4308.6262,N,07727.8149,W,1,07,1.47,162.5,M,-34.4,M,,*55
$GPGGA,142911.500,4308.6321,N,07727.8146,W,1,07,1.82,163.0,M,-34.4,M,,*54
$GPRMC,142911.500,A,4308.6321,N,07727.8146,W,42.70,2.00,190919,,A*4A
$GPRMC,142912.000,A,4308.6380,N,07727.8143,W,42.38,1.91,190919,,,A*45
$GPGGA,142912.250,4308.6410,N,07727.8141,W,1,07,1.47,163.7,M,-34.4,M,,*59
$GPGGA,142912.750,4308.6468,N,07727.8138,W,1,07,1.82,164.1,M,-34.4,M,,*55
$GPRMC,142912.750,A,4308.6468,N,07727.8138,W,41.61,1.60,190919,,A*4B
$GPGGA,142913.250,4308.6526,N,07727.8137,W,1,07,1.47,164.5,M,-34.4,M,,*58
$GPRMC,142913.250,A,4308.6526,N,07727.8137,W,41.18,0.91,190919,,A*4A
$GPGGA,142913.500,4308.6554,N,07727.8136,W,1,07,1.82,164.6,M,-
$GPGGA,142913.750,4308.6583,N,07727.8135,W,1,07,1.82,164.8,M,-34.4,M,,*54
$GPGGA,142914.250,4308.6641,N,07727.8134,W,1,07,1.47,165.1,M,-34.4,M,,*5B
$GPRMC,142914.250,A,4308.6641,N,07727.8134,W,40.95,0.74,190919,,A*43
$GPGGA,142914.500,4308.6669,N,07727.8134,W,1,07,1.82,165.2,M,-
$GPGGA,142914.750,4308.6697,N,07727.8134,W,1,07,1.47,165.3,M,-34.4,M,,*57
$GPGGA,142915.250,4308.6753,N,07727.8135,W,1,07,1.82,165.2,M,-34.4,M,,*53
$GPRMC,142915.250,A,4308.6753,N,07727.8135,W,39.49,359.73,19091,,,A*46
$GPGGA,142915.500,4308.6780,N,07727.8135,W,1,07,1.82,165.2,M,-3F
$GPGGA,142915.750,4308.6806,N,07727.8135,W,1,07,1.82,165.2,M,-34.4,M,,*59
$GPGGA,142916.250,4308.6860,N,07727.8134,W,1,07,1.47,165.4,M,-34.4,M,,*51
$GPRMC,142916.250,A,4308.6860,N,07727.8134,W,37.70,359.87,190919,,,A*44
$GPGGA,142916.500,4308.6886,N,07727.8134,W,1,07,1.47,165.4,M,-3
$GPGGA,142916.750,4308.6912,N,07727.8133,W,1,07,1.47,165.5,M,-34.4,M,,*56
$GPRMC,142916.750,A,4308.6912,N,07727.8133,W,37.02,0.25,190919
$GPGGA,142917.250,4308.6964,N,07727.8132,W,1,07,1.47,165.6,M,-34.4,M,,*51
$GPRMC,142917.750,A,4308.7014,N,07727.8132,W,36.54,359.86,190919,,,A*4A
$GPGGA,142918.000,4308.7040,N,07727.8132,W,1,07,1.47,165.7,M,-34.4,M,,*56
$GPGGA,142918.500,4308.7092,N,07727.8131,W,1,07,1.47,165.6,M,-34.4,M,,*5E
$GPRMC,142918.500,A,4308.7092,N,07727.8131,W,36.74,0.25,190919,,A*4B
$GPGGA,142918.750,4308.7119,N,07727.8131,W,1,07,1.47,165.6,M,-3A
$GPGGA,142919.000,4308.7145,N,07727.8130,W,1,07,1.47,165.6,M,-34.4,M,,*50
$GPGGA,142919.500,4308.7200,N,07727.8128,W,1,07,1.47,165.6,M,-34.4,M,,*5E
$GPRMC,142919.500,A,4308.7200,N,07727.8128,W,38.64,0.72,190919,,07,1.47,165.6,M,-34.4,M,,*5C
$GPGGA,142920.250,4308.7286,N,07727.8125,W,1,07,1.47,165.6,M,-34.4,M,,*55
$GPRMC,142920.250,A,4308.7286,N,07727.8125,W,40.03,0.54,190919,,A*47
$GPRMC,142920.750,A,4308.7345,N,07727.8123,W,41.26,1.05,190919,,,A*49
$GPGGA,142921.000,4308.7374,N,07727.8122,W,1,07,1.47,165.6,M,-34.4,M,,*58
$GPGGA,142921.500,4308.7434,N,07727.8120,W,1,07,1.47,165.5,M,-34.4,M,,*5F
$GPRMC,142921.500,A,4308.7434,N,07727.8120,W,42.57,1.99,190919,,A*4D
$GPRMC,142922.000,A,4308.7495,N,07727.8118,W,43.52,1.77,190919,,,A*4F
$GPGGA,142922.250,4308.7525,N,07727.8116,W,1,07,1.47,165.6,M,-34.4,M,,*59
$GPGGA,142922.750,4308.7587,N,07727.8113,W,1,07,1.47,165.6,M,-34.4,M,,*51
$GPRMC,142922.750,A,4308.7587,N,07727.8113,W,44.45,2.55,190919,,A*46
$GPGGA,142923.250,4308.7649,N,07727.8110,W,1,07,1.47,165.7,M,-34.4,M,,*56
$GPRMC,142923.250,A,4308.7649,N,07727.8110,W,44.60,2.93,190919,,A*4D
$GPGGA,142923.500,4308.7680,N,07727.8109,W,1,07,1.47,165.6,M,-348
$GPGGA,142923.750,4308.7710,N,07727.8107,W,1,07,1.81,165.7,M,-34.4,M,,*52
$GPRMC,142924.250,A,4308.7772,N,07727.8103,W,44.64,2.19,190919,,,A*47
$GPGGA,142924.500,4308.7803,N,07727.8102,W,1,07,1.81,166.0,M,-34.4,M,,*5E
$GPGGA,142925.000,4308.7864,N,07727.8098,W,1,07,1.47,166.3,M,-34.4,M,,*50
$GPRMC,142925.000,A,4308.7864,N,07727.8098,W,44.84,2.16,190919,,A*4B
$GPGGA,142925.500,4308.7925,N,07727.8094,W,1,07,1.47,166.6,M,-34.4,M,,*58
$GPRMC,142925.500,A,4308.7925,N,07727.8094,W,44.65,2.69,190919,,A*41
$GPRMC,142926.000,A,4308.7986,N,07727.8090,W,44.63,2.83,190919,,,A*48
$GPGGA,142926.250,4308.8017,N,07727.8092,W,1,07,1.47,167.1,M,-34.4,M,,*5E
$GPGGA,142926.750,4308.8079,N,07727.8089,W,1,07,1.81,167.3,M,-34.4,M,,*51
$GPRMC,142926.750,A,4308.8079,N,07727.8089,W,44.61,1.03,190919,,,A*4D
$GPGGA,142927.250,4308.8143,N,07727.8086,W,1,07,1.47,167.7,M,-34.4,M,,*5C
$GPRMC,142927.250,A,4308.8143,N,07727.8086,W,44.58,1.10,190919,,A*46
$GPGGA,142927.750,4308.8205,N,07727.8081,W,1,07,1.47,168.0,M,-34.4,M,,*57
$GPRMC,142927.750,A,4308.8205,N,07727.8081,W,44.30,1.42,190919,7,1.47,168.2,M,-34.4,M,,*5F
$GPGGA,142928.500,4308.8300,N,07727.8075,W,1,07,1.81,168.3,M,-34.4,M,,*59
$GPRMC,142928.500,A,4308.8300,N,07727.8075,W,44.59,2.11,190919,,A*41
$GPRMC,142929.000,A,4308.8361,N,07727.8070,W,44.49,2.04,190919,,,A*42
$GPGGA,142929.250,4308.8390,N,07727.8068,W,1,07,1.47,168.9,M,-34.4,M,,*5F
$GPGGA,142929.750,4308.8450,N,07727.8065,W,1,07,1.81,169.2,M,-34.4,M,,*5C
$GPRMC,142929.750,A,4308.8450,N,07727.8065,W,43.98,1.43,190919,,,A*4A
$GPRMC,142930.250,A,4308.8513,N,07727.8062,W,44.30,1.48,190919,,,A*48
$GPGGA,142930.500,4308.8542,N,07727.8061,W,1,07,1.81,169.4,M,-34.4,M,,*53
$GPGGA,142931.000,4308.8602,N,07727.8058,W,1,07,1.47,169.8,M,-34.4,M,,*5C
$GPRMC,142931.000,A,4308.8602,N,07727.8058,W,43.54,1.38,190919,,,A*46
$GPGGA,142931.500,4308.8665,N,07727.8055,W,1,07,1.47,169.5,M,-34.4,M,,*58
$GPRMC,142931.500,A,4308.8665,N,07727.8055,W,43.29,2.42,190919,,A*4B
$GPRMC,142932.000,A,4308.8725,N,07727.8052,W,42.91,1.24,190919,,,A*4E
$GPGGA,142932.250,4308.8755,N,07727.8050,W,1,07,1.47,169.6,M,-34.4,M,,*5D
$GPGGA,142932.750,4308.8817,N,07727.8047,W,1,07,1.47,169.9,M,-34.4,M,,*58
$GPRMC,142932.750,A,4308.8817,N,07727.8047,W,43.59,1.05,190919,,A*40
$GPGGA,142933.000,4308.8848,N,07727.8046,W,1,07,1.47,170.1,M,-3
$GPGGA,142933.250,4308.8879,N,07727.8044,W,1,07,1.47,170.3,M,-34.4,M,,*55
$GPGGA,142933.750,4308.8938,N,07727.8043,W,1,07,1.81,170.6,M,-34.4,M,,*5C
$GPRMC,142933.750,A,4308.8938,N,07727.8043,W,43.40,0.50,190919,,A*40
$GPGGA,142934.000,4308.8968,N,07727.8043,W,1,07,1.47,170.8,M,-
$GPGGA,142934.250,4308.8998,N,07727.8042,W,1,07,1.47,171.0,M,-34.4,M,,*58
$GPGGA,142934.750,4308.9058,N,07727.8039,W,1,07,1.47,171.2,M,-34.4,M,,*57
$GPRMC,142934.750,A,4308.9058,N,07727.8039,W,43.34,1.48,190919,,A*4F
$GPGGA,142935.000,4308.9089,N,07727.8037,W,1,07,1.47,171.4,M,-3
$GPGGA,142935.250,4308.9119,N,07727.8036,W,1,07,1.47,171.5,M,-34.4,M,,*5F
$GPGGA,142935.750,4308.9177,N,07727.8032,W,1,07,1.81,171.8,M,-34.4,M,,*51
$GPRMC,142935.750,A,4308.9177,N,07727.8032,W,43.07,1.72,190919,,,A*40
$GPRMC,142936.250,A,4308.9238,N,07727.8028,W,43.12,1.97,190919,,,A*4A
$GPGGA,142936.500,4308.9269,N,07727.8026,W,1,07,1.81,171.9,M,-34.4,M,,*5D
$GPRMC,142936.500,A,4308.9269,N,07727.8026,W,42.63,2.02,190919,26,190919,,,A*47
$GPGGA,142937.000,4308.9327,N,07727.8021,W,1,07,1.47,172.2,M,-34.4,M,,*57
$GPGGA,142937.500,4308.9383,N,07727.8017,W,1,07,1.47,172.4,M,-34.4,M,,*5F
$GPRMC,142937.500,A,4308.9383,N,07727.8017,W,41.06,1.51,190919,,A*49
$GPRMC,142938.000,A,4308.9437,N,07727.8013,W,40.05,1.94,190919,,,A*44
$GPGGA,142938.250,4308.9462,N,07727.8011,W,1,07,1.81,172.4,M,-34.4,M,,*56
$GPRMC,142938.750,A,4308.9513,N,07727.8007,W,38.66,1.84,190919,,,A*4F
$GPGGA,142939.000,4308.9538,N,07727.8005,W,1,07,1.47,172.6,M,-34.4,M,,*53
$GPGGA,142939.500,4308.9587,N,07727.8001,W,1,07,1.47,172.8,M,-34.4,M,,*58
$GPRMC,142939.500,A,4308.9587,N,07727.8001,W,37.25,2.25,190919,,A*42
$GPGGA,142939.750,4308.9612,N,07727.8000,W,1,07,1.46,172.8,M,-3
$GPGGA,142940.000,4308.9638,N,07727.7998,W,1,07,1.47,172.9,M,-34.4,M,,*53
$GPRMC,142940.500,A,4308.9689,N,07727.7996,W,37.10,2.11,190919,,,A*48
$GPGGA,142940.750,4308.9712,N,07727.7993,W,1,07,1.81,173.0,M,-34.4,M,,*51
$GPGGA,142941.250,4308.9762,N,07727.7990,W,1,07,1.47,173.1,M,-34.4,M,,*5A
$GPRMC,142941.250,A,4308.9762,N,07727.7990,W,36.90,2.57,190919,,,A*42
$GPGGA,142941.500,4308.9786,N,07727.7988,W,1,07,1.81,173.2,M,-3
$GPGGA,142941.750,4308.9810,N,07727.7986,W,1,07,1.47,173.2,M,-34.4,M,,*51
$GPGGA,142942.250,4308.9860,N,07727.7983,W,1,07,1.46,173.4,M,-34.4,M,,*52
$GPRMC,142942.250,A,4308.9860,N,07727.7983,W,37.14,2.18,190919,7,1.46,173.6,M,-34.4,M,,*5A
$GPGGA,142943.000,4308.9936,N,07727.7982,W,1,07,1.46,173.8,M,-34.4,M,,*5B
$GPRMC,142943.000,A,4308.9936,N,07727.7982,W,37.61,1.41,190919,,A*40
$GPGGA,142943.500,4308.9986,N,07727.7982,W,1,07,1.47,174.1,M,-34.4,M,,*5A
$GPRMC,142943.500,A,4308.9986,N,07727.7982,W,37.68,1.43,190919,,A*45
$GPRMC,142944.000,A,4309.0036,N,07727.7979,W,37.42,1.96,190919,,,A*49
$GPGGA,142944.250,4309.0060,N,07727.7978,W,1,07,1.47,174.5,M,-34.4,M,,*57
$GPRMC,142944.750,A,4309.0108,N,07727.7977,W,37.36,1.38,190919,,,A*4E
$GPGGA,142945.000,4309.0132,N,07727.7976,W,1,07,1.46,174.8,M,-34.4,M,,*55
$GPGGA,142945.500,4309.0182,N,07727.7973,W,1,07,1.80,175.0,M,-34.4,M,,*5D
$GPRMC,142945.500,A,4309.0182,N,07727.7973,W,37.40,1.37,190919,,A*40
$GPRMC,142946.000,A,4309.0232,N,07727.7970,W,37.63,1.31,190919,,,A*4A
$GPGGA,142946.250,4309.0258,N,07727.7969,W,1,07,1.46,175.3,M,-34.4,M,,*5A
$GPRMC,142946.750,A,4309.0310,N,07727.7967,W,38.12,1.24,190919,,,A*42
$GPGGA,142947.000,4309.0336,N,07727.7966,W,1,07,1.46,175.7,M,-34.4,M,,*5E
$GPGGA,142947.500,4309.0388,N,07727.7965,W,1,07,1.80,176.0,M,-34.4,M,,*53
$GPRMC,142947.500,A,4309.0388,N,07727.7965,W,38.60,1.04,190919,,,A*40
$GPGGA,142947.750,4309.0415,N,07727.7964,W,1,07,1.80,176.1,M,-
$GPGGA,142948.000,4309.0442,N,07727.7964,W,1,07,1.46,176.2,M,-34.4,M,,*51
$GPGGA,142948.500,4309.0498,N,07727.7962,W,1,07,1.80,176.2,M,-34.4,M,,*5F
$GPRMC,142948.500,A,4309.0498,N,07727.7962,W,39.53,1.34,190919,,A*4C
$GPRMC,142949.000,A,4309.0553,N,07727.7959,W,39.58,1.57,190919,,,A*48
$GPGGA,142949.250,4309.0581,N,07727.7958,W,1,07,1.46,176.5,M,-34.4,M,,*51
$GPGGA,142949.750,4309.0641,N,07727.7956,W,1,07,1.80,176.4,M,-34.4,M,,*5E
$GPRMC,142949.750,A,4309.0641,N,07727.7956,W,39.95,1.08,190919,,A*4E
$GPGGA,142950.000,4309.0670,N,07727.7955,W,1,07,1.46,176.3,M,-
$GPGGA,142950.250,4309.0700,N,07727.7954,W,1,07,1.80,176.3,M,-34.4,M,,*52
$GPGGA,142950.750,4309.0759,N,07727.7953,W,1,07,1.80,176.4,M,-34.4,M,,*5B
$GPRMC,142950.750,A,4309.0759,N,07727.7953,W,40.29,1.23,190919,,A*4B
$GPRMC,142951.250,A,4309.0816,N,07727.7951,W,40.43,1.36,190919,,,A*41
$GPGGA,142951.500,4309.0844,N,07727.7950,W,1,07,1.46,176.3,M,-34.4,M,,*50
$GPGGA,142952.000,4309.0901,N,07727.7950,W,1,07,1.46,176.3,M,-34.4,M,,*56
$GPRMC,142952.000,A,4309.0901,N,07727.7950,W,39.81,0.50,190919,,,A*42
$GPGGA,142952.250,4309.0930,N,07727.7950,W,1,07,1.46,176.3,M,-
$GPGGA,142952.500,4309.0958,N,07727.7950,W,1,07,1.80,176.3,M,-34.4,M,,*55
$GPGGA,142953.000,4309.1012,N,07727.7951,W,1,07,1.46,176.5,M,-34.4,M,,*5A
$GPRMC,142953.000,A,4309.1012,N,07727.7951,W,38.93,359.97,190910,176.5,M,-34.4,M,,*5D
$GPRMC,142953.750,A,4309.1094,N,07727.7954,W,38.57,359.93,190919,,,A*4B
$GPGGA,142954.000,4309.1122,N,07727.7954,W,1,07,1.46,176.5,M,-34.4,M,,*5A
$GPGGA,142954.500,4309.1175,N,07727.7955,W,1,07,1.80,176.5,M,-34.4,M,,*56
$GPRMC,142954.500,A,4309.1175,N,07727.7955,W,37.99,359.49,19091,,,A*4E
$GPRMC,142955.000,A,4309.1228,N,07727.7956,W,37.66,359.44,190919,,,A*4F
$GPGGA,142955.250,4309.1254,N,07727.7956,W,1,07,1.80,176.6,M,-34.4,M,,*55
$GPRMC,142955.750,A,4309.1306,N,07727.7957,W,37.70,359.09,190919,,,A*4F
$GPGGA,142956.000,4309.1333,N,07727.7957,W,1,07,1.46,176.9,M,-34.4,M,,*55
$GPGGA,142956.500,4309.1387,N,07727.7957,W,1,07,1.80,177.2,M,-34.4,M,,*5F
$GPRMC,142956.500,A,4309.1387,N,07727.7957,W,38.09,359.00,19091,,,A*4A
$GPGGA,142956.750,4309.1415,N,07727.7957,W,1,07,1.80,177.3,M,-
$GPGGA,142957.000,4309.1441,N,07727.7957,W,1,07,1.46,177.4,M,-34.4,M,,*5A
$GPGGA,142957.500,4309.1494,N,07727.7956,W,1,07,1.46,177.2,M,-34.4,M,,*50
$GPRMC,142957.500,A,4309.1494,N,07727.7956,W,39.63,0.41,190919,1.80,177.3,M,-34.4,M,,*50
$GPGGA,142958.250,4309.1575,N,07727.7954,W,1,07,1.46,177.6,M,-34.4,M,,*55
$GPRMC,142958.250,A,4309.1575,N,07727.7954,W,39.38,0.71,190919,,,A*44
$GPGGA,142958.500,4309.1599,N,07727.7952,W,1,07,1.46,177.6,M,-3
$GPGGA,142958.750,4309.1622,N,07727.7950,W,1,07,1.80,177.7,M,-34.4,M,,*5E
$GPGGA,142959.250,4309.1670,N,07727.7945,W,1,07,1.46,177.8,M,-34.4,M,,*5C
$GPRMC,142959.250,A,4309.1670,N,07727.7945,W,36.84,2.27,190919,,,A*4A
$GPRMC,142959.750,A,4309.1719,N,07727.7943,W,36.58,1.74,190919,,,A*43
$GPGGA,143000.000,4309.1745,N,07727.7943,W,1,07,1.46,178.2,M,-34.4,M,,*5B
$GPGGA,143000.500,4309.1796,N,07727.7943,W,1,07,1.80,178.4,M,-34.4,M,,*5C
$GPRMC,143000.500,A,4309.1796,N,07727.7943,W,36.45,359.92,19091,,,A*4D
$GPRMC,143001.000,A,4309.1845,N,07727.7943,W,35.87,0.01,190919,,,A*40
$GPGGA,143001.250,4309.1867,N,07727.7943,W,1,07,1.46,178.6,M,-34.4,M,,*56
$GPGGA,143001.750,4309.1912,N,07727.7941,W,1,07,1.80,178.7,M,-34.4,M,,*59
$GPRMC,143001.750,A,4309.1912,N,07727.7941,W,34.89,0.86,190919,W,1,07,1.46,178.7,M,-34.4,M,,*57
$GPGGA,143002.500,4309.1980,N,07727.7940,W,1,07,1.80,178.7,M,-34.4,M,,*57
$GPRMC,143002.500,A,4309.1980,N,07727.7940,W,35.24,1.21,190919,,A*47
$GPRMC,143003.000,A,4309.2026,N,07727.7940,W,35.78,0.76,190919,,,A*4F
$GPGGA,143003.250,4309.2051,N,07727.7939,W,1,07,1.46,178.8,M,-34.4,M,,*59
$GPGGA,143003.750,4309.2101,N,07727.7938,W,1,07,1.80,178.9,M,-34.4,M,,*52
$GPRMC,143003.750,A,4309.2101,N,07727.7938,W,37.44,0.88,190919,,,A*4A
$GPRMC,143004.250,A,4309.2153,N,07727.7936,W,38.01,1.06,190919,,,A*48
$GPGGA,143004.500,4309.2178,N,07727.7936,W,1,07,1.80,179.1,M,-34.4,M,,*5B
$GPGGA,143005.000,4309.2232,N,07727.7935,W,1,07,1.46,179.4,M,-34.4,M,,*5E
$GPRMC,143005.000,A,4309.2232,N,07727.7935,W,38.82,0.91,190919,,A*4D
$GPRMC,143005.500,A,4309.2286,N,07727.7934,W,38.94,0.56,190919,,,A*4A
$GPGGA,143005.750,4309.2314,N,07727.7934,W,1,07,1.79,179.8,M,-34.4,M,,*58
$GPGGA,143006.250,4309.2369,N,07727.7933,W,1,07,1.46,180.1,M,-34.4,M,,*50
$GPRMC,143006.250,A,4309.2369,N,07727.7933,W,39.18,0.26,190919,9,180.3,M,-34.4,M,,*5D
$GPGGA,143007.000,4309.2451,N,07727.7929,W,1,07,1.46,180.6,M,-34.4,M,,*56
$GPRMC,143007.000,A,4309.2451,N,07727.7929,W,39.41,0.94,190919,,,A*4A
$GPRMC,143007.500,A,4309.2506,N,07727.7928,W,39.45,0.49,190919,,,A*49
$GPGGA,143007.750,4309.2534,N,07727.7928,W,1,07,1.46,181.0,M,-34.4,M,,*50
$GPGGA,143008.250,4309.2586,N,07727.7926,W,1,07,1.46,181.3,M,-34.4,M,,*5E
$GPRMC,143008.250,A,4309.2586,N,07727.7926,W,39.05,0.80,190919,,,A*43
