Vers 57
USE_SERIAL_FEEDBACK=false
DEVELOPMENT_MODE=false
USE_RMC_ONLY=false

$GPRMC,142212.200,A,4308.2981,N,07726.2623,W,0.00,148.34,020519,,,D*74
$GPGGA,142212.400,4308.2981,N,07726.2623,W,2,08,1.06,151.2,M,-34.4,M,0000,0000*55
lng=-77.437705, lat=43.138305, altitude=151.10, speed=0.00, satellites=8, angle=148.3400, fixquality=2
$GPRMC,142212.600,A,4308.2981,N,07726.2623,W,0.00,148.34,020519,,,D*70
$GPGGA,142212.800,4308.2981,N,07726.2623,W,2,08,1.06,151.2,M,-34.4,M,0000,0000*59
lng=-77.437705, lat=43.138305, altitude=151.20, speed=0.00, satellites=8, angle=148.3400, fixquality=2
$GPRMC,142213.000,A,4308.2981,N,07726.2623,W,0.00,148.34,020519,,,D*77
$GPGGA,142213.200,4308.2981,N,07726.2623,W,2,08,1.06,151.2,M,-34.4,M,0000,0000*52
lng=-77.437705, lat=43.138305, altitude=151.20, speed=0.00, satellites=8, angle=148.3400, fixquality=2
$GPRMC,142213.400,A,4308.2981,N,07726.2623,W,0.00,148.34,020519,,,D*73
$GPGGA,142213.600,4308.2981,N,07726.2623,W,2,08,1.06,151.2,M,-34.4,M,0000,0000*56
lng=-77.437705, lat=43.138305, altitude=151.20, speed=0.00, satellites=8, angle=148.3400, fixquality=2
$GPRMC,142213.800,A,4308.2981,N,07726.2623,W,0.00,148.34,020519,,,D*7F
$GPGGA,142214.000,4308.2981,N,07726.2623,W,2,08,1.06,151.2,M,-34.4,M,0000,0000*57
lng=-77.437705, lat=43.138305, altitude=151.20, speed=0.00, satellites=8, angle=148.3400, fixquality=2
$GPRMC,142214.200,A,4308.2981,N,07726.2623,W,0.00,148.34,020519,,,D*72
$GPGGA,142214.400,4308.2981,N,07726.2623,W,2,08,1.06,151.2,M,-34.4,M,0000,0000*53
lng=-77.437705, lat=43.138305, altitude=151.20, speed=0.00, satellites=8, angle=148.3400, fixquality=2
$GPRMC,142214.600,A,4308.2981,N,07726.2623,W,0.00,148.34,020519,,,D*76
$GPGGA,142214.800,4308.2981,N,07726.2623,W,2,08,1.06,151.2,M,-34.4,M,0000,0000*5F
lng=-77.437705, lat=43.138305, altitude=151.20, speed=0.00, satellites=8, angle=148.3400, fixquality=2
$GPRMC,142215.000,A,4308.2981,N,07726.2623,W,0.00,148.34,020519,,,D*71
$GPGGA,142215.200,4308.2981,N,07726.2623,W,2,08,1.06,151.2,M,-34.4,M,0000,0000*54
lng=-77.437705, lat=43.138305, altitude=151.20, speed=0.00, satellites=8, angle=148.3400, fixquality=2
$GPRMC,142215.400,A,4308.2981,N,07726.2623,W,0.00,148.34,020519,,,D*75
$GPGGA,142215.600,4308.2981,N,07726.2623,W,2,08,1.06,151.2,M,-34.4,M,0000,0000*50
lng=-77.437705, lat=43.138305, altitude=151.20, speed=0.00, satellites=8, angle=148.3400, fixquality=2
$GPRMC,142215.800,A,4308.2981,N,07726.2623,W,0.00,148.34,020519,,,D*79
$GPGGA,142216.000,4308.2981,N,07726.2623,W,2,08,1.06,151.2,M,-34.4,M,0000,0000*55
lng=-77.437705, lat=43.138305, altitude=151.20, speed=0.00, satellites=8, angle=148.3400, fixquality=2
$GPRMC,142216.200,A,4308.2981,N,07726.2623,W,0.00,148.34,020519,,,D*70
$GPGGA,142216.400,4308.2981,N,07726.2623,W,2,08,1.06,151.2,M,-34.4,M,0000,0000*51
lng=-77.437705, lat=43.138305, altitude=151.20, speed=0.00, satellites=8, angle=148.3400, fixquality=2
$GPRMC,142216.600,A,4308.2981,N,07726.2623,W,0.00,148.34,020519,,,D*74
$GPGGA,142216.800,4308.2981,N,07726.2623,W,2,08,1.06,151.2,M,-34.4,M,0000,0000*5D
lng=-77.437705, lat=43.138305, altitude=151.20, speed=0.00, satellites=8, angle=148.3400, fixquality=2
$GPRMC,142217.000,A,4308.2981,N,07726.2623,W,0.00,148.34,020519,,,D*73
$GPGGA,142217.200,4308.2981,N,07726.2623,W,2,08,1.06,151.2,M,-34.4,M,0000,0000*56
lng=-77.437705, lat=43.138305, altitude=151.20, speed=0.00, satellites=8, angle=148.3400, fixquality=2
$GPRMC,142217.400,A,4308.2981,N,07726.2623,W,0.00,148.34,020519,,,D*77
$GPGGA,142217.600,4308.2981,N,07726.2623,W,2,07,1.09,151.2,M,-34.4,M,0000,0000*52
lng=-77.437705, lat=43.138305, altitude=151.20, speed=0.00, satellites=8, angle=148.3400, fixquality=2
$GPRMC,142217.800,A,4308.2981,N,07726.2623,W,0.00,148.34,020519,,,D*7B
$GPGGA,142218.000,4308.2981,N,07726.2623,W,2,08,1.06,151.2,M,-34.4,M,0000,0000*5B
lng=-77.437705, lat=43.138305, altitude=151.20, speed=0.00, satellites=7, angle=148.3400, fixquality=2
$GPRMC,142218.200,A,4308.2981,N,07726.2623,W,0.00,148.34,020519,,,D*7E
$GPGGA,142218.400,4308.2981,N,07726.2623,W,2,07,1.28,151.2,M,-34.4,M,0000,0000*5C
lng=-77.437705, lat=43.138305, altitude=151.20, speed=0.00, satellites=8, angle=148.3400, fixquality=2
$GPRMC,142218.600,A,4308.2981,N,07726.2623,W,0.00,148.34,020519,,,D*7A
$GPGGA,142218.800,4308.2981,N,07726.2623,W,2,08,1.06,151.2,M,-34.4,M,0000,0000*53
lng=-77.437705, lat=43.138305, altitude=151.20, speed=0.00, satellites=7, angle=148.3400, fixquality=2
$GPRMC,142219.000,A,4308.2981,N,07726.2623,W,0.01,148.34,020519,,,D*7C
$GPGGA,142219.200,4308.2981,N,07726.2623,W,2,08,1.06,151.2,M,-34.4,M,0000,0000*58
lng=-77.437705, lat=43.138305, altitude=151.20, speed=0.01, satellites=8, angle=148.3400, fixquality=2
$GPRMC,142219.400,A,4308.2981,N,07726.2623,W,0.00,148.34,020519,,,D*79
$GPGGA,142219.600,4308.2981,N,07726.2623,W,2,07,1.29,151.2,M,-34.4,M,0000,0000*5E
lng=-77.437705, lat=43.138305, altitude=151.20, speed=0.00, satellites=8, angle=148.3400, fixquality=2
$GPRMC,142219.800,A,4308.2981,N,07726.2623,W,0.00,148.34,020519,,,D*75
$GPGGA,142220.000,4308.2981,N,07726.2623,W,2,07,1.28,151.2,M,-34.4,M,0000,0000*53
lng=-77.437705, lat=43.138305, altitude=151.20, speed=0.00, satellites=7, angle=148.3400, fixquality=2
$GPRMC,142220.200,A,4308.2981,N,07726.2623,W,0.00,148.34,020519,,,D*75
$GPGGA,142220.400,4308.2981,N,07726.2623,W,2,08,1.06,151.2,M,-34.4,M,0000,0000*54
lng=-77.437705, lat=43.138305, altitude=151.20, speed=0.00, satellites=7, angle=148.3400, fixquality=2
$GPRMC,142220.600,A,4308.2981,N,07726.2623,W,0.00,148.34,020519,,,D*71
$GPGGA,142220.800,4308.2981,N,07726.2623,W,2,07,1.29,151.2,M,-34.4,M,0000,0000*5A
lng=-77.437705, lat=43.138305, altitude=151.20, speed=0.00, satellites=8, angle=148.3400, fixquality=2
$GPRMC,142221.000,A,4308.2981,N,07726.2623,W,0.00,148.34,020519,,,D*76
$GPGGA,142221.200,4308.2981,N,07726.2623,W,2,08,1.06,151.2,M,-34.4,M,0000,0000*53
lng=-77.437705, lat=43.138305, altitude=151.20, speed=0.00, satellites=7, angle=148.3400, fixquality=2
$GPRMC,142221.400,A,4308.2981,N,07726.2623,W,0.00,148.34,020519,,,D*72
$GPGGA,142221.600,4308.2981,N,07726.2623,W,2,08,1.06,151.2,M,-34.4,M,0000,0000*57
lng=-77.437705, lat=43.138305, altitude=151.20, speed=0.00, satellites=8, angle=148.3400, fixquality=2
$GPRMC,142221.800,A,4308.2981,N,07726.2623,W,0.00,148.34,020519,,,D*7E
$GPGGA,142222.000,4308.2981,N,07726.2623,W,2,08,1.06,151.2,M,-34.4,M,0000,0000*52
lng=-77.437705, lat=43.138305, altitude=151.20, speed=0.00, satellites=8, angle=148.3400, fixquality=2
$GPRMC,142222.200,A,4308.2981,N,07726.2623,W,0.01,148.34,020519,,,D*76
$GPGGA,142222.400,4308.2981,N,07726.2623,W,2,08,1.06,151.2,M,-34.4,M,0000,0000*56
lng=-77.437705, lat=43.138305, altitude=151.20, speed=0.01, satellites=8, angle=148.3400, fixquality=2
$GPRMC,142222.600,A,4308.2981,N,07726.2623,W,0.00,148.34,020519,,,D*73
$GPGGA,142222.800,4308.2981,N,07726.2623,W,2,08,1.06,151.2,M,-34.4,M,0000,0000*5A
lng=-77.437705, lat=43.138305, altitude=151.20, speed=0.00, satellites=8, angle=148.3400, fixquality=2
$GPRMC,142223.000,A,4308.2981,N,07726.2623,W,0.00,148.34,020519,,,D*74
$GPGGA,142223.200,4308.2981,N,07726.2623,W,2,08,1.06,151.2,M,-34.4,M,0000,0000*51
lng=-77.437705, lat=43.138305, altitude=151.20, speed=0.00, satellites=8, angle=148.3400, fixquality=2
$GPRMC,142223.400,A,4308.2981,N,07726.2623,W,0.00,148.34,020519,,,D*70
$GPGGA,142223.600,4308.2981,N,07726.2623,W,2,08,1.06,151.2,M,-34.4,M,0000,0000*55
lng=-77.437705, lat=43.138305, altitude=151.20, speed=0.00, satellites=8, angle=148.3400, fixquality=2
$GPRMC,142223.800,A,4308.2981,N,07726.2623,W,0.00,148.34,020519,,,D*7C
$GPGGA,142224.000,4308.2981,N,07726.2623,W,2,08,1.06,151.2,M,-34.4,M,0000,0000*54
lng=-77.437705, lat=43.138305, altitude=151.20, speed=0.00, satellites=8, angle=148.3400, fixquality=2
$GPRMC,142224.200,A,4308.2981,N,07726.2623,W,0.00,148.34,020519,,,D*71
$GPGGA,142224.400,4308.2981,N,07726.2623,W,2,08,1.06,151.2,M,-34.4,M,0000,0000*50
lng=-77.437705, lat=43.138305, altitude=151.20, speed=0.00, satellites=8, angle=148.3400, fixquality=2
$GPRMC,142224.600,A,4308.2981,N,07726.2623,W,0.00,148.34,020519,,,D*75
$GPGGA,142224.800,4308.2981,N,07726.2623,W,2,08,1.06,151.2,M,-34.4,M,0000,0000*5C
lng=-77.437705, lat=43.138305, altitude=151.20, speed=0.00, satellites=8, angle=148.3400, fixquality=2
$GPRMC,142225.000,A,4308.2981,N,07726.2623,W,0.00,148.34,020519,,,D*72
$GPGGA,142225.200,4308.2981,N,07726.2623,W,2,08,1.06,151.2,M,-34.4,M,0000,0000*57
lng=-77.437705, lat=43.138305, altitude=151.20, speed=0.00, satellites=8, angle=148.3400, fixquality=2
$GPRMC,142225.400,A,4308.2981,N,07726.2623,W,0.00,148.34,020519,,,D*76
$GPGGA,142225.600,4308.2981,N,07726.2623,W,2,08,1.06,151.2,M,-34.4,M,0000,0000*53
lng=-77.437705, lat=43.138305, altitude=151.20, speed=0.00, satellites=8, angle=148.3400, fixquality=2
$GPRMC,142225.800,A,4308.2981,N,07726.2623,W,0.00,148.34,020519,,,D*7A
$GPGGA,142226.000,4308.2981,N,07726.2623,W,2,08,1.06,151.2,M,-34.4,M,0000,0000*56
lng=-77.437705, lat=43.138305, altitude=151.20, speed=0.00, satellites=8, angle=148.3400, fixquality=2
$GPRMC,142226.200,A,4308.2981,N,07726.2623,W,0.01,148.34,020519,,,D*72
$GPGGA,142226.400,4308.2981,N,07726.2623,W,2,08,1.06,151.2,M,-34.4,M,0000,0000*52
lng=-77.437705, lat=43.138305, altitude=151.20, speed=0.01, satellites=8, angle=148.3400, fixquality=2
$GPRMC,142226.600,A,4308.2981,N,07726.2623,W,0.00,148.34,020519,,,D*77
$GPGGA,142226.800,4308.2981,N,07726.2623,W,2,08,1.06,151.2,M,-34.4,M,0000,0000*5E
lng=-77.437705, lat=43.138305, altitude=151.20, speed=0.00, satellites=8, angle=148.3400, fixquality=2
$GPRMC,142227.000,A,4308.2981,N,07726.2623,W,0.00,148.34,020519,,,D*70
$GPGGA,142227.200,4308.2981,N,07726.2623,W,2,08,1.06,151.2,M,-34.4,M,0000,0000*55
lng=-77.437705, lat=43.138305, altitude=151.20, speed=0.00, satellites=8, angle=148.3400, fixquality=2
$GPRMC,142227.400,A,4308.2981,N,07726.2623,W,0.00,148.34,020519,,,D*74
$GPGGA,142227.600,4308.2981,N,07726.2623,W,2,08,1.06,151.2,M,-34.4,M,0000,0000*51
lng=-77.437705, lat=43.138305, altitude=151.20, speed=0.00, satellites=8, angle=148.3400, fixquality=2
$GPRMC,142227.800,A,4308.2981,N,07726.2623,W,0.00,148.34,020519,,,D*78
$GPGGA,142228.000,4308.2981,N,07726.2623,W,2,08,1.06,151.2,M,-34.4,M,0000,0000*58
lng=-77.437705, lat=43.138305, altitude=151.20, speed=0.00, satellites=8, angle=148.3400, fixquality=2
$GPRMC,142228.200,A,4308.2981,N,07726.2623,W,0.00,148.34,020519,,,D*7D
$GPGGA,142228.400,4308.2981,N,07726.2623,W,2,08,1.06,151.2,M,-34.4,M,0000,0000*5C
lng=-77.437705, lat=43.138305, altitude=151.20, speed=0.00, satellites=8, angle=148.3400, fixquality=2
$GPRMC,142228.600,A,4308.2981,N,07726.2623,W,0.00,148.34,020519,,,D*79
$GPGGA,142228.800,4308.2981,N,07726.2623,W,2,08,1.06,151.2,M,-34.4,M,0000,0000*50
lng=-77.437705, lat=43.138305, altitude=151.20, speed=0.00, satellites=8, angle=148.3400, fixquality=2
$GPRMC,142229.000,A,4308.2981,N,07726.2623,W,0.00,148.34,020519,,,D*7E
$GPGGA,142229.200,4308.2981,N,07726.2623,W,2,08,1.06,151.2,M,-34.4,M,0000,0000*5B
lng=-77.437705, lat=43.138305, altitude=151.20, speed=0.00, satellites=8, angle=148.3400, fixquality=2
$GPRMC,142229.400,A,4308.2981,N,07726.2623,W,0.00,148.34,020519,,,D*7A
$GPGGA,142229.600,4308.2981,N,07726.2623,W,2,08,1.06,151.2,M,-34.4,M,0000,0000*5F
lng=-77.437705, lat=43.138305, altitude=151.20, speed=0.00, satellites=8, angle=148.3400, fixquality=2
$GPRMC,142229.800,A,4308.2981,N,07726.2623,W,0.00,148.34,020519,,,D*76
$GPGGA,142230.000,4308.2981,N,07726.2623,W,2,08,1.06,151.2,M,-34.4,M,0000,0000*51
lng=-77.437705, lat=43.138305, altitude=151.20, speed=0.00, satellites=8, angle=148.3400, fixquality=2
$GPRMC,142230.200,A,4308.2981,N,07726.2623,W,0.00,148.34,020519,,,D*74
$GPGGA,142230.400,4308.2981,N,07726.2623,W,2,08,1.06,151.2,M,-34.4,M,0000,0000*55
lng=-77.437705, lat=43.138305, altitude=151.20, speed=0.00, satellites=8, angle=148.3400, fixquality=2
$GPRMC,142230.600,A,4308.2981,N,07726.2623,W,0.00,148.34,020519,,,D*70
$GPGGA,142230.800,4308.2981,N,07726.2623,W,2,08,1.06,151.2,M,-34.4,M,0000,0000*59
lng=-77.437705, lat=43.138305, altitude=151.20, speed=0.00, satellites=8, angle=148.3400, fixquality=2
$GPRMC,142231.000,A,4308.2981,N,07726.2623,W,0.00,148.34,020519,,,D*77
$GPGGA,142231.200,4308.2981,N,07726.2623,W,2,08,1.06,151.2,M,-34.4,M,0000,0000*52
lng=-77.437705, lat=43.138305, altitude=151.20, speed=0.00, satellites=8, angle=148.3400, fixquality=2
$GPRMC,142231.400,A,4308.2981,N,07726.2623,W,0.00,148.34,020519,,,D*73
$GPGGA,142231.600,4308.2981,N,07726.2623,W,2,08,1.06,151.2,M,-34.4,M,0000,0000*56
lng=-77.437705, lat=43.138305, altitude=151.20, speed=0.00, satellites=8, angle=148.3400, fixquality=2
$GPRMC,142231.800,A,4308.2981,N,07726.2623,W,0.00,148.34,020519,,,D*7F
$GPGGA,142232.000,4308.2981,N,07726.2623,W,2,08,1.06,151.2,M,-34.4,M,0000,0000*53
lng=-77.437705, lat=43.138305, altitude=151.20, speed=0.00, satellites=8, angle=148.3400, fixquality=2
$GPRMC,142232.200,A,4308.2981,N,07726.2623,W,0.00,148.34,020519,,,D*76
$GPGGA,142232.400,4308.2981,N,07726.2623,W,2,08,1.06,151.2,M,-34.4,M,0000,0000*57
lng=-77.437705, lat=43.138305, altitude=151.20, speed=0.00, satellites=8, angle=148.3400, fixquality=2
$GPRMC,142232.600,A,4308.2981,N,07726.2623,W,0.00,148.34,020519,,,D*72
$GPGGA,142232.800,4308.2981,N,07726.2623,W,2,08,1.06,151.2,M,-34.4,M,0000,0000*5B
lng=-77.437705, lat=43.138305, altitude=151.20, speed=0.00, satellites=8, angle=148.3400, fixquality=2
$GPRMC,142233.000,A,4308.2981,N,07726.2623,W,0.00,148.34,020519,,,D*75
$GPGGA,142233.200,4308.2981,N,07726.2623,W,2,08,1.06,151.2,M,-34.4,M,0000,0000*50
lng=-77.437705, lat=43.138305, altitude=151.20, speed=0.00, satellites=8, angle=148.3400, fixquality=2
$GPRMC,142233.400,A,4308.2981,N,07726.2623,W,0.01,148.34,020519,,,D*70
$GPGGA,142233.600,4308.2981,N,07726.2623,W,2,08,1.06,151.2,M,-34.4,M,0000,0000*54
lng=-77.437705, lat=43.138305, altitude=151.20, speed=0.01, satellites=8, angle=148.3400, fixquality=2
$GPRMC,142233.800,A,4308.2981,N,07726.2623,W,0.00,148.34,020519,,,D*7D
$GPGGA,142234.000,4308.2981,N,07726.2623,W,2,08,1.06,151.2,M,-34.4,M,0000,0000*55
lng=-77.437705, lat=43.138305, altitude=151.20, speed=0.00, satellites=8, angle=148.3400, fixquality=2
$GPRMC,142234.200,A,4308.2981,N,07726.2623,W,0.00,148.34,020519,,,D*70
$GPGGA,142234.400,4308.2981,N,07726.2623,W,2,08,1.06,151.2,M,-34.4,M,0000,0000*51
lng=-77.437705, lat=43.138305, altitude=151.20, speed=0.00, satellites=8, angle=148.3400, fixquality=2
$GPRMC,142234.600,A,4308.2981,N,07726.2623,W,0.00,148.34,020519,,,D*74
$GPGGA,142234.800,4308.2981,N,07726.2623,W,2,08,1.06,151.2,M,-34.4,M,0000,0000*5D
lng=-77.437705, lat=43.138305, altitude=151.20, speed=0.00, satellites=8, angle=148.3400, fixquality=2
$GPRMC,142235.000,A,4308.2981,N,07726.2623,W,0.01,148.34,020519,,,D*72
$GPGGA,142235.200,4308.2981,N,07726.2623,W,2,07,1.29,151.2,M,-34.4,M,0000,0000*54
lng=-77.437705, lat=43.138305, altitude=151.20, speed=0.01, satellites=8, angle=148.3400, fixquality=2
$GPRMC,142235.400,A,4308.2981,N,07726.2623,W,0.00,148.34,020519,,,D*77
$GPGGA,142235.600,4308.2981,N,07726.2623,W,2,07,1.29,151.2,M,-34.4,M,0000,0000*50
lng=-77.437705, lat=43.138305, altitude=151.20, speed=0.00, satellites=7, angle=148.3400, fixquality=2
$GPRMC,142235.800,A,4308.2981,N,07726.2623,W,0.01,148.34,020519,,,D*7A
$GPGGA,142236.000,4308.2981,N,07726.2623,W,2,08,1.06,151.2,M,-34.4,M,0000,0000*57
lng=-77.437705, lat=43.138305, altitude=151.20, speed=0.01, satellites=7, angle=148.3400, fixquality=2
$GPRMC,142236.200,A,4308.2981,N,07726.2623,W,0.03,148.34,020519,,,D*71
$GPGGA,142236.400,4308.2981,N,07726.2623,W,2,07,1.29,151.2,M,-34.4,M,0000,0000*51
lng=-77.437705, lat=43.138305, altitude=151.20, speed=0.03, satellites=8, angle=148.3400, fixquality=2
$GPRMC,142236.600,A,4308.2981,N,07726.2623,W,0.02,148.34,020519,,,D*74
$GPGGA,142236.800,4308.2981,N,07726.2623,W,2,07,1.29,151.2,M,-34.4,M,0000,0000*5D
lng=-77.437705, lat=43.138305, altitude=151.20, speed=0.02, satellites=7, angle=148.3400, fixquality=2
$GPRMC,142237.000,A,4308.2981,N,07726.2623,W,0.03,148.34,020519,,,D*72
$GPGGA,142237.200,4308.2981,N,07726.2623,W,2,08,1.06,151.2,M,-34.4,M,0000,0000*54
lng=-77.437705, lat=43.138305, altitude=151.20, speed=0.03, satellites=7, angle=148.3400, fixquality=2
$GPRMC,142237.400,A,4308.2981,N,07726.2623,W,0.03,148.34,020519,,,D*76
$GPGGA,142237.600,4308.2981,N,07726.2623,W,2,08,1.02,151.2,M,-34.4,M,0000,0000*54
lng=-77.437705, lat=43.138305, altitude=151.20, speed=0.03, satellites=8, angle=148.3400, fixquality=2
$GPRMC,142237.800,A,4308.2981,N,07726.2623,W,0.22,148.34,020519,,,D*79
$GPGGA,142238.000,4308.2981,N,07726.2623,W,2,08,1.02,151.2,M,-34.4,M,0000,0000*5D
lng=-77.437705, lat=43.138305, altitude=151.20, speed=0.22, satellites=8, angle=148.3400, fixquality=2
$GPRMC,142238.200,A,4308.2981,N,07726.2623,W,0.46,148.34,020519,,,D*7E
$GPGGA,142238.400,4308.2982,N,07726.2624,W,2,08,1.02,151.2,M,-34.4,M,0000,0000*5D
lng=-77.437705, lat=43.138305, altitude=151.20, speed=0.46, satellites=8, angle=148.3400, fixquality=2
$GPRMC,142238.600,A,4308.2982,N,07726.2624,W,0.70,148.34,020519,,,D*7B
$GPGGA,142238.800,4308.2984,N,07726.2624,W,2,08,1.02,151.2,M,-34.4,M,0000,0000*57
lng=-77.437705, lat=43.138305, altitude=151.20, speed=0.70, satellites=8, angle=148.3400, fixquality=2
$GPRMC,142239.000,A,4308.2986,N,07726.2624,W,1.05,341.14,020519,,,D*72
$GPGGA,142239.200,4308.2988,N,07726.2625,W,2,08,1.02,151.2,M,-34.4,M,0000,0000*51
lng=-77.437705, lat=43.138313, altitude=151.20, speed=1.05, satellites=8, angle=341.1400, fixquality=2
$GPRMC,142239.400,A,4308.2989,N,07726.2625,W,2.08,347.79,020519,,,D*7B
$GPGGA,142239.600,4308.2992,N,07726.2625,W,2,08,1.06,151.2,M,-34.4,M,0000,0000*5A
lng=-77.437713, lat=43.138313, altitude=151.20, speed=2.08, satellites=8, angle=347.7900, fixquality=2
$GPRMC,142239.800,A,4308.2995,N,07726.2626,W,2.97,355.22,020519,,,D*72
$GPGGA,142240.000,4308.2999,N,07726.2627,W,2,08,1.06,151.3,M,-34.4,M,0000,0000*5A
lng=-77.437713, lat=43.138320, altitude=151.20, speed=2.97, satellites=8, angle=355.2200, fixquality=2
$GPRMC,142240.200,A,4308.3003,N,07726.2629,W,3.35,359.33,020519,,,D*7B
$GPGGA,142240.400,4308.3006,N,07726.2631,W,2,08,1.06,151.3,M,-34.4,M,0000,0000*57
lng=-77.437713, lat=43.138339, altitude=151.30, speed=3.35, satellites=8, angle=359.3300, fixquality=2
$GPRMC,142240.600,A,4308.3009,N,07726.2633,W,3.41,4.23,020519,,,D*77
$GPGGA,142240.800,4308.3012,N,07726.2635,W,2,08,1.06,151.5,M,-34.4,M,0000,0000*5C
lng=-77.437721, lat=43.138347, altitude=151.30, speed=3.41, satellites=8, angle=4.2300, fixquality=2
$GPRMC,142241.000,A,4308.3014,N,07726.2635,W,3.37,6.98,020519,,,D*79
$GPGGA,142241.200,4308.3016,N,07726.2635,W,2,08,1.06,151.6,M,-34.4,M,0000,0000*50
lng=-77.437728, lat=43.138355, altitude=151.50, speed=3.37, satellites=8, angle=6.9800, fixquality=2
$GPRMC,142241.400,A,4308.3019,N,07726.2635,W,3.34,6.73,020519,,,D*76
$GPGGA,142241.600,4308.3021,N,07726.2635,W,2,08,1.06,151.6,M,-34.4,M,0000,0000*50
lng=-77.437728, lat=43.138362, altitude=151.60, speed=3.34, satellites=8, angle=6.7300, fixquality=2
$GPRMC,142241.800,A,4308.3024,N,07726.2635,W,3.36,3.55,020519,,,D*77
$GPGGA,142242.000,4308.3027,N,07726.2634,W,2,08,1.06,151.6,M,-34.4,M,0000,0000*52
lng=-77.437728, lat=43.138370, altitude=151.60, speed=3.36, satellites=8, angle=3.5500, fixquality=2
$GPRMC,142242.200,A,4308.3029,N,07726.2634,W,3.65,3.66,020519,,,D*74
$GPGGA,142242.400,4308.3032,N,07726.2634,W,2,08,1.06,151.7,M,-34.4,M,0000,0000*53
lng=-77.437721, lat=43.138378, altitude=151.60, speed=3.65, satellites=8, angle=3.6600, fixquality=2
$GPRMC,142242.600,A,4308.3035,N,07726.2634,W,4.02,1.14,020519,,,D*7C
$GPGGA,142242.800,4308.3038,N,07726.2634,W,2,08,1.06,151.7,M,-34.4,M,0000,0000*55
lng=-77.437721, lat=43.138393, altitude=151.70, speed=4.02, satellites=8, angle=1.1400, fixquality=2
$GPRMC,142243.000,A,4308.3041,N,07726.2634,W,4.56,1.15,020519,,,D*78
$GPGGA,142243.200,4308.3044,N,07726.2634,W,2,08,1.06,151.7,M,-34.4,M,0000,0000*55
lng=-77.437721, lat=43.138404, altitude=151.70, speed=4.56, satellites=8, angle=1.1500, fixquality=2
$GPRMC,142243.400,A,4308.3047,N,07726.2634,W,4.83,3.80,020519,,,D*7C
$GPGGA,142243.600,4308.3050,N,07726.2635,W,2,08,1.06,151.9,M,-34.4,M,0000,0000*5B
lng=-77.437721, lat=43.138412, altitude=151.70, speed=4.83, satellites=8, angle=3.8000, fixquality=2
$GPRMC,142243.800,A,4308.3054,N,07726.2634,W,5.36,5.30,020519,,,D*70
$GPGGA,142244.000,4308.3057,N,07726.2635,W,2,08,1.06,151.9,M,-34.4,M,0000,0000*5D
lng=-77.437721, lat=43.138420, altitude=151.90, speed=5.36, satellites=8, angle=5.3000, fixquality=2
$GPRMC,142244.200,A,4308.3060,N,07726.2634,W,5.35,4.75,020519,,,D*79
$GPGGA,142244.400,4308.3064,N,07726.2634,W,2,08,1.06,152.0,M,-34.4,M,0000,0000*52
lng=-77.437721, lat=43.138435, altitude=151.90, speed=5.35, satellites=8, angle=4.7500, fixquality=2
$GPRMC,142244.600,A,4308.3067,N,07726.2633,W,5.34,7.31,020519,,,D*7F
$GPGGA,142244.800,4308.3070,N,07726.2633,W,2,08,1.06,152.0,M,-34.4,M,0000,0000*5C
lng=-77.437721, lat=43.138442, altitude=152.00, speed=5.34, satellites=8, angle=7.3100, fixquality=2
$GPRMC,142245.000,A,4308.3073,N,07726.2633,W,5.32,7.89,020519,,,D*78
$GPGGA,142245.200,4308.3076,N,07726.2633,W,2,08,1.06,152.0,M,-34.4,M,0000,0000*51
lng=-77.437721, lat=43.138450, altitude=152.00, speed=5.32, satellites=8, angle=7.8900, fixquality=2
$GPRMC,142245.400,A,4308.3079,N,07726.2632,W,4.97,8.46,020519,,,D*75
$GPGGA,142245.600,4308.3082,N,07726.2632,W,2,08,1.06,152.0,M,-34.4,M,0000,0000*5F
lng=-77.437721, lat=43.138469, altitude=152.00, speed=4.97, satellites=8, angle=8.4600, fixquality=2
$GPRMC,142245.800,A,4308.3085,N,07726.2632,W,4.42,8.30,020519,,,D*73
$GPGGA,142246.000,4308.3088,N,07726.2634,W,2,08,1.06,152.0,M,-34.4,M,0000,0000*56
lng=-77.437721, lat=43.138477, altitude=152.00, speed=4.42, satellites=8, angle=8.3000, fixquality=2
$GPRMC,142246.200,A,4308.3091,N,07726.2637,W,4.11,9.49,020519,,,D*73
$GPGGA,142246.400,4308.3093,N,07726.2636,W,2,08,1.06,152.0,M,-34.4,M,0000,0000*5A
lng=-77.437728, lat=43.138484, altitude=152.00, speed=4.11, satellites=8, angle=9.4900, fixquality=2
$GPRMC,142246.600,A,4308.3096,N,07726.2635,W,3.76,12.05,020519,,,D*46
$GPGGA,142246.800,4308.3099,N,07726.2635,W,2,08,1.06,151.9,M,-34.4,M,0000,0000*55
lng=-77.437728, lat=43.138492, altitude=152.00, speed=3.76, satellites=8, angle=12.0500, fixquality=2
$GPRMC,142247.000,A,4308.3101,N,07726.2634,W,3.17,9.81,020519,,,D*7E
$GPGGA,142247.200,4308.3103,N,07726.2634,W,2,08,1.06,151.8,M,-34.4,M,0000,0000*5C
lng=-77.437721, lat=43.138500, altitude=151.90, speed=3.17, satellites=8, angle=9.8100, fixquality=2
$GPRMC,142247.400,A,4308.3105,N,07726.2632,W,2.61,8.33,020519,,,D*70
$GPGGA,142247.600,4308.3106,N,07726.2632,W,2,08,1.06,151.8,M,-34.4,M,0000,0000*5B
lng=-77.437721, lat=43.138507, altitude=151.80, speed=2.61, satellites=8, angle=8.3300, fixquality=2
$GPRMC,142247.800,A,4308.3108,N,07726.2632,W,1.95,5.79,020519,,,D*7A
$GPGGA,142248.000,4308.3109,N,07726.2632,W,2,08,1.06,151.6,M,-34.4,M,0000,0000*53
lng=-77.437721, lat=43.138515, altitude=151.80, speed=1.95, satellites=8, angle=5.7900, fixquality=2
$GPRMC,142248.200,A,4308.3110,N,07726.2633,W,1.32,356.11,020519,,,D*71
$GPGGA,142248.400,4308.3111,N,07726.2633,W,2,08,1.06,151.6,M,-34.4,M,0000,0000*5F
lng=-77.437721, lat=43.138515, altitude=151.60, speed=1.32, satellites=8, angle=356.1100, fixquality=2
$GPRMC,142248.600,A,4308.3112,N,07726.2633,W,0.89,352.13,020519,,,D*70
$GPGGA,142248.800,4308.3112,N,07726.2634,W,2,08,1.06,151.5,M,-34.4,M,0000,0000*54
lng=-77.437721, lat=43.138515, altitude=151.60, speed=0.89, satellites=8, angle=352.1300, fixquality=2
$GPRMC,142249.000,A,4308.3112,N,07726.2634,W,0.64,348.18,020519,,,D*73
$GPGGA,142249.200,4308.3112,N,07726.2635,W,2,08,1.06,151.5,M,-34.4,M,0000,0000*5E
lng=-77.437721, lat=43.138515, altitude=151.50, speed=0.64, satellites=8, angle=348.1800, fixquality=2
$GPRMC,142249.400,A,4308.3113,N,07726.2635,W,0.57,348.18,020519,,,D*77
$GPGGA,142249.600,4308.3114,N,07726.2635,W,2,08,1.06,151.5,M,-34.4,M,0000,0000*5C
lng=-77.437728, lat=43.138526, altitude=151.50, speed=0.57, satellites=8, angle=348.1800, fixquality=2
$GPRMC,142249.800,A,4308.3115,N,07726.2636,W,0.79,353.06,020519,,,D*77
$GPGGA,142250.000,4308.3116,N,07726.2636,W,2,08,1.06,151.5,M,-34.4,M,0000,0000*53
lng=-77.437728, lat=43.138526, altitude=151.50, speed=0.79, satellites=8, angle=353.0600, fixquality=2
$GPRMC,142250.200,A,4308.3118,N,07726.2637,W,1.21,358.85,020519,,,D*75
$GPGGA,142250.400,4308.3119,N,07726.2637,W,2,08,1.06,151.4,M,-34.4,M,0000,0000*58
lng=-77.437728, lat=43.138534, altitude=151.50, speed=1.21, satellites=8, angle=358.8500, fixquality=2
$GPRMC,142250.600,A,4308.3121,N,07726.2637,W,1.54,3.11,020519,,,D*79
$GPGGA,142250.800,4308.3123,N,07726.2635,W,2,08,1.06,151.2,M,-34.4,M,0000,0000*59
lng=-77.437728, lat=43.138534, altitude=151.40, speed=1.54, satellites=8, angle=3.1100, fixquality=2
$GPRMC,142251.000,A,4308.3125,N,07726.2634,W,3.26,20.29,020519,,,D*44
$GPGGA,142251.200,4308.3128,N,07726.2633,W,2,08,1.02,151.2,M,-34.4,M,0000,0000*5B
lng=-77.437721, lat=43.138542, altitude=151.20, speed=3.26, satellites=8, angle=20.2900, fixquality=2
$GPRMC,142251.400,A,4308.3130,N,07726.2631,W,4.08,29.35,020519,,,D*4E
$GPGGA,142251.600,4308.3133,N,07726.2628,W,2,08,1.06,151.1,M,-34.4,M,0000,0000*58
lng=-77.437721, lat=43.138549, altitude=151.20, speed=4.08, satellites=8, angle=29.3500, fixquality=2
$GPRMC,142251.800,A,4308.3135,N,07726.2626,W,4.33,43.21,020519,,,D*40
$GPGGA,142252.000,4308.3137,N,07726.2623,W,2,08,1.06,151.1,M,-34.4,M,0000,0000*52
lng=-77.437713, lat=43.138557, altitude=151.10, speed=4.33, satellites=8, angle=43.2100, fixquality=2
$GPRMC,142252.200,A,4308.3139,N,07726.2622,W,4.49,60.43,020519,,,D*49
$GPGGA,142252.400,4308.3140,N,07726.2622,W,2,08,1.06,151.0,M,-34.4,M,0000,0000*56
lng=-77.437705, lat=43.138565, altitude=151.10, speed=4.49, satellites=8, angle=60.4300, fixquality=2
$GPRMC,142252.600,A,4308.3141,N,07726.2619,W,4.54,68.53,020519,,,D*4F
$GPGGA,142252.800,4308.3143,N,07726.2615,W,2,08,1.06,150.9,M,-34.4,M,0000,0000*55
lng=-77.437698, lat=43.138565, altitude=151.00, speed=4.54, satellites=8, angle=68.5300, fixquality=2
$GPRMC,142253.000,A,4308.3144,N,07726.2611,W,4.52,78.16,020519,,,D*43
$GPGGA,142253.200,4308.3146,N,07726.2608,W,2,08,1.06,150.7,M,-34.4,M,0000,0000*59
lng=-77.437690, lat=43.138572, altitude=150.90, speed=4.52, satellites=8, angle=78.1600, fixquality=2
$GPRMC,142253.400,A,4308.3146,N,07726.2604,W,3.72,81.63,020519,,,D*40
$GPGGA,142253.600,4308.3147,N,07726.2602,W,2,08,1.02,150.6,M,-34.4,M,0000,0000*53
lng=-77.437667, lat=43.138572, altitude=150.70, speed=3.72, satellites=8, angle=81.6300, fixquality=2
$GPRMC,142253.800,A,4308.3147,N,07726.2599,W,2.47,81.24,020519,,,D*4E
$GPGGA,142254.000,4308.3147,N,07726.2598,W,2,08,1.02,150.5,M,-34.4,M,0000,0000*51
lng=-77.437660, lat=43.138584, altitude=150.60, speed=2.47, satellites=8, angle=81.2400, fixquality=2
$GPRMC,142254.200,A,4308.3147,N,07726.2598,W,1.11,69.26,020519,,,D*46
$GPGGA,142254.400,4308.3147,N,07726.2598,W,2,08,1.02,150.5,M,-34.4,M,0000,0000*55
lng=-77.437660, lat=43.138584, altitude=150.50, speed=1.11, satellites=8, angle=69.2600, fixquality=2
$GPRMC,142254.600,A,4308.3147,N,07726.2599,W,0.51,71.01,020519,,,D*4A
$GPGGA,142254.800,4308.3146,N,07726.2600,W,2,08,1.02,150.7,M,-34.4,M,0000,0000*58
lng=-77.437660, lat=43.138584, altitude=150.50, speed=0.51, satellites=8, angle=71.0100, fixquality=2
$GPRMC,142255.000,A,4308.3146,N,07726.2601,W,0.56,71.01,020519,,,D*49
$GPGGA,142255.200,4308.3146,N,07726.2604,W,2,08,1.02,150.9,M,-34.4,M,0000,0000*59
lng=-77.437667, lat=43.138572, altitude=150.70, speed=0.56, satellites=8, angle=71.0100, fixquality=2
$GPRMC,142255.400,A,4308.3146,N,07726.2606,W,1.24,285.57,020519,,,D*74
$GPGGA,142255.600,4308.3147,N,07726.2609,W,2,08,1.02,150.9,M,-34.4,M,0000,0000*51
lng=-77.437675, lat=43.138572, altitude=150.90, speed=1.24, satellites=8, angle=285.5700, fixquality=2
$GPRMC,142255.800,A,4308.3148,N,07726.2613,W,2.33,282.52,020519,,,D*75
$GPGGA,142256.000,4308.3148,N,07726.2617,W,2,08,1.02,151.0,M,-34.4,M,0000,0000*5C
lng=-77.437690, lat=43.138584, altitude=150.90, speed=2.33, satellites=8, angle=282.5200, fixquality=2
$GPRMC,142256.200,A,4308.3148,N,07726.2623,W,5.44,274.16,020519,,,D*71
$GPGGA,142256.400,4308.3148,N,07726.2628,W,2,08,1.06,151.0,M,-34.4,M,0000,0000*50
lng=-77.437705, lat=43.138584, altitude=151.00, speed=5.44, satellites=8, angle=274.1600, fixquality=2
$GPRMC,142256.600,A,4308.3148,N,07726.2635,W,7.59,274.49,020519,,,D*76
$GPGGA,142256.800,4308.3149,N,07726.2642,W,2,08,1.06,151.0,M,-34.4,M,0000,0000*51
lng=-77.437728, lat=43.138584, altitude=151.00, speed=7.59, satellites=8, angle=274.4900, fixquality=2
$GPRMC,142257.000,A,4308.3149,N,07726.2649,W,8.63,273.68,020519,,,D*79
$GPGGA,142257.200,4308.3148,N,07726.2657,W,2,08,1.06,151.0,M,-34.4,M,0000,0000*5F
lng=-77.437751, lat=43.138584, altitude=151.00, speed=8.63, satellites=8, angle=273.6800, fixquality=2
$GPRMC,142257.400,A,4308.3148,N,07726.2665,W,9.26,272.54,020519,,,D*7C
$GPGGA,142257.600,4308.3148,N,07726.2674,W,2,08,1.02,151.0,M,-34.4,M,0000,0000*5E
lng=-77.437774, lat=43.138584, altitude=151.00, speed=9.26, satellites=8, angle=272.5400, fixquality=2
$GPRMC,142257.800,A,4308.3148,N,07726.2685,W,11.44,273.48,020519,,,D*4F
$GPGGA,142258.000,4308.3149,N,07726.2695,W,2,08,1.06,151.1,M,-34.4,M,0000,0000*5C
lng=-77.437812, lat=43.138584, altitude=151.00, speed=11.44, satellites=8, angle=273.4800, fixquality=2
$GPRMC,142258.200,A,4308.3150,N,07726.2705,W,12.62,275.07,020519,,,D*40
$GPGGA,142258.400,4308.3151,N,07726.2715,W,2,08,1.02,151.1,M,-34.4,M,0000,0000*5C
lng=-77.437843, lat=43.138584, altitude=151.10, speed=12.62, satellites=8, angle=275.0700, fixquality=2
$GPRMC,142258.600,A,4308.3152,N,07726.2725,W,13.37,276.09,020519,,,D*48
$GPGGA,142258.800,4308.3154,N,07726.2737,W,2,08,1.06,151.2,M,-34.4,M,0000,0000*52
lng=-77.437873, lat=43.138591, altitude=151.10, speed=13.37, satellites=8, angle=276.0900, fixquality=2
$GPRMC,142259.000,A,4308.3157,N,07726.2748,W,14.80,279.26,020519,,,D*48
$GPGGA,142259.200,4308.3160,N,07726.2762,W,2,08,1.06,151.5,M,-34.4,M,0000,0000*59
lng=-77.437911, lat=43.138599, altitude=151.20, speed=14.80, satellites=8, angle=279.2600, fixquality=2
$GPRMC,142259.400,A,4308.3163,N,07726.2774,W,16.65,283.50,020519,,,D*49
$GPGGA,142259.600,4308.3167,N,07726.2787,W,2,08,1.06,151.6,M,-34.4,M,0000,0000*52
lng=-77.437957, lat=43.138607, altitude=151.50, speed=16.65, satellites=8, angle=283.5000, fixquality=2
$GPRMC,142259.800,A,4308.3171,N,07726.2801,W,17.94,285.71,020519,,,D*41
$GPGGA,142300.000,4308.3175,N,07726.2815,W,2,08,1.06,151.7,M,-34.4,M,0000,0000*5F
lng=-77.438003, lat=43.138614, altitude=151.60, speed=17.94, satellites=8, angle=285.7100, fixquality=2
$GPRMC,142300.200,A,4308.3179,N,07726.2829,W,19.49,287.08,020519,,,D*46
$GPGGA,142300.400,4308.3182,N,07726.2844,W,2,08,1.02,151.9,M,-34.4,M,0000,0000*5D
lng=-77.438041, lat=43.138629, altitude=151.70, speed=19.49, satellites=8, angle=287.0800, fixquality=2
$GPRMC,142300.600,A,4308.3186,N,07726.2860,W,20.68,287.35,020519,,,D*48
$GPGGA,142300.800,4308.3190,N,07726.2876,W,2,08,1.06,152.2,M,-34.4,M,0000,0000*5F
lng=-77.438102, lat=43.138637, altitude=151.90, speed=20.68, satellites=8, angle=287.3500, fixquality=2
$GPRMC,142301.000,A,4308.3195,N,07726.2892,W,22.08,288.96,020519,,,D*42
$GPGGA,142301.200,4308.3200,N,07726.2909,W,2,08,1.06,152.4,M,-34.4,M,0000,0000*51
lng=-77.438148, lat=43.138656, altitude=152.20, speed=22.08, satellites=8, angle=288.9600, fixquality=2
$GPRMC,142301.400,A,4308.3204,N,07726.2926,W,22.71,290.15,020519,,,D*4F
$GPGGA,142301.600,4308.3209,N,07726.2944,W,2,08,1.06,152.5,M,-34.4,M,0000,0000*54
lng=-77.438209, lat=43.138671, altitude=152.40, speed=22.71, satellites=8, angle=290.1500, fixquality=2
$GPRMC,142301.800,A,4308.3214,N,07726.2961,W,23.25,292.06,020519,,,D*41
$GPGGA,142302.000,4308.3220,N,07726.2978,W,2,08,1.06,152.6,M,-34.4,M,0000,0000*56
lng=-77.438262, lat=43.138687, altitude=152.50, speed=23.25, satellites=8, angle=292.0600, fixquality=2
$GPRMC,142302.200,A,4308.3226,N,07726.2995,W,23.83,293.68,020519,,,D*47
$GPGGA,142302.400,4308.3232,N,07726.3013,W,2,08,1.06,152.7,M,-34.4,M,0000,0000*55
lng=-77.438323, lat=43.138713, altitude=152.60, speed=23.83, satellites=8, angle=293.6800, fixquality=2
$GPRMC,142302.600,A,4308.3238,N,07726.3030,W,24.24,294.57,020519,,,D*4A
$GPGGA,142302.800,4308.3245,N,07726.3047,W,2,08,1.06,152.8,M,-34.4,M,0000,0000*57
lng=-77.438385, lat=43.138729, altitude=152.70, speed=24.24, satellites=8, angle=294.5700, fixquality=2
$GPRMC,142303.000,A,4308.3252,N,07726.3064,W,24.59,295.93,020519,,,D*43
$GPGGA,142303.200,4308.3259,N,07726.3081,W,2,08,1.06,152.9,M,-34.4,M,0000,0000*5A
lng=-77.438446, lat=43.138751, altitude=152.80, speed=24.59, satellites=8, angle=295.9300, fixquality=2
$GPRMC,142303.400,A,4308.3266,N,07726.3098,W,24.89,297.14,020519,,,D*43
$GPGGA,142303.600,4308.3274,N,07726.3115,W,2,08,1.06,153.1,M,-34.4,M,0000,0000*54
lng=-77.438491, lat=43.138778, altitude=152.90, speed=24.89, satellites=8, angle=297.1400, fixquality=2
$GPRMC,142303.800,A,4308.3281,N,07726.3132,W,25.29,297.89,020519,,,D*48
$GPGGA,142304.000,4308.3289,N,07726.3148,W,2,08,1.06,153.3,M,-34.4,M,0000,0000*5D
lng=-77.438552, lat=43.138801, altitude=153.10, speed=25.29, satellites=8, angle=297.8900, fixquality=2
$GPRMC,142304.200,A,4308.3297,N,07726.3165,W,25.74,299.36,020519,,,D*42
$GPGGA,142304.400,4308.3305,N,07726.3181,W,2,08,1.02,153.5,M,-34.4,M,0000,0000*5B
lng=-77.438606, lat=43.138828, altitude=153.30, speed=25.74, satellites=8, angle=299.3600, fixquality=2
$GPRMC,142304.600,A,4308.3313,N,07726.3198,W,26.25,300.42,020519,,,D*4C
$GPGGA,142304.800,4308.3322,N,07726.3215,W,2,08,1.06,153.8,M,-34.4,M,0000,0000*55
lng=-77.438667, lat=43.138858, altitude=153.50, speed=26.25, satellites=8, angle=300.4200, fixquality=2
$GPRMC,142305.000,A,4308.3331,N,07726.3232,W,26.83,301.47,020519,,,D*40
$GPGGA,142305.200,4308.3340,N,07726.3249,W,2,08,1.06,154.0,M,-34.4,M,0000,0000*5C
lng=-77.438720, lat=43.138881, altitude=153.80, speed=26.83, satellites=8, angle=301.4700, fixquality=2
$GPRMC,142305.400,A,4308.3349,N,07726.3267,W,27.10,302.11,020519,,,D*40
$GPGGA,142305.600,4308.3358,N,07726.3284,W,2,08,1.06,154.2,M,-34.4,M,0000,0000*52
lng=-77.438774, lat=43.138916, altitude=154.00, speed=27.10, satellites=8, angle=302.1100, fixquality=2
$GPRMC,142305.800,A,4308.3367,N,07726.3301,W,27.47,302.66,020519,,,D*43
$GPGGA,142306.000,4308.3376,N,07726.3319,W,2,08,1.06,154.5,M,-34.4,M,0000,0000*59
lng=-77.438835, lat=43.138950, altitude=154.20, speed=27.47, satellites=8, angle=302.6600, fixquality=2
$GPRMC,142306.200,A,4308.3384,N,07726.3337,W,27.47,302.45,020519,,,D*43
$GPGGA,142306.400,4308.3392,N,07726.3355,W,2,08,1.06,154.6,M,-34.4,M,0000,0000*5C
lng=-77.438888, lat=43.138973, altitude=154.50, speed=27.47, satellites=8, angle=302.4500, fixquality=2
$GPRMC,142306.600,A,4308.3401,N,07726.3372,W,27.19,303.38,020519,,,D*4C
$GPGGA,142306.800,4308.3410,N,07726.3389,W,2,08,1.06,154.8,M,-34.4,M,0000,0000*52
lng=-77.438957, lat=43.139003, altitude=154.60, speed=27.19, satellites=8, angle=303.3800, fixquality=2
$GPRMC,142307.000,A,4308.3418,N,07726.3407,W,26.82,303.72,020519,,,D*4B
$GPGGA,142307.200,4308.3426,N,07726.3424,W,2,08,1.06,154.9,M,-34.4,M,0000,0000*5D
lng=-77.439010, lat=43.139030, altitude=154.80, speed=26.82, satellites=8, angle=303.7200, fixquality=2
$GPRMC,142307.400,A,4308.3434,N,07726.3441,W,26.57,304.15,020519,,,D*4D
$GPGGA,142307.600,4308.3442,N,07726.3458,W,2,08,1.06,155.1,M,-34.4,M,0000,0000*59
lng=-77.439071, lat=43.139053, altitude=154.90, speed=26.57, satellites=8, angle=304.1500, fixquality=2
$GPRMC,142307.800,A,4308.3450,N,07726.3475,W,25.90,304.71,020519,,,D*4E
$GPGGA,142308.000,4308.3459,N,07726.3491,W,2,08,1.06,155.2,M,-34.4,M,0000,0000*5C
lng=-77.439125, lat=43.139087, altitude=155.10, speed=25.90, satellites=8, angle=304.7100, fixquality=2
$GPRMC,142308.200,A,4308.3467,N,07726.3508,W,25.48,305.15,020519,,,D*42
$GPGGA,142308.400,4308.3475,N,07726.3524,W,2,08,1.02,155.4,M,-34.4,M,0000,0000*5B
lng=-77.439178, lat=43.139110, altitude=155.20, speed=25.48, satellites=8, angle=305.1500, fixquality=2
$GPRMC,142308.600,A,4308.3484,N,07726.3539,W,25.07,306.23,020519,,,D*44
$GPGGA,142308.800,4308.3492,N,07726.3554,W,2,08,1.06,155.5,M,-34.4,M,0000,0000*5C
lng=-77.439231, lat=43.139144, altitude=155.40, speed=25.07, satellites=8, angle=306.2300, fixquality=2
$GPRMC,142309.000,A,4308.3501,N,07726.3569,W,24.38,307.48,020519,,,D*4B
$GPGGA,142309.200,4308.3510,N,07726.3583,W,2,08,1.06,155.5,M,-34.4,M,0000,0000*56
lng=-77.439285, lat=43.139167, altitude=155.50, speed=24.38, satellites=8, angle=307.4800, fixquality=2
$GPRMC,142309.400,A,4308.3520,N,07726.3597,W,23.99,309.08,020519,,,D*4B
$GPGGA,142309.600,4308.3529,N,07726.3611,W,2,08,1.06,155.5,M,-34.4,M,0000,0000*50
lng=-77.439331, lat=43.139202, altitude=155.50, speed=23.99, satellites=8, angle=309.0800, fixquality=2
$GPRMC,142309.800,A,4308.3539,N,07726.3623,W,23.25,311.52,020519,,,D*42
$GPGGA,142310.000,4308.3549,N,07726.3636,W,2,08,1.06,155.6,M,-34.4,M,0000,0000*5E
lng=-77.439369, lat=43.139232, altitude=155.50, speed=23.25, satellites=8, angle=311.5200, fixquality=2
$GPRMC,142310.200,A,4308.3559,N,07726.3649,W,23.13,314.17,020519,,,D*4B
$GPGGA,142310.400,4308.3569,N,07726.3661,W,2,08,1.02,155.6,M,-34.4,M,0000,0000*5E
lng=-77.439414, lat=43.139266, altitude=155.60, speed=23.13, satellites=8, angle=314.1700, fixquality=2
$GPRMC,142310.600,A,4308.3578,N,07726.3673,W,22.84,316.44,020519,,,D*4E
$GPGGA,142310.800,4308.3588,N,07726.3685,W,2,08,1.06,155.6,M,-34.4,M,0000,0000*53
lng=-77.439453, lat=43.139297, altitude=155.60, speed=22.84, satellites=8, angle=316.4400, fixquality=2
$GPRMC,142311.000,A,4308.3599,N,07726.3695,W,22.68,320.50,020519,,,D*4C
$GPGGA,142311.200,4308.3609,N,07726.3705,W,2,08,1.06,155.7,M,-34.4,M,0000,0000*5A
lng=-77.439491, lat=43.139331, altitude=155.60, speed=22.68, satellites=8, angle=320.5000, fixquality=2
$GPRMC,142311.400,A,4308.3620,N,07726.3716,W,23.08,323.37,020519,,,D*46
$GPGGA,142311.600,4308.3632,N,07726.3725,W,2,08,1.06,155.8,M,-34.4,M,0000,0000*5B
lng=-77.439529, lat=43.139362, altitude=155.70, speed=23.08, satellites=8, angle=323.3700, fixquality=2
$GPRMC,142311.800,A,4308.3645,N,07726.3732,W,23.80,328.85,020519,,,D*4D
$GPGGA,142312.000,4308.3658,N,07726.3740,W,2,08,1.06,155.9,M,-34.4,M,0000,0000*50
lng=-77.439552, lat=43.139404, altitude=155.80, speed=23.80, satellites=8, angle=328.8500, fixquality=2
$GPRMC,142312.200,A,4308.3670,N,07726.3748,W,24.10,333.34,020519,,,D*41
$GPGGA,142312.400,4308.3682,N,07726.3756,W,2,08,1.06,155.9,M,-34.4,M,0000,0000*54
lng=-77.439582, lat=43.139453, altitude=155.90, speed=24.10, satellites=8, angle=333.3400, fixquality=2
$GPRMC,142312.600,A,4308.3695,N,07726.3763,W,24.16,335.39,020519,,,D*4A
$GPGGA,142312.800,4308.3708,N,07726.3769,W,2,08,1.06,156.0,M,-34.4,M,0000,0000*5D
lng=-77.439605, lat=43.139492, altitude=155.90, speed=24.16, satellites=8, angle=335.3900, fixquality=2
$GPRMC,142313.000,A,4308.3721,N,07726.3775,W,24.26,339.78,020519,,,D*4E
$GPGGA,142313.200,4308.3734,N,07726.3780,W,2,08,1.06,156.1,M,-34.4,M,0000,0000*5F
lng=-77.439620, lat=43.139533, altitude=156.00, speed=24.26, satellites=8, angle=339.7800, fixquality=2
$GPRMC,142313.400,A,4308.3746,N,07726.3786,W,24.29,341.61,020519,,,D*4F
$GPGGA,142313.600,4308.3758,N,07726.3790,W,2,08,1.02,156.2,M,-34.4,M,0000,0000*57
lng=-77.439643, lat=43.139575, altitude=156.10, speed=24.29, satellites=8, angle=341.6100, fixquality=2
$GPRMC,142313.800,A,4308.3771,N,07726.3795,W,23.67,344.15,020519,,,D*4E
$GPGGA,142314.000,4308.3783,N,07726.3798,W,2,08,1.02,156.3,M,-34.4,M,0000,0000*59
lng=-77.439659, lat=43.139614, altitude=156.20, speed=23.67, satellites=8, angle=344.1500, fixquality=2
$GPRMC,142314.200,A,4308.3796,N,07726.3801,W,23.16,347.20,020519,,,D*4B
$GPGGA,142314.400,4308.3809,N,07726.3804,W,2,08,1.06,156.3,M,-34.4,M,0000,0000*5E
lng=-77.439666, lat=43.139656, altitude=156.30, speed=23.16, satellites=8, angle=347.2000, fixquality=2
$GPRMC,142314.600,A,4308.3822,N,07726.3806,W,23.20,349.96,020519,,,D*4E
$GPGGA,142314.800,4308.3835,N,07726.3808,W,2,08,1.06,156.2,M,-34.4,M,0000,0000*50
lng=-77.439674, lat=43.139705, altitude=156.30, speed=23.20, satellites=8, angle=349.9600, fixquality=2
$GPRMC,142315.000,A,4308.3848,N,07726.3809,W,23.13,353.45,020519,,,D*4F
$GPGGA,142315.200,4308.3861,N,07726.3811,W,2,08,1.06,156.1,M,-34.4,M,0000,0000*51
lng=-77.439682, lat=43.139747, altitude=156.20, speed=23.13, satellites=8, angle=353.4500, fixquality=2
$GPRMC,142315.400,A,4308.3875,N,07726.3811,W,23.14,356.23,020519,,,D*4E
$GPGGA,142315.600,4308.3888,N,07726.3810,W,2,08,1.06,156.1,M,-34.4,M,0000,0000*53
lng=-77.439682, lat=43.139793, altitude=156.10, speed=23.14, satellites=8, angle=356.2300, fixquality=2
$GPRMC,142315.800,A,4308.3901,N,07726.3808,W,23.16,0.27,020519,,,D*4E
$GPGGA,142316.000,4308.3915,N,07726.3805,W,2,08,1.06,156.0,M,-34.4,M,0000,0000*56
lng=-77.439682, lat=43.139835, altitude=156.10, speed=23.16, satellites=8, angle=0.2700, fixquality=2
$GPRMC,142316.200,A,4308.3930,N,07726.3802,W,24.12,3.51,020519,,,D*4E
$GPGGA,142316.400,4308.3944,N,07726.3799,W,2,08,1.06,155.8,M,-34.4,M,0000,0000*57
lng=-77.439674, lat=43.139884, altitude=156.00, speed=24.12, satellites=8, angle=3.5100, fixquality=2
$GPRMC,142316.600,A,4308.3959,N,07726.3796,W,24.69,5.65,020519,,,D*4A
$GPGGA,142316.800,4308.3973,N,07726.3793,W,2,08,1.06,155.7,M,-34.4,M,0000,0000*5A
lng=-77.439659, lat=43.139934, altitude=155.80, speed=24.69, satellites=8, angle=5.6500, fixquality=2
$GPRMC,142317.000,A,4308.3987,N,07726.3789,W,25.32,7.77,020519,,,D*4E
$GPGGA,142317.200,4308.4002,N,07726.3785,W,2,07,1.28,155.6,M,-34.4,M,0000,0000*5C
lng=-77.439651, lat=43.139980, altitude=155.70, speed=25.32, satellites=8, angle=7.7700, fixquality=2
$GPRMC,142317.400,A,4308.4016,N,07726.3781,W,25.87,9.43,020519,,,D*43
$GPGGA,142317.600,4308.4030,N,07726.3777,W,2,08,1.02,155.7,M,-34.4,M,0000,0000*52
lng=-77.439628, lat=43.140022, altitude=155.60, speed=25.87, satellites=7, angle=9.4300, fixquality=2
$GPRMC,142317.800,A,4308.4045,N,07726.3773,W,26.13,10.09,020519,,,D*7C
$GPGGA,142318.000,4308.4059,N,07726.3770,W,2,08,1.02,155.7,M,-34.4,M,0000,0000*53
lng=-77.439620, lat=43.140071, altitude=155.70, speed=26.13, satellites=8, angle=10.0900, fixquality=2
$GPRMC,142318.200,A,4308.4073,N,07726.3766,W,26.18,9.91,020519,,,D*4A
$GPGGA,142318.400,4308.4088,N,07726.3762,W,2,08,1.02,155.7,M,-34.4,M,0000,0000*58
lng=-77.439605, lat=43.140121, altitude=155.70, speed=26.18, satellites=8, angle=9.9100, fixquality=2
$GPRMC,142318.600,A,4308.4102,N,07726.3757,W,26.49,9.31,020519,,,D*45
$GPGGA,142318.800,4308.4117,N,07726.3753,W,2,08,1.02,155.6,M,-34.4,M,0000,0000*50
lng=-77.439590, lat=43.140171, altitude=155.70, speed=26.49, satellites=8, angle=9.3100, fixquality=2
$GPRMC,142319.000,A,4308.4131,N,07726.3749,W,26.52,9.42,020519,,,D*43
$GPGGA,142319.200,4308.4146,N,07726.3745,W,2,08,1.06,155.6,M,-34.4,M,0000,0000*5C
lng=-77.439582, lat=43.140216, altitude=155.60, speed=26.52, satellites=8, angle=9.4200, fixquality=2
$GPRMC,142319.400,A,4308.4160,N,07726.3742,W,26.16,9.31,020519,,,D*4C
$GPGGA,142319.600,4308.4174,N,07726.3738,W,2,08,1.02,155.6,M,-34.4,M,0000,0000*57
lng=-77.439567, lat=43.140266, altitude=155.60, speed=26.16, satellites=8, angle=9.3100, fixquality=2
$GPRMC,142319.800,A,4308.4188,N,07726.3734,W,25.90,9.13,020519,,,D*4A
$GPGGA,142320.000,4308.4202,N,07726.3730,W,2,08,1.06,155.6,M,-34.4,M,0000,0000*55
lng=-77.439559, lat=43.140316, altitude=155.60, speed=25.90, satellites=8, angle=9.1300, fixquality=2
$GPRMC,142320.200,A,4308.4216,N,07726.3726,W,25.77,9.03,020519,,,D*45
$GPGGA,142320.400,4308.4230,N,07726.3723,W,2,08,1.02,155.6,M,-34.4,M,0000,0000*56
lng=-77.439544, lat=43.140357, altitude=155.60, speed=25.77, satellites=8, angle=9.0300, fixquality=2
$GPRMC,142320.600,A,4308.4244,N,07726.3719,W,25.37,9.14,020519,,,D*48
$GPGGA,142320.800,4308.4258,N,07726.3716,W,2,08,1.06,155.6,M,-34.4,M,0000,0000*56
lng=-77.439537, lat=43.140403, altitude=155.60, speed=25.37, satellites=8, angle=9.1400, fixquality=2
$GPRMC,142321.000,A,4308.4272,N,07726.3712,W,25.09,9.29,020519,,,D*42
$GPGGA,142321.200,4308.4285,N,07726.3709,W,2,08,1.06,155.6,M,-34.4,M,0000,0000*53
lng=-77.439521, lat=43.140453, altitude=155.60, speed=25.09, satellites=8, angle=9.2900, fixquality=2
$GPRMC,142321.400,A,4308.4298,N,07726.3706,W,24.60,9.21,020519,,,D*41
$GPGGA,142321.600,4308.4311,N,07726.3703,W,2,08,1.06,155.7,M,-34.4,M,0000,0000*50
lng=-77.439506, lat=43.140495, altitude=155.60, speed=24.60, satellites=8, angle=9.2100, fixquality=2
$GPRMC,142321.800,A,4308.4324,N,07726.3700,W,24.10,9.23,020519,,,D*48
$GPGGA,142322.000,4308.4337,N,07726.3697,W,2,08,1.06,155.7,M,-34.4,M,0000,0000*5D
lng=-77.439498, lat=43.140544, altitude=155.70, speed=24.10, satellites=8, angle=9.2300, fixquality=2
$GPRMC,142322.200,A,4308.4349,N,07726.3694,W,23.60,9.23,020519,,,D*46
$GPGGA,142322.400,4308.4362,N,07726.3691,W,2,08,1.06,155.8,M,-34.4,M,0000,0000*50
lng=-77.439491, lat=43.140583, altitude=155.70, speed=23.60, satellites=8, angle=9.2300, fixquality=2
$GPRMC,142322.600,A,4308.4375,N,07726.3688,W,23.30,9.15,020519,,,D*40
$GPGGA,142322.800,4308.4387,N,07726.3685,W,2,08,1.06,155.8,M,-34.4,M,0000,0000*52
lng=-77.439476, lat=43.140625, altitude=155.80, speed=23.30, satellites=8, angle=9.1500, fixquality=2
$GPRMC,142323.000,A,4308.4399,N,07726.3681,W,22.45,9.39,020519,,,D*41
$GPGGA,142323.200,4308.4410,N,07726.3678,W,2,08,1.06,155.8,M,-34.4,M,0000,0000*52
lng=-77.439468, lat=43.140666, altitude=155.80, speed=22.45, satellites=8, angle=9.3900, fixquality=2
$GPRMC,142323.400,A,4308.4422,N,07726.3676,W,21.68,9.24,020519,,,D*4A
$GPGGA,142323.600,4308.4433,N,07726.3673,W,2,08,1.06,155.9,M,-34.4,M,0000,0000*5D
lng=-77.439460, lat=43.140705, altitude=155.80, speed=21.68, satellites=8, angle=9.2400, fixquality=2
$GPRMC,142323.800,A,4308.4444,N,07726.3670,W,20.73,10.09,020519,,,D*7C
$GPGGA,142324.000,4308.4454,N,07726.3667,W,2,08,1.06,155.9,M,-34.4,M,0000,0000*58
lng=-77.439453, lat=43.140739, altitude=155.90, speed=20.73, satellites=8, angle=10.0900, fixquality=2
$GPRMC,142324.200,A,4308.4464,N,07726.3664,W,19.06,11.29,020519,,,D*7D
$GPGGA,142324.400,4308.4474,N,07726.3661,W,2,08,1.06,155.9,M,-34.4,M,0000,0000*58
lng=-77.439437, lat=43.140769, altitude=155.90, speed=19.06, satellites=8, angle=11.2900, fixquality=2
$GPRMC,142324.600,A,4308.4482,N,07726.3658,W,17.62,11.87,020519,,,D*76
$GPGGA,142324.800,4308.4490,N,07726.3656,W,2,08,1.06,156.0,M,-34.4,M,0000,0000*50
lng=-77.439430, lat=43.140804, altitude=155.90, speed=17.62, satellites=8, angle=11.8700, fixquality=2
$GPRMC,142325.000,A,4308.4498,N,07726.3653,W,15.49,13.73,020519,,,D*73
$GPGGA,142325.200,4308.4503,N,07726.3649,W,2,08,1.06,155.9,M,-34.4,M,0000,0000*54
lng=-77.439422, lat=43.140827, altitude=156.00, speed=15.49, satellites=8, angle=13.7300, fixquality=2
$GPRMC,142325.400,A,4308.4509,N,07726.3647,W,13.47,15.69,020519,,,D*7E
$GPGGA,142325.600,4308.4512,N,07726.3645,W,2,08,1.06,155.8,M,-34.4,M,0000,0000*5D
lng=-77.439414, lat=43.140846, altitude=155.90, speed=13.47, satellites=8, angle=15.6900, fixquality=2
$GPRMC,142325.800,A,4308.4516,N,07726.3642,W,10.96,19.31,020519,,,D*77
$GPGGA,142326.000,4308.4519,N,07726.3640,W,2,08,1.06,155.7,M,-34.4,M,0000,0000*59
lng=-77.439407, lat=43.140861, altitude=155.80, speed=10.96, satellites=8, angle=19.3100, fixquality=2
$GPRMC,142326.200,A,4308.4520,N,07726.3639,W,8.54,20.66,020519,,,D*48
$GPGGA,142326.400,4308.4523,N,07726.3638,W,2,08,1.02,155.6,M,-34.4,M,0000,0000*5E
lng=-77.439399, lat=43.140869, altitude=155.70, speed=8.54, satellites=8, angle=20.6600, fixquality=2
$GPRMC,142326.600,A,4308.4524,N,07726.3639,W,5.79,16.64,020519,,,D*4D
$GPGGA,142326.800,4308.4526,N,07726.3638,W,2,08,1.06,155.5,M,-34.4,M,0000,0000*50
lng=-77.439399, lat=43.140876, altitude=155.60, speed=5.79, satellites=8, angle=16.6400, fixquality=2
$GPRMC,142327.000,A,4308.4528,N,07726.3638,W,4.79,14.61,020519,,,D*41
$GPGGA,142327.200,4308.4530,N,07726.3637,W,2,08,1.06,155.5,M,-34.4,M,0000,0000*53
lng=-77.439399, lat=43.140876, altitude=155.50, speed=4.79, satellites=8, angle=14.6100, fixquality=2
$GPRMC,142327.400,A,4308.4534,N,07726.3635,W,4.83,13.49,020519,,,D*4D
$GPGGA,142327.600,4308.4537,N,07726.3634,W,2,08,1.06,155.6,M,-34.4,M,0000,0000*50
lng=-77.439384, lat=43.140892, altitude=155.50, speed=4.83, satellites=8, angle=13.4900, fixquality=2
$GPRMC,142327.800,A,4308.4540,N,07726.3633,W,5.04,9.20,020519,,,D*7E
$GPGGA,142328.000,4308.4543,N,07726.3633,W,2,08,1.06,155.7,M,-34.4,M,0000,0000*5C
lng=-77.439384, lat=43.140903, altitude=155.60, speed=5.04, satellites=8, angle=9.2000, fixquality=2
$GPRMC,142328.200,A,4308.4549,N,07726.3632,W,5.27,5.53,020519,,,D*7A
$GPGGA,142328.400,4308.4554,N,07726.3631,W,2,08,1.06,155.8,M,-34.4,M,0000,0000*53
lng=-77.439384, lat=43.140918, altitude=155.70, speed=5.27, satellites=8, angle=5.5300, fixquality=2
$GPRMC,142328.600,A,4308.4557,N,07726.3631,W,5.85,358.85,020519,,,D*7A
$GPGGA,142328.800,4308.4563,N,07726.3629,W,2,08,1.06,155.8,M,-34.4,M,0000,0000*52
lng=-77.439384, lat=43.140926, altitude=155.80, speed=5.85, satellites=8, angle=358.8500, fixquality=2
$GPRMC,142329.000,A,4308.4568,N,07726.3629,W,7.46,352.21,020519,,,D*71
$GPGGA,142329.200,4308.4574,N,07726.3629,W,2,08,1.06,155.8,M,-34.4,M,0000,0000*5F
lng=-77.439376, lat=43.140949, altitude=155.80, speed=7.46, satellites=8, angle=352.2100, fixquality=2
$GPRMC,142329.400,A,4308.4580,N,07726.3630,W,8.36,349.79,020519,,,D*74
$GPGGA,142329.600,4308.4585,N,07726.3632,W,2,08,1.06,155.9,M,-34.4,M,0000,0000*5E
lng=-77.439376, lat=43.140968, altitude=155.80, speed=8.36, satellites=8, angle=349.7900, fixquality=2
$GPRMC,142329.800,A,4308.4590,N,07726.3635,W,9.76,340.64,020519,,,D*7C
$GPGGA,142330.000,4308.4595,N,07726.3639,W,2,08,1.06,156.2,M,-34.4,M,0000,0000*52
lng=-77.439384, lat=43.140983, altitude=155.90, speed=9.76, satellites=8, angle=340.6400, fixquality=2
$GPRMC,142330.200,A,4308.4600,N,07726.3643,W,10.87,331.52,020519,,,D*40
$GPGGA,142330.400,4308.4606,N,07726.3647,W,2,08,1.02,156.3,M,-34.4,M,0000,0000*53
lng=-77.439407, lat=43.140998, altitude=156.20, speed=10.87, satellites=8, angle=331.5200, fixquality=2
$GPRMC,142330.600,A,4308.4611,N,07726.3653,W,12.03,322.67,020519,,,D*4F
$GPGGA,142330.800,4308.4616,N,07726.3661,W,2,08,1.06,156.5,M,-34.4,M,0000,0000*58
lng=-77.439422, lat=43.141014, altitude=156.30, speed=12.03, satellites=8, angle=322.6700, fixquality=2
$GPRMC,142331.000,A,4308.4621,N,07726.3668,W,13.00,312.00,020519,,,D*43
$GPGGA,142331.200,4308.4626,N,07726.3676,W,2,08,1.06,156.8,M,-34.4,M,0000,0000*5B
lng=-77.439445, lat=43.141033, altitude=156.50, speed=13.00, satellites=8, angle=312.0000, fixquality=2
$GPRMC,142331.400,A,4308.4632,N,07726.3686,W,13.27,304.87,020519,,,D*48
$GPGGA,142331.600,4308.4637,N,07726.3695,W,2,08,1.02,157.0,M,-34.4,M,0000,0000*5F
lng=-77.439476, lat=43.141056, altitude=156.80, speed=13.27, satellites=8, angle=304.8700, fixquality=2
$GPRMC,142331.800,A,4308.4642,N,07726.3706,W,13.99,295.46,020519,,,D*4B
$GPGGA,142332.000,4308.4645,N,07726.3718,W,2,08,1.06,157.3,M,-34.4,M,0000,0000*5C
lng=-77.439506, lat=43.141071, altitude=157.00, speed=13.99, satellites=8, angle=295.4600, fixquality=2
$GPRMC,142332.200,A,4308.4649,N,07726.3731,W,15.09,286.81,020519,,,D*4B
$GPGGA,142332.400,4308.4651,N,07726.3745,W,2,08,1.02,157.5,M,-34.4,M,0000,0000*57
lng=-77.439552, lat=43.141078, altitude=157.30, speed=15.09, satellites=8, angle=286.8100, fixquality=2
$GPRMC,142332.600,A,4308.4654,N,07726.3759,W,16.26,281.60,020519,,,D*4B
$GPGGA,142332.800,4308.4655,N,07726.3774,W,2,08,1.06,157.7,M,-34.4,M,0000,0000*5B
lng=-77.439598, lat=43.141090, altitude=157.50, speed=16.26, satellites=8, angle=281.6000, fixquality=2
$GPRMC,142333.000,A,4308.4656,N,07726.3789,W,17.42,278.97,020519,,,D*4E
$GPGGA,142333.200,4308.4658,N,07726.3803,W,2,08,1.06,157.9,M,-34.4,M,0000,0000*5C
lng=-77.439651, lat=43.141098, altitude=157.70, speed=17.42, satellites=8, angle=278.9700, fixquality=2
$GPRMC,142333.400,A,4308.4660,N,07726.3817,W,17.68,278.07,020519,,,D*46
$GPGGA,142333.600,4308.4661,N,07726.3832,W,2,08,1.06,158.1,M,-34.4,M,0000,0000*57
lng=-77.439697, lat=43.141098, altitude=157.90, speed=17.68, satellites=8, angle=278.0700, fixquality=2
$GPRMC,142333.800,A,4308.4663,N,07726.3846,W,17.90,278.10,020519,,,D*4C
$GPGGA,142334.000,4308.4663,N,07726.3860,W,2,08,1.06,158.3,M,-34.4,M,0000,0000*51
lng=-77.439743, lat=43.141105, altitude=158.10, speed=17.90, satellites=8, angle=278.1000, fixquality=2
$GPRMC,142334.200,A,4308.4665,N,07726.3875,W,17.95,278.04,020519,,,D*47
$GPGGA,142334.400,4308.4666,N,07726.3890,W,2,08,1.06,158.3,M,-34.4,M,0000,0000*5F
lng=-77.439796, lat=43.141105, altitude=158.30, speed=17.95, satellites=8, angle=278.0400, fixquality=2
$GPRMC,142334.600,A,4308.4668,N,07726.3904,W,18.04,278.52,020519,,,D*4D
$GPGGA,142334.800,4308.4670,N,07726.3919,W,2,08,1.06,158.3,M,-34.4,M,0000,0000*54
lng=-77.439842, lat=43.141113, altitude=158.30, speed=18.04, satellites=8, angle=278.5200, fixquality=2
$GPRMC,142335.000,A,4308.4671,N,07726.3934,W,18.02,279.41,020519,,,D*44
$GPGGA,142335.200,4308.4673,N,07726.3949,W,2,08,1.06,158.3,M,-34.4,M,0000,0000*59
lng=-77.439895, lat=43.141120, altitude=158.30, speed=18.02, satellites=8, angle=279.4100, fixquality=2
$GPRMC,142335.400,A,4308.4675,N,07726.3963,W,17.99,279.46,020519,,,D*4C
$GPGGA,142335.600,4308.4676,N,07726.3978,W,2,08,1.06,158.3,M,-34.4,M,0000,0000*5A
lng=-77.439941, lat=43.141120, altitude=158.30, speed=17.99, satellites=8, angle=279.4600, fixquality=2
$GPRMC,142335.800,A,4308.4677,N,07726.3992,W,17.78,279.19,020519,,,D*49
$GPGGA,142336.000,4308.4679,N,07726.4006,W,2,08,1.06,158.4,M,-34.4,M,0000,0000*50
lng=-77.439987, lat=43.141128, altitude=158.30, speed=17.78, satellites=8, angle=279.1900, fixquality=2
$GPRMC,142336.200,A,4308.4679,N,07726.4021,W,17.69,279.01,020519,,,D*41
$GPGGA,142336.400,4308.4681,N,07726.4036,W,2,08,1.02,158.4,M,-34.4,M,0000,0000*54
lng=-77.440040, lat=43.141128, altitude=158.40, speed=17.69, satellites=8, angle=279.0100, fixquality=2
$GPRMC,142336.600,A,4308.4682,N,07726.4050,W,17.71,278.69,020519,,,D*41
$GPGGA,142336.800,4308.4683,N,07726.4065,W,2,08,1.06,158.3,M,-34.4,M,0000,0000*5F
lng=-77.440078, lat=43.141136, altitude=158.40, speed=17.71, satellites=8, angle=278.6900, fixquality=2
$GPRMC,142337.000,A,4308.4683,N,07726.4079,W,17.45,278.36,020519,,,D*41
$GPGGA,142337.200,4308.4684,N,07726.4094,W,2,08,1.06,158.2,M,-34.4,M,0000,0000*5C
lng=-77.440132, lat=43.141136, altitude=158.30, speed=17.45, satellites=8, angle=278.3600, fixquality=2
$GPRMC,142337.400,A,4308.4684,N,07726.4108,W,17.26,277.89,020519,,,D*4B
$GPGGA,142337.600,4308.4684,N,07726.4126,W,2,08,1.02,158.3,M,-34.4,M,0000,0000*55
lng=-77.440177, lat=43.141136, altitude=158.20, speed=17.26, satellites=8, angle=277.8900, fixquality=2
$GPRMC,142337.800,A,4308.4684,N,07726.4142,W,16.33,277.36,020519,,,D*48
$GPGGA,142338.000,4308.4684,N,07726.4157,W,2,08,1.06,158.3,M,-34.4,M,0000,0000*5E
lng=-77.440231, lat=43.141136, altitude=158.30, speed=16.33, satellites=8, angle=277.3600, fixquality=2
$GPRMC,142338.200,A,4308.4684,N,07726.4172,W,14.97,275.58,020519,,,D*48
$GPGGA,142338.400,4308.4685,N,07726.4184,W,2,08,1.02,158.2,M,-34.4,M,0000,0000*50
lng=-77.440284, lat=43.141136, altitude=158.30, speed=14.97, satellites=8, angle=275.5800, fixquality=2
$GPRMC,142338.600,A,4308.4685,N,07726.4197,W,14.03,275.85,020519,,,D*4B
$GPGGA,142338.800,4308.4685,N,07726.4208,W,2,08,1.02,158.2,M,-34.4,M,0000,0000*5B
lng=-77.440330, lat=43.141136, altitude=158.20, speed=14.03, satellites=8, angle=275.8500, fixquality=2
$GPRMC,142339.000,A,4308.4685,N,07726.4220,W,12.26,276.37,020519,,,D*48
$GPGGA,142339.200,4308.4686,N,07726.4231,W,2,08,1.06,158.2,M,-34.4,M,0000,0000*5D
lng=-77.440361, lat=43.141136, altitude=158.20, speed=12.26, satellites=8, angle=276.3700, fixquality=2
$GPRMC,142339.400,A,4308.4686,N,07726.4242,W,11.67,276.61,020519,,,D*4E
$GPGGA,142339.600,4308.4685,N,07726.4251,W,2,08,1.06,158.2,M,-34.4,M,0000,0000*5C
lng=-77.440406, lat=43.141147, altitude=158.20, speed=11.67, satellites=8, angle=276.6100, fixquality=2
$GPRMC,142339.800,A,4308.4685,N,07726.4260,W,10.43,278.95,020519,,,D*43
$GPGGA,142340.000,4308.4685,N,07726.4269,W,2,08,1.06,158.1,M,-34.4,M,0000,0000*5C
lng=-77.440429, lat=43.141136, altitude=158.20, speed=10.43, satellites=8, angle=278.9500, fixquality=2
$GPRMC,142340.200,A,4308.4685,N,07726.4277,W,9.71,280.16,020519,,,D*74
$GPGGA,142340.400,4308.4685,N,07726.4285,W,2,08,1.02,158.1,M,-34.4,M,0000,0000*5E
lng=-77.440460, lat=43.141136, altitude=158.10, speed=9.71, satellites=8, angle=280.1600, fixquality=2
$GPRMC,142340.600,A,4308.4685,N,07726.4293,W,9.71,280.30,020519,,,D*7E
$GPGGA,142340.800,4308.4686,N,07726.4301,W,2,08,1.06,158.1,M,-34.4,M,0000,0000*58
lng=-77.440483, lat=43.141136, altitude=158.10, speed=9.71, satellites=8, angle=280.3000, fixquality=2
$GPRMC,142341.000,A,4308.4687,N,07726.4307,W,9.47,282.00,020519,,,D*73
$GPGGA,142341.200,4308.4688,N,07726.4312,W,2,08,1.06,158.0,M,-34.4,M,0000,0000*5E
lng=-77.440513, lat=43.141147, altitude=158.10, speed=9.47, satellites=8, angle=282.0000, fixquality=2
$GPRMC,142341.400,A,4308.4689,N,07726.4317,W,9.22,282.05,020519,,,D*7E
$GPGGA,142341.600,4308.4691,N,07726.4322,W,2,08,1.06,158.0,M,-34.4,M,0000,0000*51
lng=-77.440528, lat=43.141147, altitude=158.00, speed=9.22, satellites=8, angle=282.0500, fixquality=2
$GPRMC,142341.800,A,4308.4693,N,07726.4328,W,8.85,282.04,020519,,,D*78
$GPGGA,142342.000,4308.4694,N,07726.4334,W,2,08,1.06,158.0,M,-34.4,M,0000,0000*56
lng=-77.440544, lat=43.141155, altitude=158.00, speed=8.85, satellites=8, angle=282.0400, fixquality=2
$GPRMC,142342.200,A,4308.4696,N,07726.4339,W,8.49,281.31,020519,,,D*71
$GPGGA,142342.400,4308.4696,N,07726.4345,W,2,08,1.02,158.1,M,-34.4,M,0000,0000*53
lng=-77.440567, lat=43.141162, altitude=158.00, speed=8.49, satellites=8, angle=281.3100, fixquality=2
$GPRMC,142342.600,A,4308.4697,N,07726.4351,W,8.02,279.67,020519,,,D*71
$GPGGA,142342.800,4308.4697,N,07726.4356,W,2,08,1.06,158.2,M,-34.4,M,0000,0000*5B
lng=-77.440582, lat=43.141162, altitude=158.10, speed=8.02, satellites=8, angle=279.6700, fixquality=2
$GPRMC,142343.000,A,4308.4697,N,07726.4362,W,7.58,279.04,020519,,,D*73
$GPGGA,142343.200,4308.4698,N,07726.4367,W,2,08,1.06,158.3,M,-34.4,M,0000,0000*5C
lng=-77.440597, lat=43.141162, altitude=158.20, speed=7.58, satellites=8, angle=279.0400, fixquality=2
$GPRMC,142343.400,A,4308.4698,N,07726.4373,W,7.30,279.33,020519,,,D*72
$GPGGA,142343.600,4308.4699,N,07726.4378,W,2,08,1.06,158.4,M,-34.4,M,0000,0000*50
lng=-77.440628, lat=43.141162, altitude=158.30, speed=7.30, satellites=8, angle=279.3300, fixquality=2
$GPRMC,142343.800,A,4308.4698,N,07726.4382,W,7.03,276.81,020519,,,D*76
$GPGGA,142344.000,4308.4699,N,07726.4387,W,2,08,1.06,158.4,M,-34.4,M,0000,0000*51
lng=-77.440635, lat=43.141162, altitude=158.40, speed=7.03, satellites=8, angle=276.8100, fixquality=2
$GPRMC,142344.200,A,4308.4698,N,07726.4392,W,6.95,276.31,020519,,,D*7F
$GPGGA,142344.400,4308.4698,N,07726.4397,W,2,08,1.06,158.5,M,-34.4,M,0000,0000*54
lng=-77.440650, lat=43.141162, altitude=158.40, speed=6.95, satellites=8, angle=276.3100, fixquality=2
$GPRMC,142344.600,A,4308.4698,N,07726.4403,W,6.99,275.75,020519,,,D*7B
$GPGGA,142344.800,4308.4698,N,07726.4409,W,2,08,1.06,158.6,M,-34.4,M,0000,0000*5B
lng=-77.440673, lat=43.141162, altitude=158.50, speed=6.99, satellites=8, angle=275.7500, fixquality=2
$GPRMC,142345.000,A,4308.4698,N,07726.4415,W,7.76,275.62,020519,,,D*7D
$GPGGA,142345.200,4308.4699,N,07726.4421,W,2,08,1.06,158.7,M,-34.4,M,0000,0000*5A
lng=-77.440689, lat=43.141162, altitude=158.60, speed=7.76, satellites=8, angle=275.6200, fixquality=2
$GPRMC,142345.400,A,4308.4700,N,07726.4427,W,8.58,274.66,020519,,,D*7E
$GPGGA,142345.600,4308.4701,N,07726.4434,W,2,08,1.06,158.7,M,-34.4,M,0000,0000*5A
lng=-77.440711, lat=43.141170, altitude=158.70, speed=8.58, satellites=8, angle=274.6600, fixquality=2
