Vers 81
USE_SERIAL_FEEDBACK=true
DEVELOPMENT_MODE=false
USE_RMC_ONLY=false

$GPRMC,141100.000,A,4307.7820,N,07726.8251,W,0.21,356.10,120919,,,A*7E
$GPGGA,141100.250,4307.7820,N,07726.8251,W,1,05,2.18,140.2,M,-34.3,M,,*5B
$GPRMC,141100.500,A,4307.7819,N,07726.8251,W,0.22,359.34,120919,,,A*7B
$GPGGA,141100.750,4307.7818,N,07726.8251,W,1,05,2.18,140.1,M,-34.3,M,,*56
$GPRMC,141101.000,A,4307.7818,N,07726.8251,W,0.12,10.31,120919,,,A*46
$GPGGA,141101.250,4307.7817,N,07726.8251,W,1,05,2.18,140.0,M,-34.3,M,,*5C
$GPRMC,141101.500,A,4307.7817,N,07726.8251,W,0.05,338.48,120919,,,A*7D
$GPGGA,141101.750,4307.7816,N,07726.8252,W,1,05,2.10,139.9,M,-34.3,M,,*54
$GPRMC,141102.000,A,4307.7815,N,07726.8252,W,0.10,174.10,120919,,,A*79
$GPGGA,141102.250,4307.7811,N,07726.8253,W,1,07,1.59,139.8,M,-34.3,M,,*59
$GPRMC,141102.500,A,4307.7807,N,07726.8255,W,0.19,186.53,120919,,,A*7B
$GPGGA,141102.750,4307.7804,N,07726.8256,W,1,07,1.59,139.5,M,-34.3,M,,*50
$GPRMC,141103.000,A,4307.7801,N,07726.8257,W,0.16,192.26,120919,,,A*73
$GPGGA,141103.250,4307.7799,N,07726.8258,W,1,07,1.59,139.2,M,-34.3,M,,*56
$GPRMC,141103.500,A,4307.7796,N,07726.8259,W,0.17,190.64,120919,,,A*7C
$GPGGA,141103.750,4307.7794,N,07726.8260,W,1,07,1.59,139.0,M,-34.3,M,,*57
$GPRMC,141104.000,A,4307.7792,N,07726.8261,W,0.16,205.29,120919,,,A*76
$GPGGA,141104.250,4307.7791,N,07726.8261,W,1,07,1.59,138.9,M,-34.3,M,,*59
$GPRMC,141104.500,A,4307.7789,N,07726.8262,W,0.11,210.52,120919,,,A*75
$GPGGA,141104.750,4307.7788,N,07726.8262,W,1,07,1.59,138.9,M,-34.3,M,,*57
$GPRMC,141105.000,A,4307.7787,N,07726.8262,W,0.08,200.94,120919,,,A*7C
$GPGGA,141105.250,4307.7785,N,07726.8263,W,1,07,1.59,138.8,M,-34.3,M,,*5E
$GPRMC,141105.500,A,4307.7784,N,07726.8264,W,0.02,232.02,120919,,,A*78
$GPGGA,141105.750,4307.7782,N,07726.8264,W,1,07,1.59,138.8,M,-34.3,M,,*5B
$GPRMC,141106.000,A,4307.7782,N,07726.8264,W,0.04,350.72,120919,,,A*7C
$GPGGA,141106.250,4307.7782,N,07726.8264,W,1,07,1.70,138.9,M,-34.3,M,,*57
$GPRMC,141106.500,A,4307.7781,N,07726.8265,W,0.15,319.35,120919,,,A*75
$GPGGA,141106.750,4307.7780,N,07726.8265,W,1,07,1.59,139.0,M,-34.3,M,,*52
$GPRMC,141107.000,A,4307.7779,N,07726.8265,W,0.03,35.58,120919,,,A*47
$GPGGA,141107.250,4307.7778,N,07726.8265,W,1,07,1.59,139.0,M,-34.3,M,,*51
$GPRMC,141107.500,A,4307.7776,N,07726.8265,W,0.14,144.87,120919,,,A*7E
$GPGGA,141107.750,4307.7775,N,07726.8266,W,1,07,1.59,139.0,M,-34.3,M,,*5A
$GPRMC,141108.000,A,4307.7774,N,07726.8266,W,0.10,187.58,120919,,,A*7C
$GPGGA,141108.250,4307.7773,N,07726.8266,W,1,07,1.59,139.0,M,-34.3,M,,*56
$GPRMC,141108.500,A,4307.7773,N,07726.8266,W,0.08,152.48,120919,,,A*7E
$GPGGA,141108.750,4307.7772,N,07726.8267,W,1,07,1.59,139.0,M,-34.3,M,,*53
$GPRMC,141109.000,A,4307.7771,N,07726.8267,W,0.10,199.63,120919,,,A*7E
$GPGGA,141109.250,4307.7770,N,07726.8268,W,1,07,1.59,139.0,M,-34.3,M,,*5A
$GPRMC,141109.500,A,4307.7769,N,07726.8268,W,0.10,205.59,120919,,,A*72
$GPGGA,141109.750,4307.7768,N,07726.8268,W,1,07,1.59,139.1,M,-34.3,M,,*57
$GPRMC,141110.000,A,4307.7768,N,07726.8268,W,0.11,197.66,120919,,,A*7B
$GPGGA,141110.250,4307.7767,N,07726.8269,W,1,07,1.59,139.1,M,-34.3,M,,*54
$GPRMC,141110.500,A,4307.7767,N,07726.8269,W,0.12,200.94,120919,,,A*73
$GPGGA,141110.750,4307.7766,N,07726.8269,W,1,07,1.59,139.1,M,-34.3,M,,*50
$GPRMC,141111.000,A,4307.7765,N,07726.8270,W,0.14,186.98,120919,,,A*7A
$GPGGA,141111.250,4307.7763,N,07726.8270,W,1,07,1.59,139.0,M,-34.3,M,,*58
$GPRMC,141111.500,A,4307.7762,N,07726.8270,W,0.21,161.83,120919,,,A*7D
$GPGGA,141111.750,4307.7761,N,07726.8271,W,1,07,1.59,139.0,M,-34.3,M,,*5E
$GPRMC,141112.000,A,4307.7760,N,07726.8271,W,0.15,163.30,120919,,,A*75
$GPGGA,141112.250,4307.7760,N,07726.8271,W,1,07,1.59,139.0,M,-34.3,M,,*59
$GPRMC,141112.500,A,4307.7759,N,07726.8271,W,0.17,183.51,120919,,,A*71
$GPGGA,141112.750,4307.7759,N,07726.8271,W,1,07,1.59,139.0,M,-34.3,M,,*56
$GPRMC,141113.000,A,4307.7758,N,07726.8272,W,0.20,192.90,120919,,,A*7E
$GPGGA,141113.250,4307.7757,N,07726.8272,W,1,07,1.59,138.9,M,-34.3,M,,*57
$GPRMC,141113.500,A,4307.7757,N,07726.8272,W,0.25,182.57,120919,,,A*7B
$GPGGA,141113.750,4307.7757,N,07726.8272,W,1,07,1.59,138.9,M,-34.3,M,,*52
$GPRMC,141114.000,A,4307.7757,N,07726.8273,W,0.25,198.92,120919,,,A*7A
$GPGGA,141114.250,4307.7756,N,07726.8273,W,1,07,1.59,138.9,M,-34.3,M,,*50
$GPRMC,141114.500,A,4307.7755,N,07726.8273,W,0.22,191.23,120919,,,A*79
$GPGGA,141114.750,4307.7755,N,07726.8274,W,1,07,1.59,138.8,M,-34.3,M,,*50
$GPRMC,141115.000,A,4307.7754,N,07726.8274,W,0.20,200.02,120919,,,A*71
$GPGGA,141115.250,4307.7754,N,07726.8274,W,1,07,1.59,138.8,M,-34.3,M,,*55
$GPRMC,141115.500,A,4307.7754,N,07726.8274,W,0.21,191.45,120919,,,A*7D
$GPGGA,141115.750,4307.7754,N,07726.8274,W,1,07,1.59,138.8,M,-34.3,M,,*50
$GPRMC,141116.000,A,4307.7754,N,07726.8275,W,0.15,197.12,120919,,,A*79
$GPGGA,141116.250,4307.7754,N,07726.8275,W,1,07,1.59,138.9,M,-34.3,M,,*56
$GPRMC,141116.500,A,4307.7754,N,07726.8275,W,0.17,221.13,120919,,,A*71
$GPGGA,141116.750,4307.7755,N,07726.8275,W,1,07,1.59,138.9,M,-34.3,M,,*52
$GPRMC,141117.000,A,4307.7755,N,07726.8276,W,0.18,228.38,120919,,,A*78
$GPGGA,141117.250,4307.7755,N,07726.8276,W,1,07,1.59,139.0,M,-34.3,M,,*5D
$GPRMC,141117.500,A,4307.7755,N,07726.8276,W,0.21,224.34,120919,,,A*77
$GPGGA,141117.750,4307.7755,N,07726.8276,W,1,07,1.59,139.0,M,-34.3,M,,*58
$GPRMC,141118.000,A,4307.7755,N,07726.8276,W,0.22,217.57,120919,,,A*7B
$GPGGA,141118.250,4307.7755,N,07726.8276,W,1,07,1.59,139.2,M,-34.3,M,,*50
$GPRMC,141118.500,A,4307.7755,N,07726.8276,W,0.19,198.66,120919,,,A*70
$GPGGA,141118.750,4307.7756,N,07726.8276,W,1,07,1.59,139.3,M,-34.3,M,,*57
$GPRMC,141119.000,A,4307.7756,N,07726.8276,W,0.16,204.37,120919,,,A*7A
$GPGGA,141119.250,4307.7757,N,07726.8276,W,1,07,1.59,139.4,M,-34.3,M,,*55
$GPRMC,141119.500,A,4307.7757,N,07726.8275,W,0.08,193.82,120919,,,A*71
$GPGGA,141119.750,4307.7758,N,07726.8275,W,1,07,1.59,139.5,M,-34.3,M,,*5D
$GPRMC,141120.000,A,4307.7758,N,07726.8275,W,0.08,164.24,120919,,,A*75
$GPGGA,141120.250,4307.7758,N,07726.8275,W,1,07,1.59,139.6,M,-34.3,M,,*51
$GPRMC,141120.500,A,4307.7759,N,07726.8275,W,0.06,147.59,120919,,,A*74
$GPGGA,141120.750,4307.7760,N,07726.8275,W,1,07,1.59,139.6,M,-34.3,M,,*5F
$GPRMC,141121.000,A,4307.7761,N,07726.8274,W,0.07,46.50,120919,,,A*42
$GPGGA,141121.250,4307.7761,N,07726.8274,W,1,07,1.59,139.7,M,-34.3,M,,*5A
$GPRMC,141121.500,A,4307.7761,N,07726.8274,W,0.12,64.22,120919,,,A*46
$GPGGA,141121.750,4307.7762,N,07726.8274,W,1,07,1.59,139.9,M,-34.3,M,,*52
$GPRMC,141122.000,A,4307.7763,N,07726.8274,W,0.14,51.79,120919,,,A*4C
$GPGGA,141122.250,4307.7763,N,07726.8273,W,1,07,1.59,140.0,M,-34.3,M,,*55
$GPRMC,141122.500,A,4307.7764,N,07726.8273,W,0.19,46.27,120919,,,A*49
$GPGGA,141122.750,4307.7765,N,07726.8273,W,1,07,1.59,140.1,M,-34.3,M,,*57
$GPRMC,141123.000,A,4307.7765,N,07726.8273,W,0.18,44.99,120919,,,A*4A
$GPGGA,141123.250,4307.7766,N,07726.8273,W,1,07,1.59,140.2,M,-34.3,M,,*53
$GPRMC,141123.500,A,4307.7766,N,07726.8272,W,0.13,38.76,120919,,,A*4C
$GPGGA,141123.750,4307.7767,N,07726.8272,W,1,07,1.59,140.3,M,-34.3,M,,*57
$GPRMC,141124.000,A,4307.7767,N,07726.8272,W,0.15,59.04,120919,,,A*4B
$GPGGA,141124.250,4307.7767,N,07726.8272,W,1,07,1.59,140.3,M,-34.3,M,,*55
$GPRMC,141124.500,A,4307.7768,N,07726.8272,W,0.10,49.40,120919,,,A*45
$GPGGA,141124.750,4307.7769,N,07726.8271,W,1,07,1.59,140.4,M,-34.3,M,,*5A
$GPRMC,141125.000,A,4307.7769,N,07726.8271,W,0.10,51.33,120919,,,A*4E
$GPGGA,141125.250,4307.7769,N,07726.8271,W,1,07,1.59,140.4,M,-34.3,M,,*5E
$GPRMC,141125.500,A,4307.7769,N,07726.8271,W,0.17,108.22,120919,,,A*71
$GPGGA,141125.750,4307.7769,N,07726.8270,W,1,07,1.59,140.5,M,-34.3,M,,*5B
$GPRMC,141126.000,A,4307.7770,N,07726.8270,W,0.11,82.70,120919,,,A*4C
$GPGGA,141126.250,4307.7771,N,07726.8270,W,1,07,1.59,140.5,M,-34.3,M,,*54
$GPRMC,141126.500,A,4307.7771,N,07726.8271,W,0.08,315.75,120919,,,A*79
$GPGGA,141126.750,4307.7771,N,07726.8271,W,1,07,1.59,140.6,M,-34.3,M,,*53
$GPRMC,141127.000,A,4307.7771,N,07726.8271,W,0.07,213.39,120919,,,A*7D
$GPGGA,141127.250,4307.7772,N,07726.8271,W,1,07,1.59,140.6,M,-34.3,M,,*54
$GPRMC,141127.500,A,4307.7772,N,07726.8271,W,0.10,279.23,120919,,,A*7A
$GPGGA,141127.750,4307.7773,N,07726.8271,W,1,07,1.59,140.6,M,-34.3,M,,*50
$GPRMC,141128.000,A,4307.7773,N,07726.8271,W,0.15,271.81,120919,,,A*74
$GPGGA,141128.250,4307.7774,N,07726.8271,W,1,07,1.59,140.6,M,-34.3,M,,*5D
$GPRMC,141128.500,A,4307.7774,N,07726.8271,W,0.09,285.97,120919,,,A*77
$GPGGA,141128.750,4307.7775,N,07726.8271,W,1,07,1.59,140.7,M,-34.3,M,,*58
$GPRMC,141129.000,A,4307.7775,N,07726.8270,W,0.02,151.89,120919,,,A*7D
$GPGGA,141129.250,4307.7775,N,07726.8270,W,1,07,1.59,140.7,M,-34.3,M,,*5D
$GPRMC,141129.500,A,4307.7775,N,07726.8270,W,0.02,13.87,120919,,,A*41
$GPGGA,141129.750,4307.7775,N,07726.8270,W,1,07,1.71,140.7,M,-34.3,M,,*52
$GPRMC,141130.000,A,4307.7776,N,07726.8270,W,0.11,346.77,120919,,,A*71
$GPGGA,141130.250,4307.7776,N,07726.8270,W,1,07,1.71,140.7,M,-34.3,M,,*5C
$GPRMC,141130.500,A,4307.7776,N,07726.8270,W,0.21,342.24,120919,,,A*75
$GPGGA,141130.750,4307.7776,N,07726.8270,W,1,07,1.59,140.7,M,-34.3,M,,*53
$GPRMC,141131.000,A,4307.7776,N,07726.8270,W,0.04,351.55,120919,,,A*72
$GPGGA,141131.250,4307.7776,N,07726.8270,W,1,07,1.71,140.7,M,-34.3,M,,*5D
$GPRMC,141131.500,A,4307.7776,N,07726.8270,W,0.20,162.90,120919,,,A*7A
$GPGGA,141131.750,4307.7776,N,07726.8270,W,1,07,1.59,140.7,M,-34.3,M,,*52
$GPRMC,141132.000,A,4307.7776,N,07726.8270,W,0.13,183.14,120919,,,A*7F
$GPGGA,141132.250,4307.7776,N,07726.8270,W,1,08,1.01,140.7,M,-34.3,M,,*56
$GPRMC,141132.500,A,4307.7776,N,07726.8270,W,0.05,274.93,120919,,,A*79
$GPGGA,141132.750,4307.7776,N,07726.8270,W,1,08,1.01,140.7,M,-34.3,M,,*53
$GPRMC,141133.000,A,4307.7776,N,07726.8270,W,0.12,318.25,120919,,,A*7D
$GPGGA,141133.250,4307.7776,N,07726.8270,W,1,08,1.01,140.7,M,-34.3,M,,*57
$GPRMC,141133.500,A,4307.7776,N,07726.8271,W,0.16,355.81,120919,,,A*7A
$GPGGA,141133.750,4307.7776,N,07726.8271,W,1,08,1.04,140.7,M,-34.3,M,,*56
$GPRMC,141134.000,A,4307.7776,N,07726.8271,W,0.16,4.54,120919,,,A*77
$GPGGA,141134.250,4307.7776,N,07726.8270,W,1,08,1.04,140.8,M,-34.3,M,,*5A
$GPRMC,141134.500,A,4307.7777,N,07726.8270,W,0.14,351.06,120919,,,A*74
$GPGGA,141134.750,4307.7777,N,07726.8270,W,1,08,1.04,140.8,M,-34.3,M,,*5E
$GPRMC,141135.000,A,4307.7777,N,07726.8271,W,0.13,352.83,120919,,,A*78
$GPGGA,141135.250,4307.7777,N,07726.8271,W,1,08,1.04,140.8,M,-34.3,M,,*5B
$GPRMC,141135.500,A,4307.7777,N,07726.8271,W,0.22,323.86,120919,,,A*7C
$GPGGA,141135.750,4307.7777,N,07726.8271,W,1,08,1.01,140.8,M,-34.3,M,,*5B
$GPRMC,141136.000,A,4307.7777,N,07726.8271,W,0.25,325.25,120919,,,A*72
$GPGGA,141136.250,4307.7778,N,07726.8271,W,1,08,1.01,140.8,M,-34.3,M,,*52
$GPRMC,141136.500,A,4307.7778,N,07726.8271,W,0.26,321.61,120919,,,A*7F
$GPGGA,141136.750,4307.7778,N,07726.8271,W,1,08,1.01,140.8,M,-34.3,M,,*57
$GPRMC,141137.000,A,4307.7778,N,07726.8271,W,0.22,335.03,120919,,,A*7E
$GPGGA,141137.250,4307.7778,N,07726.8271,W,1,08,1.01,140.8,M,-34.3,M,,*53
$GPRMC,141137.500,A,4307.7778,N,07726.8271,W,0.18,3.50,120919,,,A*72
$GPGGA,141137.750,4307.7778,N,07726.8271,W,1,08,1.04,140.8,M,-34.3,M,,*53
$GPRMC,141138.000,A,4307.7779,N,07726.8271,W,0.18,358.70,120919,,,A*76
$GPGGA,141138.250,4307.7779,N,07726.8271,W,1,08,1.04,140.8,M,-34.3,M,,*58
$GPRMC,141138.500,A,4307.7779,N,07726.8271,W,0.28,344.70,120919,,,A*7D
$GPGGA,141138.750,4307.7779,N,07726.8271,W,1,08,1.04,140.8,M,-34.3,M,,*5D
$GPRMC,141139.000,A,4307.7779,N,07726.8271,W,0.27,347.04,120919,,,A*76
$GPGGA,141139.250,4307.7780,N,07726.8271,W,1,08,1.04,140.8,M,-34.3,M,,*5F
$GPRMC,141139.500,A,4307.7780,N,07726.8271,W,0.25,350.23,120919,,,A*74
$GPGGA,141139.750,4307.7780,N,07726.8271,W,1,08,1.04,140.8,M,-34.3,M,,*5A
$GPRMC,141140.000,A,4307.7780,N,07726.8271,W,0.34,353.01,120919,,,A*7C
$GPGGA,141140.250,4307.7781,N,07726.8271,W,1,08,1.04,140.8,M,-34.3,M,,*50
$GPRMC,141140.500,A,4307.7781,N,07726.8271,W,0.37,356.43,120919,,,A*78
$GPGGA,141140.750,4307.7781,N,07726.8271,W,1,08,1.04,140.8,M,-34.3,M,,*55
$GPRMC,141141.000,A,4307.7781,N,07726.8271,W,0.33,358.68,120919,,,A*7F
$GPGGA,141141.250,4307.7782,N,07726.8271,W,1,08,1.04,140.8,M,-34.3,M,,*52
$GPRMC,141141.500,A,4307.7782,N,07726.8271,W,0.31,1.83,120919,,,A*71
$GPGGA,141141.750,4307.7782,N,07726.8271,W,1,08,1.01,140.8,M,-34.3,M,,*52
$GPRMC,141142.000,A,4307.7782,N,07726.8271,W,0.30,6.86,120919,,,A*74
$GPGGA,141142.250,4307.7782,N,07726.8270,W,1,08,1.01,140.8,M,-34.3,M,,*55
$GPRMC,141142.500,A,4307.7783,N,07726.8270,W,0.24,9.04,120919,,,A*71
$GPGGA,141142.750,4307.7783,N,07726.8270,W,1,08,1.01,140.8,M,-34.3,M,,*51
$GPRMC,141143.000,A,4307.7783,N,07726.8270,W,0.20,9.47,120919,,,A*76
$GPGGA,141143.250,4307.7783,N,07726.8270,W,1,08,1.04,140.8,M,-34.3,M,,*50
$GPRMC,141143.500,A,4307.7783,N,07726.8270,W,0.21,9.26,120919,,,A*75
$GPGGA,141143.750,4307.7783,N,07726.8270,W,1,08,1.04,140.8,M,-34.3,M,,*55
$GPRMC,141144.000,A,4307.7783,N,07726.8270,W,0.18,8.75,120919,,,A*7A
$GPGGA,141144.250,4307.7784,N,07726.8270,W,1,08,1.04,140.8,M,-34.3,M,,*50
$GPRMC,141144.500,A,4307.7784,N,07726.8270,W,0.20,8.72,120919,,,D*71
$GPGGA,141144.750,4307.7785,N,07726.8270,W,2,08,1.04,140.8,M,-34.3,M,0000,0000*57
$GPRMC,141145.000,A,4307.7786,N,07726.8270,W,0.28,7.51,120919,,,D*71
$GPGGA,141145.250,4307.7787,N,07726.8269,W,2,08,1.04,140.8,M,-34.3,M,0000,0000*59
$GPRMC,141145.500,A,4307.7787,N,07726.8269,W,0.30,8.32,120919,,,D*7E
$GPGGA,141145.750,4307.7788,N,07726.8268,W,2,08,1.01,140.7,M,-34.3,M,0000,0000*58
$GPRMC,141146.000,A,4307.7788,N,07726.8268,W,0.32,11.20,120919,,,D*4F
$GPGGA,141146.250,4307.7789,N,07726.8267,W,2,08,1.01,140.7,M,-34.3,M,0000,0000*50
$GPRMC,141146.500,A,4307.7790,N,07726.8267,W,0.36,13.61,120919,,,D*4F
$GPGGA,141146.750,4307.7791,N,07726.8267,W,2,08,1.01,140.7,M,-34.3,M,0000,0000*5C
$GPRMC,141147.000,A,4307.7791,N,07726.8266,W,0.40,15.69,120919,,,D*44
$GPGGA,141147.250,4307.7792,N,07726.8266,W,2,08,1.01,140.7,M,-34.3,M,0000,0000*5A
$GPRMC,141147.500,A,4307.7792,N,07726.8266,W,0.43,17.73,120919,,,D*48
$GPGGA,141147.750,4307.7793,N,07726.8266,W,2,08,1.01,140.7,M,-34.3,M,0000,0000*5E
$GPRMC,141148.000,A,4307.7793,N,07726.8265,W,0.39,19.52,120919,,,D*40
$GPGGA,141148.250,4307.7793,N,07726.8265,W,2,08,1.01,140.6,M,-34.3,M,0000,0000*56
$GPRMC,141148.500,A,4307.7793,N,07726.8265,W,0.33,21.72,120919,,,D*46
$GPGGA,141148.750,4307.7794,N,07726.8265,W,2,08,1.01,140.6,M,-34.3,M,0000,0000*54
$GPRMC,141149.000,A,4307.7794,N,07726.8265,W,0.27,23.79,120919,,,D*49
$GPGGA,141149.250,4307.7794,N,07726.8265,W,2,08,1.01,140.6,M,-34.3,M,0000,0000*50
$GPRMC,141149.500,A,4307.7794,N,07726.8265,W,0.28,24.01,120919,,,D*4B
$GPGGA,141149.750,4307.7795,N,07726.8265,W,2,08,1.01,140.6,M,-34.3,M,0000,0000*54
$GPRMC,141150.000,A,4307.7795,N,07726.8265,W,0.28,22.57,120919,,,D*42
$GPGGA,141150.250,4307.7795,N,07726.8265,W,2,08,1.04,140.6,M,-34.3,M,0000,0000*5C
$GPRMC,141150.500,A,4307.7794,N,07726.8265,W,0.19,22.07,120919,,,D*41
$GPGGA,141150.750,4307.7794,N,07726.8265,W,2,08,1.01,140.6,M,-34.3,M,0000,0000*5D
$GPRMC,141151.000,A,4307.7794,N,07726.8265,W,0.17,21.26,120919,,,D*4B
$GPGGA,141151.250,4307.7795,N,07726.8265,W,2,08,1.04,140.6,M,-34.3,M,0000,0000*5D
$GPRMC,141151.500,A,4307.7795,N,07726.8266,W,0.17,19.32,120919,,,D*42
$GPGGA,141151.750,4307.7795,N,07726.8266,W,2,08,1.04,140.6,M,-34.3,M,0000,0000*5B
$GPRMC,141152.000,A,4307.7795,N,07726.8266,W,0.11,17.85,120919,,,D*40
$GPGGA,141152.250,4307.7794,N,07726.8266,W,2,08,1.04,140.7,M,-34.3,M,0000,0000*5D
$GPRMC,141152.500,A,4307.7794,N,07726.8266,W,0.10,19.42,120919,,,D*40
$GPGGA,141152.750,4307.7794,N,07726.8266,W,2,08,1.01,140.7,M,-34.3,M,0000,0000*5D
$GPRMC,141153.000,A,4307.7794,N,07726.8266,W,0.10,21.91,120919,,,D*41
$GPGGA,141153.250,4307.7794,N,07726.8266,W,2,08,1.01,140.7,M,-34.3,M,0000,0000*59
$GPRMC,141153.500,A,4307.7794,N,07726.8266,W,0.09,24.12,120919,,,D*42
$GPGGA,141153.750,4307.7793,N,07726.8266,W,2,08,1.01,140.7,M,-34.3,M,0000,0000*5B
$GPRMC,141154.000,A,4307.7793,N,07726.8266,W,0.07,76.72,120919,,,D*48
$GPGGA,141154.250,4307.7793,N,07726.8266,W,2,08,1.01,140.7,M,-34.3,M,0000,0000*59
$GPRMC,141154.500,A,4307.7793,N,07726.8266,W,0.09,354.06,120919,,,D*73
$GPGGA,141154.750,4307.7793,N,07726.8267,W,2,08,1.04,140.7,M,-34.3,M,0000,0000*58
$GPRMC,141155.000,A,4307.7793,N,07726.8267,W,0.08,359.00,120919,,,D*7C
$GPGGA,141155.250,4307.7793,N,07726.8266,W,2,08,1.04,140.7,M,-34.3,M,0000,0000*5D
$GPRMC,141155.500,A,4307.7792,N,07726.8267,W,0.04,18.23,120919,,,D*43
$GPGGA,141155.750,4307.7792,N,07726.8267,W,2,08,1.01,140.7,M,-34.3,M,0000,0000*5D
$GPRMC,141156.000,A,4307.7791,N,07726.8267,W,0.03,233.91,120919,,,D*73
$GPGGA,141156.250,4307.7791,N,07726.8267,W,2,08,1.01,140.7,M,-34.3,M,0000,0000*58
$GPRMC,141156.500,A,4307.7791,N,07726.8268,W,0.11,289.54,120919,,,D*72
$GPGGA,141156.750,4307.7790,N,07726.8268,W,2,08,1.01,140.7,M,-34.3,M,0000,0000*53
$GPRMC,141157.000,A,4307.7790,N,07726.8268,W,0.07,293.80,120919,,,D*72
$GPGGA,141157.250,4307.7789,N,07726.8268,W,2,08,1.01,140.7,M,-34.3,M,0000,0000*5F
$GPRMC,141157.500,A,4307.7789,N,07726.8268,W,0.04,95.02,120919,,,D*42
$GPGGA,141157.750,4307.7788,N,07726.8268,W,2,08,1.01,140.7,M,-34.3,M,0000,0000*5B
$GPRMC,141158.000,A,4307.7787,N,07726.8269,W,0.07,173.98,120919,,,D*7E
$GPGGA,141158.250,4307.7787,N,07726.8269,W,2,08,1.01,140.8,M,-34.3,M,0000,0000*50
$GPRMC,141158.500,A,4307.7787,N,07726.8269,W,0.07,253.51,120919,,,D*7F
$GPGGA,141158.750,4307.7786,N,07726.8270,W,2,08,1.01,140.8,M,-34.3,M,0000,0000*5C
$GPRMC,141159.000,A,4307.7786,N,07726.8270,W,0.08,262.23,120919,,,D*7A
$GPGGA,141159.250,4307.7785,N,07726.8270,W,2,08,1.01,140.8,M,-34.3,M,0000,0000*5B
$GPRMC,141159.500,A,4307.7785,N,07726.8270,W,0.06,242.26,120919,,,D*75
$GPGGA,141159.750,4307.7784,N,07726.8270,W,2,08,1.01,140.8,M,-34.3,M,0000,0000*5F
$GPRMC,141200.000,A,4307.7784,N,07726.8270,W,0.09,193.64,120919,,,D*78
$GPGGA,141200.250,4307.7784,N,07726.8271,W,2,08,1.01,140.8,M,-34.3,M,0000,0000*54
$GPRMC,141200.500,A,4307.7784,N,07726.8271,W,0.11,248.63,120919,,,D*77
$GPGGA,141200.750,4307.7784,N,07726.8271,W,2,08,1.01,140.8,M,-34.3,M,0000,0000*51
$GPRMC,141201.000,A,4307.7784,N,07726.8271,W,0.09,212.61,120919,,,D*77
$GPGGA,141201.250,4307.7784,N,07726.8270,W,2,08,1.01,140.8,M,-34.3,M,0000,0000*54
$GPRMC,141201.500,A,4307.7784,N,07726.8270,W,0.11,185.17,120919,,,D*76
$GPGGA,141201.750,4307.7784,N,07726.8270,W,2,08,1.01,140.8,M,-34.3,M,0000,0000*51
$GPRMC,141202.000,A,4307.7784,N,07726.8270,W,0.09,190.95,120919,,,D*77
$GPGGA,141202.250,4307.7784,N,07726.8270,W,2,08,1.01,140.8,M,-34.3,M,0000,0000*57
$GPRMC,141202.500,A,4307.7784,N,07726.8270,W,0.11,252.53,120919,,,D*7C
$GPGGA,141202.750,4307.7784,N,07726.8270,W,2,08,1.01,140.9,M,-34.3,M,0000,0000*53
$GPRMC,141203.000,A,4307.7784,N,07726.8270,W,0.08,249.90,120919,,,D*75
$GPGGA,141203.250,4307.7784,N,07726.8270,W,2,08,1.01,140.9,M,-34.3,M,0000,0000*57
$GPRMC,141203.500,A,4307.7784,N,07726.8270,W,0.10,199.75,120919,,,D*7C
$GPGGA,141203.750,4307.7784,N,07726.8270,W,2,08,1.01,140.9,M,-34.3,M,0000,0000*52
$GPRMC,141204.000,A,4307.7785,N,07726.8270,W,0.05,273.53,120919,,,D*78
$GPGGA,141204.250,4307.7785,N,07726.8270,W,2,08,1.01,140.9,M,-34.3,M,0000,0000*51
$GPRMC,141204.500,A,4307.7785,N,07726.8270,W,0.07,330.13,120919,,,D*7D
$GPGGA,141204.750,4307.7786,N,07726.8269,W,2,08,1.01,140.9,M,-34.3,M,0000,0000*5F
$GPRMC,141205.000,A,4307.7786,N,07726.8269,W,0.06,301.49,120919,,,D*7E
$GPGGA,141205.250,4307.7786,N,07726.8270,W,2,08,1.01,140.9,M,-34.3,M,0000,0000*53
$GPRMC,141205.500,A,4307.7786,N,07726.8270,W,0.18,280.18,120919,,,D*70
$GPGGA,141205.750,4307.7786,N,07726.8270,W,2,08,1.01,140.9,M,-34.3,M,0000,0000*56
$GPRMC,141206.000,A,4307.7787,N,07726.8270,W,0.03,355.63,120919,,,D*78
$GPGGA,141206.250,4307.7787,N,07726.8269,W,2,08,1.01,141.0,M,-34.3,M,0000,0000*51
$GPRMC,141206.500,A,4307.7788,N,07726.8269,W,0.06,14.57,120919,,,D*4E
$GPGGA,141206.750,4307.7788,N,07726.8269,W,2,08,1.01,141.0,M,-34.3,M,0000,0000*5B
$GPRMC,141207.000,A,4307.7788,N,07726.8268,W,0.03,82.81,120919,,,D*4A
$GPGGA,141207.250,4307.7788,N,07726.8268,W,2,08,1.01,141.0,M,-34.3,M,0000,0000*5E
$GPRMC,141207.500,A,4307.7788,N,07726.8268,W,0.03,76.78,120919,,,D*42
$GPGGA,141207.750,4307.7788,N,07726.8268,W,2,08,1.01,141.1,M,-34.3,M,0000,0000*5A
$GPRMC,141208.000,A,4307.7789,N,07726.8268,W,0.03,311.76,120919,,,D*75
$GPGGA,141208.250,4307.7789,N,07726.8267,W,2,08,1.01,141.1,M,-34.3,M,0000,0000*5E
$GPRMC,141208.500,A,4307.7789,N,07726.8267,W,0.00,105.74,120919,,,D*79
$GPGGA,141208.750,4307.7789,N,07726.8267,W,2,08,1.01,141.1,M,-34.3,M,0000,0000*5B
$GPRMC,141209.000,A,4307.7789,N,07726.8267,W,0.02,3.98,120919,,,D*7A
$GPGGA,141209.250,4307.7789,N,07726.8267,W,2,08,1.01,141.2,M,-34.3,M,0000,0000*5C
$GPRMC,141209.500,A,4307.7789,N,07726.8267,W,0.02,171.49,120919,,,D*77
$GPGGA,141209.750,4307.7789,N,07726.8266,W,2,08,1.01,141.2,M,-34.3,M,0000,0000*58
$GPRMC,141210.000,A,4307.7789,N,07726.8266,W,0.01,136.37,120919,,,D*72
$GPGGA,141210.250,4307.7789,N,07726.8266,W,2,08,1.01,141.2,M,-34.3,M,0000,0000*55
$GPRMC,141210.500,A,4307.7789,N,07726.8266,W,0.00,310.91,120919,,,D*7C
$GPGGA,141210.750,4307.7789,N,07726.8266,W,2,08,1.01,141.2,M,-34.3,M,0000,0000*50
$GPRMC,141211.000,A,4307.7790,N,07726.8266,W,0.01,84.36,120919,,,D*42
$GPGGA,141211.250,4307.7790,N,07726.8266,W,2,08,1.01,141.2,M,-34.3,M,0000,0000*5C
$GPRMC,141211.500,A,4307.7790,N,07726.8266,W,0.01,356.37,120919,,,D*7A
$GPGGA,141211.750,4307.7790,N,07726.8266,W,2,08,1.01,141.2,M,-34.3,M,0000,0000*59
$GPRMC,141212.000,A,4307.7791,N,07726.8265,W,0.01,45.75,120919,,,D*49
$GPGGA,141212.250,4307.7791,N,07726.8265,W,2,08,1.01,141.2,M,-34.3,M,0000,0000*5D
$GPRMC,141212.500,A,4307.7791,N,07726.8265,W,0.01,205.61,120919,,,D*7F
$GPGGA,141212.750,4307.7791,N,07726.8265,W,2,08,1.01,141.3,M,-34.3,M,0000,0000*59
$GPRMC,141213.000,A,4307.7791,N,07726.8265,W,0.01,23.86,120919,,,D*44
$GPGGA,141213.250,4307.7791,N,07726.8265,W,2,08,1.01,141.3,M,-34.3,M,0000,0000*5D
$GPRMC,141213.500,A,4307.7791,N,07726.8265,W,0.01,105.71,120919,,,D*7C
$GPGGA,141213.750,4307.7792,N,07726.8265,W,2,08,1.01,141.3,M,-34.3,M,0000,0000*5B
$GPRMC,141214.000,A,4307.7792,N,07726.8265,W,0.01,357.97,120919,,,D*70
$GPGGA,141214.250,4307.7793,N,07726.8265,W,2,08,1.01,141.3,M,-34.3,M,0000,0000*58
$GPRMC,141214.500,A,4307.7793,N,07726.8265,W,0.02,327.68,120919,,,D*70
$GPGGA,141214.750,4307.7794,N,07726.8265,W,2,08,1.01,141.3,M,-34.3,M,0000,0000*5A
$GPRMC,141215.000,A,4307.7794,N,07726.8264,W,0.01,20.51,120919,,,D*4F
$GPGGA,141215.250,4307.7795,N,07726.8264,W,2,08,1.01,141.3,M,-34.3,M,0000,0000*5E
$GPRMC,141215.500,A,4307.7795,N,07726.8264,W,0.02,18.65,120919,,,D*44
$GPGGA,141215.750,4307.7795,N,07726.8264,W,2,08,1.01,141.4,M,-34.3,M,0000,0000*5C
$GPRMC,141216.000,A,4307.7797,N,07726.8264,W,0.04,5.91,120919,,,D*71
$GPGGA,141216.250,4307.7797,N,07726.8263,W,2,08,1.01,141.4,M,-34.3,M,0000,0000*5F
$GPRMC,141216.500,A,4307.7797,N,07726.8263,W,0.01,17.78,120919,,,D*42
$GPGGA,141216.750,4307.7797,N,07726.8263,W,2,08,1.01,141.4,M,-34.3,M,0000,0000*5A
$GPRMC,141217.000,A,4307.7797,N,07726.8263,W,0.01,50.16,120919,,,D*4D
$GPGGA,141217.250,4307.7797,N,07726.8263,W,2,08,1.01,141.4,M,-34.3,M,0000,0000*5E
$GPRMC,141217.500,A,4307.7797,N,07726.8262,W,0.00,267.53,120919,,,D*7F
$GPGGA,141217.750,4307.7797,N,07726.8262,W,2,08,1.01,141.5,M,-34.3,M,0000,0000*5B
$GPRMC,141218.000,A,4307.7797,N,07726.8262,W,0.00,334.16,120919,,,D*73
$GPGGA,141218.250,4307.7798,N,07726.8262,W,2,08,1.01,141.5,M,-34.3,M,0000,0000*5E
$GPRMC,141218.500,A,4307.7798,N,07726.8262,W,0.01,61.53,120919,,,D*4A
$GPGGA,141218.750,4307.7798,N,07726.8262,W,2,08,1.01,141.5,M,-34.3,M,0000,0000*5B
$GPRMC,141219.000,A,4307.7798,N,07726.8262,W,0.00,223.15,120919,,,D*79
$GPGGA,141219.250,4307.7798,N,07726.8262,W,2,08,1.01,141.6,M,-34.3,M,0000,0000*5C
$GPRMC,141219.500,A,4307.7798,N,07726.8261,W,0.00,141.23,120919,,,D*7D
$GPGGA,141219.750,4307.7798,N,07726.8261,W,2,08,1.01,141.6,M,-34.3,M,0000,0000*5A
$GPRMC,141220.000,A,4307.7798,N,07726.8261,W,0.00,237.26,120919,,,D*75
$GPGGA,141220.250,4307.7798,N,07726.8261,W,2,08,1.01,141.7,M,-34.3,M,0000,0000*54
$GPRMC,141220.500,A,4307.7798,N,07726.8261,W,0.00,40.18,120919,,,D*4F
$GPGGA,141220.750,4307.7798,N,07726.8261,W,2,08,1.01,141.7,M,-34.3,M,0000,0000*51
$GPRMC,141221.000,A,4307.7798,N,07726.8261,W,0.00,23.54,120919,,,D*46
$GPGGA,141221.250,4307.7798,N,07726.8261,W,2,08,1.01,141.7,M,-34.3,M,0000,0000*55
$GPRMC,141221.500,A,4307.7798,N,07726.8261,W,0.01,114.54,120919,,,D*77
$GPGGA,141221.750,4307.7798,N,07726.8260,W,2,08,1.01,141.8,M,-34.3,M,0000,0000*5E
$GPRMC,141222.000,A,4307.7798,N,07726.8260,W,0.00,241.40,120919,,,D*77
$GPGGA,141222.250,4307.7798,N,07726.8260,W,2,08,1.01,141.8,M,-34.3,M,0000,0000*58
$GPRMC,141222.500,A,4307.7798,N,07726.8260,W,0.00,190.31,120919,,,D*7B
$GPGGA,141222.750,4307.7798,N,07726.8260,W,2,08,1.01,141.9,M,-34.3,M,0000,0000*5C
$GPRMC,141223.000,A,4307.7799,N,07726.8260,W,0.01,45.69,120919,,,D*4B
$GPGGA,141223.250,4307.7799,N,07726.8259,W,2,08,1.01,141.9,M,-34.3,M,0000,0000*53
$GPRMC,141223.500,A,4307.7799,N,07726.8259,W,0.00,47.32,120919,,,D*49
$GPGGA,141223.750,4307.7799,N,07726.8259,W,2,08,1.01,141.9,M,-34.3,M,0000,0000*56
$GPRMC,141224.000,A,4307.7799,N,07726.8260,W,0.00,246.82,120919,,,D*79
$GPGGA,141224.250,4307.7799,N,07726.8260,W,2,08,1.01,141.9,M,-34.3,M,0000,0000*5E
$GPRMC,141224.500,A,4307.7799,N,07726.8260,W,0.00,272.79,120919,,,D*7F
$GPGGA,141224.750,4307.7799,N,07726.8260,W,2,08,1.01,142.0,M,-34.3,M,0000,0000*51
$GPRMC,141225.000,A,4307.7799,N,07726.8259,W,0.01,127.63,120919,,,D*78
$GPGGA,141225.250,4307.7799,N,07726.8259,W,2,08,1.01,142.0,M,-34.3,M,0000,0000*5F
$GPRMC,141225.500,A,4307.7799,N,07726.8260,W,0.00,251.03,120919,,,D*72
$GPGGA,141225.750,4307.7799,N,07726.8260,W,2,08,1.01,142.0,M,-34.3,M,0000,0000*50
$GPRMC,141226.000,A,4307.7799,N,07726.8259,W,0.00,48.81,120919,,,D*4E
$GPGGA,141226.250,4307.7800,N,07726.8259,W,2,08,1.01,142.0,M,-34.3,M,0000,0000*53
$GPRMC,141226.500,A,4307.7800,N,07726.8259,W,0.01,101.89,120919,,,D*71
$GPGGA,141226.750,4307.7800,N,07726.8259,W,2,08,1.01,142.0,M,-34.3,M,0000,0000*56
$GPRMC,141227.000,A,4307.7800,N,07726.8259,W,0.01,313.17,120919,,,D*73
$GPGGA,141227.250,4307.7800,N,07726.8259,W,2,08,1.01,142.1,M,-34.3,M,0000,0000*53
$GPRMC,141227.500,A,4307.7800,N,07726.8259,W,0.00,68.11,120919,,,D*4E
$GPGGA,141227.750,4307.7800,N,07726.8259,W,2,08,1.01,142.1,M,-34.3,M,0000,0000*56
$GPRMC,141228.000,A,4307.7800,N,07726.8259,W,0.00,183.84,120919,,,D*7C
$GPGGA,141228.250,4307.7800,N,07726.8259,W,2,08,1.01,142.1,M,-34.3,M,0000,0000*5C
$GPRMC,141228.500,A,4307.7800,N,07726.8259,W,0.01,339.12,120919,,,D*74
$GPGGA,141228.750,4307.7800,N,07726.8259,W,2,08,1.01,142.1,M,-34.3,M,0000,0000*59
$GPRMC,141229.000,A,4307.7800,N,07726.8259,W,0.00,0.00,120919,,,D*7B
$GPGGA,141229.250,4307.7800,N,07726.8259,W,2,08,1.01,142.1,M,-34.3,M,0000,0000*5D
$GPRMC,141229.500,A,4307.7800,N,07726.8259,W,0.01,222.62,120919,,,D*79
$GPGGA,141229.750,4307.7800,N,07726.8259,W,2,08,1.01,142.1,M,-34.3,M,0000,0000*58
$GPRMC,141230.000,A,4307.7800,N,07726.8259,W,0.00,318.93,120919,,,D*73
$GPGGA,141230.250,4307.7800,N,07726.8259,W,2,08,1.01,142.1,M,-34.3,M,0000,0000*55
$GPRMC,141230.500,A,4307.7800,N,07726.8259,W,0.00,0.00,120919,,,D*76
$GPGGA,141230.750,4307.7800,N,07726.8259,W,2,08,1.01,142.1,M,-34.3,M,0000,0000*50
$GPRMC,141231.000,A,4307.7800,N,07726.8259,W,0.01,293.74,120919,,,D*78
$GPGGA,141231.250,4307.7800,N,07726.8259,W,2,08,1.01,142.1,M,-34.3,M,0000,0000*54
$GPRMC,141231.500,A,4307.7800,N,07726.8259,W,0.00,0.00,120919,,,D*77
$GPGGA,141231.750,4307.7800,N,07726.8259,W,2,08,1.01,142.1,M,-34.3,M,0000,0000*51
$GPRMC,141232.000,A,4307.7800,N,07726.8259,W,0.01,99.11,120919,,,D*40
$GPGGA,141232.250,4307.7800,N,07726.8259,W,2,08,1.01,142.1,M,-34.3,M,0000,0000*57
$GPRMC,141232.500,A,4307.7800,N,07726.8259,W,0.01,179.30,120919,,,D*79
$GPGGA,141232.750,4307.7800,N,07726.8259,W,2,08,1.01,142.1,M,-34.3,M,0000,0000*52
$GPRMC,141233.000,A,4307.7800,N,07726.8259,W,0.01,185.32,120919,,,D*7C
$GPGGA,141233.250,4307.7800,N,07726.8259,W,2,08,1.01,142.1,M,-34.3,M,0000,0000*56
$GPRMC,141233.500,A,4307.7800,N,07726.8259,W,0.01,169.05,120919,,,D*7F
$GPGGA,141233.750,4307.7800,N,07726.8259,W,2,08,1.01,142.1,M,-34.3,M,0000,0000*53
$GPRMC,141234.000,A,4307.7800,N,07726.8259,W,0.02,271.24,120919,,,D*77
$GPGGA,141234.250,4307.7800,N,07726.8259,W,2,08,1.01,142.1,M,-34.3,M,0000,0000*51
$GPRMC,141234.500,A,4307.7800,N,07726.8259,W,0.01,293.72,120919,,,D*7E
$GPGGA,141234.750,4307.7800,N,07726.8259,W,2,08,1.01,142.1,M,-34.3,M,0000,0000*54
$GPRMC,141235.000,A,4307.7800,N,07726.8259,W,0.01,38.56,120919,,,D*4F
$GPGGA,141235.250,4307.7800,N,07726.8259,W,2,08,1.01,142.1,M,-34.3,M,0000,0000*50
$GPRMC,141235.500,A,4307.7800,N,07726.8259,W,0.01,341.99,120919,,,D*74
$GPGGA,141235.750,4307.7800,N,07726.8259,W,2,08,1.01,142.1,M,-34.3,M,0000,0000*55
$GPRMC,141236.000,A,4307.7800,N,07726.8259,W,0.00,11.11,120919,,,D*45
$GPGGA,141236.250,4307.7800,N,07726.8259,W,2,08,1.01,142.1,M,-34.3,M,0000,0000*53
$GPRMC,141236.500,A,4307.7800,N,07726.8259,W,0.01,255.30,120919,,,D*70
$GPGGA,141236.750,4307.7800,N,07726.8259,W,2,08,1.01,142.1,M,-34.3,M,0000,0000*56
$GPRMC,141237.000,A,4307.7800,N,07726.8259,W,0.01,332.36,120919,,,D*72
$GPGGA,141237.250,4307.7800,N,07726.8259,W,2,08,1.01,142.1,M,-34.3,M,0000,0000*52
$GPRMC,141237.500,A,4307.7800,N,07726.8259,W,0.01,326.76,120919,,,D*76
$GPGGA,141237.750,4307.7800,N,07726.8259,W,2,08,1.01,142.1,M,-34.3,M,0000,0000*57
$GPRMC,141238.000,A,4307.7800,N,07726.8259,W,0.01,307.17,120919,,,D*78
$GPGGA,141238.250,4307.7800,N,07726.8259,W,2,08,1.01,142.1,M,-34.3,M,0000,0000*5D
$GPRMC,141238.500,A,4307.7800,N,07726.8259,W,0.01,155.03,120919,,,D*7D
$GPGGA,141238.750,4307.7800,N,07726.8259,W,2,08,1.01,142.1,M,-34.3,M,0000,0000*58
$GPRMC,141239.000,A,4307.7800,N,07726.8259,W,0.01,78.17,120919,,,D*42
$GPGGA,141239.250,4307.7800,N,07726.8259,W,2,08,1.01,142.1,M,-34.3,M,0000,0000*5C
$GPRMC,141239.500,A,4307.7800,N,07726.8259,W,0.02,4.72,120919,,,D*7C
$GPGGA,141239.750,4307.7800,N,07726.8259,W,2,08,1.01,142.1,M,-34.3,M,0000,0000*59
$GPRMC,141240.000,A,4307.7800,N,07726.8259,W,0.01,341.41,120919,,,D*76
$GPGGA,141240.250,4307.7800,N,07726.8259,W,2,08,1.01,142.1,M,-34.3,M,0000,0000*52
$GPRMC,141240.500,A,4307.7800,N,07726.8259,W,0.01,92.48,120919,,,D*47
$GPGGA,141240.750,4307.7800,N,07726.8259,W,2,08,1.01,142.1,M,-34.3,M,0000,0000*57
$GPRMC,141241.000,A,4307.7800,N,07726.8259,W,0.00,347.07,120919,,,D*72
$GPGGA,141241.250,4307.7800,N,07726.8259,W,2,08,1.01,142.1,M,-34.3,M,0000,0000*53
$GPRMC,141241.500,A,4307.7800,N,07726.8259,W,0.01,59.98,120919,,,D*4C
$GPGGA,141241.750,4307.7800,N,07726.8259,W,2,08,1.01,142.1,M,-34.3,M,0000,0000*56
$GPRMC,141242.000,A,4307.7800,N,07726.8259,W,0.01,354.95,120919,,,D*79
$GPGGA,141242.250,4307.7800,N,07726.8259,W,2,08,1.01,142.1,M,-34.3,M,0000,0000*50
$GPRMC,141242.500,A,4307.7800,N,07726.8259,W,0.01,271.63,120919,,,D*73
$GPGGA,141242.750,4307.7800,N,07726.8259,W,2,08,1.01,142.1,M,-34.3,M,0000,0000*55
$GPRMC,141243.000,A,4307.7800,N,07726.8259,W,0.01,26.65,120919,,,D*41
$GPGGA,141243.250,4307.7800,N,07726.8259,W,2,08,1.01,142.1,M,-34.3,M,0000,0000*51
$GPRMC,141243.500,A,4307.7800,N,07726.8259,W,0.01,23.63,120919,,,D*47
$GPGGA,141243.750,4307.7800,N,07726.8259,W,2,08,1.01,142.1,M,-34.3,M,0000,0000*54
$GPRMC,141244.000,A,4307.7800,N,07726.8259,W,0.01,5.38,120919,,,D*7F
$GPGGA,141244.250,4307.7800,N,07726.8259,W,2,08,1.01,142.1,M,-34.3,M,0000,0000*56
$GPRMC,141244.500,A,4307.7800,N,07726.8259,W,0.01,75.71,120919,,,D*40
$GPGGA,141244.750,4307.7800,N,07726.8259,W,2,08,1.01,142.1,M,-34.3,M,0000,0000*53
$GPRMC,141245.000,A,4307.7801,N,07726.8259,W,0.00,59.06,120919,,,D*4A
$GPGGA,141245.250,4307.7801,N,07726.8259,W,2,08,1.01,142.1,M,-34.3,M,0000,0000*56
$GPRMC,141245.500,A,4307.7801,N,07726.8259,W,0.01,21.32,120919,,,D*46
$GPGGA,141245.750,4307.7801,N,07726.8259,W,2,08,1.01,142.1,M,-34.3,M,0000,0000*53
$GPRMC,141246.000,A,4307.7801,N,07726.8259,W,0.01,334.41,120919,,,D*73
$GPGGA,141246.250,4307.7801,N,07726.8259,W,2,08,1.01,142.1,M,-34.3,M,0000,0000*55
$GPRMC,141246.500,A,4307.7801,N,07726.8259,W,0.01,286.59,120919,,,D*77
$GPGGA,141246.750,4307.7801,N,07726.8259,W,2,08,1.01,142.1,M,-34.3,M,0000,0000*50
$GPRMC,141247.000,A,4307.7801,N,07726.8259,W,0.00,13.32,120919,,,D*41
$GPGGA,141247.250,4307.7801,N,07726.8259,W,2,08,1.01,142.1,M,-34.3,M,0000,0000*54
$GPRMC,141247.500,A,4307.7801,N,07726.8259,W,0.01,250.89,120919,,,D*70
$GPGGA,141247.750,4307.7801,N,07726.8259,W,2,08,1.01,142.1,M,-34.3,M,0000,0000*51
$GPRMC,141248.000,A,4307.7801,N,07726.8259,W,0.01,289.41,120919,,,D*7A
$GPGGA,141248.250,4307.7801,N,07726.8259,W,2,08,1.01,142.1,M,-34.3,M,0000,0000*5B
$GPRMC,141248.500,A,4307.7801,N,07726.8259,W,0.01,40.67,120919,,,D*4C
$GPGGA,141248.750,4307.7801,N,07726.8259,W,2,08,1.01,142.1,M,-34.3,M,0000,0000*5E
$GPRMC,141249.000,A,4307.7801,N,07726.8259,W,0.02,322.71,120919,,,D*7B
$GPGGA,141249.250,4307.7801,N,07726.8259,W,2,08,1.01,142.1,M,-34.3,M,0000,0000*5A
$GPRMC,141249.500,A,4307.7801,N,07726.8259,W,0.01,49.40,120919,,,D*41
$GPGGA,141249.750,4307.7801,N,07726.8259,W,2,08,1.01,142.1,M,-34.3,M,0000,0000*5F
$GPRMC,141250.000,A,4307.7801,N,07726.8259,W,0.01,26.82,120919,,,D*4B
$GPGGA,141250.250,4307.7801,N,07726.8259,W,2,08,1.01,142.1,M,-34.3,M,0000,0000*52
$GPRMC,141250.500,A,4307.7801,N,07726.8259,W,0.01,21.54,120919,,,D*42
$GPGGA,141250.750,4307.7801,N,07726.8259,W,2,08,1.01,142.1,M,-34.3,M,0000,0000*57
$GPRMC,141251.000,A,4307.7801,N,07726.8259,W,0.00,356.73,120919,,,D*71
$GPGGA,141251.250,4307.7801,N,07726.8259,W,2,08,1.01,142.1,M,-34.3,M,0000,0000*53
$GPRMC,141251.500,A,4307.7801,N,07726.8259,W,0.01,16.50,120919,,,D*43
$GPGGA,141251.750,4307.7801,N,07726.8259,W,2,08,1.01,142.1,M,-34.3,M,0000,0000*56
$GPRMC,141252.000,A,4307.7801,N,07726.8259,W,0.01,345.94,120919,,,D*78
$GPGGA,141252.250,4307.7801,N,07726.8259,W,2,08,1.01,142.1,M,-34.3,M,0000,0000*50
$GPRMC,141252.500,A,4307.7801,N,07726.8259,W,0.01,42.03,120919,,,D*47
$GPGGA,141252.750,4307.7801,N,07726.8259,W,2,08,1.01,142.1,M,-34.3,M,0000,0000*55
$GPRMC,141253.000,A,4307.7801,N,07726.8259,W,0.00,324.02,120919,,,D*70
$GPGGA,141253.250,4307.7801,N,07726.8259,W,2,08,1.01,142.1,M,-34.3,M,0000,0000*51
$GPRMC,141253.500,A,4307.7801,N,07726.8259,W,0.01,100.00,120919,,,D*72
$GPGGA,141253.750,4307.7801,N,07726.8259,W,2,08,1.01,142.1,M,-34.3,M,0000,0000*54
$GPRMC,141254.000,A,4307.7801,N,07726.8259,W,0.00,63.03,120919,,,D*46
$GPGGA,141254.250,4307.7801,N,07726.8259,W,2,08,1.01,142.1,M,-34.3,M,0000,0000*56
$GPRMC,141254.500,A,4307.7801,N,07726.8259,W,0.00,225.49,120919,,,D*7D
$GPGGA,141254.750,4307.7801,N,07726.8259,W,2,08,1.01,142.1,M,-34.3,M,0000,0000*53
$GPRMC,141255.000,A,4307.7801,N,07726.8259,W,0.01,180.35,120919,,,D*7F
$GPGGA,141255.250,4307.7801,N,07726.8259,W,2,08,1.01,142.1,M,-34.3,M,0000,0000*57
$GPRMC,141255.500,A,4307.7801,N,07726.8259,W,0.00,118.31,120919,,,D*7E
$GPGGA,141255.750,4307.7801,N,07726.8259,W,2,08,1.01,142.1,M,-34.3,M,0000,0000*52
$GPRMC,141256.000,A,4307.7801,N,07726.8259,W,0.01,309.02,120919,,,D*7B
$GPGGA,141256.250,4307.7801,N,07726.8259,W,2,08,1.01,142.1,M,-34.3,M,0000,0000*54
$GPRMC,141256.500,A,4307.7801,N,07726.8259,W,0.01,92.44,120919,,,D*4D
$GPGGA,141256.750,4307.7801,N,07726.8259,W,2,08,1.01,142.1,M,-34.3,M,0000,0000*51
$GPRMC,141257.000,A,4307.7801,N,07726.8259,W,0.00,233.04,120919,,,D*75
$GPGGA,141257.250,4307.7801,N,07726.8259,W,2,08,1.01,142.1,M,-34.3,M,0000,0000*55
$GPRMC,141257.500,A,4307.7801,N,07726.8259,W,0.00,193.44,120919,,,D*7D
$GPGGA,141257.750,4307.7801,N,07726.8259,W,2,08,1.01,142.1,M,-34.3,M,0000,0000*50
$GPRMC,141258.000,A,4307.7801,N,07726.8259,W,0.01,199.44,120919,,,D*7C
$GPGGA,141258.250,4307.7801,N,07726.8259,W,2,08,1.01,142.1,M,-34.3,M,0000,0000*5A
$GPRMC,141258.500,A,4307.7801,N,07726.8259,W,0.00,188.32,120919,,,D*79
$GPGGA,141258.750,4307.7801,N,07726.8259,W,2,08,1.01,142.1,M,-34.3,M,0000,0000*5F
$GPRMC,141259.000,A,4307.7801,N,07726.8259,W,0.01,35.01,120919,,,D*4B
$GPGGA,141259.250,4307.7801,N,07726.8259,W,2,08,1.01,142.1,M,-34.3,M,0000,0000*5B
$GPRMC,141259.500,A,4307.7801,N,07726.8259,W,0.01,215.12,120919,,,D*7C
$GPGGA,141259.750,4307.7801,N,07726.8259,W,2,08,1.01,142.1,M,-34.3,M,0000,0000*5E
$GPRMC,141300.000,A,4307.7801,N,07726.8259,W,0.00,159.23,120919,,,D*7C
$GPGGA,141300.250,4307.7801,N,07726.8259,W,2,08,1.01,142.1,M,-34.3,M,0000,0000*56
$GPRMC,141300.500,A,4307.7801,N,07726.8259,W,0.01,29.33,120919,,,D*4F
$GPGGA,141300.750,4307.7801,N,07726.8259,W,2,08,1.01,142.1,M,-34.3,M,0000,0000*53
$GPRMC,141301.000,A,4307.7801,N,07726.8259,W,0.00,35.13,120919,,,D*45
$GPGGA,141301.250,4307.7801,N,07726.8259,W,2,08,1.01,142.1,M,-34.3,M,0000,0000*57
$GPRMC,141301.500,A,4307.7801,N,07726.8259,W,0.01,339.29,120919,,,D*77
$GPGGA,141301.750,4307.7801,N,07726.8259,W,2,08,1.01,142.1,M,-34.3,M,0000,0000*52
$GPRMC,141302.000,A,4307.7801,N,07726.8259,W,0.01,45.98,120919,,,D*43
$GPGGA,141302.250,4307.7801,N,07726.8259,W,2,08,1.01,142.1,M,-34.3,M,0000,0000*54
$GPRMC,141302.500,A,4307.7801,N,07726.8259,W,0.01,14.08,120919,,,D*4B
$GPGGA,141302.750,4307.7801,N,07726.8259,W,2,08,1.01,142.1,M,-34.3,M,0000,0000*51
$GPRMC,141303.000,A,4307.7801,N,07726.8259,W,0.01,20.32,120919,,,D*41
$GPGGA,141303.250,4307.7801,N,07726.8259,W,2,08,1.01,142.1,M,-34.3,M,0000,0000*55
$GPRMC,141303.500,A,4307.7801,N,07726.8259,W,0.01,356.55,120919,,,D*77
$GPGGA,141303.750,4307.7801,N,07726.8259,W,2,08,1.01,142.1,M,-34.3,M,0000,0000*50
$GPRMC,141304.000,A,4307.7801,N,07726.8259,W,0.00,19.18,120919,,,D*45
$GPGGA,141304.250,4307.7801,N,07726.8259,W,2,08,1.01,142.1,M,-34.3,M,0000,0000*52
$GPRMC,141304.500,A,4307.7801,N,07726.8259,W,0.00,87.42,120919,,,D*48
$GPGGA,141304.750,4307.7801,N,07726.8259,W,2,08,1.01,142.1,M,-34.3,M,0000,0000*57
$GPRMC,141305.000,A,4307.7801,N,07726.8259,W,0.01,23.44,120919,,,D*45
$GPGGA,141305.250,4307.7801,N,07726.8259,W,2,08,1.01,142.1,M,-34.3,M,0000,0000*53
$GPRMC,141305.500,A,4307.7801,N,07726.8259,W,0.00,60.29,120919,,,D*4D
$GPGGA,141305.750,4307.7801,N,07726.8259,W,2,08,1.01,142.1,M,-34.3,M,0000,0000*56
$GPRMC,141306.000,A,4307.7801,N,07726.8259,W,0.01,72.68,120919,,,D*4C
$GPGGA,141306.250,4307.7801,N,07726.8259,W,2,08,1.01,142.1,M,-34.3,M,0000,0000*50
$GPRMC,141306.500,A,4307.7801,N,07726.8259,W,0.01,204.62,120919,,,D*70
$GPGGA,141306.750,4307.7801,N,07726.8259,W,2,08,1.01,142.1,M,-34.3,M,0000,0000*55
$GPRMC,141307.000,A,4307.7801,N,07726.8259,W,0.01,164.39,120919,,,D*7F
$GPGGA,141307.250,4307.7801,N,07726.8259,W,2,08,1.01,142.1,M,-34.3,M,0000,0000*51
$GPRMC,141307.500,A,4307.7801,N,07726.8259,W,0.00,194.70,120919,,,D*79
$GPGGA,141307.750,4307.7801,N,07726.8259,W,2,08,1.01,142.1,M,-34.3,M,0000,0000*54
$GPRMC,141308.000,A,4307.7801,N,07726.8259,W,0.01,153.06,120919,,,D*78
$GPGGA,141308.250,4307.7801,N,07726.8259,W,2,08,1.01,142.1,M,-34.3,M,0000,0000*5E
$GPRMC,141308.500,A,4307.7801,N,07726.8259,W,0.01,178.33,120919,,,D*72
$GPGGA,141308.750,4307.7801,N,07726.8259,W,2,08,1.01,142.1,M,-34.3,M,0000,0000*5B
$GPRMC,141309.000,A,4307.7801,N,07726.8259,W,0.02,192.61,120919,,,D*76
$GPGGA,141309.250,4307.7801,N,07726.8259,W,2,08,1.01,142.1,M,-34.3,M,0000,0000*5F
$GPRMC,141309.500,A,4307.7801,N,07726.8259,W,0.01,179.32,120919,,,D*73
$GPGGA,141309.750,4307.7801,N,07726.8259,W,2,08,1.01,142.1,M,-34.3,M,0000,0000*5A
$GPRMC,141310.000,A,4307.7801,N,07726.8259,W,0.01,176.03,120919,,,D*73
$GPGGA,141310.250,4307.7801,N,07726.8259,W,2,08,1.01,142.1,M,-34.3,M,0000,0000*57
$GPRMC,141310.500,A,4307.7801,N,07726.8259,W,0.01,222.81,120919,,,D*7E
$GPGGA,141310.750,4307.7801,N,07726.8259,W,2,08,1.01,142.1,M,-34.3,M,0000,0000*52
$GPRMC,141311.000,A,4307.7801,N,07726.8259,W,0.01,254.67,120919,,,D*73
$GPGGA,141311.250,4307.7801,N,07726.8259,W,2,08,1.01,142.1,M,-34.3,M,0000,0000*56
$GPRMC,141311.500,A,4307.7801,N,07726.8259,W,0.01,228.58,120919,,,D*71
$GPGGA,141311.750,4307.7801,N,07726.8259,W,2,08,1.01,142.1,M,-34.3,M,0000,0000*53
$GPRMC,141312.000,A,4307.7801,N,07726.8259,W,0.01,193.75,120919,,,D*7B
$GPGGA,141312.250,4307.7801,N,07726.8259,W,2,08,1.01,142.1,M,-34.3,M,0000,0000*55
$GPRMC,141312.500,A,4307.7801,N,07726.8259,W,0.01,39.26,120919,,,D*49
$GPGGA,141312.750,4307.7801,N,07726.8259,W,2,08,1.01,142.1,M,-34.3,M,0000,0000*50
$GPRMC,141313.000,A,4307.7801,N,07726.8259,W,0.01,272.33,120919,,,D*74
$GPGGA,141313.250,4307.7801,N,07726.8259,W,2,08,1.01,142.1,M,-34.3,M,0000,0000*54
$GPRMC,141313.500,A,4307.7801,N,07726.8259,W,0.00,67.91,120919,,,D*4E
$GPGGA,141313.750,4307.7801,N,07726.8259,W,2,08,1.01,142.1,M,-34.3,M,0000,0000*51
$GPRMC,141314.000,A,4307.7801,N,07726.8259,W,0.01,38.92,120919,,,D*44
$GPGGA,141314.250,4307.7801,N,07726.8259,W,2,08,1.01,142.1,M,-34.3,M,0000,0000*53
$GPRMC,141314.500,A,4307.7801,N,07726.8259,W,0.01,38.84,120919,,,D*46
$GPGGA,141314.750,4307.7801,N,07726.8259,W,2,08,1.01,142.1,M,-34.3,M,0000,0000*56
$GPRMC,141315.000,A,4307.7801,N,07726.8259,W,0.00,49.09,120919,,,D*40
$GPGGA,141315.250,4307.7801,N,07726.8259,W,2,08,1.01,142.1,M,-34.3,M,0000,0000*52
$GPRMC,141315.500,A,4307.7801,N,07726.8259,W,0.00,238.54,120919,,,D*79
$GPGGA,141315.750,4307.7801,N,07726.8259,W,2,08,1.01,142.1,M,-34.3,M,0000,0000*57
$GPRMC,141316.000,A,4307.7801,N,07726.8259,W,0.00,44.69,120919,,,D*48
$GPGGA,141316.250,4307.7801,N,07726.8259,W,2,08,1.01,142.1,M,-34.3,M,0000,0000*51
$GPRMC,141316.500,A,4307.7801,N,07726.8259,W,0.01,122.50,120919,,,D*77
$GPGGA,141316.750,4307.7801,N,07726.8259,W,2,08,1.01,142.1,M,-34.3,M,0000,0000*54
$GPRMC,141317.000,A,4307.7801,N,07726.8259,W,0.01,350.80,120919,,,D*79
$GPGGA,141317.250,4307.7801,N,07726.8259,W,2,08,1.01,142.1,M,-34.3,M,0000,0000*50
$GPRMC,141317.500,A,4307.7801,N,07726.8259,W,0.01,99.86,120919,,,D*4C
$GPGGA,141317.750,4307.7801,N,07726.8259,W,2,08,1.01,142.1,M,-34.3,M,0000,0000*55
$GPRMC,141318.000,A,4307.7801,N,07726.8259,W,0.00,353.83,120919,,,D*77
$GPGGA,141318.250,4307.7801,N,07726.8259,W,2,08,1.01,142.1,M,-34.3,M,0000,0000*5F
$GPRMC,141318.500,A,4307.7801,N,07726.8259,W,0.01,181.66,120919,,,D*75
$GPGGA,141318.750,4307.7801,N,07726.8259,W,2,08,1.01,142.1,M,-34.3,M,0000,0000*5A
$GPRMC,141319.000,A,4307.7801,N,07726.8259,W,0.01,136.71,120919,,,D*7B
$GPGGA,141319.250,4307.7801,N,07726.8259,W,2,08,1.01,142.1,M,-34.3,M,0000,0000*5E
$GPRMC,141319.500,A,4307.7801,N,07726.8259,W,0.01,192.91,120919,,,D*7E
$GPGGA,141319.750,4307.7801,N,07726.8259,W,2,08,1.01,142.1,M,-34.3,M,0000,0000*5B
$GPRMC,141320.000,A,4307.7801,N,07726.8259,W,0.01,141.29,120919,,,D*7C
$GPGGA,141320.250,4307.7801,N,07726.8259,W,2,08,1.01,142.1,M,-34.3,M,0000,0000*54
$GPRMC,141320.500,A,4307.7801,N,07726.8259,W,0.01,190.98,120919,,,D*7F
$GPGGA,141320.750,4307.7801,N,07726.8259,W,2,08,1.01,142.1,M,-34.3,M,0000,0000*51
$GPRMC,141321.000,A,4307.7801,N,07726.8259,W,0.00,149.26,120919,,,D*7B
$GPGGA,141321.250,4307.7801,N,07726.8259,W,2,08,1.01,142.1,M,-34.3,M,0000,0000*55
$GPRMC,141321.500,A,4307.7801,N,07726.8259,W,0.01,182.53,120919,,,D*7A
$GPGGA,141321.750,4307.7801,N,07726.8259,W,2,08,1.01,142.1,M,-34.3,M,0000,0000*50
$GPRMC,141322.000,A,4307.7801,N,07726.8259,W,0.00,190.83,120919,,,D*73
$GPGGA,141322.250,4307.7801,N,07726.8259,W,2,08,1.01,142.1,M,-34.3,M,0000,0000*56
$GPRMC,141322.500,A,4307.7801,N,07726.8259,W,0.01,186.60,120919,,,D*7D
$GPGGA,141322.750,4307.7801,N,07726.8259,W,2,08,1.01,142.1,M,-34.3,M,0000,0000*53
$GPRMC,141323.000,A,4307.7801,N,07726.8259,W,0.01,233.76,120919,,,D*73
$GPGGA,141323.250,4307.7801,N,07726.8259,W,2,08,1.01,142.1,M,-34.3,M,0000,0000*57
$GPRMC,141323.500,A,4307.7801,N,07726.8259,W,0.01,271.54,120919,,,D*70
$GPGGA,141323.750,4307.7801,N,07726.8259,W,2,08,1.01,142.1,M,-34.3,M,0000,0000*52
$GPRMC,141324.000,A,4307.7801,N,07726.8259,W,0.01,228.90,120919,,,D*76
$GPGGA,141324.250,4307.7801,N,07726.8259,W,2,08,1.01,142.1,M,-34.3,M,0000,0000*50
$GPRMC,141324.500,A,4307.7801,N,07726.8259,W,0.01,353.82,120919,,,D*7D
$GPGGA,141324.750,4307.7801,N,07726.8259,W,2,08,1.01,142.1,M,-34.3,M,0000,0000*55
$GPRMC,141325.000,A,4307.7801,N,07726.8259,W,0.01,7.59,120919,,,D*7D
$GPGGA,141325.250,4307.7801,N,07726.8259,W,2,08,1.01,142.1,M,-34.3,M,0000,0000*51
$GPRMC,141325.500,A,4307.7801,N,07726.8259,W,0.01,10.41,120919,,,D*47
$GPGGA,141325.750,4307.7801,N,07726.8259,W,2,08,1.01,142.1,M,-34.3,M,0000,0000*54
$GPRMC,141326.000,A,4307.7801,N,07726.8259,W,0.01,17.91,120919,,,D*4B
$GPGGA,141326.250,4307.7801,N,07726.8259,W,2,08,1.01,142.1,M,-34.3,M,0000,0000*52
$GPRMC,141326.500,A,4307.7801,N,07726.8259,W,0.01,336.61,120919,,,D*71
$GPGGA,141326.750,4307.7801,N,07726.8259,W,2,08,1.01,142.1,M,-34.3,M,0000,0000*57
$GPRMC,141327.000,A,4307.7801,N,07726.8259,W,0.01,9.62,120919,,,D*79
$GPGGA,141327.250,4307.7801,N,07726.8259,W,2,08,1.01,142.1,M,-34.3,M,0000,0000*53
$GPRMC,141327.500,A,4307.7801,N,07726.8259,W,0.01,352.86,120919,,,D*7B
$GPGGA,141327.750,4307.7801,N,07726.8259,W,2,08,1.01,142.1,M,-34.3,M,0000,0000*56
$GPRMC,141328.000,A,4307.7801,N,07726.8259,W,0.01,344.59,120919,,,D*74
$GPGGA,141328.250,4307.7801,N,07726.8259,W,2,08,1.01,142.1,M,-34.3,M,0000,0000*5C
$GPRMC,141328.500,A,4307.7801,N,07726.8259,W,0.00,78.33,120919,,,D*40
$GPGGA,141328.750,4307.7801,N,07726.8259,W,2,08,1.01,142.1,M,-34.3,M,0000,0000*59
$GPRMC,141329.000,A,4307.7801,N,07726.8259,W,0.01,70.13,120919,,,D*4F
$GPGGA,141329.250,4307.7801,N,07726.8259,W,2,08,1.01,142.1,M,-34.3,M,0000,0000*5D
$GPRMC,141329.500,A,4307.7801,N,07726.8259,W,0.00,325.74,120919,,,D*79
$GPGGA,141329.750,4307.7801,N,07726.8259,W,2,08,1.01,142.1,M,-34.3,M,0000,0000*58
$GPRMC,141330.000,A,4307.7801,N,07726.8259,W,0.01,113.20,120919,,,D*73
$GPGGA,141330.250,4307.7801,N,07726.8260,W,2,08,1.01,142.1,M,-34.3,M,0000,0000*5F
$GPRMC,141330.500,A,4307.7801,N,07726.8260,W,0.01,167.12,120919,,,D*7E
$GPGGA,141330.750,4307.7801,N,07726.8260,W,2,08,1.01,142.1,M,-34.3,M,0000,0000*5A
$GPRMC,141331.000,A,4307.7800,N,07726.8260,W,0.01,194.56,120919,,,D*77
$GPGGA,141331.250,4307.7800,N,07726.8260,W,2,08,1.01,142.1,M,-34.3,M,0000,0000*5F
$GPRMC,141331.500,A,4307.7800,N,07726.8260,W,0.01,183.08,120919,,,D*7F
$GPGGA,141331.750,4307.7800,N,07726.8260,W,2,08,1.01,142.1,M,-34.3,M,0000,0000*5A
$GPRMC,141332.000,A,4307.7800,N,07726.8260,W,0.01,183.12,120919,,,D*72
$GPGGA,141332.250,4307.7800,N,07726.8260,W,2,08,1.01,142.1,M,-34.3,M,0000,0000*5C
$GPRMC,141332.500,A,4307.7800,N,07726.8260,W,0.01,201.17,120919,,,D*7B
$GPGGA,141332.750,4307.7800,N,07726.8260,W,2,08,1.01,142.1,M,-34.3,M,0000,0000*59
$GPRMC,141333.000,A,4307.7800,N,07726.8260,W,0.01,172.54,120919,,,D*7F
$GPGGA,141333.250,4307.7800,N,07726.8260,W,2,08,1.01,142.1,M,-34.3,M,0000,0000*5D
$GPRMC,141333.500,A,4307.7800,N,07726.8260,W,0.01,172.18,120919,,,D*72
$GPGGA,141333.750,4307.7800,N,07726.8260,W,2,08,1.01,142.1,M,-34.3,M,0000,0000*58
$GPRMC,141334.000,A,4307.7800,N,07726.8260,W,0.01,186.60,120919,,,D*74
$GPGGA,141334.250,4307.7800,N,07726.8260,W,2,08,1.01,142.1,M,-34.3,M,0000,0000*5A
$GPRMC,141334.500,A,4307.7800,N,07726.8260,W,0.01,84.48,120919,,,D*48
$GPGGA,141334.750,4307.7800,N,07726.8260,W,2,08,1.01,142.1,M,-34.3,M,0000,0000*5F
$GPRMC,141335.000,A,4307.7800,N,07726.8260,W,0.00,304.46,120919,,,D*78
$GPGGA,141335.250,4307.7800,N,07726.8260,W,2,08,1.01,142.1,M,-34.3,M,0000,0000*5B
$GPRMC,141335.500,A,4307.7800,N,07726.8260,W,0.01,289.74,120919,,,D*79
$GPGGA,141335.750,4307.7800,N,07726.8260,W,2,08,1.01,142.1,M,-34.3,M,0000,0000*5E
$GPRMC,141336.000,A,4307.7800,N,07726.8260,W,0.01,266.93,120919,,,D*77
$GPGGA,141336.250,4307.7800,N,07726.8260,W,2,08,1.01,142.1,M,-34.3,M,0000,0000*58
$GPRMC,141336.500,A,4307.7800,N,07726.8260,W,0.01,321.17,120919,,,D*7C
$GPGGA,141336.750,4307.7800,N,07726.8260,W,2,08,1.01,142.1,M,-34.3,M,0000,0000*5D
$GPRMC,141337.000,A,4307.7800,N,07726.8260,W,0.00,350.70,120919,,,D*7E
$GPGGA,141337.250,4307.7800,N,07726.8260,W,2,08,1.01,142.1,M,-34.3,M,0000,0000*59
$GPRMC,141337.500,A,4307.7800,N,07726.8260,W,0.01,355.58,120919,,,D*75
$GPGGA,141337.750,4307.7800,N,07726.8260,W,2,08,1.01,142.1,M,-34.3,M,0000,0000*5C
$GPRMC,141338.000,A,4307.7800,N,07726.8260,W,0.01,351.37,120919,,,D*72
$GPGGA,141338.250,4307.7800,N,07726.8260,W,2,08,1.01,142.1,M,-34.3,M,0000,0000*56
$GPRMC,141338.500,A,4307.7800,N,07726.8260,W,0.01,346.70,120919,,,D*72
$GPGGA,141338.750,4307.7800,N,07726.8260,W,2,08,1.01,142.1,M,-34.3,M,0000,0000*53
$GPRMC,141339.000,A,4307.7800,N,07726.8260,W,0.01,13.21,120919,,,D*41
$GPGGA,141339.250,4307.7800,N,07726.8260,W,2,08,1.01,142.1,M,-34.3,M,0000,0000*57
$GPRMC,141339.500,A,4307.7800,N,07726.8260,W,0.01,352.54,120919,,,D*70
$GPGGA,141339.750,4307.7800,N,07726.8260,W,2,08,1.01,142.1,M,-34.3,M,0000,0000*52
$GPRMC,141340.000,A,4307.7800,N,07726.8260,W,0.00,78.49,120919,,,D*4D
$GPGGA,141340.250,4307.7800,N,07726.8260,W,2,08,1.01,142.1,M,-34.3,M,0000,0000*59
$GPRMC,141340.500,A,4307.7800,N,07726.8260,W,0.00,0.00,120919,,,D*7A
$GPGGA,141340.750,4307.7800,N,07726.8260,W,2,08,1.01,142.1,M,-34.3,M,0000,0000*5C
$GPRMC,141341.000,A,4307.7800,N,07726.8260,W,0.01,105.15,120919,,,D*7F
$GPGGA,141341.250,4307.7800,N,07726.8260,W,2,08,1.01,142.1,M,-34.3,M,0000,0000*58
$GPRMC,141341.500,A,4307.7800,N,07726.8260,W,0.01,34.45,120919,,,D*4C
$GPGGA,141341.750,4307.7800,N,07726.8260,W,2,08,1.01,142.1,M,-34.3,M,0000,0000*5D
$GPRMC,141342.000,A,4307.7800,N,07726.8260,W,0.00,79.81,120919,,,D*4A
$GPGGA,141342.250,4307.7800,N,07726.8260,W,2,08,1.01,142.1,M,-34.3,M,0000,0000*5B
$GPRMC,141342.500,A,4307.7800,N,07726.8260,W,0.00,215.52,120919,,,D*79
$GPGGA,141342.750,4307.7800,N,07726.8260,W,2,08,1.01,142.1,M,-34.3,M,0000,0000*5E
$GPRMC,141343.000,A,4307.7800,N,07726.8260,W,0.01,222.09,120919,,,D*76
$GPGGA,141343.250,4307.7800,N,07726.8260,W,2,08,1.01,142.1,M,-34.3,M,0000,0000*5A
$GPRMC,141343.500,A,4307.7800,N,07726.8260,W,0.01,172.40,120919,,,D*78
$GPGGA,141343.750,4307.7800,N,07726.8260,W,2,08,1.01,142.1,M,-34.3,M,0000,0000*5F
$GPRMC,141344.000,A,4307.7800,N,07726.8260,W,0.01,194.67,120919,,,D*77
$GPGGA,141344.250,4307.7800,N,07726.8260,W,2,08,1.01,142.1,M,-34.3,M,0000,0000*5D
$GPRMC,141344.500,A,4307.7800,N,07726.8260,W,0.01,194.30,120919,,,D*70
$GPGGA,141344.750,4307.7800,N,07726.8260,W,2,08,1.01,142.1,M,-34.3,M,0000,0000*58
$GPRMC,141345.000,A,4307.7800,N,07726.8260,W,0.00,146.42,120919,,,D*7F
$GPGGA,141345.250,4307.7800,N,07726.8260,W,2,08,1.01,142.1,M,-34.3,M,0000,0000*5C
$GPRMC,141345.500,A,4307.7800,N,07726.8260,W,0.01,136.25,120919,,,D*7D
$GPGGA,141345.750,4307.7800,N,07726.8260,W,2,08,1.01,142.1,M,-34.3,M,0000,0000*59
$GPRMC,141346.000,A,4307.7800,N,07726.8260,W,0.00,140.11,120919,,,D*7C
$GPGGA,141346.250,4307.7800,N,07726.8260,W,2,08,1.01,142.1,M,-34.3,M,0000,0000*5F
$GPRMC,141346.500,A,4307.7800,N,07726.8260,W,0.00,339.96,120919,,,D*7A
$GPGGA,141346.750,4307.7800,N,07726.8260,W,2,08,1.01,142.1,M,-34.3,M,0000,0000*5A
$GPRMC,141347.000,A,4307.7800,N,07726.8260,W,0.01,268.69,120919,,,D*7A
$GPGGA,141347.250,4307.7800,N,07726.8260,W,2,08,1.01,142.1,M,-34.3,M,0000,0000*5E
$GPRMC,141347.500,A,4307.7800,N,07726.8260,W,0.01,258.58,120919,,,D*7E
$GPGGA,141347.750,4307.7800,N,07726.8260,W,2,08,1.01,142.1,M,-34.3,M,0000,0000*5B
$GPRMC,141348.000,A,4307.7800,N,07726.8260,W,0.00,114.23,120919,,,D*72
$GPGGA,141348.250,4307.7800,N,07726.8260,W,2,08,1.01,142.1,M,-34.3,M,0000,0000*51
$GPRMC,141348.500,A,4307.7800,N,07726.8260,W,0.01,11.03,120919,,,D*40
$GPGGA,141348.750,4307.7800,N,07726.8260,W,2,08,1.01,142.1,M,-34.3,M,0000,0000*54
$GPRMC,141349.000,A,4307.7800,N,07726.8260,W,0.01,27.88,120919,,,D*42
$GPGGA,141349.250,4307.7800,N,07726.8260,W,2,08,1.01,142.1,M,-34.3,M,0000,0000*50
$GPRMC,141349.500,A,4307.7800,N,07726.8260,W,0.00,310.09,120919,,,D*78
$GPGGA,141349.750,4307.7800,N,07726.8260,W,2,08,1.01,142.1,M,-34.3,M,0000,0000*55
$GPRMC,141350.000,A,4307.7800,N,07726.8260,W,0.01,21.00,120919,,,D*4C
$GPGGA,141350.250,4307.7800,N,07726.8260,W,2,08,1.01,142.1,M,-34.3,M,0000,0000*58
$GPRMC,141350.500,A,4307.7800,N,07726.8260,W,0.01,0.74,120919,,,D*79
$GPGGA,141350.750,4307.7800,N,07726.8260,W,2,08,1.01,142.1,M,-34.3,M,0000,0000*5D
$GPRMC,141351.000,A,4307.7800,N,07726.8260,W,0.01,332.28,120919,,,D*76
$GPGGA,141351.250,4307.7800,N,07726.8260,W,2,08,1.01,142.1,M,-34.3,M,0000,0000*59
$GPRMC,141351.500,A,4307.7801,N,07726.8260,W,0.01,23.84,120919,,,D*47
$GPGGA,141351.750,4307.7801,N,07726.8260,W,2,08,1.01,142.1,M,-34.3,M,0000,0000*5D
$GPRMC,141352.000,A,4307.7801,N,07726.8260,W,0.01,267.23,120919,,,D*7E
$GPGGA,141352.250,4307.7801,N,07726.8260,W,2,08,1.01,142.1,M,-34.3,M,0000,0000*5B
$GPRMC,141352.500,A,4307.7801,N,07726.8260,W,0.00,157.35,120919,,,D*7D
$GPGGA,141352.750,4307.7801,N,07726.8260,W,2,08,1.01,142.1,M,-34.3,M,0000,0000*5E
$GPRMC,141353.000,A,4307.7801,N,07726.8260,W,0.00,191.10,120919,,,D*74
$GPGGA,141353.250,4307.7801,N,07726.8260,W,2,08,1.01,142.1,M,-34.3,M,0000,0000*5A
$GPRMC,141353.500,A,4307.7801,N,07726.8260,W,0.01,110.42,120919,,,D*7E
$GPGGA,141353.750,4307.7801,N,07726.8260,W,2,08,1.01,142.1,M,-34.3,M,0000,0000*5F
$GPRMC,141354.000,A,4307.7801,N,07726.8260,W,0.00,138.32,120919,,,D*70
$GPGGA,141354.250,4307.7801,N,07726.8260,W,2,08,1.01,142.1,M,-34.3,M,0000,0000*5D
$GPRMC,141354.500,A,4307.7801,N,07726.8260,W,0.00,0.00,120919,,,D*7E
$GPGGA,141354.750,4307.7801,N,07726.8260,W,2,08,1.01,142.1,M,-34.3,M,0000,0000*58
$GPRMC,141355.000,A,4307.7801,N,07726.8260,W,0.00,192.25,120919,,,D*77
$GPGGA,141355.250,4307.7801,N,07726.8260,W,2,08,1.01,142.1,M,-34.3,M,0000,0000*5C
$GPRMC,141355.500,A,4307.7801,N,07726.8260,W,0.00,262.30,120919,,,D*7A
$GPGGA,141355.750,4307.7800,N,07726.8260,W,2,08,1.01,142.1,M,-34.3,M,0000,0000*58
$GPRMC,141356.000,A,4307.7800,N,07726.8260,W,0.00,192.33,120919,,,D*72
$GPGGA,141356.250,4307.7800,N,07726.8260,W,2,08,1.01,142.1,M,-34.3,M,0000,0000*5E
$GPRMC,141356.500,A,4307.7800,N,07726.8260,W,0.01,229.61,120919,,,D*72
$GPGGA,141356.750,4307.7800,N,07726.8260,W,2,08,1.01,142.1,M,-34.3,M,0000,0000*5B
$GPRMC,141357.000,A,4307.7800,N,07726.8260,W,0.00,130.90,120919,,,D*72
$GPGGA,141357.250,4307.7800,N,07726.8260,W,2,08,1.01,142.1,M,-34.3,M,0000,0000*5F
$GPRMC,141357.500,A,4307.7800,N,07726.8260,W,0.00,187.96,120919,,,D*7D
$GPGGA,141357.750,4307.7800,N,07726.8260,W,2,08,1.01,142.1,M,-34.3,M,0000,0000*5A
$GPRMC,141358.000,A,4307.7800,N,07726.8260,W,0.01,142.77,120919,,,D*70
$GPGGA,141358.250,4307.7800,N,07726.8260,W,2,08,1.01,142.1,M,-34.3,M,0000,0000*50
$GPRMC,141358.500,A,4307.7800,N,07726.8260,W,0.00,222.53,120919,,,D*77
$GPGGA,141358.750,4307.7800,N,07726.8260,W,2,08,1.01,142.1,M,-34.3,M,0000,0000*55
$GPRMC,141359.000,A,4307.7800,N,07726.8260,W,0.00,227.04,120919,,,D*74
$GPGGA,141359.250,4307.7800,N,07726.8260,W,2,08,1.01,142.1,M,-34.3,M,0000,0000*51
$GPRMC,141359.500,A,4307.7800,N,07726.8260,W,0.01,268.77,120919,,,D*7F
$GPGGA,141359.750,4307.7800,N,07726.8260,W,2,08,1.01,142.1,M,-34.3,M,0000,0000*54
$GPRMC,141400.000,A,4307.7800,N,07726.8260,W,0.01,258.63,120919,,,D*77
$GPGGA,141400.250,4307.7800,N,07726.8260,W,2,08,1.01,142.1,M,-34.3,M,0000,0000*5A
$GPRMC,141400.500,A,4307.7800,N,07726.8260,W,0.00,311.43,120919,,,D*7D
$GPGGA,141400.750,4307.7800,N,07726.8260,W,2,08,1.01,142.1,M,-34.3,M,0000,0000*5F
$GPRMC,141401.000,A,4307.7800,N,07726.8260,W,0.01,13.52,120919,,,D*49
$GPGGA,141401.250,4307.7800,N,07726.8260,W,2,08,1.01,142.1,M,-34.3,M,0000,0000*5B
$GPRMC,141401.500,A,4307.7800,N,07726.8260,W,0.01,39.03,120919,,,D*40
$GPGGA,141401.750,4307.7800,N,07726.8260,W,2,08,1.01,142.1,M,-34.3,M,0000,0000*5E
$GPRMC,141402.000,A,4307.7800,N,07726.8260,W,0.00,134.77,120919,,,D*78
$GPGGA,141402.250,4307.7800,N,07726.8260,W,2,08,1.01,142.1,M,-34.3,M,0000,0000*58
$GPRMC,141402.500,A,4307.7800,N,07726.8260,W,0.01,127.05,120919,,,D*7B
$GPGGA,141402.750,4307.7800,N,07726.8260,W,2,08,1.01,142.1,M,-34.3,M,0000,0000*5D
$GPRMC,141403.000,A,4307.7800,N,07726.8260,W,0.00,348.85,120919,,,D*7D
$GPGGA,141403.250,4307.7800,N,07726.8260,W,2,08,1.01,142.1,M,-34.3,M,0000,0000*59
$GPRMC,141403.500,A,4307.7800,N,07726.8260,W,0.01,3.42,120919,,,D*7E
$GPGGA,141403.750,4307.7800,N,07726.8260,W,2,08,1.01,142.1,M,-34.3,M,0000,0000*5C
$GPRMC,141404.000,A,4307.7800,N,07726.8260,W,0.01,328.57,120919,,,D*72
$GPGGA,141404.250,4307.7800,N,07726.8260,W,2,08,1.01,142.1,M,-34.3,M,0000,0000*5E
$GPRMC,141404.500,A,4307.7800,N,07726.8260,W,0.00,0.00,120919,,,D*7D
$GPGGA,141404.750,4307.7800,N,07726.8260,W,2,08,1.01,142.1,M,-34.3,M,0000,0000*5B
$GPRMC,141405.000,A,4307.7800,N,07726.8260,W,0.00,71.99,120919,,,D*4F
$GPGGA,141405.250,4307.7800,N,07726.8260,W,2,08,1.01,142.1,M,-34.3,M,0000,0000*5F
$GPRMC,141405.500,A,4307.7800,N,07726.8260,W,0.00,275.20,120919,,,D*7E
$GPGGA,141405.750,4307.7800,N,07726.8260,W,2,08,1.01,142.1,M,-34.3,M,0000,0000*5A
$GPRMC,141406.000,A,4307.7800,N,07726.8260,W,0.01,72.28,120919,,,D*44
$GPGGA,141406.250,4307.7800,N,07726.8260,W,2,08,1.01,142.1,M,-34.3,M,0000,0000*5C
$GPRMC,141406.500,A,4307.7800,N,07726.8260,W,0.01,196.36,120919,,,D*75
$GPGGA,141406.750,4307.7800,N,07726.8260,W,2,08,1.01,142.1,M,-34.3,M,0000,0000*59
$GPRMC,141407.000,A,4307.7800,N,07726.8260,W,0.00,198.47,120919,,,D*78
$GPGGA,141407.250,4307.7800,N,07726.8260,W,2,08,1.01,142.1,M,-34.3,M,0000,0000*5D
$GPRMC,141407.500,A,4307.7800,N,07726.8260,W,0.01,226.79,120919,,,D*77
$GPGGA,141407.750,4307.7800,N,07726.8260,W,2,08,1.01,142.1,M,-34.3,M,0000,0000*58
$GPRMC,141408.000,A,4307.7800,N,07726.8260,W,0.01,156.20,120919,,,D*75
$GPGGA,141408.250,4307.7800,N,07726.8260,W,2,08,1.01,142.1,M,-34.3,M,0000,0000*52
$GPRMC,141408.500,A,4307.7800,N,07726.8260,W,0.01,166.76,120919,,,D*70
$GPGGA,141408.750,4307.7800,N,07726.8260,W,2,08,1.01,142.1,M,-34.3,M,0000,0000*57
$GPRMC,141409.000,A,4307.7800,N,07726.8260,W,0.01,183.23,120919,,,D*7F
$GPGGA,141409.250,4307.7800,N,07726.8260,W,2,08,1.01,142.1,M,-34.3,M,0000,0000*53
$GPRMC,141409.500,A,4307.7800,N,07726.8260,W,0.01,209.02,120919,,,D*78
$GPGGA,141409.750,4307.7800,N,07726.8260,W,2,08,1.01,142.1,M,-34.3,M,0000,0000*56
$GPRMC,141410.000,A,4307.7800,N,07726.8260,W,0.01,231.14,120919,,,D*79
$GPGGA,141410.250,4307.7800,N,07726.8260,W,2,08,1.01,142.1,M,-34.3,M,0000,0000*5B
$GPRMC,141410.500,A,4307.7800,N,07726.8260,W,0.00,199.98,120919,,,D*78
$GPGGA,141410.750,4307.7800,N,07726.8260,W,2,08,1.01,142.1,M,-34.3,M,0000,0000*5E
$GPRMC,141411.000,A,4307.7800,N,07726.8260,W,0.01,274.66,120919,,,D*7C
$GPGGA,141411.250,4307.7800,N,07726.8260,W,2,08,1.01,142.1,M,-34.3,M,0000,0000*5A
$GPRMC,141411.500,A,4307.7800,N,07726.8260,W,0.01,269.13,120919,,,D*77
$GPGGA,141411.750,4307.7800,N,07726.8260,W,2,08,1.01,142.1,M,-34.3,M,0000,0000*5F
$GPRMC,141412.000,A,4307.7800,N,07726.8260,W,0.00,181.93,120919,,,D*7D
$GPGGA,141412.250,4307.7800,N,07726.8260,W,2,08,1.01,142.1,M,-34.3,M,0000,0000*59
$GPRMC,141412.500,A,4307.7800,N,07726.8260,W,0.01,280.71,120919,,,D*77
$GPGGA,141412.750,4307.7800,N,07726.8260,W,2,08,1.01,142.1,M,-34.3,M,0000,0000*5C
$GPRMC,141413.000,A,4307.7800,N,07726.8260,W,0.01,50.64,120919,,,D*48
$GPGGA,141413.250,4307.7800,N,07726.8260,W,2,08,1.01,142.1,M,-34.3,M,0000,0000*58
$GPRMC,141413.500,A,4307.7800,N,07726.8260,W,0.01,311.73,120919,,,D*7D
$GPGGA,141413.750,4307.7800,N,07726.8260,W,2,08,1.01,142.1,M,-34.3,M,0000,0000*5D
$GPRMC,141414.000,A,4307.7800,N,07726.8260,W,0.01,356.92,120919,,,D*73
$GPGGA,141414.250,4307.7800,N,07726.8260,W,2,08,1.01,142.1,M,-34.3,M,0000,0000*5F
$GPRMC,141414.500,A,4307.7800,N,07726.8260,W,0.00,291.60,120919,,,D*70
$GPGGA,141414.750,4307.7800,N,07726.8260,W,2,08,1.01,142.1,M,-34.3,M,0000,0000*5A
$GPRMC,141415.000,A,4307.7800,N,07726.8260,W,0.01,40.73,120919,,,D*49
$GPGGA,141415.250,4307.7800,N,07726.8260,W,2,08,1.01,142.1,M,-34.3,M,0000,0000*5E
$GPRMC,141415.500,A,4307.7800,N,07726.8260,W,0.01,57.71,120919,,,D*48
$GPGGA,141415.750,4307.7800,N,07726.8260,W,2,08,1.01,142.1,M,-34.3,M,0000,0000*5B
$GPRMC,141416.000,A,4307.7800,N,07726.8260,W,0.01,15.90,120919,,,D*47
$GPGGA,141416.250,4307.7800,N,07726.8260,W,2,08,1.01,142.1,M,-34.3,M,0000,0000*5D
$GPRMC,141416.500,A,4307.7800,N,07726.8260,W,0.00,270.53,120919,,,D*7D
$GPGGA,141416.750,4307.7800,N,07726.8260,W,2,08,1.01,142.1,M,-34.3,M,0000,0000*58
$GPRMC,141417.000,A,4307.7800,N,07726.8260,W,0.00,111.32,120919,,,D*7A
$GPGGA,141417.250,4307.7800,N,07726.8260,W,2,08,1.01,142.1,M,-34.3,M,0000,0000*5C
$GPRMC,141417.500,A,4307.7800,N,07726.8260,W,0.01,61.49,120919,,,D*44
$GPGGA,141417.750,4307.7800,N,07726.8260,W,2,08,1.01,142.1,M,-34.3,M,0000,0000*59
$GPRMC,141418.000,A,4307.7800,N,07726.8260,W,0.00,288.12,120919,,,D*74
$GPGGA,141418.250,4307.7800,N,07726.8260,W,2,08,1.01,142.1,M,-34.3,M,0000,0000*53
