Vers 81
USE_SERIAL_FEEDBACK=true
DEVELOPMENT_MODE=false
USE_RMC_ONLY=false

$GPRMC,130157.750,A,4308.3069,N,07726.2670,W,0.04,210.25,200919,,,A*78
$GPGGA,130158.000,4308.3069,N,07726.2670,W,1,05,1.66,153.9,M,-34.4,M,,*50
$GPRMC,130158.250,A,4308.3068,N,07726.2669,W,0.03,57.39,200919,,,A*40
$GPGGA,130158.500,4308.3067,N,07726.2669,W,1,05,1.66,153.0,M,-34.4,M,,*5A
$GPRMC,130158.750,A,4308.3066,N,07726.2670,W,0.08,86.09,200919,,,A*47
$GPGGA,130159.000,4308.3066,N,07726.2670,W,1,05,1.66,152.7,M,-34.4,M,,*51
$GPRMC,130159.250,A,4308.3062,N,07726.2670,W,0.08,36.28,200919,,,A*4F
$GPGGA,130159.500,4308.3058,N,07726.2669,W,1,05,1.66,151.3,M,-34.4,M,,*56
$GPRMC,130159.750,A,4308.3056,N,07726.2670,W,0.03,223.83,200919,,,A*71
$GPGGA,130200.000,4308.3054,N,07726.2670,W,1,05,1.66,150.6,M,-34.4,M,,*5C
$GPRMC,130200.250,A,4308.3053,N,07726.2670,W,0.04,35.38,200919,,,A*4C
$GPGGA,130200.500,4308.3052,N,07726.2670,W,1,05,1.66,150.1,M,-34.4,M,,*58
$GPRMC,130200.750,A,4308.3051,N,07726.2671,W,0.03,102.20,200919,,,A*71
$GPGGA,130201.000,4308.3049,N,07726.2671,W,1,05,1.66,149.5,M,-34.4,M,,*5B
$GPRMC,130201.250,A,4308.3045,N,07726.2672,W,0.01,55.29,200919,,,A*4B
$GPGGA,130201.500,4308.3042,N,07726.2672,W,1,05,1.66,148.2,M,-34.4,M,,*50
$GPRMC,130201.750,A,4308.3040,N,07726.2672,W,0.03,158.39,200919,,,A*74
$GPGGA,130202.000,4308.3038,N,07726.2672,W,1,05,1.66,147.3,M,-34.4,M,,*55
$GPRMC,130202.250,A,4308.3039,N,07726.2673,W,0.05,196.68,200919,,,A*7D
$GPGGA,130202.500,4308.3039,N,07726.2674,W,1,07,1.09,147.9,M,-34.4,M,,*56
$GPRMC,130202.750,A,4308.3040,N,07726.2674,W,0.04,21.52,200919,,,A*44
$GPGGA,130203.000,4308.3040,N,07726.2675,W,1,07,1.10,148.6,M,-34.4,M,,*55
$GPRMC,130203.250,A,4308.3040,N,07726.2675,W,0.01,96.47,200919,,,A*4C
$GPGGA,130203.500,4308.3040,N,07726.2675,W,1,07,1.10,149.2,M,-34.4,M,,*55
$GPRMC,130203.750,A,4308.3041,N,07726.2675,W,0.02,61.96,200919,,,A*4F
$GPGGA,130204.000,4308.3041,N,07726.2676,W,1,07,1.10,149.6,M,-34.4,M,,*51
$GPRMC,130204.250,A,4308.3042,N,07726.2676,W,0.03,80.36,200919,,,A*49
$GPGGA,130204.500,4308.3042,N,07726.2676,W,1,07,1.10,150.1,M,-34.4,M,,*58
$GPRMC,130204.750,A,4308.3042,N,07726.2676,W,0.03,128.52,200919,,,A*7D
$GPGGA,130205.000,4308.3042,N,07726.2676,W,1,07,1.10,150.6,M,-34.4,M,,*5B
$GPRMC,130205.250,A,4308.3043,N,07726.2676,W,0.09,93.88,200919,,,A*44
$GPGGA,130205.500,4308.3044,N,07726.2676,W,1,07,1.10,150.8,M,-34.4,M,,*56
$GPRMC,130205.750,A,4308.3044,N,07726.2676,W,0.21,50.66,200919,,,A*43
$GPGGA,130206.000,4308.3045,N,07726.2676,W,1,07,1.10,151.0,M,-34.4,M,,*58
$GPRMC,130206.250,A,4308.3046,N,07726.2676,W,0.14,36.33,200919,,,A*41
$GPGGA,130206.500,4308.3046,N,07726.2676,W,1,07,1.09,151.3,M,-34.4,M,,*55
$GPRMC,130206.750,A,4308.3047,N,07726.2676,W,0.19,24.73,200919,,,A*4F
$GPGGA,130207.000,4308.3047,N,07726.2676,W,1,07,1.10,151.6,M,-34.4,M,,*5D
$GPRMC,130207.250,A,4308.3048,N,07726.2675,W,0.17,50.56,200919,,,A*4D
$GPGGA,130207.500,4308.3048,N,07726.2675,W,1,07,1.09,151.8,M,-34.4,M,,*52
$GPRMC,130207.750,A,4308.3048,N,07726.2675,W,0.19,40.31,200919,,,A*46
$GPGGA,130208.000,4308.3048,N,07726.2674,W,1,07,1.10,151.8,M,-34.4,M,,*51
$GPRMC,130208.250,A,4308.3049,N,07726.2674,W,0.24,61.83,200919,,,A*48
$GPGGA,130208.500,4308.3049,N,07726.2674,W,1,07,1.10,151.8,M,-34.4,M,,*55
$GPRMC,130208.750,A,4308.3049,N,07726.2674,W,0.17,51.59,200919,,,A*49
$GPGGA,130209.000,4308.3048,N,07726.2674,W,1,07,1.10,152.0,M,-34.4,M,,*5B
$GPRMC,130209.250,A,4308.3048,N,07726.2673,W,0.16,57.77,200919,,,A*40
$GPGGA,130209.500,4308.3048,N,07726.2673,W,1,07,1.10,152.0,M,-34.4,M,,*59
$GPRMC,130209.750,A,4308.3048,N,07726.2673,W,0.09,36.47,200919,,,A*4F
$GPGGA,130210.000,4308.3048,N,07726.2673,W,1,07,1.10,152.0,M,-34.4,M,,*54
$GPRMC,130210.250,A,4308.3048,N,07726.2673,W,0.13,17.90,200919,,,A*40
$GPGGA,130210.500,4308.3048,N,07726.2673,W,1,07,1.10,152.1,M,-34.4,M,,*50
$GPRMC,130210.750,A,4308.3047,N,07726.2672,W,0.13,12.00,200919,,,A*47
$GPGGA,130211.000,4308.3047,N,07726.2672,W,1,07,1.11,152.1,M,-34.4,M,,*5B
$GPRMC,130211.250,A,4308.3047,N,07726.2671,W,0.10,53.19,200919,,,A*4E
$GPGGA,130211.500,4308.3046,N,07726.2671,W,1,07,1.10,152.1,M,-34.4,M,,*5D
$GPRMC,130211.750,A,4308.3046,N,07726.2671,W,0.07,9.82,200919,,,A*71
$GPGGA,130212.000,4308.3046,N,07726.2671,W,1,07,1.11,152.0,M,-34.4,M,,*5B
$GPRMC,130212.250,A,4308.3046,N,07726.2671,W,0.10,304.46,200919,,,A*77
$GPGGA,130212.500,4308.3046,N,07726.2671,W,1,07,1.10,152.0,M,-34.4,M,,*5F
$GPRMC,130212.750,A,4308.3045,N,07726.2671,W,0.07,300.13,200919,,,A*73
$GPGGA,130213.000,4308.3045,N,07726.2671,W,1,07,1.10,152.0,M,-34.4,M,,*58
$GPRMC,130213.250,A,4308.3045,N,07726.2671,W,0.13,303.80,200919,,,A*7B
$GPGGA,130213.500,4308.3045,N,07726.2671,W,1,07,1.10,152.0,M,-34.4,M,,*5D
$GPRMC,130213.750,A,4308.3045,N,07726.2671,W,0.04,326.55,200919,,,A*77
$GPGGA,130214.000,4308.3045,N,07726.2671,W,1,07,1.10,152.1,M,-34.4,M,,*5E
$GPRMC,130214.250,A,4308.3045,N,07726.2671,W,0.05,14.73,200919,,,A*42
$GPGGA,130214.500,4308.3044,N,07726.2671,W,1,07,1.11,152.1,M,-34.4,M,,*5B
$GPRMC,130214.750,A,4308.3044,N,07726.2671,W,0.06,179.79,200919,,,A*75
$GPGGA,130215.000,4308.3044,N,07726.2671,W,1,07,1.10,152.1,M,-34.4,M,,*5E
$GPRMC,130215.250,A,4308.3044,N,07726.2672,W,0.08,222.09,200919,,,A*76
$GPGGA,130215.500,4308.3044,N,07726.2672,W,1,07,1.10,152.2,M,-34.4,M,,*5B
$GPRMC,130215.750,A,4308.3044,N,07726.2673,W,0.17,252.45,200919,,,A*73
$GPGGA,130216.000,4308.3044,N,07726.2673,W,1,07,1.10,152.2,M,-34.4,M,,*5C
$GPRMC,130216.250,A,4308.3044,N,07726.2673,W,0.10,282.10,200919,,,A*7F
$GPGGA,130216.500,4308.3043,N,07726.2673,W,1,07,1.10,152.3,M,-34.4,M,,*5F
$GPRMC,130216.750,A,4308.3043,N,07726.2673,W,0.14,248.09,200919,,,A*77
$GPGGA,130217.000,4308.3043,N,07726.2674,W,1,07,1.10,152.3,M,-34.4,M,,*5C
$GPRMC,130217.250,A,4308.3043,N,07726.2674,W,0.26,254.82,200919,,,A*7B
$GPGGA,130217.500,4308.3043,N,07726.2675,W,1,07,1.10,152.3,M,-34.4,M,,*58
$GPRMC,130217.750,A,4308.3043,N,07726.2675,W,0.25,258.51,200919,,,A*7E
$GPGGA,130218.000,4308.3042,N,07726.2676,W,1,07,1.10,152.3,M,-34.4,M,,*50
$GPRMC,130218.250,A,4308.3042,N,07726.2676,W,0.25,231.60,200919,,,A*7B
$GPGGA,130218.500,4308.3042,N,07726.2676,W,1,07,1.10,152.3,M,-34.4,M,,*55
$GPRMC,130218.750,A,4308.3041,N,07726.2676,W,0.28,226.55,200919,,,A*70
$GPGGA,130219.000,4308.3041,N,07726.2676,W,1,07,1.10,152.3,M,-34.4,M,,*52
$GPRMC,130219.250,A,4308.3041,N,07726.2675,W,0.19,212.39,200919,,,A*78
$GPGGA,130219.500,4308.3041,N,07726.2675,W,1,07,1.10,152.3,M,-34.4,M,,*54
$GPRMC,130219.750,A,4308.3041,N,07726.2675,W,0.11,204.37,200919,,,A*7C
$GPGGA,130220.000,4308.3042,N,07726.2674,W,1,07,1.09,152.2,M,-34.4,M,,*50
$GPRMC,130220.250,A,4308.3042,N,07726.2674,W,0.01,308.13,200919,,,A*7B
$GPGGA,130220.500,4308.3042,N,07726.2673,W,1,07,1.10,152.3,M,-34.4,M,,*5B
$GPRMC,130220.750,A,4308.3042,N,07726.2673,W,0.07,16.95,200919,,,A*4D
$GPGGA,130221.000,4308.3043,N,07726.2673,W,1,07,1.10,152.2,M,-34.4,M,,*5F
$GPRMC,130221.250,A,4308.3043,N,07726.2672,W,0.09,40.07,200919,,,A*4F
$GPGGA,130221.500,4308.3043,N,07726.2672,W,1,07,1.10,152.2,M,-34.4,M,,*5B
$GPRMC,130221.750,A,4308.3044,N,07726.2671,W,0.22,11.92,200919,,,A*4F
$GPGGA,130222.000,4308.3045,N,07726.2671,W,1,07,1.11,152.1,M,-34.4,M,,*5A
$GPRMC,130222.250,A,4308.3046,N,07726.2670,W,0.52,8.31,200919,,,A*7C
$GPGGA,130222.500,4308.3048,N,07726.2669,W,1,07,1.11,152.1,M,-34.4,M,,*5B
$GPRMC,130222.750,A,4308.3050,N,07726.2668,W,1.20,11.75,200919,,,A*4B
$GPGGA,130223.000,4308.3055,N,07726.2667,W,1,07,1.11,152.0,M,-34.4,M,,*5C
$GPRMC,130223.250,A,4308.3058,N,07726.2665,W,3.13,13.29,200919,,,A*43
$GPGGA,130223.500,4308.3061,N,07726.2664,W,1,07,1.11,151.9,M,-34.4,M,,*57
$GPRMC,130223.750,A,4308.3065,N,07726.2663,W,4.95,7.02,200919,,,A*7B
$GPGGA,130224.000,4308.3069,N,07726.2663,W,1,07,1.11,151.8,M,-34.4,M,,*5B
$GPRMC,130224.250,A,4308.3073,N,07726.2662,W,5.65,4.17,200919,,,A*76
$GPGGA,130224.500,4308.3078,N,07726.2663,W,1,07,1.11,151.8,M,-34.4,M,,*5E
$GPRMC,130224.750,A,4308.3083,N,07726.2663,W,6.55,358.68,200919,,,A*7F
$GPGGA,130225.000,4308.3088,N,07726.2663,W,1,07,1.11,151.7,M,-34.4,M,,*5A
$GPRMC,130225.250,A,4308.3093,N,07726.2663,W,7.13,359.89,200919,,,A*77
$GPGGA,130225.500,4308.3098,N,07726.2662,W,1,07,1.11,151.6,M,-34.4,M,,*5E
$GPRMC,130225.750,A,4308.3103,N,07726.2662,W,7.13,1.04,200919,,,A*70
$GPGGA,130226.000,4308.3108,N,07726.2661,W,1,07,1.11,151.5,M,-34.4,M,,*50
$GPRMC,130226.250,A,4308.3112,N,07726.2660,W,6.79,4.60,200919,,,A*7E
$GPGGA,130226.500,4308.3116,N,07726.2659,W,1,08,1.06,151.6,M,-34.4,M,,*5B
$GPRMC,130226.750,A,4308.3119,N,07726.2657,W,5.75,5.78,200919,,,A*73
$GPGGA,130227.000,4308.3122,N,07726.2656,W,1,08,1.06,151.5,M,-34.4,M,,*54
$GPRMC,130227.250,A,4308.3125,N,07726.2655,W,4.36,8.26,200919,,,A*7A
$GPGGA,130227.500,4308.3127,N,07726.2654,W,1,08,1.06,151.5,M,-34.4,M,,*56
$GPRMC,130227.750,A,4308.3128,N,07726.2653,W,2.74,19.20,200919,,,A*42
$GPGGA,130228.000,4308.3129,N,07726.2652,W,1,08,1.03,151.5,M,-34.4,M,,*51
$GPRMC,130228.250,A,4308.3130,N,07726.2652,W,1.54,356.68,200919,,,A*75
$GPGGA,130228.500,4308.3130,N,07726.2653,W,1,08,1.06,151.5,M,-34.4,M,,*58
$GPRMC,130228.750,A,4308.3131,N,07726.2652,W,1.26,359.09,200919,,,A*7C
$GPGGA,130229.000,4308.3132,N,07726.2651,W,1,08,1.06,151.6,M,-34.4,M,,*5F
$GPRMC,130229.250,A,4308.3134,N,07726.2650,W,1.88,8.38,200919,,,A*7E
$GPGGA,130229.500,4308.3137,N,07726.2648,W,1,08,1.06,151.6,M,-34.4,M,,*57
$GPRMC,130229.750,A,4308.3140,N,07726.2647,W,2.89,14.18,200919,,,A*43
$GPGGA,130230.000,4308.3142,N,07726.2646,W,1,08,1.06,151.6,M,-34.4,M,,*56
$GPRMC,130230.250,A,4308.3144,N,07726.2644,W,3.53,21.76,200919,,,A*41
$GPGGA,130230.500,4308.3147,N,07726.2641,W,1,08,1.03,151.6,M,-34.4,M,,*54
$GPRMC,130230.750,A,4308.3149,N,07726.2638,W,4.34,33.98,200919,,,A*47
$GPGGA,130231.000,4308.3152,N,07726.2636,W,1,08,1.06,151.5,M,-34.4,M,,*52
$GPRMC,130231.250,A,4308.3153,N,07726.2633,W,3.94,40.07,200919,,,A*4C
$GPGGA,130231.500,4308.3154,N,07726.2630,W,1,08,1.06,151.5,M,-34.4,M,,*57
$GPRMC,130231.750,A,4308.3156,N,07726.2627,W,3.41,52.47,200919,,,A*46
$GPGGA,130232.000,4308.3157,N,07726.2623,W,1,08,1.03,151.5,M,-34.4,M,,*55
$GPRMC,130232.250,A,4308.3157,N,07726.2621,W,3.11,62.08,200919,,,A*4A
$GPGGA,130232.500,4308.3158,N,07726.2618,W,1,08,1.03,151.5,M,-34.4,M,,*57
$GPRMC,130232.750,A,4308.3159,N,07726.2616,W,2.13,67.91,200919,,,A*43
$GPGGA,130233.000,4308.3159,N,07726.2614,W,1,08,1.03,151.6,M,-34.4,M,,*5D
$GPRMC,130233.250,A,4308.3160,N,07726.2613,W,1.67,66.08,200919,,,A*49
$GPGGA,130233.500,4308.3160,N,07726.2612,W,1,08,1.03,151.6,M,-34.4,M,,*54
$GPRMC,130233.750,A,4308.3160,N,07726.2611,W,0.78,57.50,200919,,,A*4E
$GPGGA,130234.000,4308.3160,N,07726.2613,W,1,08,1.03,151.7,M,-34.4,M,,*56
$GPRMC,130234.250,A,4308.3160,N,07726.2616,W,0.69,278.50,200919,,,A*74
$GPGGA,130234.500,4308.3159,N,07726.2619,W,1,08,1.03,151.9,M,-34.4,M,,*5D
$GPRMC,130234.750,A,4308.3160,N,07726.2623,W,1.74,265.92,200919,,,A*78
$GPGGA,130235.000,4308.3159,N,07726.2627,W,1,08,1.03,152.0,M,-34.4,M,,*5E
$GPRMC,130235.250,A,4308.3159,N,07726.2630,W,2.32,265.70,200919,,,A*79
$GPGGA,130235.500,4308.3159,N,07726.2633,W,1,08,1.03,152.1,M,-34.4,M,,*5F
$GPRMC,130235.750,A,4308.3159,N,07726.2639,W,4.00,262.10,200919,,,A*73
$GPGGA,130236.000,4308.3159,N,07726.2645,W,1,08,1.06,152.3,M,-34.4,M,,*5F
$GPRMC,130236.250,A,4308.3159,N,07726.2651,W,5.75,263.50,200919,,,A*7D
$GPGGA,130236.500,4308.3159,N,07726.2657,W,1,08,1.06,152.3,M,-34.4,M,,*59
$GPRMC,130236.750,A,4308.3159,N,07726.2664,W,6.83,265.68,200919,,,A*79
$GPGGA,130237.000,4308.3159,N,07726.2672,W,1,08,1.06,152.4,M,-34.4,M,,*5D
$GPRMC,130237.250,A,4308.3160,N,07726.2681,W,8.19,268.90,200919,,,A*7B
$GPGGA,130237.500,4308.3162,N,07726.2691,W,1,08,1.06,152.5,M,-34.4,M,,*5C
$GPRMC,130237.750,A,4308.3164,N,07726.2701,W,9.77,276.52,200919,,,A*7B
$GPGGA,130238.000,4308.3165,N,07726.2711,W,1,08,1.06,152.7,M,-34.4,M,,*5A
$GPRMC,130238.250,A,4308.3166,N,07726.2722,W,10.67,277.73,200919,,,A*49
$GPGGA,130238.500,4308.3168,N,07726.2732,W,1,08,1.06,152.8,M,-34.4,M,,*5C
$GPRMC,130238.750,A,4308.3168,N,07726.2742,W,11.11,276.94,200919,,,A*4C
$GPGGA,130239.000,4308.3168,N,07726.2752,W,1,08,1.06,153.0,M,-34.4,M,,*57
$GPRMC,130239.250,A,4308.3169,N,07726.2762,W,11.86,278.84,200919,,,A*4A
$GPGGA,130239.500,4308.3169,N,07726.2771,W,1,08,1.06,153.2,M,-34.4,M,,*50
$GPRMC,130239.750,A,4308.3170,N,07726.2781,W,12.61,281.62,200919,,,A*4E
$GPGGA,130240.000,4308.3172,N,07726.2792,W,1,08,1.06,153.5,M,-34.4,M,,*5B
$GPRMC,130240.250,A,4308.3174,N,07726.2803,W,13.35,283.85,200919,,,A*4F
$GPGGA,130240.500,4308.3176,N,07726.2816,W,1,08,1.06,153.6,M,-34.4,M,,*5A
$GPRMC,130240.750,A,4308.3179,N,07726.2829,W,14.28,286.06,200919,,,A*4A
$GPGGA,130241.000,4308.3183,N,07726.2842,W,1,08,1.06,153.7,M,-34.4,M,,*54
$GPRMC,130241.250,A,4308.3186,N,07726.2856,W,15.10,287.89,200919,,,A*4A
$GPGGA,130241.500,4308.3190,N,07726.2870,W,1,08,1.06,153.8,M,-34.4,M,,*5D
$GPRMC,130241.750,A,4308.3194,N,07726.2884,W,15.65,289.77,200919,,,A*4E
$GPGGA,130242.000,4308.3199,N,07726.2899,W,1,08,1.06,154.0,M,-34.4,M,,*5A
$GPRMC,130242.250,A,4308.3203,N,07726.2914,W,16.28,292.30,200919,,,A*4E
$GPGGA,130242.500,4308.3209,N,07726.2929,W,1,08,1.06,154.2,M,-34.4,M,,*5D
$GPRMC,130242.750,A,4308.3214,N,07726.2944,W,17.04,295.96,200919,,,A*4C
$GPGGA,130243.000,4308.3220,N,07726.2960,W,1,08,1.06,154.4,M,-34.4,M,,*59
$GPRMC,130243.250,A,4308.3226,N,07726.2976,W,17.84,298.11,200919,,,A*42
$GPGGA,130243.500,4308.3233,N,07726.2992,W,1,08,1.06,154.6,M,-34.4,M,,*51
$GPRMC,130243.750,A,4308.3240,N,07726.3008,W,18.86,299.38,200919,,,A*41
$GPGGA,130244.000,4308.3248,N,07726.3025,W,1,08,1.06,154.8,M,-34.4,M,,*55
$GPRMC,130244.250,A,4308.3256,N,07726.3041,W,19.84,300.55,200919,,,A*40
$GPGGA,130244.500,4308.3264,N,07726.3059,W,1,08,1.06,155.1,M,-34.4,M,,*5D
$GPRMC,130244.750,A,4308.3271,N,07726.3076,W,21.00,301.02,200919,,,A*40
$GPGGA,130245.000,4308.3280,N,07726.3095,W,1,08,1.06,155.4,M,-34.4,M,,*56
$GPRMC,130245.250,A,4308.3289,N,07726.3113,W,21.91,301.65,200919,,,A*48
$GPGGA,130245.500,4308.3297,N,07726.3132,W,1,08,1.06,155.7,M,-34.4,M,,*5A
$GPRMC,130245.750,A,4308.3306,N,07726.3151,W,22.69,302.21,200919,,,A*4A
$GPGGA,130246.000,4308.3315,N,07726.3170,W,1,08,1.06,156.1,M,-34.4,M,,*54
$GPRMC,130246.250,A,4308.3324,N,07726.3189,W,23.13,302.21,200919,,,A*45
$GPGGA,130246.500,4308.3333,N,07726.3209,W,1,08,1.06,156.3,M,-34.4,M,,*5A
$GPRMC,130246.750,A,4308.3342,N,07726.3228,W,23.43,302.20,200919,,,A*4C
$GPGGA,130247.000,4308.3351,N,07726.3247,W,1,08,1.06,156.5,M,-34.4,M,,*56
$GPRMC,130247.250,A,4308.3359,N,07726.3267,W,23.51,302.18,200919,,,A*41
$GPGGA,130247.500,4308.3369,N,07726.3286,W,1,08,1.06,156.8,M,-34.4,M,,*58
$GPRMC,130247.750,A,4308.3379,N,07726.3306,W,24.10,303.13,200919,,,A*48
$GPGGA,130248.000,4308.3388,N,07726.3326,W,1,08,1.06,157.2,M,-34.4,M,,*5D
$GPRMC,130248.250,A,4308.3398,N,07726.3345,W,24.28,302.89,200919,,,A*43
$GPGGA,130248.500,4308.3407,N,07726.3365,W,1,08,1.03,157.5,M,-34.4,M,,*5D
$GPRMC,130248.750,A,4308.3417,N,07726.3385,W,24.19,302.85,200919,,,A*44
$GPGGA,130249.000,4308.3426,N,07726.3405,W,1,08,1.06,157.9,M,-34.4,M,,*52
$GPRMC,130249.250,A,4308.3437,N,07726.3424,W,24.16,304.05,200919,,,A*4F
$GPGGA,130249.500,4308.3446,N,07726.3443,W,1,08,1.06,158.3,M,-34.4,M,,*56
$GPRMC,130249.750,A,4308.3456,N,07726.3463,W,24.07,304.79,200919,,,A*45
$GPGGA,130250.000,4308.3466,N,07726.3482,W,1,08,1.06,158.7,M,-34.4,M,,*50
$GPRMC,130250.250,A,4308.3476,N,07726.3500,W,23.77,306.48,200919,,,A*4E
$GPGGA,130250.500,4308.3486,N,07726.3518,W,1,08,1.06,159.0,M,-34.4,M,,*5F
$GPRMC,130250.750,A,4308.3496,N,07726.3536,W,23.71,306.87,200919,,,A*45
$GPGGA,130251.000,4308.3506,N,07726.3553,W,1,08,1.06,159.2,M,-34.4,M,,*5F
$GPRMC,130251.250,A,4308.3517,N,07726.3571,W,23.56,308.41,200919,,,A*4B
$GPGGA,130251.500,4308.3528,N,07726.3588,W,1,08,1.06,159.4,M,-34.4,M,,*56
$GPRMC,130251.750,A,4308.3539,N,07726.3605,W,23.59,311.43,200919,,,A*47
$GPGGA,130252.000,4308.3551,N,07726.3621,W,1,08,1.06,159.6,M,-34.4,M,,*5C
$GPRMC,130252.250,A,4308.3563,N,07726.3637,W,23.63,314.85,200919,,,A*49
$GPGGA,130252.500,4308.3575,N,07726.3652,W,1,08,1.06,159.7,M,-34.4,M,,*5A
$GPRMC,130252.750,A,4308.3589,N,07726.3666,W,23.72,319.07,200919,,,A*4B
$GPGGA,130253.000,4308.3602,N,07726.3679,W,1,08,1.06,159.8,M,-34.4,M,,*5B
$GPRMC,130253.250,A,4308.3616,N,07726.3692,W,23.93,322.13,200919,,,A*43
$GPGGA,130253.500,4308.3630,N,07726.3704,W,1,08,1.06,159.9,M,-34.4,M,,*55
$GPRMC,130253.750,A,4308.3645,N,07726.3716,W,24.06,326.70,200919,,,A*47
$GPGGA,130254.000,4308.3660,N,07726.3726,W,1,08,1.06,160.0,M,-34.4,M,,*51
$GPRMC,130254.250,A,4308.3675,N,07726.3736,W,24.13,331.44,200919,,,A*41
$GPGGA,130254.500,4308.3691,N,07726.3745,W,1,08,1.06,159.9,M,-34.4,M,,*5C
$GPRMC,130254.750,A,4308.3707,N,07726.3754,W,24.49,336.27,200919,,,A*49
$GPGGA,130255.000,4308.3723,N,07726.3762,W,1,08,1.06,159.8,M,-34.4,M,,*54
$GPRMC,130255.250,A,4308.3739,N,07726.3769,W,24.17,340.95,200919,,,A*4D
$GPGGA,130255.500,4308.3755,N,07726.3774,W,1,08,1.06,159.8,M,-34.4,M,,*57
$GPRMC,130255.750,A,4308.3772,N,07726.3779,W,24.07,345.47,200919,,,A*4D
$GPGGA,130256.000,4308.3789,N,07726.3783,W,1,08,1.06,159.9,M,-34.4,M,,*59
$GPRMC,130256.250,A,4308.3806,N,07726.3786,W,24.15,349.53,200919,,,A*4D
$GPGGA,130256.500,4308.3822,N,07726.3788,W,1,08,1.06,159.9,M,-34.4,M,,*59
$GPRMC,130256.750,A,4308.3840,N,07726.3789,W,24.17,355.07,200919,,,A*4B
$GPGGA,130257.000,4308.3858,N,07726.3788,W,1,08,1.06,160.0,M,-34.4,M,,*53
$GPRMC,130257.250,A,4308.3875,N,07726.3788,W,24.53,358.38,200919,,,A*49
$GPGGA,130257.500,4308.3893,N,07726.3787,W,1,08,1.06,160.1,M,-34.4,M,,*5F
$GPRMC,130257.750,A,4308.3911,N,07726.3786,W,24.86,1.10,200919,,,A*4C
$GPGGA,130258.000,4308.3928,N,07726.3785,W,1,08,1.06,160.2,M,-34.4,M,,*55
$GPRMC,130258.250,A,4308.3946,N,07726.3783,W,25.09,3.52,200919,,,A*43
$GPGGA,130258.500,4308.3964,N,07726.3780,W,1,08,1.06,160.3,M,-34.4,M,,*5C
$GPRMC,130258.750,A,4308.3982,N,07726.3777,W,25.78,6.16,200919,,,A*46
$GPGGA,130259.000,4308.4001,N,07726.3774,W,1,08,1.06,160.4,M,-34.4,M,,*59
$GPRMC,130259.250,A,4308.4020,N,07726.3771,W,26.82,6.84,200919,,,A*4F
$GPGGA,130259.500,4308.4039,N,07726.3768,W,1,08,1.06,160.6,M,-34.4,M,,*58
$GPRMC,130259.750,A,4308.4059,N,07726.3764,W,27.26,7.86,200919,,,A*4C
$GPGGA,130300.000,4308.4078,N,07726.3760,W,1,08,1.06,160.7,M,-34.4,M,,*5C
$GPRMC,130300.250,A,4308.4097,N,07726.3756,W,27.31,8.42,200919,,,A*46
$GPGGA,130300.500,4308.4116,N,07726.3752,W,1,08,1.06,161.0,M,-34.4,M,,*57
$GPRMC,130300.750,A,4308.4135,N,07726.3749,W,27.09,8.67,200919,,,A*48
$GPGGA,130301.000,4308.4154,N,07726.3745,W,1,08,1.06,161.2,M,-34.4,M,,*51
$GPRMC,130301.250,A,4308.4172,N,07726.3741,W,26.77,8.78,200919,,,A*41
$GPGGA,130301.500,4308.4191,N,07726.3737,W,1,08,1.06,161.3,M,-34.4,M,,*59
$GPRMC,130301.750,A,4308.4209,N,07726.3733,W,26.05,8.73,200919,,,A*40
$GPGGA,130302.000,4308.4227,N,07726.3729,W,1,08,1.06,161.5,M,-34.4,M,,*58
$GPRMC,130302.250,A,4308.4244,N,07726.3726,W,25.49,8.85,200919,,,A*49
$GPGGA,130302.500,4308.4262,N,07726.3722,W,1,08,1.06,161.7,M,-34.4,M,,*55
$GPRMC,130302.750,A,4308.4279,N,07726.3718,W,24.66,8.86,200919,,,A*40
$GPGGA,130303.000,4308.4296,N,07726.3714,W,1,08,1.06,161.9,M,-34.4,M,,*51
$GPRMC,130303.250,A,4308.4312,N,07726.3711,W,24.07,9.12,200919,,,A*4A
$GPGGA,130303.500,4308.4329,N,07726.3707,W,1,08,1.06,162.2,M,-34.4,M,,*5B
$GPRMC,130303.750,A,4308.4344,N,07726.3704,W,22.93,8.99,200919,,,A*41
$GPGGA,130304.000,4308.4359,N,07726.3700,W,1,08,1.06,162.4,M,-34.4,M,,*5F
$GPRMC,130304.250,A,4308.4374,N,07726.3697,W,21.73,9.12,200919,,,A*44
$GPGGA,130304.500,4308.4389,N,07726.3694,W,1,08,1.06,162.7,M,-34.4,M,,*58
$GPRMC,130304.750,A,4308.4403,N,07726.3690,W,20.35,10.50,200919,,,A*7C
$GPGGA,130305.000,4308.4416,N,07726.3686,W,1,08,1.06,162.8,M,-34.4,M,,*51
$GPRMC,130305.250,A,4308.4429,N,07726.3683,W,19.36,11.90,200919,,,A*76
$GPGGA,130305.500,4308.4441,N,07726.3678,W,1,08,1.06,163.0,M,-34.4,M,,*5E
$GPRMC,130305.750,A,4308.4453,N,07726.3674,W,18.12,14.10,200919,,,A*7C
$GPGGA,130306.000,4308.4465,N,07726.3670,W,1,08,1.06,163.1,M,-34.4,M,,*57
$GPRMC,130306.250,A,4308.4476,N,07726.3666,W,17.24,15.41,200919,,,A*71
$GPGGA,130306.500,4308.4486,N,07726.3661,W,1,08,1.06,163.2,M,-34.4,M,,*5C
$GPRMC,130306.750,A,4308.4498,N,07726.3658,W,15.62,17.61,200919,,,A*79
$GPGGA,130307.000,4308.4509,N,07726.3655,W,1,08,1.06,163.5,M,-34.4,M,,*5E
$GPRMC,130307.250,A,4308.4519,N,07726.3651,W,14.28,17.72,200919,,,A*71
$GPGGA,130307.500,4308.4528,N,07726.3648,W,1,08,1.06,163.7,M,-34.4,M,,*56
$GPRMC,130307.750,A,4308.4536,N,07726.3643,W,12.16,17.91,200919,,,A*7C
$GPGGA,130308.000,4308.4544,N,07726.3640,W,1,08,1.06,163.6,M,-34.4,M,,*5F
$GPRMC,130308.250,A,4308.4550,N,07726.3637,W,9.88,17.70,200919,,,A*47
$GPGGA,130308.500,4308.4555,N,07726.3635,W,1,08,1.06,163.7,M,-34.4,M,,*59
$GPRMC,130308.750,A,4308.4559,N,07726.3633,W,6.88,15.79,200919,,,A*4B
$GPGGA,130309.000,4308.4563,N,07726.3632,W,1,08,1.06,164.0,M,-34.4,M,,*5F
$GPRMC,130309.250,A,4308.4566,N,07726.3631,W,5.48,9.09,200919,,,A*74
$GPGGA,130309.500,4308.4570,N,07726.3630,W,1,08,1.06,164.0,M,-34.4,M,,*5A
$GPRMC,130309.750,A,4308.4574,N,07726.3627,W,5.07,3.96,200919,,,A*72
$GPGGA,130310.000,4308.4579,N,07726.3626,W,1,08,1.06,163.6,M,-34.4,M,,*58
$GPRMC,130310.250,A,4308.4584,N,07726.3625,W,5.96,357.38,200919,,,A*7C
$GPGGA,130310.500,4308.4588,N,07726.3625,W,1,08,1.06,163.3,M,-34.4,M,,*55
$GPRMC,130310.750,A,4308.4593,N,07726.3625,W,7.08,354.04,200919,,,A*76
$GPGGA,130311.000,4308.4600,N,07726.3626,W,1,08,1.06,163.3,M,-34.4,M,,*51
$GPRMC,130311.250,A,4308.4606,N,07726.3629,W,8.72,341.28,200919,,,A*79
$GPGGA,130311.500,4308.4611,N,07726.3633,W,1,08,1.06,163.4,M,-34.4,M,,*57
$GPRMC,130311.750,A,4308.4617,N,07726.3638,W,9.99,326.52,200919,,,A*74
$GPGGA,130312.000,4308.4623,N,07726.3645,W,1,08,1.06,163.0,M,-34.4,M,,*55
$GPRMC,130312.250,A,4308.4628,N,07726.3652,W,11.36,316.06,200919,,,A*4C
$GPGGA,130312.500,4308.4633,N,07726.3661,W,1,08,1.06,162.7,M,-34.4,M,,*51
$GPRMC,130312.750,A,4308.4637,N,07726.3672,W,13.15,303.09,200919,,,A*4D
$GPGGA,130313.000,4308.4642,N,07726.3683,W,1,08,1.06,162.1,M,-34.4,M,,*59
$GPRMC,130313.250,A,4308.4646,N,07726.3696,W,14.24,295.96,200919,,,A*48
$GPGGA,130313.500,4308.4649,N,07726.3711,W,1,08,1.06,161.9,M,-34.4,M,,*56
$GPRMC,130313.750,A,4308.4651,N,07726.3727,W,16.36,286.22,200919,,,A*4C
$GPGGA,130314.000,4308.4654,N,07726.3745,W,1,08,1.06,161.6,M,-34.4,M,,*56
$GPRMC,130314.250,A,4308.4656,N,07726.3762,W,17.76,282.61,200919,,,A*4E
$GPGGA,130314.500,4308.4658,N,07726.3783,W,1,08,1.06,161.0,M,-34.4,M,,*53
$GPRMC,130314.750,A,4308.4660,N,07726.3803,W,19.27,280.75,200919,,,A*4B
$GPGGA,130315.000,4308.4662,N,07726.3824,W,1,08,1.06,160.4,M,-34.4,M,,*59
$GPRMC,130315.250,A,4308.4665,N,07726.3843,W,20.66,279.80,200919,,,A*4D
$GPGGA,130315.500,4308.4668,N,07726.3864,W,1,08,1.06,160.0,M,-34.4,M,,*56
$GPRMC,130315.750,A,4308.4671,N,07726.3885,W,21.94,279.88,200919,,,A*43
$GPGGA,130316.000,4308.4673,N,07726.3906,W,1,08,1.06,159.5,M,-34.4,M,,*50
$GPRMC,130316.250,A,4308.4675,N,07726.3927,W,22.50,280.14,200919,,,A*40
$GPGGA,130316.500,4308.4677,N,07726.3950,W,1,08,1.06,159.2,M,-34.4,M,,*55
$GPRMC,130316.750,A,4308.4680,N,07726.3971,W,22.80,280.45,200919,,,A*45
$GPGGA,130317.000,4308.4682,N,07726.3993,W,1,08,1.06,158.6,M,-34.4,M,,*51
$GPRMC,130317.250,A,4308.4684,N,07726.4015,W,22.74,280.47,200919,,,A*40
$GPGGA,130317.500,4308.4686,N,07726.4037,W,1,08,1.06,158.4,M,-34.4,M,,*52
$GPRMC,130317.750,A,4308.4687,N,07726.4059,W,22.46,279.78,200919,,,A*45
$GPGGA,130318.000,4308.4688,N,07726.4080,W,1,08,1.06,158.1,M,-34.4,M,,*5F
$GPRMC,130318.250,A,4308.4689,N,07726.4102,W,22.41,278.71,200919,,,A*41
$GPGGA,130318.500,4308.4690,N,07726.4124,W,1,08,1.06,158.0,M,-34.4,M,,*5D
$GPRMC,130318.750,A,4308.4691,N,07726.4146,W,22.27,277.64,200919,,,A*46
$GPGGA,130319.000,4308.4692,N,07726.4168,W,1,08,1.06,157.9,M,-34.4,M,,*55
$GPRMC,130319.250,A,4308.4694,N,07726.4190,W,22.73,277.57,200919,,,A*4D
$GPGGA,130319.500,4308.4695,N,07726.4213,W,1,08,1.06,157.8,M,-34.4,M,,*59
$GPRMC,130319.750,A,4308.4697,N,07726.4235,W,23.35,277.47,200919,,,A*45
$GPGGA,130320.000,4308.4699,N,07726.4258,W,1,08,1.06,157.9,M,-34.4,M,,*54
$GPRMC,130320.250,A,4308.4701,N,07726.4281,W,23.94,277.59,200919,,,A*4F
$GPGGA,130320.500,4308.4703,N,07726.4305,W,1,08,1.06,157.9,M,-34.4,M,,*5A
$GPRMC,130320.750,A,4308.4705,N,07726.4328,W,24.51,277.93,200919,,,A*44
$GPGGA,130321.000,4308.4707,N,07726.4352,W,1,08,1.06,157.7,M,-34.4,M,,*56
$GPRMC,130321.250,A,4308.4710,N,07726.4376,W,24.77,278.09,200919,,,A*47
$GPGGA,130321.500,4308.4712,N,07726.4400,W,1,08,1.06,157.5,M,-34.4,M,,*55
$GPRMC,130321.750,A,4308.4714,N,07726.4424,W,25.30,277.95,200919,,,A*4E
$GPGGA,130322.000,4308.4716,N,07726.4448,W,1,08,1.06,157.5,M,-34.4,M,,*5B
$GPRMC,130322.250,A,4308.4719,N,07726.4472,W,25.42,277.90,200919,,,A*46
$GPGGA,130322.500,4308.4721,N,07726.4497,W,1,08,1.06,157.4,M,-34.4,M,,*59
$GPRMC,130322.750,A,4308.4722,N,07726.4521,W,25.45,277.83,200919,,,A*49
$GPGGA,130323.000,4308.4724,N,07726.4545,W,1,08,1.06,157.5,M,-34.4,M,,*57
$GPRMC,130323.250,A,4308.4726,N,07726.4570,W,25.50,276.89,200919,,,A*42
$GPGGA,130323.500,4308.4728,N,07726.4595,W,1,08,1.06,157.5,M,-34.4,M,,*53
$GPRMC,130323.750,A,4308.4730,N,07726.4621,W,26.08,276.68,200919,,,A*46
$GPGGA,130324.000,4308.4732,N,07726.4647,W,1,08,1.06,157.7,M,-34.4,M,,*54
$GPRMC,130324.250,A,4308.4733,N,07726.4673,W,26.14,276.27,200919,,,A*46
$GPGGA,130324.500,4308.4735,N,07726.4699,W,1,08,1.06,157.9,M,-34.4,M,,*5B
$GPRMC,130324.750,A,4308.4737,N,07726.4727,W,27.55,276.09,200919,,,A*4F
$GPGGA,130325.000,4308.4739,N,07726.4754,W,1,08,1.06,158.4,M,-34.4,M,,*51
$GPRMC,130325.250,A,4308.4740,N,07726.4781,W,27.79,275.93,200919,,,A*49
$GPGGA,130325.500,4308.4742,N,07726.4808,W,1,08,1.06,158.9,M,-34.4,M,,*53
$GPRMC,130325.750,A,4308.4743,N,07726.4835,W,28.10,274.68,200919,,,A*4A
$GPGGA,130326.000,4308.4744,N,07726.4863,W,1,08,1.06,159.3,M,-34.4,M,,*55
$GPRMC,130326.250,A,4308.4746,N,07726.4890,W,28.31,274.78,200919,,,A*44
$GPGGA,130326.500,4308.4748,N,07726.4918,W,1,08,1.06,159.6,M,-34.4,M,,*54
$GPRMC,130326.750,A,4308.4749,N,07726.4946,W,28.55,275.00,200919,,,A*48
$GPGGA,130327.000,4308.4752,N,07726.4974,W,1,08,1.06,160.0,M,-34.4,M,,*5D
$GPRMC,130327.250,A,4308.4754,N,07726.5002,W,28.79,275.61,200919,,,A*41
$GPGGA,130327.500,4308.4756,N,07726.5030,W,1,08,1.06,160.2,M,-34.4,M,,*56
$GPRMC,130327.750,A,4308.4759,N,07726.5058,W,29.01,276.29,200919,,,A*47
$GPGGA,130328.000,4308.4761,N,07726.5086,W,1,08,1.06,160.3,M,-34.4,M,,*54
$GPRMC,130328.250,A,4308.4763,N,07726.5114,W,29.15,276.03,200919,,,A*40
$GPGGA,130328.500,4308.4765,N,07726.5142,W,1,08,1.06,160.4,M,-34.4,M,,*5B
$GPRMC,130328.750,A,4308.4767,N,07726.5171,W,30.07,275.70,200919,,,A*4E
$GPGGA,130329.000,4308.4768,N,07726.5200,W,1,08,1.06,160.3,M,-34.4,M,,*50
$GPRMC,130329.250,A,4308.4770,N,07726.5229,W,30.49,275.00,200919,,,A*4F
$GPGGA,130329.500,4308.4771,N,07726.5259,W,1,08,1.06,160.3,M,-34.4,M,,*51
$GPRMC,130329.750,A,4308.4772,N,07726.5288,W,31.21,274.19,200919,,,A*45
$GPGGA,130330.000,4308.4773,N,07726.5318,W,1,08,1.06,160.2,M,-34.4,M,,*5B
$GPRMC,130330.250,A,4308.4773,N,07726.5349,W,31.81,274.16,200919,,,A*40
$GPGGA,130330.500,4308.4774,N,07726.5379,W,1,08,1.06,160.1,M,-34.4,M,,*5D
$GPRMC,130330.750,A,4308.4776,N,07726.5410,W,32.45,274.20,200919,,,A*45
$GPGGA,130331.000,4308.4777,N,07726.5442,W,1,08,1.06,160.1,M,-34.4,M,,*55
$GPRMC,130331.250,A,4308.4778,N,07726.5473,W,33.08,273.70,200919,,,A*40
$GPGGA,130331.500,4308.4779,N,07726.5505,W,1,08,1.06,160.2,M,-34.4,M,,*5F
$GPRMC,130331.750,A,4308.4779,N,07726.5537,W,33.52,272.81,200919,,,A*45
$GPGGA,130332.000,4308.4780,N,07726.5569,W,1,08,1.06,160.4,M,-34.4,M,,*53
$GPRMC,130332.250,A,4308.4781,N,07726.5601,W,33.62,272.54,200919,,,A*49
$GPGGA,130332.500,4308.4781,N,07726.5633,W,1,08,1.06,160.4,M,-34.4,M,,*5B
$GPRMC,130332.750,A,4308.4781,N,07726.5665,W,34.04,272.05,200919,,,A*4D
$GPGGA,130333.000,4308.4781,N,07726.5697,W,1,08,1.06,160.3,M,-34.4,M,,*56
$GPRMC,130333.250,A,4308.4781,N,07726.5729,W,34.50,272.25,200919,,,A*43
$GPGGA,130333.500,4308.4782,N,07726.5762,W,1,08,1.06,160.2,M,-34.4,M,,*5A
$GPRMC,130333.750,A,4308.4782,N,07726.5795,W,34.64,272.69,200919,,,A*4D
$GPGGA,130334.000,4308.4783,N,07726.5828,W,1,08,1.06,160.2,M,-34.4,M,,*58
$GPRMC,130334.250,A,4308.4783,N,07726.5862,W,34.86,272.49,200919,,,A*47
$GPGGA,130334.500,4308.4784,N,07726.5895,W,1,08,1.06,160.1,M,-34.4,M,,*5F
$GPRMC,130334.750,A,4308.4784,N,07726.5929,W,35.04,272.36,200919,,,A*48
$GPGGA,130335.000,4308.4785,N,07726.5963,W,1,08,1.06,160.0,M,-34.4,M,,*53
$GPRMC,130335.250,A,4308.4786,N,07726.5997,W,36.39,272.19,200919,,,A*4B
$GPGGA,130335.500,4308.4786,N,07726.6032,W,1,08,1.06,159.9,M,-34.4,M,,*58
$GPRMC,130335.750,A,4308.4787,N,07726.6067,W,36.95,272.13,200919,,,A*46
$GPGGA,130336.000,4308.4788,N,07726.6103,W,1,08,1.06,160.1,M,-34.4,M,,*51
$GPRMC,130336.250,A,4308.4789,N,07726.6138,W,37.36,272.02,200919,,,A*4D
$GPGGA,130336.500,4308.4790,N,07726.6174,W,1,08,1.06,160.2,M,-34.4,M,,*5E
$GPRMC,130336.750,A,4308.4790,N,07726.6210,W,37.80,271.92,200919,,,A*4E
$GPGGA,130337.000,4308.4790,N,07726.6246,W,1,08,1.06,160.2,M,-34.4,M,,*58
$GPRMC,130337.250,A,4308.4791,N,07726.6283,W,37.90,271.40,200919,,,A*4F
$GPGGA,130337.500,4308.4791,N,07726.6319,W,1,08,1.06,160.4,M,-34.4,M,,*51
$GPRMC,130337.750,A,4308.4791,N,07726.6355,W,37.97,270.23,200919,,,A*43
$GPGGA,130338.000,4308.4790,N,07726.6392,W,1,08,1.06,160.5,M,-34.4,M,,*58
$GPRMC,130336.250,A,4308.4790,N,07726.6428,W,38.27,269.20,200919,,,A*44
$GPGGA,130336.500,4308.4789,N,07726.6465,W,1,08,1.06,160.5,M,-34.4,M,,*54
$GPRMC,130336.750,A,4308.4789,N,07726.6502,W,38.29,268.62,200919,,,A*49
$GPGGA,130337.000,4308.4788,N,07726.6539,W,1,08,1.06,160.3,M,-34.4,M,,*5F
$GPRMC,130337.250,A,4308.4787,N,07726.6576,W,38.52,267.87,200919,,,A*48
$GPGGA,130337.500,4308.4786,N,07726.6613,W,1,08,1.06,160.3,M,-34.4,M,,*5F
$GPRMC,130337.750,A,4308.4785,N,07726.6651,W,38.84,267.44,200919,,,A*4D
$GPGGA,130338.000,4308.4783,N,07726.6688,W,1,08,1.06,160.3,M,-34.4,M,,*52
$GPRMC,130338.250,A,4308.4782,N,07726.6725,W,39.01,266.88,200919,,,A*4F
$GPGGA,130338.500,4308.4780,N,07726.6763,W,1,08,1.06,160.4,M,-34.4,M,,*57
$GPRMC,130338.750,A,4308.4778,N,07726.6801,W,39.39,266.65,200919,,,A*4E
$GPGGA,130339.000,4308.4777,N,07726.6840,W,1,08,1.06,160.5,M,-34.4,M,,*54
$GPRMC,130339.250,A,4308.4775,N,07726.6878,W,39.46,266.30,200919,,,A*41
$GPGGA,130339.500,4308.4773,N,07726.6916,W,1,08,1.06,160.7,M,-34.4,M,,*55
$GPRMC,130339.750,A,4308.4771,N,07726.6954,W,39.75,266.08,200919,,,A*44
$GPGGA,130340.000,4308.4768,N,07726.6993,W,1,08,1.06,161.2,M,-34.4,M,,*5D
$GPRMC,130340.250,A,4308.4766,N,07726.7031,W,39.77,266.21,200919,,,A*4B
$GPGGA,130340.500,4308.4764,N,07726.7069,W,1,08,1.06,161.5,M,-34.4,M,,*5E
$GPRMC,130340.750,A,4308.4762,N,07726.7107,W,39.50,266.19,200919,,,A*40
$GPGGA,130341.000,4308.4760,N,07726.7145,W,1,08,1.06,162.1,M,-34.4,M,,*56
$GPRMC,130341.250,A,4308.4758,N,07726.7183,W,39.52,266.05,200919,,,A*4E
$GPGGA,130341.500,4308.4756,N,07726.7222,W,1,08,1.06,162.5,M,-34.4,M,,*50
$GPRMC,130341.750,A,4308.4754,N,07726.7259,W,39.37,266.34,200919,,,A*42
$GPGGA,130342.000,4308.4752,N,07726.7297,W,1,08,1.06,162.8,M,-34.4,M,,*51
$GPRMC,130342.250,A,4308.4750,N,07726.7335,W,39.34,266.48,200919,,,A*43
$GPGGA,130342.500,4308.4748,N,07726.7372,W,1,08,1.06,163.1,M,-34.4,M,,*5D
$GPRMC,130342.750,A,4308.4747,N,07726.7410,W,39.11,266.11,200919,,,A*4B
$GPGGA,130343.000,4308.4744,N,07726.7447,W,1,08,1.06,163.5,M,-34.4,M,,*50
$GPRMC,130343.250,A,4308.4742,N,07726.7484,W,38.87,265.70,200919,,,A*4D
$GPGGA,130343.500,4308.4740,N,07726.7522,W,1,08,1.06,163.7,M,-34.4,M,,*51
$GPRMC,130343.750,A,4308.4738,N,07726.7558,W,38.68,265.22,200919,,,A*43
$GPGGA,130344.000,4308.4736,N,07726.7594,W,1,08,1.06,163.9,M,-34.4,M,,*51
$GPRMC,130344.250,A,4308.4734,N,07726.7630,W,37.60,265.59,200919,,,A*4B
$GPGGA,130344.500,4308.4732,N,07726.7667,W,1,08,1.06,164.3,M,-34.4,M,,*52
$GPRMC,130344.750,A,4308.4731,N,07726.7702,W,37.10,265.89,200919,,,A*41
$GPGGA,130345.000,4308.4729,N,07726.7738,W,1,08,1.06,164.6,M,-34.4,M,,*52
$GPRMC,130345.250,A,4308.4728,N,07726.7774,W,37.00,265.70,200919,,,A*4B
$GPGGA,130345.500,4308.4726,N,07726.7809,W,1,08,1.06,164.9,M,-34.4,M,,*5A
$GPRMC,130345.750,A,4308.4724,N,07726.7843,W,36.47,264.71,200919,,,A*4B
$GPGGA,130346.000,4308.4723,N,07726.7878,W,1,08,1.06,165.0,M,-34.4,M,,*57
$GPRMC,130346.250,A,4308.4722,N,07726.7913,W,36.28,265.22,200919,,,A*41
$GPGGA,130346.500,4308.4720,N,07726.7948,W,1,08,1.06,165.1,M,-34.4,M,,*52
$GPRMC,130346.750,A,4308.4718,N,07726.7982,W,36.23,264.61,200919,,,A*48
$GPGGA,130347.000,4308.4716,N,07726.8016,W,1,08,1.06,165.0,M,-34.4,M,,*5F
$GPRMC,130347.250,A,4308.4714,N,07726.8050,W,36.03,264.19,200919,,,A*44
$GPGGA,130347.500,4308.4711,N,07726.8084,W,1,08,1.06,164.9,M,-34.4,M,,*5E
$GPRMC,130347.750,A,4308.4709,N,07726.8118,W,36.07,263.88,200919,,,A*4B
$GPGGA,130348.000,4308.4708,N,07726.8153,W,1,08,1.06,164.6,M,-34.4,M,,*58
$GPRMC,130348.250,A,4308.4706,N,07726.8188,W,36.39,264.32,200919,,,A*4C
$GPGGA,130348.500,4308.4704,N,07726.8223,W,1,08,1.06,164.4,M,-34.4,M,,*57
$GPRMC,130348.750,A,4308.4702,N,07726.8258,W,36.93,265.12,200919,,,A*40
$GPGGA,130349.000,4308.4701,N,07726.8293,W,1,08,1.06,164.2,M,-34.4,M,,*5B
$GPRMC,130349.250,A,4308.4699,N,07726.8329,W,37.16,265.38,200919,,,A*44
$GPGGA,130349.500,4308.4698,N,07726.8365,W,1,08,1.06,164.1,M,-34.4,M,,*54
$GPRMC,130349.750,A,4308.4697,N,07726.8401,W,37.87,266.37,200919,,,A*46
$GPGGA,130350.000,4308.4696,N,07726.8437,W,1,08,1.06,163.9,M,-34.4,M,,*58
$GPRMC,130350.250,A,4308.4694,N,07726.8473,W,37.96,266.17,200919,,,A*4F
$GPGGA,130350.500,4308.4692,N,07726.8510,W,1,08,1.06,163.8,M,-34.4,M,,*5C
$GPRMC,130350.750,A,4308.4690,N,07726.8546,W,37.98,265.37,200919,,,A*46
$GPGGA,130351.000,4308.4688,N,07726.8582,W,1,08,1.06,163.8,M,-34.4,M,,*58
$GPRMC,130351.250,A,4308.4685,N,07726.8618,W,38.04,264.81,200919,,,A*48
$GPGGA,130351.500,4308.4683,N,07726.8655,W,1,08,1.06,163.5,M,-34.4,M,,*52
$GPRMC,130351.750,A,4308.4681,N,07726.8691,W,38.25,264.43,200919,,,A*45
$GPGGA,130352.000,4308.4679,N,07726.8727,W,1,08,1.06,163.1,M,-34.4,M,,*51
$GPRMC,130352.250,A,4308.4677,N,07726.8763,W,38.45,264.28,200919,,,A*4D
$GPGGA,130352.500,4308.4675,N,07726.8800,W,1,08,1.06,162.8,M,-34.4,M,,*5A
$GPRMC,130352.750,A,4308.4672,N,07726.8836,W,38.54,264.08,200919,,,A*40
$GPGGA,130353.000,4308.4669,N,07726.8873,W,1,08,1.06,162.7,M,-34.4,M,,*58
$GPRMC,130353.250,A,4308.4667,N,07726.8910,W,38.65,264.59,200919,,,A*43
$GPGGA,130353.500,4308.4664,N,07726.8946,W,1,08,1.06,162.7,M,-34.4,M,,*57
$GPRMC,130353.750,A,4308.4662,N,07726.8983,W,38.69,264.72,200919,,,A*4C
$GPGGA,130354.000,4308.4660,N,07726.9019,W,1,08,1.06,162.6,M,-34.4,M,,*52
$GPRMC,130354.250,A,4308.4658,N,07726.9056,W,38.74,265.25,200919,,,A*48
$GPGGA,130354.500,4308.4657,N,07726.9092,W,1,08,1.06,162.4,M,-34.4,M,,*52
$GPRMC,130354.750,A,4308.4654,N,07726.9129,W,38.83,265.11,200919,,,A*47
$GPGGA,130355.000,4308.4652,N,07726.9166,W,1,08,1.06,162.3,M,-34.4,M,,*5E
$GPRMC,130355.250,A,4308.4650,N,07726.9203,W,38.88,265.34,200919,,,A*40
$GPGGA,130355.500,4308.4648,N,07726.9239,W,1,08,1.06,162.1,M,-34.4,M,,*5B
$GPRMC,130355.750,A,4308.4646,N,07726.9276,W,38.96,265.76,200919,,,A*49
$GPGGA,130356.000,4308.4644,N,07726.9313,W,1,08,1.06,161.9,M,-34.4,M,,*53
$GPRMC,130356.250,A,4308.4642,N,07726.9351,W,39.40,265.37,200919,,,A*40
$GPGGA,130356.500,4308.4640,N,07726.9388,W,1,08,1.06,161.8,M,-34.4,M,,*51
$GPRMC,130356.750,A,4308.4637,N,07726.9425,W,39.39,264.93,200919,,,A*42
$GPGGA,130357.000,4308.4635,N,07726.9462,W,1,08,1.06,161.6,M,-34.4,M,,*5A
$GPRMC,130357.250,A,4308.4632,N,07726.9499,W,39.50,264.56,200919,,,A*42
$GPGGA,130357.500,4308.4629,N,07726.9536,W,1,08,1.06,161.3,M,-34.4,M,,*57
$GPRMC,130357.750,A,4308.4627,N,07726.9574,W,39.87,264.33,200919,,,A*48
$GPGGA,130358.000,4308.4624,N,07726.9611,W,1,08,1.06,161.1,M,-34.4,M,,*54
$GPRMC,130358.250,A,4308.4621,N,07726.9649,W,40.09,264.36,200919,,,A*44
$GPGGA,130358.500,4308.4619,N,07726.9686,W,1,08,1.06,160.8,M,-34.4,M,,*59
$GPRMC,130358.750,A,4308.4616,N,07726.9724,W,40.17,264.62,200919,,,A*41
$GPGGA,130359.000,4308.4614,N,07726.9761,W,1,08,1.06,160.4,M,-34.4,M,,*54
$GPRMC,130359.250,A,4308.4612,N,07726.9799,W,40.47,265.02,200919,,,A*45
$GPGGA,130359.500,4308.4610,N,07726.9838,W,1,08,1.06,160.1,M,-34.4,M,,*53
$GPRMC,130359.750,A,4308.4607,N,07726.9876,W,40.76,264.93,200919,,,A*41
$GPGGA,130400.000,4308.4605,N,07726.9915,W,1,08,1.06,159.8,M,-34.4,M,,*54
$GPRMC,130400.250,A,4308.4602,N,07726.9953,W,41.02,264.72,200919,,,A*41
$GPGGA,130400.500,4308.4599,N,07726.9992,W,1,08,1.06,159.7,M,-34.4,M,,*57
$GPRMC,130400.750,A,4308.4596,N,07727.0031,W,41.02,264.66,200919,,,A*4A
$GPGGA,130401.000,4308.4593,N,07727.0069,W,1,08,1.06,159.6,M,-34.4,M,,*5D
$GPRMC,130401.250,A,4308.4590,N,07727.0108,W,41.11,264.78,200919,,,A*4E
$GPGGA,130401.500,4308.4588,N,07727.0147,W,1,08,1.06,159.5,M,-34.4,M,,*5C
$GPRMC,130401.750,A,4308.4585,N,07727.0185,W,40.84,265.18,200919,,,A*40
$GPGGA,130402.000,4308.4583,N,07727.0224,W,1,08,1.06,159.4,M,-34.4,M,,*56
$GPRMC,130402.250,A,4308.4580,N,07727.0263,W,40.93,265.46,200919,,,A*45
$GPGGA,130402.500,4308.4578,N,07727.0302,W,1,08,1.06,159.5,M,-34.4,M,,*53
$GPRMC,130402.750,A,4308.4576,N,07727.0341,W,40.96,266.02,200919,,,A*4E
$GPGGA,130403.000,4308.4575,N,07727.0380,W,1,08,1.06,159.5,M,-34.4,M,,*50
$GPRMC,130403.250,A,4308.4573,N,07727.0419,W,40.94,267.30,200919,,,A*47
$GPGGA,130403.500,4308.4572,N,07727.0458,W,1,08,1.06,159.5,M,-34.4,M,,*50
$GPRMC,130403.750,A,4308.4571,N,07727.0496,W,40.31,267.98,200919,,,A*4A
$GPGGA,130404.000,4308.4570,N,07727.0535,W,1,08,1.06,159.5,M,-34.4,M,,*5A
$GPRMC,130404.250,A,4308.4569,N,07727.0573,W,40.15,268.94,200919,,,A*4E
$GPGGA,130404.500,4308.4569,N,07727.0612,W,1,08,1.06,159.5,M,-34.4,M,,*51
$GPRMC,130404.750,A,4308.4570,N,07727.0651,W,40.47,270.66,200919,,,A*43
$GPGGA,130405.000,4308.4570,N,07727.0689,W,1,08,1.06,159.5,M,-34.4,M,,*5F
$GPRMC,130405.250,A,4308.4571,N,07727.0728,W,40.43,271.33,200919,,,A*4C
$GPGGA,130405.500,4308.4573,N,07727.0766,W,1,08,1.06,159.4,M,-34.4,M,,*58
$GPRMC,130405.750,A,4308.4575,N,07727.0804,W,40.13,273.93,200919,,,A*41
$GPGGA,130406.000,4308.4577,N,07727.0842,W,1,08,1.06,159.5,M,-34.4,M,,*52
$GPRMC,130406.250,A,4308.4580,N,07727.0880,W,40.06,275.47,200919,,,A*4A
$GPGGA,130406.500,4308.4583,N,07727.0918,W,1,08,1.06,159.5,M,-34.4,M,,*52
$GPRMC,130406.750,A,4308.4587,N,07727.0955,W,39.50,277.08,200919,,,A*45
$GPGGA,130407.000,4308.4590,N,07727.0992,W,1,08,1.06,159.5,M,-34.4,M,,*56
$GPRMC,130407.250,A,4308.4593,N,07727.1029,W,39.34,277.44,200919,,,A*4D
$GPGGA,130407.500,4308.4597,N,07727.1066,W,1,08,1.06,159.6,M,-34.4,M,,*54
$GPRMC,130407.750,A,4308.4601,N,07727.1103,W,39.28,278.33,200919,,,A*4B
$GPGGA,130408.000,4308.4605,N,07727.1140,W,1,08,1.06,159.8,M,-34.4,M,,*5D
$GPRMC,130408.250,A,4308.4609,N,07727.1176,W,39.08,278.18,200919,,,A*40
$GPGGA,130408.500,4308.4612,N,07727.1212,W,1,08,1.06,159.9,M,-34.4,M,,*5B
$GPRMC,130408.750,A,4308.4616,N,07727.1248,W,38.92,278.19,200919,,,A*46
$GPGGA,130409.000,4308.4620,N,07727.1284,W,1,08,1.06,159.8,M,-34.4,M,,*50
$GPRMC,130409.250,A,4308.4624,N,07727.1320,W,39.11,278.07,200919,,,A*49
$GPGGA,130409.500,4308.4628,N,07727.1357,W,1,08,1.06,159.7,M,-34.4,M,,*5D
$GPRMC,130409.750,A,4308.4632,N,07727.1393,W,39.15,278.62,200919,,,A*44
$GPGGA,130410.000,4308.4637,N,07727.1429,W,1,08,1.06,159.6,M,-34.4,M,,*51
$GPRMC,130410.250,A,4308.4641,N,07727.1466,W,39.13,279.13,200919,,,A*41
$GPGGA,130410.500,4308.4646,N,07727.1502,W,1,08,1.06,159.5,M,-34.4,M,,*59
$GPRMC,130410.750,A,4308.4651,N,07727.1538,W,39.11,279.59,200919,,,A*43
$GPGGA,130411.000,4308.4655,N,07727.1574,W,1,08,1.06,159.5,M,-34.4,M,,*5E
$GPRMC,130411.250,A,4308.4660,N,07727.1610,W,39.10,279.69,200919,,,A*4E
$GPGGA,130411.500,4308.4664,N,07727.1647,W,1,08,1.06,159.5,M,-34.4,M,,*5A
$GPRMC,130411.750,A,4308.4669,N,07727.1684,W,39.29,279.44,200919,,,A*4A
$GPGGA,130412.000,4308.4673,N,07727.1720,W,1,08,1.06,159.5,M,-34.4,M,,*5A
$GPRMC,130412.250,A,4308.4678,N,07727.1757,W,39.30,279.61,200919,,,A*4C
$GPGGA,130412.500,4308.4682,N,07727.1793,W,1,08,1.06,159.6,M,-34.4,M,,*5A
$GPRMC,130412.750,A,4308.4686,N,07727.1830,W,39.34,279.47,200919,,,A*46
$GPGGA,130413.000,4308.4690,N,07727.1866,W,1,08,1.06,159.6,M,-34.4,M,,*58
$GPRMC,130413.250,A,4308.4695,N,07727.1903,W,39.65,279.25,200919,,,A*41
$GPGGA,130413.500,4308.4700,N,07727.1939,W,1,08,1.06,159.3,M,-34.4,M,,*5B
$GPRMC,130413.750,A,4308.4705,N,07727.1975,W,39.52,280.15,200919,,,A*4C
$GPGGA,130414.000,4308.4709,N,07727.2012,W,1,08,1.06,159.0,M,-34.4,M,,*50
$GPRMC,130414.250,A,4308.4714,N,07727.2049,W,39.63,279.74,200919,,,A*48
$GPGGA,130414.500,4308.4719,N,07727.2086,W,1,08,1.06,159.1,M,-34.4,M,,*58
$GPRMC,130414.750,A,4308.4723,N,07727.2123,W,39.71,279.54,200919,,,A*45
$GPGGA,130415.000,4308.4728,N,07727.2160,W,1,08,1.06,159.1,M,-34.4,M,,*57
$GPRMC,130415.250,A,4308.4733,N,07727.2197,W,39.91,279.51,200919,,,A*44
$GPGGA,130415.500,4308.4737,N,07727.2234,W,1,08,1.06,159.1,M,-34.4,M,,*5E
$GPRMC,130415.750,A,4308.4742,N,07727.2271,W,39.87,279.26,200919,,,A*4B
$GPGGA,130416.000,4308.4746,N,07727.2308,W,1,08,1.06,159.1,M,-34.4,M,,*50
$GPRMC,130416.250,A,4308.4751,N,07727.2345,W,39.87,279.49,200919,,,A*40
$GPGGA,130416.500,4308.4755,N,07727.2382,W,1,08,1.06,159.2,M,-34.4,M,,*56
$GPRMC,130416.750,A,4308.4759,N,07727.2419,W,39.81,278.94,200919,,,A*44
$GPGGA,130417.000,4308.4764,N,07727.2455,W,1,08,1.06,159.1,M,-34.4,M,,*5E
$GPRMC,130417.250,A,4308.4768,N,07727.2491,W,39.60,279.30,200919,,,A*42
$GPGGA,130417.500,4308.4773,N,07727.2527,W,1,08,1.06,158.9,M,-34.4,M,,*50
$GPRMC,130417.750,A,4308.4778,N,07727.2564,W,39.59,279.57,200919,,,A*46
$GPGGA,130418.000,4308.4783,N,07727.2600,W,1,08,1.06,158.6,M,-34.4,M,,*5C
$GPRMC,130418.250,A,4308.4787,N,07727.2637,W,39.55,279.71,200919,,,A*41
$GPGGA,130418.500,4308.4792,N,07727.2674,W,1,08,1.06,158.4,M,-34.4,M,,*58
$GPRMC,130418.750,A,4308.4797,N,07727.2710,W,39.49,279.68,200919,,,A*44
$GPGGA,130419.000,4308.4802,N,07727.2746,W,1,08,1.06,158.0,M,-34.4,M,,*5E
$GPRMC,130419.250,A,4308.4807,N,07727.2782,W,39.16,279.85,200919,,,A*44
$GPGGA,130419.500,4308.4811,N,07727.2818,W,1,08,1.06,157.8,M,-34.4,M,,*5A
$GPRMC,130419.750,A,4308.4816,N,07727.2854,W,38.74,279.70,200919,,,A*4A
$GPGGA,130420.000,4308.4821,N,07727.2890,W,1,08,1.06,157.6,M,-34.4,M,,*58
$GPRMC,130420.250,A,4308.4826,N,07727.2925,W,38.64,279.59,200919,,,A*4B
$GPGGA,130420.500,4308.4831,N,07727.2961,W,1,08,1.06,157.3,M,-34.4,M,,*56
$GPRMC,130420.750,A,4308.4836,N,07727.2996,W,38.45,280.21,200919,,,A*4D
$GPGGA,130421.000,4308.4841,N,07727.3031,W,1,08,1.06,157.3,M,-34.4,M,,*58
$GPRMC,130421.250,A,4308.4847,N,07727.3066,W,37.61,280.78,200919,,,A*4D
$GPGGA,130421.500,4308.4852,N,07727.3101,W,1,08,1.06,157.2,M,-34.4,M,,*5C
$GPRMC,130421.750,A,4308.4856,N,07727.3135,W,36.96,280.63,200919,,,A*4C
$GPGGA,130422.000,4308.4861,N,07727.3169,W,1,08,1.06,157.1,M,-34.4,M,,*57
$GPRMC,130422.250,A,4308.4866,N,07727.3203,W,36.69,280.27,200919,,,A*4F
$GPGGA,130422.500,4308.4870,N,07727.3237,W,1,08,1.06,157.1,M,-34.4,M,,*5A
$GPRMC,130422.750,A,4308.4874,N,07727.3271,W,36.18,279.96,200919,,,A*46
$GPGGA,130423.000,4308.4879,N,07727.3305,W,1,08,1.06,157.0,M,-34.4,M,,*56
$GPRMC,130423.250,A,4308.4883,N,07727.3338,W,35.97,279.93,200919,,,A*47
$GPGGA,130423.500,4308.4887,N,07727.3372,W,1,08,1.06,157.0,M,-34.4,M,,*52
$GPRMC,130423.750,A,4308.4891,N,07727.3405,W,35.84,279.92,200919,,,A*4B
$GPGGA,130424.000,4308.4894,N,07727.3438,W,1,08,1.06,156.8,M,-34.4,M,,*52
$GPRMC,130424.250,A,4308.4898,N,07727.3472,W,35.72,279.74,200919,,,A*41
$GPGGA,130424.500,4308.4902,N,07727.3505,W,1,08,1.06,156.9,M,-34.4,M,,*57
$GPRMC,130424.750,A,4308.4906,N,07727.3538,W,35.08,279.37,200919,,,A*47
$GPGGA,130425.000,4308.4909,N,07727.3571,W,1,08,1.06,156.8,M,-34.4,M,,*5A
$GPRMC,130425.250,A,4308.4913,N,07727.3603,W,34.85,278.92,200919,,,A*46
$GPGGA,130425.500,4308.4917,N,07727.3635,W,1,08,1.06,156.7,M,-34.4,M,,*5C
$GPRMC,130425.750,A,4308.4920,N,07727.3667,W,34.14,278.48,200919,,,A*4E
$GPGGA,130426.000,4308.4924,N,07727.3700,W,1,08,1.06,156.7,M,-34.4,M,,*5D
$GPRMC,130426.250,A,4308.4927,N,07727.3732,W,34.22,278.66,200919,,,A*47
$GPGGA,130426.500,4308.4931,N,07727.3764,W,1,08,1.06,156.8,M,-34.4,M,,*51
$GPRMC,130426.750,A,4308.4935,N,07727.3796,W,33.82,278.78,200919,,,A*4D
$GPGGA,130427.000,4308.4938,N,07727.3828,W,1,08,1.06,156.8,M,-34.4,M,,*5B
$GPRMC,130427.250,A,4308.4942,N,07727.3859,W,33.79,279.10,200919,,,A*4E
$GPGGA,130427.500,4308.4947,N,07727.3890,W,1,08,1.06,156.5,M,-34.4,M,,*58
$GPRMC,130427.750,A,4308.4950,N,07727.3922,W,33.53,279.67,200919,,,A*4D
$GPGGA,130428.000,4308.4954,N,07727.3953,W,1,08,1.06,156.5,M,-34.4,M,,*5E
$GPRMC,130428.250,A,4308.4957,N,07727.3983,W,33.70,279.46,200919,,,A*49
$GPGGA,130428.500,4308.4961,N,07727.4014,W,1,08,1.06,155.4,M,-34.4,M,,*52
$GPRMC,130428.750,A,4308.4965,N,07727.4046,W,33.78,279.44,200919,,,A*40
$GPGGA,130429.000,4308.4969,N,07727.4077,W,1,08,1.06,155.4,M,-34.4,M,,*5B
$GPRMC,130429.250,A,4308.4973,N,07727.4108,W,33.67,279.08,200919,,,A*4E
$GPGGA,130429.500,4308.4977,N,07727.4140,W,1,08,1.06,155.3,M,-34.4,M,,*53
$GPRMC,130429.750,A,4308.4981,N,07727.4171,W,33.58,278.94,200919,,,A*40
$GPGGA,130430.000,4308.4985,N,07727.4203,W,1,08,1.06,155.3,M,-34.4,M,,*57
$GPRMC,130430.250,A,4308.4989,N,07727.4234,W,33.47,279.47,200919,,,A*46
$GPGGA,130430.500,4308.4993,N,07727.4265,W,1,08,1.06,155.3,M,-34.4,M,,*55
$GPRMC,130430.750,A,4308.4997,N,07727.4297,W,33.75,279.33,200919,,,A*47
$GPGGA,130431.000,4308.5001,N,07727.4329,W,1,08,1.06,155.6,M,-34.4,M,,*5E
$GPRMC,130431.250,A,4308.5005,N,07727.4361,W,34.00,279.69,200919,,,A*42
$GPGGA,130431.500,4308.5009,N,07727.4393,W,1,08,1.06,155.6,M,-34.4,M,,*52
$GPRMC,130431.750,A,4308.5013,N,07727.4424,W,34.18,279.39,200919,,,A*4A
$GPGGA,130432.000,4308.5017,N,07727.4456,W,1,08,1.06,155.7,M,-34.4,M,,*54
$GPRMC,130432.250,A,4308.5021,N,07727.4488,W,34.15,279.39,200919,,,A*46
$GPGGA,130432.500,4308.5025,N,07727.4520,W,1,08,1.06,155.7,M,-34.4,M,,*50
$GPRMC,130432.750,A,4308.5029,N,07727.4552,W,34.20,279.38,200919,,,A*4A
$GPGGA,130433.000,4308.5033,N,07727.4584,W,1,08,1.06,155.8,M,-34.4,M,,*52
$GPRMC,130433.250,A,4308.5037,N,07727.4616,W,34.25,279.54,200919,,,A*4D
$GPGGA,130433.500,4308.5041,N,07727.4648,W,1,08,1.06,155.9,M,-34.4,M,,*50
$GPRMC,130433.750,A,4308.5045,N,07727.4680,W,34.29,279.93,200919,,,A*45
$GPGGA,130434.000,4308.5049,N,07727.4711,W,1,08,1.06,156.0,M,-34.4,M,,*5D
$GPRMC,130434.250,A,4308.5054,N,07727.4743,W,34.31,279.91,200919,,,A*42
$GPGGA,130434.500,4308.5058,N,07727.4774,W,1,08,1.06,156.2,M,-34.4,M,,*59
$GPRMC,130434.750,A,4308.5062,N,07727.4806,W,33.84,279.91,200919,,,A*45
$GPGGA,130435.000,4308.5066,N,07727.4837,W,1,08,1.06,156.2,M,-34.4,M,,*58
$GPRMC,130435.250,A,4308.5070,N,07727.4868,W,33.49,279.51,200919,,,A*47
$GPGGA,130435.500,4308.5073,N,07727.4898,W,1,08,1.06,156.3,M,-34.4,M,,*5D
$GPRMC,130435.750,A,4308.5077,N,07727.4929,W,33.22,279.48,200919,,,A*44
$GPGGA,130436.000,4308.5082,N,07727.4960,W,1,08,1.06,156.4,M,-34.4,M,,*54
$GPRMC,130436.250,A,4308.5086,N,07727.4991,W,32.91,279.99,200919,,,A*4A
$GPGGA,130436.500,4308.5091,N,07727.5021,W,1,08,1.06,156.4,M,-34.4,M,,*5E
$GPRMC,130436.750,A,4308.5095,N,07727.5052,W,32.56,280.45,200919,,,A*46
$GPGGA,130437.000,4308.5099,N,07727.5082,W,1,08,1.06,156.3,M,-34.4,M,,*5C
$GPRMC,130437.250,A,4308.5103,N,07727.5112,W,32.44,280.51,200919,,,A*4F
$GPGGA,130437.500,4308.5108,N,07727.5142,W,1,08,1.06,156.2,M,-34.4,M,,*5C
$GPRMC,130437.750,A,4308.5112,N,07727.5171,W,32.06,281.22,200919,,,A*4C
$GPGGA,130438.000,4308.5116,N,07727.5201,W,1,08,1.06,156.2,M,-34.4,M,,*5D
$GPRMC,130438.250,A,4308.5120,N,07727.5230,W,31.73,280.61,200919,,,A*46
$GPGGA,130438.500,4308.5123,N,07727.5259,W,1,08,1.06,156.2,M,-34.4,M,,*53
$GPRMC,130438.750,A,4308.5127,N,07727.5289,W,31.45,280.91,200919,,,A*4C
$GPGGA,130439.000,4308.5131,N,07727.5318,W,1,08,1.06,156.3,M,-34.4,M,,*51
$GPRMC,130439.250,A,4308.5135,N,07727.5347,W,31.39,280.78,200919,,,A*44
$GPGGA,130439.500,4308.5138,N,07727.5375,W,1,08,1.06,156.3,M,-34.4,M,,*56
$GPRMC,130439.750,A,4308.5141,N,07727.5404,W,30.84,280.37,200919,,,A*4E
$GPGGA,130440.000,4308.5145,N,07727.5432,W,1,08,1.06,156.3,M,-34.4,M,,*53
$GPRMC,130440.250,A,4308.5149,N,07727.5460,W,30.68,280.79,200919,,,A*47
$GPGGA,130440.500,4308.5153,N,07727.5489,W,1,08,1.06,156.3,M,-34.4,M,,*51
$GPRMC,130440.750,A,4308.5157,N,07727.5518,W,30.73,281.43,200919,,,A*41
$GPGGA,130441.000,4308.5162,N,07727.5546,W,1,08,1.06,156.5,M,-34.4,M,,*53
$GPRMC,130441.250,A,4308.5165,N,07727.5575,W,30.87,281.23,200919,,,A*42
$GPGGA,130441.500,4308.5169,N,07727.5604,W,1,08,1.06,156.7,M,-34.4,M,,*5A
$GPRMC,130441.750,A,4308.5173,N,07727.5632,W,30.85,280.75,200919,,,A*40
$GPGGA,130442.000,4308.5177,N,07727.5660,W,1,08,1.06,156.9,M,-34.4,M,,*5F
$GPRMC,130442.250,A,4308.5180,N,07727.5689,W,30.54,280.79,200919,,,A*4A
$GPGGA,130442.500,4308.5184,N,07727.5717,W,1,08,1.06,157.0,M,-34.4,M,,*5F
$GPRMC,130442.750,A,4308.5188,N,07727.5745,W,30.47,280.73,200919,,,A*4E
$GPGGA,130443.000,4308.5192,N,07727.5773,W,1,08,1.06,157.0,M,-34.4,M,,*5E
$GPRMC,130443.250,A,4308.5196,N,07727.5801,W,30.40,280.86,200919,,,A*47
$GPGGA,130443.500,4308.5201,N,07727.5829,W,1,08,1.06,157.1,M,-34.4,M,,*53
$GPRMC,130443.750,A,4308.5204,N,07727.5857,W,30.35,280.89,200919,,,A*44
$GPGGA,130444.000,4308.5208,N,07727.5885,W,1,08,1.06,157.0,M,-34.4,M,,*5F
$GPRMC,130444.250,A,4308.5212,N,07727.5913,W,30.32,280.19,200919,,,A*4E
$GPGGA,130444.500,4308.5215,N,07727.5941,W,1,08,1.06,157.0,M,-34.4,M,,*5F
$GPRMC,130444.750,A,4308.5218,N,07727.5969,W,30.23,278.90,200919,,,A*4A
$GPGGA,130445.000,4308.5221,N,07727.5998,W,1,08,1.06,157.0,M,-34.4,M,,*58
$GPRMC,130445.250,A,4308.5224,N,07727.6026,W,30.21,278.75,200919,,,A*49
$GPGGA,130445.500,4308.5227,N,07727.6054,W,1,08,1.06,157.1,M,-34.4,M,,*50
$GPRMC,130445.750,A,4308.5229,N,07727.6083,W,30.45,277.93,200919,,,A*4B
$GPGGA,130446.000,4308.5232,N,07727.6112,W,1,08,1.06,157.1,M,-34.4,M,,*51
$GPRMC,130446.250,A,4308.5234,N,07727.6141,W,30.69,277.60,200919,,,A*4C
$GPGGA,130446.500,4308.5236,N,07727.6170,W,1,08,1.06,157.1,M,-34.4,M,,*54
$GPRMC,130446.750,A,4308.5239,N,07727.6199,W,30.66,277.18,200919,,,A*41
$GPGGA,130447.000,4308.5241,N,07727.6228,W,1,08,1.06,157.1,M,-34.4,M,,*5E
$GPRMC,130447.250,A,4308.5244,N,07727.6257,W,31.10,277.55,200919,,,A*47
$GPGGA,130447.500,4308.5247,N,07727.6286,W,1,08,1.06,157.0,M,-34.4,M,,*58
$GPRMC,130447.750,A,4308.5250,N,07727.6316,W,31.59,277.82,200919,,,A*44
$GPGGA,130448.000,4308.5253,N,07727.6345,W,1,08,1.06,156.8,M,-34.4,M,,*50
$GPRMC,130448.250,A,4308.5255,N,07727.6375,W,31.63,278.45,200919,,,A*43
$GPGGA,130448.500,4308.5258,N,07727.6405,W,1,08,1.06,156.6,M,-34.4,M,,*53
$GPRMC,130448.750,A,4308.5260,N,07727.6435,W,31.75,278.30,200919,,,A*46
$GPGGA,130449.000,4308.5263,N,07727.6465,W,1,08,1.06,156.4,M,-34.4,M,,*5B
$GPRMC,130449.250,A,4308.5265,N,07727.6495,W,32.24,277.82,200919,,,A*4C
$GPGGA,130449.500,4308.5268,N,07727.6526,W,1,08,1.06,156.2,M,-34.4,M,,*55
$GPRMC,130449.750,A,4308.5271,N,07727.6556,W,32.42,277.37,200919,,,A*4C
$GPGGA,130450.000,4308.5273,N,07727.6587,W,1,08,1.06,156.1,M,-34.4,M,,*5A
$GPRMC,130450.250,A,4308.5275,N,07727.6617,W,32.50,276.71,200919,,,A*43
$GPGGA,130450.500,4308.5277,N,07727.6648,W,1,08,1.06,156.0,M,-34.4,M,,*5A
$GPRMC,130450.750,A,4308.5279,N,07727.6678,W,32.62,276.82,200919,,,A*4E
$GPGGA,130451.000,4308.5281,N,07727.6708,W,1,08,1.06,155.9,M,-34.4,M,,*58
$GPRMC,130451.250,A,4308.5283,N,07727.6739,W,32.59,276.15,200919,,,A*4D
$GPGGA,130451.500,4308.5285,N,07727.6769,W,1,08,1.06,155.8,M,-34.4,M,,*5F
$GPRMC,130451.750,A,4308.5287,N,07727.6799,W,32.45,275.51,200919,,,A*48
$GPGGA,130452.000,4308.5288,N,07727.6829,W,1,08,1.06,155.6,M,-34.4,M,,*51
$GPRMC,130452.250,A,4308.5290,N,07727.6859,W,32.44,275.36,200919,,,A*4B
$GPGGA,130452.500,4308.5292,N,07727.6890,W,1,08,1.06,155.5,M,-34.4,M,,*5E
$GPRMC,130452.750,A,4308.5293,N,07727.6920,W,32.22,274.56,200919,,,A*45
$GPGGA,130453.000,4308.5295,N,07727.6950,W,1,08,1.06,155.5,M,-34.4,M,,*50
$GPRMC,130453.250,A,4308.5296,N,07727.6980,W,32.09,274.51,200919,,,A*40
$GPGGA,130453.500,4308.5296,N,07727.7009,W,1,08,1.06,155.4,M,-34.4,M,,*53
$GPRMC,130453.750,A,4308.5297,N,07727.7039,W,31.66,273.95,200919,,,A*4B
$GPGGA,130454.000,4308.5298,N,07727.7068,W,1,08,1.06,155.1,M,-34.4,M,,*5D
$GPRMC,130454.250,A,4308.5299,N,07727.7097,W,31.47,274.08,200919,,,A*43
$GPGGA,130454.500,4308.5300,N,07727.7127,W,1,08,1.06,155.1,M,-34.4,M,,*52
$GPRMC,130454.750,A,4308.5301,N,07727.7156,W,31.23,274.39,200919,,,A*4A
$GPGGA,130455.000,4308.5303,N,07727.7185,W,1,08,1.06,155.1,M,-34.4,M,,*5D
$GPRMC,130455.250,A,4308.5304,N,07727.7214,W,30.97,274.26,200919,,,A*4E
$GPGGA,130455.500,4308.5305,N,07727.7243,W,1,08,1.06,155.1,M,-34.4,M,,*57
$GPRMC,130455.750,A,4308.5306,N,07727.7271,W,30.84,274.11,200919,,,A*4C
$GPGGA,130456.000,4308.5307,N,07727.7299,W,1,08,1.06,154.9,M,-34.4,M,,*5D
$GPRMC,130456.250,A,4308.5308,N,07727.7327,W,29.95,273.62,200919,,,A*4D
$GPGGA,130456.500,4308.5310,N,07727.7354,W,1,08,1.06,154.8,M,-34.4,M,,*5F
$GPRMC,130456.750,A,4308.5311,N,07727.7382,W,29.47,273.69,200919,,,A*4B
$GPGGA,130457.000,4308.5312,N,07727.7409,W,1,08,1.06,154.8,M,-34.4,M,,*56
$GPRMC,130457.250,A,4308.5313,N,07727.7436,W,29.16,273.63,200919,,,A*4B
$GPGGA,130457.500,4308.5314,N,07727.7463,W,1,08,1.06,154.7,M,-34.4,M,,*56
$GPRMC,130457.750,A,4308.5316,N,07727.7490,W,28.88,274.15,200919,,,A*47
$GPGGA,130458.000,4308.5318,N,07727.7516,W,1,08,1.06,154.5,M,-34.4,M,,*51
$GPRMC,130458.250,A,4308.5320,N,07727.7543,W,28.65,274.89,200919,,,A*41
$GPGGA,130458.500,4308.5321,N,07727.7570,W,1,08,1.06,154.4,M,-34.4,M,,*5F
$GPRMC,130458.750,A,4308.5322,N,07727.7595,W,28.49,273.67,200919,,,A*44
$GPGGA,130459.000,4308.5322,N,07727.7620,W,1,08,1.06,154.1,M,-34.4,M,,*5B
$GPRMC,130459.250,A,4308.5323,N,07727.7645,W,26.79,273.10,200919,,,A*42
$GPGGA,130459.500,4308.5324,N,07727.7669,W,1,08,1.06,153.9,M,-34.4,M,,*5A
$GPRMC,130459.750,A,4308.5326,N,07727.7693,W,25.49,274.25,200919,,,A*48
$GPGGA,130500.000,4308.5327,N,07727.7716,W,1,08,1.06,153.8,M,-34.4,M,,*59
$GPRMC,130500.250,A,4308.5328,N,07727.7738,W,23.66,275.07,200919,,,A*44
$GPGGA,130500.500,4308.5329,N,07727.7758,W,1,08,1.06,153.8,M,-34.4,M,,*58
$GPRMC,130500.750,A,4308.5330,N,07727.7777,W,21.16,274.43,200919,,,A*47
$GPGGA,130501.000,4308.5330,N,07727.7795,W,1,08,1.06,153.7,M,-34.4,M,,*5A
$GPRMC,130501.250,A,4308.5330,N,07727.7812,W,18.94,273.38,200919,,,A*44
$GPGGA,130501.500,4308.5331,N,07727.7828,W,1,08,1.06,153.7,M,-34.4,M,,*57
$GPRMC,130501.750,A,4308.5332,N,07727.7843,W,16.17,274.30,200919,,,A*4D
$GPGGA,130502.000,4308.5332,N,07727.7856,W,1,08,1.06,153.8,M,-34.4,M,,*54
$GPRMC,130502.250,A,4308.5334,N,07727.7869,W,14.01,274.87,200919,,,A*4C
$GPGGA,130502.500,4308.5336,N,07727.7880,W,1,08,1.06,153.8,M,-34.4,M,,*5E
$GPRMC,130502.750,A,4308.5339,N,07727.7890,W,11.88,278.91,200919,,,A*4D
$GPGGA,130503.000,4308.5341,N,07727.7899,W,1,08,1.06,153.7,M,-34.4,M,,*5D
$GPRMC,130503.250,A,4308.5343,N,07727.7907,W,10.27,280.97,200919,,,A*4E
$GPGGA,130503.500,4308.5345,N,07727.7914,W,1,08,1.06,153.5,M,-34.4,M,,*5A
$GPRMC,130503.750,A,4308.5346,N,07727.7921,W,8.77,282.30,200919,,,A*79
$GPGGA,130504.000,4308.5346,N,07727.7928,W,1,08,1.06,153.2,M,-34.4,M,,*53
$GPRMC,130504.250,A,4308.5347,N,07727.7934,W,7.59,279.19,200919,,,A*72
$GPGGA,130504.500,4308.5347,N,07727.7939,W,1,08,1.06,153.1,M,-34.4,M,,*54
$GPRMC,130504.750,A,4308.5348,N,07727.7945,W,6.53,275.41,200919,,,A*74
$GPGGA,130505.000,4308.5347,N,07727.7950,W,1,08,1.06,153.1,M,-34.4,M,,*5F
$GPRMC,130505.250,A,4308.5348,N,07727.7954,W,5.52,274.49,200919,,,A*7B
$GPGGA,130505.500,4308.5348,N,07727.7958,W,1,08,1.06,153.1,M,-34.4,M,,*5D
$GPRMC,130505.750,A,4308.5348,N,07727.7961,W,4.02,276.53,200919,,,A*75
$GPGGA,130506.000,4308.5348,N,07727.7964,W,1,08,1.06,153.2,M,-34.4,M,,*57
$GPRMC,130506.250,A,4308.5349,N,07727.7967,W,3.29,278.71,200919,,,A*74
$GPGGA,130506.500,4308.5349,N,07727.7970,W,1,08,1.03,153.3,M,-34.4,M,,*52
$GPRMC,130506.750,A,4308.5351,N,07727.7972,W,2.80,283.26,200919,,,A*78
$GPGGA,130507.000,4308.5352,N,07727.7974,W,1,08,1.03,153.4,M,-34.4,M,,*5F
$GPRMC,130507.250,A,4308.5353,N,07727.7976,W,2.42,283.26,200919,,,A*74
$GPGGA,130507.500,4308.5354,N,07727.7977,W,1,08,1.03,153.5,M,-34.4,M,,*5E
$GPRMC,130507.750,A,4308.5354,N,07727.7978,W,2.19,283.26,200919,,,A*76
$GPGGA,130508.000,4308.5354,N,07727.7980,W,1,08,1.03,153.6,M,-34.4,M,,*5F
$GPRMC,130508.250,A,4308.5355,N,07727.7981,W,2.24,283.26,200919,,,A*75
$GPGGA,130508.500,4308.5355,N,07727.7982,W,1,08,1.03,153.5,M,-34.4,M,,*5A
$GPRMC,130508.750,A,4308.5355,N,07727.7983,W,2.36,283.26,200919,,,A*71
$GPGGA,130509.000,4308.5355,N,07727.7985,W,1,08,1.03,153.5,M,-34.4,M,,*59
$GPRMC,130509.250,A,4308.5355,N,07727.7987,W,2.64,283.26,200919,,,A*76
$GPGGA,130509.500,4308.5355,N,07727.7990,W,1,08,1.03,153.4,M,-34.4,M,,*59
$GPRMC,130509.750,A,4308.5354,N,07727.7992,W,3.24,274.10,200919,,,A*7E
$GPGGA,130510.000,4308.5353,N,07727.7994,W,1,08,1.03,153.4,M,-34.4,M,,*56
$GPRMC,130510.250,A,4308.5354,N,07727.7996,W,3.74,274.75,200919,,,A*71
$GPGGA,130510.500,4308.5353,N,07727.7999,W,1,08,1.03,153.5,M,-34.4,M,,*5F
$GPRMC,130510.750,A,4308.5352,N,07727.8002,W,4.39,273.65,200919,,,A*71
$GPGGA,130511.000,4308.5351,N,07727.8006,W,1,08,1.06,153.5,M,-34.4,M,,*5C
$GPRMC,130511.250,A,4308.5351,N,07727.8011,W,5.08,270.34,200919,,,A*70
$GPGGA,130511.500,4308.5351,N,07727.8016,W,1,08,1.06,153.6,M,-34.4,M,,*5B
$GPRMC,130511.750,A,4308.5351,N,07727.8021,W,5.56,271.32,200919,,,A*7A
$GPGGA,130512.000,4308.5351,N,07727.8026,W,1,08,1.06,153.6,M,-34.4,M,,*5E
$GPRMC,130512.250,A,4308.5351,N,07727.8032,W,5.83,273.78,200919,,,A*7A
$GPGGA,130512.500,4308.5351,N,07727.8037,W,1,08,1.06,153.7,M,-34.4,M,,*5A
$GPRMC,130512.750,A,4308.5351,N,07727.8042,W,5.54,274.81,200919,,,A*73
$GPGGA,130513.000,4308.5351,N,07727.8046,W,1,08,1.06,153.8,M,-34.4,M,,*57
$GPRMC,130513.250,A,4308.5352,N,07727.8050,W,4.85,276.87,200919,,,A*7E
$GPGGA,130513.500,4308.5352,N,07727.8053,W,1,08,1.06,153.8,M,-34.4,M,,*55
$GPRMC,130513.750,A,4308.5352,N,07727.8055,W,3.37,279.28,200919,,,A*7A
$GPGGA,130514.000,4308.5352,N,07727.8056,W,1,08,1.03,153.9,M,-34.4,M,,*56
$GPRMC,130514.250,A,4308.5352,N,07727.8058,W,2.25,279.28,200919,,,A*77
$GPGGA,130514.500,4308.5352,N,07727.8058,W,1,08,1.03,153.9,M,-34.4,M,,*5D
$GPRMC,130514.750,A,4308.5352,N,07727.8057,W,1.11,279.28,200919,,,A*79
$GPGGA,130515.000,4308.5352,N,07727.8056,W,1,08,1.03,153.9,M,-34.4,M,,*57
$GPRMC,130515.250,A,4308.5352,N,07727.8056,W,0.62,279.28,200919,,,A*79
$GPGGA,130515.500,4308.5352,N,07727.8056,W,1,08,1.03,154.0,M,-34.4,M,,*5C
$GPRMC,130515.750,A,4308.5352,N,07727.8056,W,0.54,279.28,200919,,,A*79
$GPGGA,130516.000,4308.5352,N,07727.8057,W,1,08,1.03,153.7,M,-34.4,M,,*5B
$GPRMC,130516.250,A,4308.5352,N,07727.8058,W,0.68,279.28,200919,,,A*7E
$GPGGA,130516.500,4308.5353,N,07727.8060,W,1,08,1.03,153.7,M,-34.4,M,,*5B
$GPRMC,130516.750,A,4308.5354,N,07727.8064,W,1.41,279.28,200919,,,A*78
$GPGGA,130517.000,4308.5355,N,07727.8067,W,1,08,1.03,153.7,M,-34.4,M,,*5E
$GPRMC,130517.250,A,4308.5355,N,07727.8070,W,1.87,279.28,200919,,,A*72
$GPGGA,130517.500,4308.5354,N,07727.8074,W,1,08,1.03,153.8,M,-34.4,M,,*57
$GPRMC,130517.750,A,4308.5357,N,07727.8077,W,2.68,279.28,200919,,,A*70
$GPGGA,130518.000,4308.5359,N,07727.8081,W,1,08,1.03,153.9,M,-34.4,M,,*5B
$GPRMC,130518.250,A,4308.5360,N,07727.8083,W,2.70,279.28,200919,,,A*7C
$GPGGA,130518.500,4308.5361,N,07727.8085,W,1,07,1.54,154.0,M,-34.4,M,,*52
$GPRMC,130518.750,A,4308.5362,N,07727.8086,W,1.72,279.28,200919,,,A*7F
$GPGGA,130519.000,4308.5363,N,07727.8086,W,1,08,1.03,154.0,M,-34.4,M,,*5A
$GPRMC,130519.250,A,4308.5364,N,07727.8086,W,1.34,279.28,200919,,,A*7F
$GPGGA,130519.500,4308.5365,N,07727.8086,W,1,07,1.54,154.0,M,-34.4,M,,*54
$GPRMC,130519.750,A,4308.5366,N,07727.8087,W,1.27,279.28,200919,,,A*7B
$GPGGA,130520.000,4308.5366,N,07727.8088,W,1,07,1.54,154.0,M,-34.4,M,,*56
$GPRMC,130520.250,A,4308.5367,N,07727.8090,W,1.35,279.28,200919,,,A*70
$GPGGA,130520.500,4308.5367,N,07727.8092,W,1,08,1.03,154.0,M,-34.4,M,,*54
$GPRMC,130520.750,A,4308.5367,N,07727.8095,W,1.82,279.28,200919,,,A*7C
$GPGGA,130521.000,4308.5366,N,07727.8099,W,1,08,1.03,154.0,M,-34.4,M,,*5A
$GPRMC,130521.250,A,4308.5365,N,07727.8103,W,2.58,279.28,200919,,,A*70
