Vers 81
USE_SERIAL_FEEDBACK=true
DEVELOPMENT_MODE=false
USE_RMC_ONLY=false

$GPRMC,153528.750,A,4308.3185,N,07726.2597,W,0.15,16.20,240719,,,A*43
$GPGGA,153529.000,4308.3183,N,07726.2597,W,1,03,4.93,184.4,M,-34.4,M,,*56
$GPRMC,153529.250,A,4308.3182,N,07726.2597,W,0.13,20.94,240719,,,A*4C
$GPGGA,153529.500,4308.3182,N,07726.2597,W,1,03,4.92,184.4,M,-34.4,M,,*53
$GPRMC,153529.750,A,4308.3182,N,07726.2597,W,0.09,34.94,240719,,,A*47
$GPGGA,153530.000,4308.3181,N,07726.2597,W,1,03,4.93,184.4,M,-34.4,M,,*5C
$GPRMC,153530.250,A,4308.3180,N,07726.2598,W,0.07,136.19,240719,,,A*7F
$GPGGA,153530.500,4308.3178,N,07726.2599,W,1,03,4.92,184.4,M,-34.4,M,,*50
$GPRMC,153530.750,A,4308.3176,N,07726.2599,W,0.13,173.29,240719,,,A*75
$GPGGA,153531.000,4308.3174,N,07726.2599,W,1,03,4.92,184.4,M,-34.4,M,,*58
$GPRMC,153531.250,A,4308.3173,N,07726.2599,W,0.13,170.76,240719,,,A*7D
$GPGGA,153531.500,4308.3172,N,07726.2599,W,1,03,4.92,184.4,M,-34.4,M,,*5B
$GPRMC,153531.750,A,4308.3171,N,07726.2599,W,0.12,212.33,240719,,,A*7D
$GPGGA,153532.000,4308.3171,N,07726.2599,W,1,03,4.92,184.4,M,-34.4,M,,*5E
$GPGGA,153532.142,4308.3149,N,07726.2605,W,1,04,1.93,183.0,M,-34.4,M,,*54
$GPRMC,153532.142,A,4308.3149,N,07726.2605,W,0.10,304.58,240719,,A*7F
$GPGGA,153533.000,4308.3120,N,07726.2613,W,1,04,1.93,181.3,M,-34.4,M,,*5B
$GPRMC,153533.000,A,4308.3120,N,07726.2613,W,0.02,337.09,240719,,A*76
$GPRMC,153533.500,A,4308.3110,N,07726.2615,W,0.08,28.36,240719,,,A*4D
$GPGGA,153533.750,4308.3106,N,07726.2615,W,1,04,1.93,180.5,M,-34.4,M,,*5C
$GPRMC,153534.000,A,4308.3102,N,07726.2615,W,0.07,116.39,240719,,,A*70
$GPGGA,153534.250,4308.3099,N,07726.2616,W,1,04,1.93,180.0,M,-34.4,M,,*5F
$GPRMC,153534.500,A,4308.3097,N,07726.2616,W,0.04,72.27,240719,,,A*44
$GPGGA,153534.750,4308.3095,N,07726.2615,W,1,04,1.93,179.8,M,-34.4,M,,*5B
$GPRMC,153535.000,A,4308.3094,N,07726.2615,W,0.02,90.46,240719,,,A*4D
$GPGGA,153535.250,4308.3093,N,07726.2615,W,1,04,1.93,179.7,M,-34.4,M,,*56
$GPRMC,153535.500,A,4308.3091,N,07726.2615,W,0.07,213.07,240719,,,A*74
$GPGGA,153535.750,4308.3090,N,07726.2615,W,1,04,1.93,179.6,M,-34.4,M,,*51
$GPRMC,153536.000,A,4308.3090,N,07726.2615,W,0.08,271.45,240719,,,A*7E
$GPGGA,153536.250,4308.3089,N,07726.2615,W,1,04,1.93,179.5,M,-34.4,M,,*5C
$GPRMC,153536.500,A,4308.3088,N,07726.2615,W,0.06,266.61,240719,,,A*7C
$GPGGA,153536.750,4308.3087,N,07726.2616,W,1,04,1.93,179.4,M,-34.4,M,,*55
$GPRMC,153537.000,A,4308.3086,N,07726.2616,W,0.05,339.17,240719,,,A*7C
$GPGGA,153537.250,4308.3085,N,07726.2616,W,1,04,1.93,179.2,M,-34.4,M,,*55
$GPRMC,153537.500,A,4308.3084,N,07726.2616,W,0.07,190.71,240719,,,A*78
$GPGGA,153537.750,4308.3083,N,07726.2616,W,1,04,1.93,179.0,M,-34.4,M,,*54
$GPRMC,153538.000,A,4308.3083,N,07726.2616,W,0.09,231.40,240719,,,A*71
$GPGGA,153538.250,4308.3082,N,07726.2616,W,1,04,1.93,178.9,M,-34.4,M,,*57
$GPRMC,153538.500,A,4308.3081,N,07726.2616,W,0.14,207.60,240719,,,A*7D
$GPGGA,153538.750,4308.3080,N,07726.2616,W,1,04,1.93,178.8,M,-34.4,M,,*51
$GPRMC,153539.000,A,4308.3080,N,07726.2615,W,0.21,178.56,240719,,,A*73
$GPGGA,153539.250,4308.3079,N,07726.2615,W,1,04,1.93,178.8,M,-34.4,M,,*50
$GPRMC,153539.500,A,4308.3079,N,07726.2615,W,0.18,179.87,240719,,,A*77
$GPGGA,153539.750,4308.3078,N,07726.2615,W,1,04,1.93,178.8,M,-34.4,M,,*54
$GPRMC,153540.000,A,4308.3078,N,07726.2614,W,0.20,183.89,240719,,,A*7C
$GPGGA,153540.250,4308.3078,N,07726.2614,W,1,04,1.93,178.9,M,-34.4,M,,*5F
$GPRMC,153540.500,A,4308.3078,N,07726.2614,W,0.18,188.41,240719,,,A*7D
$GPGGA,153540.750,4308.3078,N,07726.2614,W,1,04,1.93,178.9,M,-34.4,M,,*5A
$GPRMC,153541.000,A,4308.3078,N,07726.2614,W,0.18,208.48,240719,,,A*7B
$GPGGA,153541.250,4308.3079,N,07726.2613,W,1,04,1.93,178.9,M,-34.4,M,,*58
$GPRMC,153541.500,A,4308.3079,N,07726.2613,W,0.08,200.35,240719,,,A*7B
$GPGGA,153541.750,4308.3079,N,07726.2613,W,1,04,1.93,178.9,M,-34.4,M,,*5D
$GPRMC,153542.000,A,4308.3078,N,07726.2613,W,0.07,224.78,240719,,,A*7C
$GPGGA,153542.250,4308.3078,N,07726.2613,W,1,04,1.93,178.8,M,-34.4,M,,*5B
$GPRMC,153542.500,A,4308.3078,N,07726.2614,W,0.14,245.24,240719,,,A*72
$GPGGA,153542.750,4308.3077,N,07726.2614,W,1,04,1.93,178.7,M,-34.4,M,,*59
$GPRMC,153543.000,A,4308.3077,N,07726.2614,W,0.21,241.51,240719,,,A*79
$GPGGA,153543.250,4308.3076,N,07726.2614,W,1,04,1.93,178.5,M,-34.4,M,,*5E
$GPRMC,153543.500,A,4308.3076,N,07726.2615,W,0.20,257.90,240719,,,A*77
$GPGGA,153543.750,4308.3076,N,07726.2615,W,1,04,1.93,178.3,M,-34.4,M,,*5C
$GPRMC,153544.000,A,4308.3076,N,07726.2615,W,0.19,247.55,240719,,,A*77
$GPGGA,153544.250,4308.3075,N,07726.2616,W,1,04,1.93,178.2,M,-34.4,M,,*5F
$GPRMC,153544.500,A,4308.3075,N,07726.2615,W,0.12,242.47,240719,,,A*7C
$GPGGA,153544.750,4308.3074,N,07726.2616,W,1,04,1.93,178.0,M,-34.4,M,,*59
$GPRMC,153545.000,A,4308.3074,N,07726.2615,W,0.11,194.43,240719,,,A*76
$GPGGA,153545.250,4308.3073,N,07726.2615,W,1,04,1.93,177.9,M,-34.4,M,,*5F
$GPRMC,153545.500,A,4308.3073,N,07726.2615,W,0.14,151.20,240719,,,A*7D
$GPGGA,153545.750,4308.3072,N,07726.2615,W,1,04,1.93,177.7,M,-34.4,M,,*55
$GPRMC,153546.000,A,4308.3071,N,07726.2615,W,0.16,171.30,240719,,,A*78
$GPGGA,153546.250,4308.3071,N,07726.2615,W,1,04,1.93,177.5,M,-34.4,M,,*52
$GPRMC,153546.500,A,4308.3071,N,07726.2615,W,0.16,135.58,240719,,,A*73
$GPGGA,153546.750,4308.3070,N,07726.2615,W,1,04,1.93,177.3,M,-34.4,M,,*50
$GPRMC,153547.000,A,4308.3070,N,07726.2615,W,0.20,132.43,240719,,,A*7E
$GPGGA,153547.250,4308.3069,N,07726.2615,W,1,04,1.93,177.1,M,-34.4,M,,*5E
$GPRMC,153547.500,A,4308.3069,N,07726.2616,W,0.13,203.89,240719,,,A*77
$GPGGA,153547.750,4308.3069,N,07726.2617,W,1,04,1.93,176.9,M,-34.4,M,,*50
$GPRMC,153548.000,A,4308.3068,N,07726.2617,W,0.14,187.29,240719,,,A*7F
$GPGGA,153548.250,4308.3067,N,07726.2617,W,1,04,1.93,176.7,M,-34.4,M,,*5A
$GPRMC,153548.500,A,4308.3066,N,07726.2617,W,0.26,165.31,240719,,,A*70
$GPGGA,153548.750,4308.3066,N,07726.2617,W,1,04,1.93,176.5,M,-34.4,M,,*5C
$GPRMC,153549.000,A,4308.3066,N,07726.2617,W,0.23,158.61,240719,,,A*7A
$GPGGA,153549.250,4308.3066,N,07726.2618,W,1,04,1.93,176.4,M,-34.4,M,,*56
$GPRMC,153549.500,A,4308.3066,N,07726.2618,W,0.15,185.45,240719,,,A*73
$GPGGA,153549.750,4308.3066,N,07726.2619,W,1,04,1.93,176.2,M,-34.4,M,,*54
$GPRMC,153550.000,A,4308.3066,N,07726.2619,W,0.09,158.09,240719,,,A*7A
$GPGGA,153550.250,4308.3067,N,07726.2619,W,1,04,1.93,176.1,M,-34.4,M,,*5B
$GPRMC,153550.500,A,4308.3067,N,07726.2619,W,0.04,75.57,240719,,,A*46
$GPGGA,153550.750,4308.3067,N,07726.2619,W,1,04,1.93,175.9,M,-34.4,M,,*55
$GPRMC,153551.000,A,4308.3067,N,07726.2620,W,0.06,17.36,240719,,,A*49
$GPGGA,153551.250,4308.3067,N,07726.2620,W,1,04,1.93,175.8,M,-34.4,M,,*5A
$GPRMC,153551.500,A,4308.3067,N,07726.2620,W,0.05,254.91,240719,,,A*77
$GPGGA,153551.750,4308.3067,N,07726.2621,W,1,04,1.93,175.6,M,-34.4,M,,*50
$GPRMC,153552.000,A,4308.3066,N,07726.2621,W,0.07,254.98,240719,,,A*7A
$GPGGA,153552.250,4308.3066,N,07726.2622,W,1,04,1.93,175.4,M,-34.4,M,,*56
$GPRMC,153552.500,A,4308.3066,N,07726.2622,W,0.14,244.23,240719,,,A*7F
$GPGGA,153552.750,4308.3066,N,07726.2623,W,1,04,1.93,175.3,M,-34.4,M,,*55
$GPRMC,153553.000,A,4308.3066,N,07726.2623,W,0.13,277.12,240719,,,A*7F
$GPGGA,153553.250,4308.3066,N,07726.2623,W,1,04,1.93,175.2,M,-34.4,M,,*50
$GPRMC,153553.500,A,4308.3066,N,07726.2623,W,0.09,254.46,240719,,,A*71
$GPGGA,153553.750,4308.3066,N,07726.2624,W,1,04,1.93,175.0,M,-34.4,M,,*50
$GPRMC,153554.000,A,4308.3066,N,07726.2624,W,0.06,289.64,240719,,,A*7B
$GPGGA,153554.250,4308.3066,N,07726.2624,W,1,04,1.93,174.9,M,-34.4,M,,*5A
$GPRMC,153554.500,A,4308.3066,N,07726.2624,W,0.05,287.91,240719,,,A*79
$GPGGA,153554.750,4308.3066,N,07726.2625,W,1,04,1.93,174.7,M,-34.4,M,,*50
$GPRMC,153555.000,A,4308.3066,N,07726.2625,W,0.02,188.17,240719,,,A*79
$GPGGA,153555.250,4308.3066,N,07726.2625,W,1,04,1.93,174.6,M,-34.4,M,,*55
$GPRMC,153555.500,A,4308.3066,N,07726.2625,W,0.04,158.47,240719,,,A*72
$GPGGA,153555.750,4308.3066,N,07726.2626,W,1,04,1.93,174.4,M,-34.4,M,,*51
$GPRMC,153556.000,A,4308.3066,N,07726.2627,W,0.12,213.96,240719,,,A*71
$GPGGA,153556.250,4308.3066,N,07726.2628,W,1,04,1.93,174.3,M,-34.4,M,,*5E
$GPRMC,153556.500,A,4308.3066,N,07726.2628,W,0.11,230.94,240719,,,A*7B
$GPGGA,153556.750,4308.3066,N,07726.2628,W,1,04,1.93,174.2,M,-34.4,M,,*5A
$GPRMC,153557.000,A,4308.3066,N,07726.2628,W,0.12,233.58,240719,,,A*7F
$GPGGA,153557.250,4308.3066,N,07726.2629,W,1,04,1.93,174.0,M,-34.4,M,,*5D
$GPRMC,153557.500,A,4308.3067,N,07726.2629,W,0.10,248.06,240719,,,A*7F
$GPGGA,153557.750,4308.3067,N,07726.2630,W,1,04,1.93,173.8,M,-34.4,M,,*5E
$GPRMC,153558.000,A,4308.3067,N,07726.2630,W,0.07,200.67,240719,,,A*70
$GPGGA,153558.250,4308.3068,N,07726.2630,W,1,04,1.93,173.6,M,-34.4,M,,*55
$GPRMC,153558.500,A,4308.3068,N,07726.2631,W,0.02,34.05,240719,,,A*4F
$GPGGA,153558.750,4308.3069,N,07726.2631,W,1,04,1.93,173.5,M,-34.4,M,,*53
$GPRMC,153559.000,A,4308.3069,N,07726.2631,W,0.02,97.54,240719,,,A*47
$GPGGA,153559.250,4308.3069,N,07726.2631,W,1,04,1.93,173.4,M,-34.4,M,,*56
$GPRMC,153559.500,A,4308.3070,N,07726.2632,W,0.03,13.73,240719,,,A*41
$GPGGA,153559.750,4308.3070,N,07726.2632,W,1,04,3.08,173.3,M,-34.4,M,,*5F
$GPRMC,153600.000,A,4308.3070,N,07726.2632,W,0.12,310.78,240719,,,A*70
$GPGGA,153600.250,4308.3070,N,07726.2632,W,1,04,1.93,173.3,M,-34.4,M,,*55
$GPRMC,153600.500,A,4308.3070,N,07726.2632,W,0.17,308.84,240719,,,A*7A
$GPGGA,153600.750,4308.3070,N,07726.2632,W,1,04,1.93,173.3,M,-34.4,M,,*50
$GPRMC,153601.000,A,4308.3070,N,07726.2632,W,0.16,305.09,240719,,,A*77
$GPGGA,153601.250,4308.3070,N,07726.2633,W,1,04,1.93,173.3,M,-34.4,M,,*55
$GPRMC,153601.500,A,4308.3070,N,07726.2633,W,0.09,341.70,240719,,,A*73
$GPGGA,153601.750,4308.3070,N,07726.2633,W,1,04,1.93,173.3,M,-34.4,M,,*50
$GPRMC,153602.000,A,4308.3071,N,07726.2633,W,0.18,330.10,240719,,,A*74
$GPGGA,153602.250,4308.3071,N,07726.2633,W,1,04,1.93,173.3,M,-34.4,M,,*57
$GPRMC,153602.500,A,4308.3071,N,07726.2633,W,0.17,347.32,240719,,,A*7E
$GPGGA,153602.750,4308.3071,N,07726.2633,W,1,04,3.08,173.3,M,-34.4,M,,*52
$GPRMC,153603.000,A,4308.3071,N,07726.2633,W,0.16,305.83,240719,,,A*77
$GPGGA,153603.250,4308.3071,N,07726.2633,W,1,04,1.93,173.3,M,-34.4,M,,*56
$GPRMC,153603.500,A,4308.3071,N,07726.2633,W,0.25,312.93,240719,,,A*75
$GPGGA,153603.750,4308.3071,N,07726.2633,W,1,04,1.93,173.3,M,-34.4,M,,*53
$GPRMC,153604.000,A,4308.3071,N,07726.2634,W,0.32,319.59,240719,,,A*7B
$GPGGA,153604.250,4308.3072,N,07726.2634,W,1,04,1.93,173.3,M,-34.4,M,,*55
$GPRMC,153604.500,A,4308.3072,N,07726.2634,W,0.24,330.32,240719,,,A*7C
$GPGGA,153604.750,4308.3072,N,07726.2634,W,1,04,1.93,173.3,M,-34.4,M,,*50
$GPRMC,153605.000,A,4308.3072,N,07726.2634,W,0.21,323.62,240719,,,A*7A
$GPGGA,153605.250,4308.3072,N,07726.2634,W,1,04,1.93,173.3,M,-34.4,M,,*54
$GPRMC,153605.500,A,4308.3072,N,07726.2634,W,0.21,326.99,240719,,,A*7E
$GPGGA,153605.750,4308.3072,N,07726.2634,W,1,04,1.93,173.3,M,-34.4,M,,*51
$GPRMC,153606.000,A,4308.3073,N,07726.2635,W,0.20,334.30,240719,,,A*79
$GPGGA,153606.250,4308.3073,N,07726.2635,W,1,04,1.93,173.3,M,-34.4,M,,*57
$GPRMC,153606.500,A,4308.3073,N,07726.2635,W,0.07,341.71,240719,,,A*7E
$GPGGA,153606.750,4308.3073,N,07726.2635,W,1,04,1.93,173.3,M,-34.4,M,,*52
$GPRMC,153607.000,A,4308.3073,N,07726.2635,W,0.06,350.67,240719,,,A*7C
$GPGGA,153607.250,4308.3073,N,07726.2635,W,1,04,3.09,173.3,M,-34.4,M,,*57
$GPRMC,153607.500,A,4308.3073,N,07726.2635,W,0.15,16.35,240719,,,A*4D
$GPGGA,153607.750,4308.3073,N,07726.2635,W,1,04,1.93,173.3,M,-34.4,M,,*53
$GPRMC,153608.000,A,4308.3073,N,07726.2635,W,0.08,22.75,240719,,,A*48
$GPGGA,153608.250,4308.3073,N,07726.2635,W,1,04,1.93,173.2,M,-34.4,M,,*58
$GPRMC,153608.500,A,4308.3073,N,07726.2634,W,0.08,39.10,240719,,,A*45
$GPGGA,153608.750,4308.3073,N,07726.2634,W,1,04,1.93,173.2,M,-34.4,M,,*5C
$GPRMC,153609.000,A,4308.3073,N,07726.2634,W,0.12,51.79,240719,,,A*4B
$GPGGA,153609.250,4308.3073,N,07726.2634,W,1,04,1.93,173.2,M,-34.4,M,,*58
$GPRMC,153609.500,A,4308.3073,N,07726.2634,W,0.08,67.51,240719,,,A*4A
$GPGGA,153609.750,4308.3073,N,07726.2634,W,1,04,1.93,173.2,M,-34.4,M,,*5D
$GPRMC,153610.000,A,4308.3073,N,07726.2634,W,0.11,89.78,240719,,,A*44
$GPGGA,153610.250,4308.3073,N,07726.2634,W,1,04,1.93,173.2,M,-34.4,M,,*50
$GPRMC,153610.500,A,4308.3074,N,07726.2634,W,0.07,107.54,240719,,,A*78
$GPGGA,153610.750,4308.3073,N,07726.2634,W,1,04,1.93,173.2,M,-34.4,M,,*55
$GPRMC,153611.000,A,4308.3073,N,07726.2634,W,0.01,67.83,240719,,,A*40
$GPGGA,153611.250,4308.3073,N,07726.2634,W,1,04,1.93,173.2,M,-34.4,M,,*51
$GPRMC,153611.500,A,4308.3073,N,07726.2634,W,0.02,181.06,240719,,,A*72
$GPGGA,153611.750,4308.3073,N,07726.2634,W,1,04,1.93,173.2,M,-34.4,M,,*54
$GPRMC,153612.000,A,4308.3073,N,07726.2634,W,0.05,337.28,240719,,,A*70
$GPGGA,153612.250,4308.3073,N,07726.2634,W,1,04,1.93,173.2,M,-34.4,M,,*52
$GPRMC,153612.500,A,4308.3074,N,07726.2634,W,0.04,46.21,240719,,,A*4F
$GPGGA,153612.750,4308.3074,N,07726.2634,W,1,04,1.93,173.2,M,-34.4,M,,*50
$GPRMC,153613.000,A,4308.3074,N,07726.2634,W,0.03,14.93,240719,,,A*42
$GPGGA,153613.250,4308.3074,N,07726.2634,W,1,04,3.11,173.2,M,-34.4,M,,*5C
$GPRMC,153613.500,A,4308.3074,N,07726.2634,W,0.08,18.64,240719,,,A*48
$GPGGA,153613.750,4308.3074,N,07726.2633,W,1,04,1.93,173.2,M,-34.4,M,,*56
$GPRMC,153614.000,A,4308.3074,N,07726.2633,W,0.07,100.73,240719,,,A*7C
$GPGGA,153614.250,4308.3074,N,07726.2633,W,1,04,1.93,173.2,M,-34.4,M,,*54
$GPRMC,153614.500,A,4308.3074,N,07726.2633,W,0.07,94.91,240719,,,A*49
$GPGGA,153614.750,4308.3074,N,07726.2633,W,1,04,1.93,173.2,M,-34.4,M,,*51
$GPRMC,153615.000,A,4308.3074,N,07726.2633,W,0.05,3.44,240719,,,A*79
$GPGGA,153615.250,4308.3074,N,07726.2633,W,1,04,3.11,173.2,M,-34.4,M,,*5D
$GPRMC,153615.500,A,4308.3074,N,07726.2633,W,0.10,328.18,240719,,,A*7B
$GPGGA,153615.750,4308.3074,N,07726.2633,W,1,04,1.93,173.2,M,-34.4,M,,*50
$GPRMC,153616.000,A,4308.3074,N,07726.2633,W,0.10,336.30,240719,,,A*78
$GPGGA,153616.250,4308.3074,N,07726.2633,W,1,04,1.93,173.2,M,-34.4,M,,*56
$GPRMC,153616.500,A,4308.3074,N,07726.2633,W,0.06,1.85,240719,,,A*73
$GPGGA,153616.750,4308.3074,N,07726.2633,W,1,04,3.11,173.2,M,-34.4,M,,*5B
$GPRMC,153617.000,A,4308.3074,N,07726.2633,W,0.05,347.99,240719,,,A*78
$GPGGA,153617.250,4308.3074,N,07726.2633,W,1,04,3.12,173.2,M,-34.4,M,,*5C
$GPRMC,153617.500,A,4308.3074,N,07726.2633,W,0.10,248.50,240719,,,A*72
$GPGGA,153617.750,4308.3074,N,07726.2633,W,1,04,1.93,173.2,M,-34.4,M,,*52
$GPRMC,153618.000,A,4308.3074,N,07726.2634,W,0.07,262.08,240719,,,A*7C
$GPGGA,153618.250,4308.3074,N,07726.2634,W,1,04,1.93,173.2,M,-34.4,M,,*5F
$GPRMC,153618.500,A,4308.3074,N,07726.2634,W,0.13,277.95,240719,,,A*7C
$GPGGA,153618.750,4308.3074,N,07726.2634,W,1,04,1.93,173.2,M,-34.4,M,,*5A
$GPRMC,153619.000,A,4308.3074,N,07726.2634,W,0.09,358.77,240719,,,A*73
$GPGGA,153619.250,4308.3074,N,07726.2634,W,1,04,3.12,173.2,M,-34.4,M,,*55
$GPRMC,153619.500,A,4308.3074,N,07726.2634,W,0.19,2.29,240719,,,A*70
$GPGGA,153619.750,4308.3075,N,07726.2634,W,1,04,3.12,173.2,M,-34.4,M,,*51
$GPRMC,153620.000,A,4308.3075,N,07726.2634,W,0.28,0.97,240719,,,A*7B
$GPGGA,153620.250,4308.3075,N,07726.2634,W,1,06,2.56,173.2,M,-34.4,M,,*5D
$GPRMC,153620.500,A,4308.3075,N,07726.2634,W,0.24,7.14,240719,,,A*7E
$GPGGA,153620.750,4308.3075,N,07726.2634,W,1,06,2.56,173.2,M,-34.4,M,,*58
$GPRMC,153621.000,A,4308.3075,N,07726.2634,W,0.24,8.51,240719,,,A*74
$GPGGA,153621.250,4308.3076,N,07726.2634,W,1,06,2.56,173.2,M,-34.4,M,,*5F
$GPRMC,153621.500,A,4308.3076,N,07726.2634,W,0.25,354.80,240719,,,A*75
$GPGGA,153621.750,4308.3076,N,07726.2634,W,1,06,2.56,173.2,M,-34.4,M,,*5A
$GPRMC,153622.000,A,4308.3076,N,07726.2634,W,0.23,13.25,240719,,,A*4A
$GPGGA,153622.250,4308.3076,N,07726.2634,W,1,06,2.56,173.2,M,-34.4,M,,*5C
$GPRMC,153622.500,A,4308.3076,N,07726.2633,W,0.20,15.54,240719,,,A*4B
$GPGGA,153622.750,4308.3076,N,07726.2633,W,1,06,1.72,173.2,M,-34.4,M,,*5B
$GPRMC,153623.000,A,4308.3077,N,07726.2633,W,0.18,14.43,240719,,,A*42
$GPGGA,153623.250,4308.3077,N,07726.2633,W,1,06,2.56,173.2,M,-34.4,M,,*5B
$GPRMC,153623.500,A,4308.3077,N,07726.2633,W,0.17,334.27,240719,,,A*7B
$GPGGA,153623.750,4308.3077,N,07726.2633,W,1,06,1.72,173.2,M,-34.4,M,,*5B
$GPRMC,153624.000,A,4308.3077,N,07726.2633,W,0.17,319.04,240719,,,A*77
$GPGGA,153624.250,4308.3077,N,07726.2633,W,1,06,1.72,173.2,M,-34.4,M,,*59
$GPRMC,153624.500,A,4308.3077,N,07726.2634,W,0.12,335.91,240719,,,A*72
$GPGGA,153624.750,4308.3077,N,07726.2634,W,1,06,1.72,173.2,M,-34.4,M,,*5B
$GPRMC,153625.000,A,4308.3077,N,07726.2634,W,0.13,2.00,240719,,,A*78
$GPGGA,153625.250,4308.3077,N,07726.2634,W,1,06,2.57,173.2,M,-34.4,M,,*5B
$GPRMC,153625.500,A,4308.3077,N,07726.2634,W,0.13,332.28,240719,,,A*77
$GPGGA,153625.750,4308.3077,N,07726.2634,W,1,06,1.72,173.2,M,-34.4,M,,*5A
$GPRMC,153626.000,A,4308.3078,N,07726.2634,W,0.17,341.15,240719,,,A*70
$GPGGA,153626.250,4308.3078,N,07726.2634,W,1,06,1.72,173.2,M,-34.4,M,,*53
$GPRMC,153626.500,A,4308.3078,N,07726.2634,W,0.08,345.83,240719,,,A*70
$GPGGA,153626.750,4308.3078,N,07726.2634,W,1,06,2.57,173.2,M,-34.4,M,,*52
$GPRMC,153627.000,A,4308.3078,N,07726.2634,W,0.04,324.26,240719,,,A*70
$GPGGA,153627.250,4308.3078,N,07726.2634,W,1,06,1.72,173.2,M,-34.4,M,,*52
$GPRMC,153627.500,A,4308.3078,N,07726.2634,W,0.20,354.09,240719,,,A*79
$GPGGA,153627.750,4308.3078,N,07726.2634,W,1,06,2.57,173.1,M,-34.4,M,,*50
$GPRMC,153628.000,A,4308.3078,N,07726.2634,W,0.25,355.53,240719,,,A*78
$GPGGA,153628.250,4308.3078,N,07726.2634,W,1,06,2.57,173.1,M,-34.4,M,,*5A
$GPRMC,153628.500,A,4308.3079,N,07726.2634,W,0.43,1.51,240719,,,A*7C
$GPGGA,153628.750,4308.3079,N,07726.2634,W,1,06,2.57,173.1,M,-34.4,M,,*5E
$GPRMC,153629.000,A,4308.3079,N,07726.2634,W,0.60,1.66,240719,,,A*7D
$GPGGA,153629.250,4308.3080,N,07726.2633,W,1,06,2.57,173.0,M,-34.4,M,,*5A
$GPRMC,153629.500,A,4308.3082,N,07726.2633,W,0.96,6.79,240719,,,A*7B
$GPGGA,153629.750,4308.3083,N,07726.2632,W,1,06,2.57,172.6,M,-34.4,M,,*5A
$GPRMC,153630.000,A,4308.3085,N,07726.2632,W,1.26,6.25,240719,,,A*73
$GPGGA,153630.250,4308.3087,N,07726.2631,W,1,06,2.57,172.3,M,-34.4,M,,*55
$GPRMC,153630.500,A,4308.3090,N,07726.2631,W,1.74,7.28,240719,,,A*7A
$GPGGA,153630.750,4308.3092,N,07726.2630,W,1,06,2.57,172.2,M,-34.4,M,,*54
$GPRMC,153631.000,A,4308.3094,N,07726.2630,W,2.72,8.09,240719,,,A*72
$GPGGA,153631.250,4308.3097,N,07726.2630,W,1,06,2.57,172.0,M,-34.4,M,,*57
$GPRMC,153631.500,A,4308.3099,N,07726.2630,W,3.51,358.68,240719,,,A*7B
$GPGGA,153631.750,4308.3101,N,07726.2631,W,1,06,2.57,171.9,M,-34.4,M,,*57
$GPRMC,153632.000,A,4308.3104,N,07726.2630,W,4.13,357.10,240719,,,A*79
$GPGGA,153632.250,4308.3108,N,07726.2631,W,1,06,2.57,171.7,M,-34.4,M,,*56
$GPRMC,153632.500,A,4308.3110,N,07726.2631,W,4.34,353.67,240719,,,A*79
$GPGGA,153632.750,4308.3113,N,07726.2632,W,1,06,2.57,171.6,M,-34.4,M,,*5B
$GPRMC,153633.000,A,4308.3116,N,07726.2633,W,4.14,343.34,240719,,,A*7C
$GPGGA,153633.250,4308.3118,N,07726.2634,W,1,06,2.57,171.5,M,-34.4,M,,*51
$GPRMC,153633.500,A,4308.3121,N,07726.2635,W,4.54,345.38,240719,,,A*75
$GPGGA,153633.750,4308.3124,N,07726.2636,W,1,06,2.57,171.4,M,-34.4,M,,*58
$GPRMC,153634.000,A,4308.3128,N,07726.2636,W,4.71,349.21,240719,,,A*7E
$GPGGA,153634.250,4308.3131,N,07726.2637,W,1,06,2.57,171.3,M,-34.4,M,,*58
$GPRMC,153634.500,A,4308.3134,N,07726.2637,W,4.92,351.66,240719,,,A*70
$GPGGA,153634.750,4308.3138,N,07726.2637,W,1,06,2.57,171.1,M,-34.4,M,,*56
$GPRMC,153635.000,A,4308.3141,N,07726.2637,W,4.81,356.65,240719,,,A*70
$GPGGA,153635.250,4308.3144,N,07726.2636,W,1,06,2.57,170.9,M,-34.4,M,,*51
$GPRMC,153635.500,A,4308.3147,N,07726.2635,W,5.02,8.81,240719,,,A*79
$GPGGA,153635.750,4308.3150,N,07726.2634,W,1,06,2.57,170.7,M,-34.4,M,,*5D
$GPRMC,153636.000,A,4308.3153,N,07726.2633,W,4.95,13.56,240719,,,A*43
$GPGGA,153636.250,4308.3155,N,07726.2631,W,1,06,2.57,170.6,M,-34.4,M,,*5A
$GPRMC,153636.500,A,4308.3158,N,07726.2629,W,4.21,20.60,240719,,,A*4C
$GPGGA,153636.750,4308.3160,N,07726.2628,W,1,06,2.57,170.3,M,-34.4,M,,*54
$GPRMC,153637.000,A,4308.3162,N,07726.2626,W,4.23,22.84,240719,,,A*44
$GPGGA,153637.250,4308.3165,N,07726.2624,W,1,06,2.58,170.2,M,-34.4,M,,*57
$GPRMC,153637.500,A,4308.3167,N,07726.2622,W,4.52,26.88,240719,,,A*4E
$GPGGA,153637.750,4308.3169,N,07726.2620,W,1,06,2.58,170.0,M,-34.4,M,,*58
$GPRMC,153638.000,A,4308.3171,N,07726.2618,W,3.93,28.19,240719,,,A*46
$GPGGA,153638.250,4308.3173,N,07726.2616,W,1,06,2.58,169.8,M,-34.4,M,,*5C
$GPRMC,153638.500,A,4308.3174,N,07726.2613,W,3.48,34.42,240719,,,A*48
$GPGGA,153638.750,4308.3176,N,07726.2611,W,1,06,1.72,169.7,M,-34.4,M,,*5F
$GPRMC,153639.000,A,4308.3177,N,07726.2609,W,3.26,40.75,240719,,,A*4B
$GPGGA,153639.250,4308.3178,N,07726.2606,W,1,06,1.72,169.6,M,-34.4,M,,*52
$GPRMC,153639.500,A,4308.3178,N,07726.2604,W,2.76,62.06,240719,,,A*4C
$GPGGA,153639.750,4308.3179,N,07726.2601,W,1,06,1.72,169.5,M,-34.4,M,,*52
$GPRMC,153640.000,A,4308.3179,N,07726.2598,W,2.95,61.94,240719,,,A*45
$GPGGA,153640.250,4308.3180,N,07726.2595,W,1,06,1.72,169.4,M,-34.4,M,,*50
$GPRMC,153640.500,A,4308.3180,N,07726.2593,W,2.65,70.01,240719,,,A*4E
$GPGGA,153640.750,4308.3181,N,07726.2591,W,1,06,1.72,169.2,M,-34.4,M,,*56
$GPRMC,153641.000,A,4308.3180,N,07726.2589,W,1.80,79.49,240719,,,A*4C
$GPGGA,153641.250,4308.3180,N,07726.2587,W,1,06,1.72,169.1,M,-34.4,M,,*57
$GPRMC,153641.500,A,4308.3180,N,07726.2586,W,1.12,71.05,240719,,,A*4D
$GPGGA,153641.750,4308.3180,N,07726.2585,W,1,06,1.72,168.9,M,-34.4,M,,*59
$GPRMC,153642.000,A,4308.3179,N,07726.2586,W,0.47,73.11,240719,,,A*4B
$GPGGA,153642.250,4308.3178,N,07726.2587,W,1,06,1.72,168.8,M,-34.4,M,,*5B
$GPRMC,153642.500,A,4308.3177,N,07726.2588,W,0.23,236.04,240719,,,A*7B
$GPGGA,153642.750,4308.3177,N,07726.2589,W,1,06,1.72,168.8,M,-34.4,M,,*5F
$GPRMC,153643.000,A,4308.3177,N,07726.2592,W,0.77,264.08,240719,,,A*7E
$GPGGA,153643.250,4308.3176,N,07726.2595,W,1,06,1.72,168.7,M,-34.4,M,,*58
$GPRMC,153643.500,A,4308.3175,N,07726.2599,W,1.74,264.74,240719,,,A*7B
$GPGGA,153643.750,4308.3174,N,07726.2602,W,1,06,1.72,168.5,M,-34.4,M,,*50
$GPRMC,153644.000,A,4308.3173,N,07726.2606,W,3.85,264.75,240719,,,A*77
$GPGGA,153644.250,4308.3172,N,07726.2611,W,1,06,1.72,168.4,M,-34.4,M,,*57
$GPRMC,153644.500,A,4308.3172,N,07726.2616,W,5.39,268.05,240719,,,A*78
$GPGGA,153644.750,4308.3172,N,07726.2622,W,1,06,1.72,168.3,M,-34.4,M,,*55
$GPRMC,153645.000,A,4308.3172,N,07726.2628,W,6.21,270.43,240719,,,A*70
$GPGGA,153645.250,4308.3172,N,07726.2635,W,1,06,2.58,168.2,M,-34.4,M,,*5D
$GPRMC,153645.500,A,4308.3172,N,07726.2642,W,7.15,273.07,240719,,,A*7C
$GPGGA,153645.750,4308.3172,N,07726.2650,W,1,06,2.58,168.1,M,-34.4,M,,*58
$GPRMC,153646.000,A,4308.3173,N,07726.2658,W,7.96,274.49,240719,,,A*76
$GPGGA,153646.250,4308.3174,N,07726.2667,W,1,06,2.58,168.0,M,-34.4,M,,*5D
$GPRMC,153646.500,A,4308.3176,N,07726.2676,W,9.09,280.42,240719,,,A*72
$GPGGA,153646.750,4308.3178,N,07726.2685,W,1,06,2.58,167.8,M,-34.4,M,,*5F
$GPRMC,153647.000,A,4308.3180,N,07726.2693,W,9.59,283.53,240719,,,A*72
$GPGGA,153647.250,4308.3183,N,07726.2703,W,1,06,2.58,167.6,M,-34.4,M,,*5E
$GPRMC,153647.500,A,4308.3185,N,07726.2712,W,10.38,286.29,240719,,,A*4D
$GPGGA,153647.750,4308.3187,N,07726.2722,W,1,06,2.58,167.3,M,-34.4,M,,*59
$GPRMC,153648.000,A,4308.3190,N,07726.2732,W,10.50,286.06,240719,,,A*42
$GPGGA,153648.250,4308.3192,N,07726.2742,W,1,06,2.58,167.1,M,-34.4,M,,*53
$GPRMC,153648.500,A,4308.3194,N,07726.2751,W,10.58,285.10,240719,,,A*4A
$GPGGA,153648.750,4308.3196,N,07726.2761,W,1,06,2.58,166.9,M,-34.4,M,,*5A
$GPRMC,153649.000,A,4308.3198,N,07726.2771,W,10.59,284.62,240719,,,A*45
$GPGGA,153649.250,4308.3199,N,07726.2780,W,1,06,2.58,166.7,M,-34.4,M,,*50
$GPRMC,153649.500,A,4308.3202,N,07726.2790,W,10.36,284.70,240719,,,A*45
$GPGGA,153649.750,4308.3204,N,07726.2800,W,1,06,2.58,166.5,M,-34.4,M,,*57
$GPRMC,153650.000,A,4308.3205,N,07726.2810,W,10.27,284.21,240719,,,A*4C
$GPGGA,153650.250,4308.3207,N,07726.2819,W,1,06,2.59,166.3,M,-34.4,M,,*56
$GPRMC,153650.500,A,4308.3209,N,07726.2829,W,10.18,284.34,240719,,,A*47
$GPGGA,153650.750,4308.3211,N,07726.2838,W,1,06,1.72,166.3,M,-34.4,M,,*5D
$GPRMC,153651.000,A,4308.3213,N,07726.2846,W,9.81,285.18,240719,,,A*76
$GPGGA,153651.250,4308.3215,N,07726.2855,W,1,06,2.59,166.2,M,-34.4,M,,*5D
$GPRMC,153651.500,A,4308.3217,N,07726.2864,W,9.55,285.90,240719,,,A*7E
$GPGGA,153651.750,4308.3219,N,07726.2872,W,1,06,1.72,166.2,M,-34.4,M,,*5B
$GPRMC,153652.000,A,4308.3221,N,07726.2881,W,9.44,286.82,240719,,,A*76
$GPGGA,153652.250,4308.3223,N,07726.2889,W,1,06,2.59,166.2,M,-34.4,M,,*5A
$GPRMC,153652.500,A,4308.3226,N,07726.2896,W,9.02,288.40,240719,,,A*70
$GPGGA,153652.750,4308.3228,N,07726.2904,W,1,06,1.72,166.1,M,-34.4,M,,*59
$GPRMC,153653.000,A,4308.3231,N,07726.2912,W,8.98,290.57,240719,,,A*72
$GPGGA,153653.250,4308.3234,N,07726.2919,W,1,06,2.59,166.0,M,-34.4,M,,*57
$GPRMC,153653.500,A,4308.3238,N,07726.2926,W,8.87,294.74,240719,,,A*72
$GPGGA,153653.750,4308.3241,N,07726.2933,W,1,06,2.59,165.9,M,-34.4,M,,*52
$GPRMC,153654.000,A,4308.3244,N,07726.2939,W,8.55,297.33,240719,,,A*7A
$GPGGA,153654.250,4308.3247,N,07726.2946,W,1,06,2.59,165.8,M,-34.4,M,,*55
$GPRMC,153654.500,A,4308.3250,N,07726.2953,W,8.44,297.47,240719,,,A*75
$GPGGA,153654.750,4308.3253,N,07726.2960,W,1,06,1.72,165.7,M,-34.4,M,,*54
$GPRMC,153655.000,A,4308.3257,N,07726.2967,W,8.45,298.15,240719,,,A*78
$GPGGA,153655.250,4308.3260,N,07726.2975,W,1,06,2.59,165.6,M,-34.4,M,,*5F
$GPRMC,153655.500,A,4308.3264,N,07726.2983,W,8.70,297.70,240719,,,A*7D
$GPGGA,153655.750,4308.3267,N,07726.2990,W,1,06,2.59,165.5,M,-34.4,M,,*55
$GPRMC,153656.000,A,4308.3270,N,07726.2998,W,8.97,296.03,240719,,,A*78
$GPGGA,153656.250,4308.3274,N,07726.3006,W,1,06,2.59,165.4,M,-34.4,M,,*57
$GPRMC,153656.500,A,4308.3277,N,07726.3014,W,9.19,295.56,240719,,,A*72
$GPGGA,153656.750,4308.3280,N,07726.3022,W,1,06,1.72,165.4,M,-34.4,M,,*55
$GPRMC,153657.000,A,4308.3283,N,07726.3031,W,9.41,295.75,240719,,,A*76
$GPGGA,153657.250,4308.3286,N,07726.3040,W,1,06,2.59,165.3,M,-34.4,M,,*5E
$GPRMC,153657.500,A,4308.3288,N,07726.3049,W,9.88,293.58,240719,,,A*7B
$GPGGA,153657.750,4308.3291,N,07726.3058,W,1,06,1.72,165.3,M,-34.4,M,,*5E
$GPRMC,153658.000,A,4308.3295,N,07726.3067,W,10.32,293.18,240719,,,A*4C
$GPGGA,153658.250,4308.3299,N,07726.3077,W,1,06,2.59,165.3,M,-34.4,M,,*5B
$GPRMC,153658.500,A,4308.3305,N,07726.3088,W,10.95,295.31,240719,,,A*40
$GPGGA,153658.750,4308.3311,N,07726.3098,W,1,06,2.59,165.3,M,-34.4,M,,*5E
$GPRMC,153659.000,A,4308.3317,N,07726.3110,W,11.89,297.23,240719,,,A*4A
$GPGGA,153659.250,4308.3322,N,07726.3121,W,1,06,2.59,165.3,M,-34.4,M,,*59
$GPRMC,153659.500,A,4308.3328,N,07726.3133,W,12.73,298.45,240719,,,A*4B
$GPGGA,153659.750,4308.3333,N,07726.3144,W,1,06,2.59,165.4,M,-34.4,M,,*58
$GPRMC,153700.000,A,4308.3339,N,07726.3155,W,13.45,299.33,240719,,,A*47
$GPGGA,153700.250,4308.3345,N,07726.3168,W,1,06,2.59,165.4,M,-34.4,M,,*5F
$GPRMC,153700.500,A,4308.3352,N,07726.3180,W,14.46,300.05,240719,,,A*47
$GPGGA,153700.750,4308.3358,N,07726.3192,W,1,06,2.59,165.4,M,-34.4,M,,*53
$GPRMC,153701.000,A,4308.3365,N,07726.3205,W,15.01,300.09,240719,,,A*47
$GPGGA,153701.250,4308.3371,N,07726.3218,W,1,06,2.59,165.4,M,-34.4,M,,*5D
$GPRMC,153701.500,A,4308.3377,N,07726.3231,W,15.53,300.57,240719,,,A*4A
$GPGGA,153701.750,4308.3384,N,07726.3245,W,1,06,2.59,165.4,M,-34.4,M,,*5A
$GPRMC,153702.000,A,4308.3391,N,07726.3259,W,16.00,301.21,240719,,,A*4F
$GPGGA,153702.250,4308.3398,N,07726.3273,W,1,06,2.59,165.3,M,-34.4,M,,*53
$GPRMC,153702.500,A,4308.3404,N,07726.3287,W,16.74,301.38,240719,,,A*49
$GPGGA,153702.750,4308.3411,N,07726.3301,W,1,06,2.59,165.4,M,-34.4,M,,*53
$GPRMC,153703.000,A,4308.3418,N,07726.3315,W,17.11,301.85,240719,,,A*4E
$GPGGA,153703.250,4308.3425,N,07726.3329,W,1,06,2.60,165.4,M,-34.4,M,,*50
$GPRMC,153703.500,A,4308.3432,N,07726.3344,W,17.34,302.50,240719,,,A*4B
$GPGGA,153703.750,4308.3439,N,07726.3358,W,1,06,2.60,165.3,M,-34.4,M,,*59
$GPRMC,153704.000,A,4308.3447,N,07726.3372,W,17.58,302.96,240719,,,A*4E
$GPGGA,153704.250,4308.3454,N,07726.3387,W,1,06,2.59,165.3,M,-34.4,M,,*58
$GPRMC,153704.500,A,4308.3461,N,07726.3401,W,17.85,302.33,240719,,,A*43
$GPGGA,153704.750,4308.3468,N,07726.3416,W,1,06,2.60,165.3,M,-34.4,M,,*57
$GPRMC,153705.000,A,4308.3475,N,07726.3431,W,18.23,301.81,240719,,,A*48
$GPGGA,153705.250,4308.3483,N,07726.3446,W,1,06,2.60,165.2,M,-34.4,M,,*52
$GPRMC,153705.500,A,4308.3490,N,07726.3462,W,18.80,301.40,240719,,,A*44
$GPGGA,153705.750,4308.3496,N,07726.3478,W,1,06,2.60,165.2,M,-34.4,M,,*5E
$GPRMC,153706.000,A,4308.3503,N,07726.3494,W,18.85,301.07,240719,,,A*46
$GPGGA,153706.250,4308.3509,N,07726.3510,W,1,06,2.60,165.0,M,-34.4,M,,*52
$GPRMC,153706.500,A,4308.3516,N,07726.3525,W,18.79,302.71,240719,,,A*4D
$GPGGA,153706.750,4308.3523,N,07726.3541,W,1,06,2.60,164.9,M,-34.4,M,,*53
$GPRMC,153707.000,A,4308.3531,N,07726.3557,W,18.99,303.71,240719,,,A*46
$GPGGA,153707.250,4308.3539,N,07726.3572,W,1,06,2.60,164.8,M,-34.4,M,,*5D
$GPRMC,153707.500,A,4308.3547,N,07726.3588,W,19.35,306.08,240719,,,A*4C
$GPGGA,153707.750,4308.3556,N,07726.3603,W,1,06,2.60,164.8,M,-34.4,M,,*54
$GPRMC,153708.000,A,4308.3565,N,07726.3617,W,19.40,309.18,240719,,,A*4F
$GPGGA,153708.250,4308.3575,N,07726.3631,W,1,06,2.60,164.7,M,-34.4,M,,*51
$GPRMC,153708.500,A,4308.3584,N,07726.3645,W,19.45,312.54,240719,,,A*45
$GPGGA,153708.750,4308.3594,N,07726.3658,W,1,06,2.60,164.6,M,-34.4,M,,*55
$GPRMC,153709.000,A,4308.3605,N,07726.3671,W,19.83,316.00,240719,,,A*43
$GPGGA,153709.250,4308.3616,N,07726.3684,W,1,06,2.60,164.5,M,-34.4,M,,*5A
$GPRMC,153709.500,A,4308.3627,N,07726.3696,W,19.82,319.87,240719,,,A*4E
$GPGGA,153709.750,4308.3639,N,07726.3707,W,1,06,2.60,164.6,M,-34.4,M,,*5B
$GPRMC,153710.000,A,4308.3651,N,07726.3718,W,19.61,323.10,240719,,,A*4F
$GPGGA,153710.250,4308.3665,N,07726.3727,W,1,06,2.60,164.7,M,-34.4,M,,*5C
$GPRMC,153710.500,A,4308.3678,N,07726.3736,W,20.17,331.12,240719,,,A*47
$GPGGA,153710.750,4308.3691,N,07726.3745,W,1,06,1.72,164.8,M,-34.4,M,,*59
$GPRMC,153711.000,A,4308.3704,N,07726.3753,W,20.13,334.25,240719,,,A*4F
$GPGGA,153711.250,4308.3717,N,07726.3760,W,1,06,1.72,165.0,M,-34.4,M,,*5C
$GPRMC,153711.500,A,4308.3731,N,07726.3766,W,20.13,339.43,240719,,,A*47
$GPGGA,153711.750,4308.3745,N,07726.3772,W,1,06,1.72,165.2,M,-34.4,M,,*5F
$GPRMC,153712.000,A,4308.3758,N,07726.3779,W,20.16,340.76,240719,,,A*4D
$GPGGA,153712.250,4308.3772,N,07726.3784,W,1,06,1.72,165.1,M,-34.4,M,,*57
$GPRMC,153712.500,A,4308.3787,N,07726.3787,W,20.17,345.62,240719,,,A*4A
$GPGGA,153712.750,4308.3802,N,07726.3791,W,1,05,2.62,165.3,M,-34.4,M,,*5D
$GPRMC,153713.000,A,4308.3817,N,07726.3794,W,20.17,348.77,240719,,,A*43
$GPGGA,153713.250,4308.3833,N,07726.3796,W,1,06,2.60,165.5,M,-34.4,M,,*5B
$GPRMC,153713.500,A,4308.3848,N,07726.3797,W,20.57,352.05,240719,,,A*45
$GPGGA,153713.750,4308.3863,N,07726.3798,W,1,06,2.60,165.4,M,-34.4,M,,*54
$GPRMC,153714.000,A,4308.3878,N,07726.3798,W,21.01,356.40,240719,,,A*4C
$GPGGA,153714.250,4308.3896,N,07726.3796,W,1,06,2.60,165.2,M,-34.4,M,,*54
$GPRMC,153714.500,A,4308.3915,N,07726.3793,W,22.70,3.40,240719,,,A*4E
$GPGGA,153714.750,4308.3931,N,07726.3792,W,1,05,2.62,165.1,M,-34.4,M,,*5B
$GPRMC,153715.000,A,4308.3946,N,07726.3790,W,22.71,5.39,240719,,,A*46
$GPGGA,153715.250,4308.3961,N,07726.3787,W,1,05,2.62,165.1,M,-34.4,M,,*5E
$GPRMC,153715.500,A,4308.3977,N,07726.3785,W,22.52,7.23,240719,,,A*4D
$GPGGA,153715.750,4308.3993,N,07726.3782,W,1,05,2.62,165.0,M,-34.4,M,,*52
$GPRMC,153716.000,A,4308.4010,N,07726.3777,W,23.23,9.37,240719,,,A*45
$GPGGA,153716.250,4308.4027,N,07726.3773,W,1,06,2.60,164.8,M,-34.4,M,,*53
$GPRMC,153716.500,A,4308.4044,N,07726.3768,W,22.98,12.04,240719,,,A*74
$GPGGA,153716.750,4308.4062,N,07726.3765,W,1,06,2.61,164.6,M,-34.4,M,,*5F
$GPRMC,153717.000,A,4308.4082,N,07726.3762,W,22.79,11.10,240719,,,A*79
$GPGGA,153717.250,4308.4100,N,07726.3759,W,1,06,2.61,164.3,M,-34.4,M,,*54
$GPRMC,153717.500,A,4308.4118,N,07726.3756,W,22.29,11.08,240719,,,A*75
$GPGGA,153717.750,4308.4134,N,07726.3751,W,1,06,2.60,163.9,M,-34.4,M,,*52
$GPRMC,153718.000,A,4308.4150,N,07726.3747,W,22.26,11.62,240719,,,A*70
$GPGGA,153718.250,4308.4166,N,07726.3743,W,1,06,2.61,163.5,M,-34.4,M,,*51
$GPRMC,153718.500,A,4308.4183,N,07726.3739,W,22.07,11.49,240719,,,A*78
$GPGGA,153718.750,4308.4199,N,07726.3735,W,1,06,2.61,163.2,M,-34.4,M,,*52
$GPRMC,153719.000,A,4308.4215,N,07726.3731,W,22.13,10.79,240719,,,A*7F
$GPGGA,153719.250,4308.4230,N,07726.3728,W,1,05,2.63,163.0,M,-34.4,M,,*59
$GPRMC,153719.500,A,4308.4246,N,07726.3725,W,22.42,9.64,240719,,,A*49
$GPGGA,153719.750,4308.4261,N,07726.3721,W,1,05,2.62,162.7,M,-34.4,M,,*56
$GPRMC,153720.000,A,4308.4276,N,07726.3718,W,22.50,9.10,240719,,,A*4B
$GPGGA,153720.250,4308.4291,N,07726.3715,W,1,05,2.63,162.5,M,-34.4,M,,*52
$GPRMC,153720.500,A,4308.4306,N,07726.3712,W,22.47,8.81,240719,,,A*4D
$GPGGA,153720.750,4308.4322,N,07726.3708,W,1,06,2.61,162.3,M,-34.4,M,,*55
$GPRMC,153721.000,A,4308.4337,N,07726.3706,W,22.43,8.31,240719,,,A*41
$GPGGA,153721.250,4308.4352,N,07726.3703,W,1,06,2.61,162.0,M,-34.4,M,,*5E
$GPRMC,153721.500,A,4308.4367,N,07726.3700,W,22.36,7.81,240719,,,A*41
$GPGGA,153721.750,4308.4382,N,07726.3697,W,1,05,2.63,161.8,M,-34.4,M,,*50
$GPRMC,153722.000,A,4308.4397,N,07726.3694,W,21.71,8.13,240719,,,A*40
$GPGGA,153722.250,4308.4410,N,07726.3692,W,1,05,2.63,161.7,M,-34.4,M,,*50
$GPRMC,153722.500,A,4308.4424,N,07726.3689,W,20.38,9.69,240719,,,A*46
$GPGGA,153722.750,4308.4437,N,07726.3686,W,1,05,2.63,161.5,M,-34.4,M,,*57
$GPRMC,153723.000,A,4308.4449,N,07726.3684,W,19.45,10.18,240719,,,A*7A
$GPGGA,153723.250,4308.4461,N,07726.3681,W,1,06,2.61,161.3,M,-34.4,M,,*50
$GPRMC,153723.500,A,4308.4472,N,07726.3679,W,17.70,11.99,240719,,,A*75
$GPGGA,153723.750,4308.4482,N,07726.3676,W,1,05,2.63,161.0,M,-34.4,M,,*52
$GPRMC,153724.000,A,4308.4493,N,07726.3674,W,16.33,13.25,240719,,,A*76
$GPGGA,153724.250,4308.4501,N,07726.3672,W,1,06,2.61,160.8,M,-34.4,M,,*56
$GPRMC,153724.500,A,4308.4508,N,07726.3670,W,13.91,15.60,240719,,,A*7E
$GPGGA,153724.750,4308.4515,N,07726.3668,W,1,06,1.72,160.5,M,-34.4,M,,*51
$GPRMC,153725.000,A,4308.4522,N,07726.3666,W,12.52,14.99,240719,,,A*7C
$GPGGA,153725.250,4308.4528,N,07726.3663,W,1,05,2.63,160.2,M,-34.4,M,,*57
$GPRMC,153725.500,A,4308.4534,N,07726.3661,W,11.29,16.16,240719,,,A*73
$GPGGA,153725.750,4308.4540,N,07726.3659,W,1,06,1.72,159.9,M,-34.4,M,,*54
$GPRMC,153726.000,A,4308.4539,N,07726.3661,W,9.02,11.59,240719,,,A*44
$GPGGA,153726.250,4308.4542,N,07726.3661,W,1,06,2.61,159.4,M,-34.4,M,,*57
$GPRMC,153726.500,A,4308.4545,N,07726.3660,W,7.47,6.46,240719,,,A*7C
$GPGGA,153726.750,4308.4546,N,07726.3659,W,1,06,2.61,159.0,M,-34.4,M,,*59
$GPRMC,153727.000,A,4308.4550,N,07726.3658,W,6.77,4.20,240719,,,A*77
$GPGGA,153727.250,4308.4554,N,07726.3658,W,1,06,2.61,158.6,M,-34.4,M,,*58
$GPRMC,153727.500,A,4308.4557,N,07726.3659,W,7.22,359.00,240719,,,A*7C
$GPGGA,153727.750,4308.4562,N,07726.3659,W,1,06,2.61,157.9,M,-34.4,M,,*59
$GPRMC,153728.000,A,4308.4564,N,07726.3660,W,7.48,357.91,240719,,,A*76
$GPGGA,153728.250,4308.4567,N,07726.3661,W,1,06,2.61,157.4,M,-34.4,M,,*50
$GPRMC,153728.500,A,4308.4570,N,07726.3663,W,8.18,352.54,240719,,,A*73
$GPGGA,153728.750,4308.4574,N,07726.3665,W,1,06,2.61,156.8,M,-34.4,M,,*5E
$GPRMC,153729.000,A,4308.4579,N,07726.3667,W,8.91,346.18,240719,,,A*76
$GPGGA,153729.250,4308.4582,N,07726.3670,W,1,06,2.61,156.4,M,-34.4,M,,*5B
$GPRMC,153729.500,A,4308.4585,N,07726.3672,W,9.47,338.68,240719,,,A*70
$GPGGA,153729.750,4308.4592,N,07726.3677,W,1,06,1.72,156.3,M,-34.4,M,,*5E
$GPRMC,153730.000,A,4308.4596,N,07726.3682,W,9.77,329.37,240719,,,A*79
$GPGGA,153730.250,4308.4602,N,07726.3689,W,1,06,1.72,156.2,M,-34.4,M,,*59
$GPRMC,153730.500,A,4308.4607,N,07726.3695,W,10.42,321.20,240719,,,A*41
$GPGGA,153730.750,4308.4610,N,07726.3703,W,1,06,1.72,156.0,M,-34.4,M,,*5E
$GPRMC,153731.000,A,4308.4607,N,07726.3712,W,10.31,303.47,240719,,,A*4E
$GPGGA,153731.250,4308.4610,N,07726.3721,W,1,06,1.72,155.8,M,-34.4,M,,*51
$GPRMC,153731.500,A,4308.4614,N,07726.3730,W,10.65,300.74,240719,,,A*4B
$GPGGA,153731.750,4308.4618,N,07726.3739,W,1,06,1.72,155.8,M,-34.4,M,,*55
$GPRMC,153732.000,A,4308.4622,N,07726.3750,W,11.49,298.93,240719,,,A*48
$GPGGA,153732.250,4308.4627,N,07726.3761,W,1,06,1.72,155.8,M,-34.4,M,,*52
$GPRMC,153732.500,A,4308.4632,N,07726.3776,W,13.50,294.96,240719,,,A*4B
$GPGGA,153732.750,4308.4636,N,07726.3790,W,1,06,1.72,155.9,M,-34.4,M,,*58
$GPRMC,153733.000,A,4308.4639,N,07726.3805,W,14.89,291.40,240719,,,A*42
$GPGGA,153733.250,4308.4635,N,07726.3823,W,1,06,1.72,155.8,M,-34.4,M,,*59
$GPRMC,153733.500,A,4308.4635,N,07726.3839,W,16.15,281.15,240719,,,A*42
$GPGGA,153733.750,4308.4636,N,07726.3855,W,1,06,1.72,155.8,M,-34.4,M,,*5E
$GPRMC,153734.000,A,4308.4635,N,07726.3872,W,16.74,277.41,240719,,,A*40
$GPGGA,153734.250,4308.4636,N,07726.3887,W,1,06,1.72,155.6,M,-34.4,M,,*5D
$GPRMC,153734.500,A,4308.4637,N,07726.3903,W,16.64,277.30,240719,,,A*47
$GPGGA,153734.750,4308.4639,N,07726.3918,W,1,06,1.72,155.5,M,-34.4,M,,*53
$GPRMC,153735.000,A,4308.4641,N,07726.3933,W,16.55,277.25,240719,,,A*47
$GPGGA,153735.250,4308.4643,N,07726.3948,W,1,06,1.72,155.3,M,-34.4,M,,*59
$GPRMC,153735.500,A,4308.4645,N,07726.3963,W,16.28,277.58,240719,,,A*43
$GPGGA,153735.750,4308.4647,N,07726.3978,W,1,06,1.72,155.1,M,-34.4,M,,*59
$GPRMC,153736.000,A,4308.4650,N,07726.3993,W,16.24,278.65,240719,,,A*43
$GPGGA,153736.250,4308.4652,N,07726.4008,W,1,06,1.72,154.9,M,-34.4,M,,*5B
$GPRMC,153736.500,A,4308.4655,N,07726.4023,W,16.06,279.07,240719,,,A*43
$GPGGA,153736.750,4308.4657,N,07726.4038,W,1,06,1.72,154.8,M,-34.4,M,,*59
$GPRMC,153737.000,A,4308.4659,N,07726.4052,W,16.02,279.50,240719,,,A*4B
$GPGGA,153737.250,4308.4662,N,07726.4067,W,1,06,1.72,154.6,M,-34.4,M,,*5F
$GPRMC,153737.500,A,4308.4663,N,07726.4081,W,15.54,280.58,240719,,,A*47
$GPGGA,153737.750,4308.4664,N,07726.4095,W,1,06,1.72,154.4,M,-34.4,M,,*53
$GPRMC,153738.000,A,4308.4665,N,07726.4108,W,14.60,279.45,240719,,,A*47
$GPGGA,153738.250,4308.4665,N,07726.4121,W,1,06,1.72,154.2,M,-34.4,M,,*50
$GPRMC,153738.500,A,4308.4665,N,07726.4133,W,13.29,277.19,240719,,,A*47
$GPGGA,153738.750,4308.4665,N,07726.4146,W,1,06,1.72,154.0,M,-34.4,M,,*56
$GPRMC,153739.000,A,4308.4666,N,07726.4157,W,12.03,276.49,240719,,,A*4F
$GPGGA,153739.250,4308.4666,N,07726.4168,W,1,06,2.62,153.8,M,-34.4,M,,*50
$GPRMC,153739.500,A,4308.4665,N,07726.4178,W,10.52,274.73,240719,,,A*49
$GPGGA,153739.750,4308.4666,N,07726.4188,W,1,06,1.72,153.6,M,-34.4,M,,*57
$GPRMC,153740.000,A,4308.4666,N,07726.4196,W,9.08,273.63,240719,,,A*70
$GPGGA,153740.250,4308.4666,N,07726.4204,W,1,06,1.72,153.4,M,-34.4,M,,*59
$GPRMC,153740.500,A,4308.4666,N,07726.4211,W,7.32,272.05,240719,,,A*7F
$GPGGA,153740.750,4308.4666,N,07726.4218,W,1,06,1.72,153.3,M,-34.4,M,,*56
$GPRMC,153741.000,A,4308.4666,N,07726.4224,W,6.29,270.77,240719,,,A*71
$GPGGA,153741.250,4308.4666,N,07726.4230,W,1,06,1.72,153.1,M,-34.4,M,,*5A
$GPRMC,153741.500,A,4308.4666,N,07726.4234,W,4.98,269.99,240719,,,A*75
$GPGGA,153741.750,4308.4667,N,07726.4239,W,1,06,1.72,152.9,M,-34.4,M,,*5E
$GPRMC,153742.000,A,4308.4668,N,07726.4243,W,4.47,271.05,240719,,,A*73
$GPGGA,153742.250,4308.4669,N,07726.4247,W,1,06,1.72,152.7,M,-34.4,M,,*51
$GPRMC,153742.500,A,4308.4669,N,07726.4250,W,3.67,270.90,240719,,,A*7D
$GPGGA,153742.750,4308.4669,N,07726.4253,W,1,06,1.72,152.5,M,-34.4,M,,*53
$GPRMC,153743.000,A,4308.4670,N,07726.4257,W,3.55,271.46,240719,,,A*7D
$GPGGA,153743.250,4308.4669,N,07726.4260,W,1,06,1.72,152.3,M,-34.4,M,,*51
$GPRMC,153743.500,A,4308.4670,N,07726.4264,W,3.27,270.38,240719,,,A*75
$GPGGA,153743.750,4308.4670,N,07726.4266,W,1,06,1.72,152.1,M,-34.4,M,,*58
$GPRMC,153744.000,A,4308.4669,N,07726.4269,W,2.74,269.82,240719,,,A*7C
$GPGGA,153744.250,4308.4669,N,07726.4271,W,1,06,1.72,151.9,M,-34.4,M,,*5F
$GPRMC,153744.500,A,4308.4669,N,07726.4270,W,1.64,269.82,240719,,,A*73
$GPGGA,153744.750,4308.4668,N,07726.4269,W,1,06,1.72,151.9,M,-34.4,M,,*52
$GPRMC,153745.000,A,4308.4668,N,07726.4269,W,1.19,269.82,240719,,,A*74
$GPGGA,153745.250,4308.4667,N,07726.4268,W,1,06,1.72,151.9,M,-34.4,M,,*58
$GPRMC,153745.500,A,4308.4666,N,07726.4266,W,0.97,269.82,240719,,,A*77
$GPGGA,153745.750,4308.4665,N,07726.4264,W,1,06,1.72,152.0,M,-34.4,M,,*59
$GPRMC,153746.000,A,4308.4665,N,07726.4263,W,0.87,269.82,240719,,,A*76
$GPGGA,153746.250,4308.4664,N,07726.4262,W,1,06,1.72,152.2,M,-34.4,M,,*5A
$GPRMC,153746.500,A,4308.4664,N,07726.4261,W,0.76,269.82,240719,,,A*7E
$GPGGA,153746.750,4308.4663,N,07726.4260,W,1,06,1.72,152.3,M,-34.4,M,,*5B
$GPRMC,153747.000,A,4308.4661,N,07726.4259,W,0.69,269.82,240719,,,A*7A
$GPGGA,153747.250,4308.4660,N,07726.4258,W,1,06,1.72,152.3,M,-34.4,M,,*57
$GPRMC,153747.500,A,4308.4659,N,07726.4257,W,0.69,269.82,240719,,,A*7A
$GPGGA,153747.750,4308.4657,N,07726.4256,W,1,06,1.72,152.2,M,-34.4,M,,*59
$GPRMC,153748.000,A,4308.4657,N,07726.4256,W,0.76,269.82,240719,,,A*71
$GPGGA,153748.250,4308.4656,N,07726.4256,W,1,06,1.72,152.1,M,-34.4,M,,*51
$GPRMC,153748.500,A,4308.4656,N,07726.4256,W,0.78,269.82,240719,,,A*7B
$GPGGA,153748.750,4308.4655,N,07726.4257,W,1,06,1.72,152.0,M,-34.4,M,,*57
$GPRMC,153749.000,A,4308.4655,N,07726.4257,W,0.79,269.82,240719,,,A*7C
$GPGGA,153749.250,4308.4654,N,07726.4257,W,1,06,1.72,151.9,M,-34.4,M,,*58
$GPRMC,153749.500,A,4308.4653,N,07726.4257,W,0.77,269.82,240719,,,A*71
$GPGGA,153749.750,4308.4653,N,07726.4257,W,1,06,1.72,151.8,M,-34.4,M,,*5B
$GPRMC,153750.000,A,4308.4652,N,07726.4258,W,0.75,269.82,240719,,,A*70
$GPGGA,153750.250,4308.4652,N,07726.4258,W,1,06,1.72,151.8,M,-34.4,M,,*58
$GPRMC,153750.500,A,4308.4652,N,07726.4258,W,0.25,269.82,240719,,,A*70
$GPGGA,153750.750,4308.4652,N,07726.4258,W,1,06,1.72,151.7,M,-34.4,M,,*52
$GPRMC,153751.000,A,4308.4652,N,07726.4258,W,0.25,269.82,240719,,,A*74
$GPGGA,153751.250,4308.4651,N,07726.4258,W,1,06,1.72,151.6,M,-34.4,M,,*54
$GPRMC,153751.500,A,4308.4651,N,07726.4258,W,0.16,269.82,240719,,,A*72
$GPGGA,153751.750,4308.4651,N,07726.4258,W,1,06,1.72,151.5,M,-34.4,M,,*52
$GPRMC,153752.000,A,4308.4651,N,07726.4259,W,0.18,269.82,240719,,,A*7B
$GPGGA,153752.250,4308.4651,N,07726.4259,W,1,06,1.72,151.5,M,-34.4,M,,*55
$GPRMC,153752.500,A,4308.4651,N,07726.4259,W,0.23,269.82,240719,,,A*76
$GPGGA,153752.750,4308.4651,N,07726.4259,W,1,06,1.72,151.4,M,-34.4,M,,*51
$GPRMC,153753.000,A,4308.4651,N,07726.4259,W,0.22,269.82,240719,,,A*73
$GPGGA,153753.250,4308.4651,N,07726.4260,W,1,06,1.72,151.3,M,-34.4,M,,*58
$GPRMC,153753.500,A,4308.4651,N,07726.4260,W,0.22,269.82,240719,,,A*7C
$GPGGA,153753.750,4308.4651,N,07726.4260,W,1,06,1.72,151.3,M,-34.4,M,,*5D
$GPRMC,153754.000,A,4308.4651,N,07726.4260,W,0.25,269.82,240719,,,A*79
$GPGGA,153754.250,4308.4651,N,07726.4260,W,1,06,1.72,151.3,M,-34.4,M,,*5F
$GPRMC,153754.500,A,4308.4651,N,07726.4261,W,0.27,269.82,240719,,,A*7F
$GPGGA,153754.750,4308.4651,N,07726.4261,W,1,06,1.72,151.2,M,-34.4,M,,*5A
$GPRMC,153755.000,A,4308.4651,N,07726.4261,W,0.31,269.82,240719,,,A*7C
$GPGGA,153755.250,4308.4651,N,07726.4261,W,1,06,1.72,151.2,M,-34.4,M,,*5E
$GPRMC,153755.500,A,4308.4651,N,07726.4262,W,0.32,269.82,240719,,,A*79
$GPGGA,153755.750,4308.4651,N,07726.4262,W,1,06,1.72,151.2,M,-34.4,M,,*58
$GPRMC,153756.000,A,4308.4651,N,07726.4262,W,0.31,269.82,240719,,,A*7C
$GPGGA,153756.250,4308.4651,N,07726.4263,W,1,06,1.72,151.1,M,-34.4,M,,*5C
$GPRMC,153756.500,A,4308.4651,N,07726.4263,W,0.30,269.82,240719,,,A*79
$GPGGA,153756.750,4308.4651,N,07726.4263,W,1,06,1.72,151.1,M,-34.4,M,,*59
$GPRMC,153757.000,A,4308.4651,N,07726.4263,W,0.28,269.82,240719,,,A*74
$GPGGA,153757.250,4308.4651,N,07726.4264,W,1,06,1.72,151.1,M,-34.4,M,,*5A
$GPRMC,153757.500,A,4308.4651,N,07726.4264,W,0.25,269.82,240719,,,A*7B
$GPGGA,153757.750,4308.4651,N,07726.4264,W,1,06,1.72,151.1,M,-34.4,M,,*5F
$GPRMC,153758.000,A,4308.4651,N,07726.4264,W,0.24,269.82,240719,,,A*70
$GPGGA,153758.250,4308.4651,N,07726.4264,W,1,06,1.72,151.0,M,-34.4,M,,*54
$GPRMC,153758.500,A,4308.4651,N,07726.4265,W,0.33,269.82,240719,,,A*72
$GPGGA,153758.750,4308.4651,N,07726.4265,W,1,06,1.72,151.0,M,-34.4,M,,*50
$GPRMC,153759.000,A,4308.4652,N,07726.4265,W,0.45,269.82,240719,,,A*74
$GPGGA,153759.250,4308.4652,N,07726.4266,W,1,06,1.72,151.0,M,-34.4,M,,*54
$GPRMC,153759.500,A,4308.4652,N,07726.4266,W,0.71,269.82,240719,,,A*75
$GPGGA,153759.750,4308.4652,N,07726.4267,W,1,06,1.72,151.0,M,-34.4,M,,*50
$GPRMC,153800.000,A,4308.4652,N,07726.4268,W,1.04,269.82,240719,,,A*7E
$GPGGA,153800.250,4308.4652,N,07726.4269,W,1,06,1.72,151.0,M,-34.4,M,,*58
$GPRMC,153800.500,A,4308.4653,N,07726.4270,W,1.56,269.82,240719,,,A*74
$GPGGA,153800.750,4308.4653,N,07726.4272,W,1,06,1.72,151.0,M,-34.4,M,,*56
$GPRMC,153801.000,A,4308.4653,N,07726.4275,W,2.14,281.29,240719,,,A*77
$GPGGA,153801.250,4308.4653,N,07726.4281,W,1,06,1.72,151.0,M,-34.4,M,,*5E
$GPRMC,153801.500,A,4308.4654,N,07726.4284,W,2.79,281.30,240719,,,A*78
$GPGGA,153801.750,4308.4654,N,07726.4287,W,1,06,1.72,151.0,M,-34.4,M,,*5A
$GPRMC,153802.000,A,4308.4655,N,07726.4294,W,4.62,280.55,240719,,,A*70
$GPGGA,153802.250,4308.4659,N,07726.4297,W,1,08,1.36,151.9,M,-34.4,M,,*57
$GPRMC,153802.500,A,4308.4664,N,07726.4301,W,6.33,274.51,240719,,,A*73
$GPGGA,153802.750,4308.4667,N,07726.4305,W,1,08,1.36,153.3,M,-34.4,M,,*5D
$GPRMC,153803.000,A,4308.4671,N,07726.4310,W,6.58,276.62,240719,,,A*7C
$GPGGA,153803.250,4308.4675,N,07726.4313,W,1,08,1.36,154.6,M,-34.4,M,,*5F
$GPRMC,153803.500,A,4308.4678,N,07726.4317,W,5.98,280.07,240719,,,A*72
$GPGGA,153803.750,4308.4680,N,07726.4320,W,1,08,1.36,155.6,M,-34.4,M,,*51
$GPRMC,153804.000,A,4308.4682,N,07726.4323,W,5.11,284.58,240719,,,A*7D
$GPGGA,153804.250,4308.4683,N,07726.4325,W,1,08,1.36,156.3,M,-34.4,M,,*53
$GPRMC,153804.500,A,4308.4684,N,07726.4327,W,4.53,286.40,240719,,,A*76
$GPGGA,153804.750,4308.4686,N,07726.4330,W,1,08,1.36,157.0,M,-34.4,M,,*55
$GPRMC,153805.000,A,4308.4687,N,07726.4332,W,4.57,292.55,240719,,,A*70
$GPGGA,153805.250,4308.4690,N,07726.4335,W,1,08,1.36,157.5,M,-34.4,M,,*56
$GPRMC,153805.500,A,4308.4692,N,07726.4337,W,4.78,300.52,240719,,,A*74
$GPGGA,153805.750,4308.4693,N,07726.4339,W,1,08,1.36,157.8,M,-34.4,M,,*51
$GPRMC,153806.000,A,4308.4694,N,07726.4340,W,3.92,298.74,240719,,,A*73
$GPGGA,153806.250,4308.4696,N,07726.4342,W,1,08,1.36,158.1,M,-34.4,M,,*58
$GPRMC,153806.500,A,4308.4697,N,07726.4343,W,3.15,298.93,240719,,,A*70
$GPGGA,153806.750,4308.4697,N,07726.4344,W,1,08,1.29,158.4,M,-34.4,M,,*51
$GPRMC,153807.000,A,4308.4698,N,07726.4345,W,2.40,303.89,240719,,,A*74
$GPGGA,153807.250,4308.4698,N,07726.4345,W,1,08,1.29,158.6,M,-34.4,M,,*59
$GPRMC,153807.500,A,4308.4698,N,07726.4344,W,1.65,309.07,240719,,,A*78
$GPGGA,153807.750,4308.4698,N,07726.4345,W,1,08,1.29,158.8,M,-34.4,M,,*52
$GPRMC,153808.000,A,4308.4697,N,07726.4345,W,1.39,293.07,240719,,,A*77
$GPGGA,153808.250,4308.4697,N,07726.4347,W,1,08,1.29,159.0,M,-34.4,M,,*5C
$GPRMC,153808.500,A,4308.4697,N,07726.4348,W,1.59,270.48,240719,,,A*7F
$GPGGA,153808.750,4308.4697,N,07726.4350,W,1,08,1.29,159.2,M,-34.4,M,,*5D
$GPRMC,153809.000,A,4308.4697,N,07726.4353,W,2.10,268.55,240719,,,A*7A
$GPGGA,153809.250,4308.4698,N,07726.4356,W,1,08,1.29,159.4,M,-34.4,M,,*56
$GPRMC,153809.500,A,4308.4698,N,07726.4360,W,2.78,265.24,240719,,,A*75
$GPGGA,153809.750,4308.4699,N,07726.4364,W,1,08,1.29,159.5,M,-34.4,M,,*52
$GPRMC,153810.000,A,4308.4700,N,07726.4369,W,4.28,261.74,240719,,,A*73
$GPGGA,153810.250,4308.4700,N,07726.4375,W,1,08,1.36,159.5,M,-34.4,M,,*50
$GPRMC,153810.500,A,4308.4701,N,07726.4382,W,5.80,262.01,240719,,,A*70
$GPGGA,153810.750,4308.4701,N,07726.4389,W,1,08,1.36,159.6,M,-34.4,M,,*54
$GPRMC,153811.000,A,4308.4702,N,07726.4396,W,6.87,264.55,240719,,,A*71
$GPGGA,153811.250,4308.4702,N,07726.4404,W,1,08,1.36,159.7,M,-34.4,M,,*50
$GPRMC,153811.500,A,4308.4703,N,07726.4412,W,7.83,268.07,240719,,,A*70
$GPGGA,153811.750,4308.4704,N,07726.4420,W,1,08,1.36,159.7,M,-34.4,M,,*55
$GPRMC,153812.000,A,4308.4706,N,07726.4431,W,9.62,270.97,240719,,,A*73
$GPGGA,153812.250,4308.4706,N,07726.4442,W,1,08,1.36,159.8,M,-34.4,M,,*5A
$GPRMC,153812.500,A,4308.4708,N,07726.4454,W,11.51,269.35,240719,,,A*42
$GPGGA,153812.750,4308.4710,N,07726.4468,W,1,08,1.29,159.9,M,-34.4,M,,*5F
$GPRMC,153813.000,A,4308.4711,N,07726.4484,W,14.14,268.15,240719,,,A*44
$GPGGA,153813.250,4308.4712,N,07726.4507,W,1,08,1.36,160.0,M,-34.4,M,,*5C
$GPRMC,153813.500,A,4308.4715,N,07726.4531,W,18.17,270.75,240719,,,A*4A
$GPGGA,153813.750,4308.4716,N,07726.4555,W,1,08,1.29,160.1,M,-34.4,M,,*55
$GPRMC,153814.000,A,4308.4716,N,07726.4580,W,21.11,272.13,240719,,,A*4F
$GPGGA,153814.250,4308.4717,N,07726.4606,W,1,08,1.36,160.0,M,-34.4,M,,*5C
$GPRMC,153814.500,A,4308.4717,N,07726.4633,W,24.44,273.01,240719,,,A*47
$GPGGA,153814.750,4308.4720,N,07726.4657,W,1,08,1.36,159.9,M,-34.4,M,,*5A
$GPRMC,153815.000,A,4308.4722,N,07726.4683,W,26.22,274.40,240719,,,A*4E
$GPGGA,153815.250,4308.4726,N,07726.4711,W,1,08,1.36,159.7,M,-34.4,M,,*55
$GPRMC,153815.500,A,4308.4730,N,07726.4738,W,28.30,274.95,240719,,,A*4C
$GPGGA,153815.750,4308.4733,N,07726.4766,W,1,08,1.36,159.3,M,-34.4,M,,*50
$GPRMC,153816.000,A,4308.4736,N,07726.4796,W,29.42,274.45,240719,,,A*41
$GPGGA,153816.250,4308.4738,N,07726.4826,W,1,08,1.36,159.0,M,-34.4,M,,*55
$GPRMC,153816.500,A,4308.4741,N,07726.4857,W,30.03,273.58,240719,,,A*40
$GPGGA,153816.750,4308.4743,N,07726.4887,W,1,08,1.36,158.8,M,-34.4,M,,*5E
$GPRMC,153817.000,A,4308.4745,N,07726.4918,W,30.28,273.76,240719,,,A*4F
$GPGGA,153817.250,4308.4747,N,07726.4949,W,1,08,1.36,158.8,M,-34.4,M,,*5D
$GPRMC,153817.500,A,4308.4750,N,07726.4980,W,30.63,272.73,240719,,,A*44
$GPGGA,153817.750,4308.4751,N,07726.5011,W,1,08,1.36,158.8,M,-34.4,M,,*5A
$GPRMC,153818.000,A,4308.4753,N,07726.5041,W,30.86,272.80,240719,,,A*4F
$GPGGA,153818.250,4308.4755,N,07726.5073,W,1,08,1.36,158.8,M,-34.4,M,,*50
$GPRMC,153818.500,A,4308.4757,N,07726.5105,W,32.34,273.24,240719,,,A*4B
$GPGGA,153818.750,4308.4759,N,07726.5137,W,1,08,1.36,158.8,M,-34.4,M,,*58
$GPRMC,153819.000,A,4308.4762,N,07726.5170,W,33.71,274.14,240719,,,A*4F
$GPGGA,153819.250,4308.4765,N,07726.5204,W,1,08,1.36,159.0,M,-34.4,M,,*59
$GPRMC,153819.500,A,4308.4767,N,07726.5238,W,35.18,274.39,240719,,,A*46
$GPGGA,153819.750,4308.4769,N,07726.5272,W,1,08,1.29,159.2,M,-34.4,M,,*5D
$GPRMC,153820.000,A,4308.4770,N,07726.5307,W,35.93,273.92,240719,,,A*47
$GPGGA,153820.250,4308.4772,N,07726.5342,W,1,08,1.36,159.3,M,-34.4,M,,*55
$GPRMC,153820.500,A,4308.4772,N,07726.5377,W,36.39,273.75,240719,,,A*4D
$GPGGA,153820.750,4308.4774,N,07726.5412,W,1,08,1.36,159.3,M,-34.4,M,,*54
$GPRMC,153821.000,A,4308.4775,N,07726.5448,W,37.38,273.59,240719,,,A*4B
$GPGGA,153821.250,4308.4777,N,07726.5484,W,1,08,1.36,159.3,M,-34.4,M,,*5C
$GPRMC,153821.500,A,4308.4779,N,07726.5520,W,37.44,274.71,240719,,,A*4B
$GPGGA,153821.750,4308.4782,N,07726.5557,W,1,08,1.36,159.2,M,-34.4,M,,*5D
$GPRMC,153822.000,A,4308.4785,N,07726.5594,W,38.43,275.44,240719,,,A*4E
$GPGGA,153822.250,4308.4788,N,07726.5631,W,1,08,1.36,159.2,M,-34.4,M,,*52
$GPRMC,153822.500,A,4308.4790,N,07726.5668,W,39.08,275.21,240719,,,A*42
$GPGGA,153822.750,4308.4793,N,07726.5706,W,1,08,1.36,159.2,M,-34.4,M,,*58
$GPRMC,153823.000,A,4308.4796,N,07726.5744,W,39.50,274.97,240719,,,A*4E
$GPGGA,153823.250,4308.4797,N,07726.5781,W,1,08,1.36,159.3,M,-34.4,M,,*56
$GPRMC,153823.500,A,4308.4799,N,07726.5819,W,39.76,273.89,240719,,,A*4F
$GPGGA,153823.750,4308.4801,N,07726.5858,W,1,08,1.29,159.2,M,-34.4,M,,*57
$GPRMC,153824.000,A,4308.4803,N,07726.5897,W,40.04,273.63,240719,,,A*48
$GPGGA,153824.250,4308.4805,N,07726.5936,W,1,08,1.36,159.3,M,-34.4,M,,*57
$GPRMC,153824.500,A,4308.4807,N,07726.5975,W,40.25,273.19,240719,,,A*4A
$GPGGA,153824.750,4308.4808,N,07726.6014,W,1,08,1.29,159.3,M,-34.4,M,,*5B
$GPRMC,153825.000,A,4308.4809,N,07726.6054,W,40.43,272.63,240719,,,A*45
$GPGGA,153825.250,4308.4811,N,07726.6094,W,1,08,1.36,159.5,M,-34.4,M,,*57
$GPRMC,153825.500,A,4308.4812,N,07726.6134,W,41.62,271.77,240719,,,A*49
$GPGGA,153825.750,4308.4813,N,07726.6174,W,1,08,1.36,159.5,M,-34.4,M,,*5F
$GPRMC,153826.000,A,4308.4814,N,07726.6214,W,41.74,271.09,240719,,,A*46
$GPGGA,153826.250,4308.4815,N,07726.6255,W,1,08,1.36,159.6,M,-34.4,M,,*5C
$GPRMC,153826.500,A,4308.4815,N,07726.6295,W,42.59,270.15,240719,,,A*4B
$GPGGA,153826.750,4308.4815,N,07726.6336,W,1,08,1.36,159.6,M,-34.4,M,,*5D
$GPRMC,153827.000,A,4308.4816,N,07726.6378,W,42.77,269.38,240719,,,A*45
$GPGGA,153827.250,4308.4816,N,07726.6420,W,1,08,1.36,159.6,M,-34.4,M,,*5A
$GPRMC,153827.500,A,4308.4815,N,07726.6462,W,44.18,268.99,240719,,,A*4A
$GPGGA,153827.750,4308.4815,N,07726.6505,W,1,08,1.36,159.7,M,-34.4,M,,*5B
$GPRMC,153828.000,A,4308.4814,N,07726.6547,W,44.55,268.38,240719,,,A*45
$GPGGA,153828.250,4308.4813,N,07726.6590,W,1,08,1.36,159.6,M,-34.4,M,,*5A
$GPRMC,153828.500,A,4308.4811,N,07726.6634,W,45.56,267.58,240719,,,A*49
$GPGGA,153828.750,4308.4810,N,07726.6677,W,1,08,1.36,159.6,M,-34.4,M,,*56
$GPRMC,153829.000,A,4308.4809,N,07726.6721,W,45.76,267.16,240719,,,A*49
$GPGGA,153829.250,4308.4807,N,07726.6766,W,1,08,1.36,159.7,M,-34.4,M,,*54
$GPRMC,153829.500,A,4308.4805,N,07726.6810,W,46.70,266.35,240719,,,A*48
$GPGGA,153829.750,4308.4803,N,07726.6854,W,1,08,1.29,159.8,M,-34.4,M,,*5A
$GPRMC,153830.000,A,4308.4800,N,07726.6899,W,47.11,265.94,240719,,,A*4F
$GPGGA,153830.250,4308.4798,N,07726.6944,W,1,08,1.36,160.1,M,-34.4,M,,*57
$GPRMC,153830.500,A,4308.4795,N,07726.6989,W,47.58,265.69,240719,,,A*46
$GPGGA,153830.750,4308.4793,N,07726.7034,W,1,08,1.36,160.3,M,-34.4,M,,*54
$GPRMC,153831.000,A,4308.4791,N,07726.7080,W,47.85,265.46,240719,,,A*4A
$GPGGA,153831.250,4308.4788,N,07726.7125,W,1,08,1.36,160.6,M,-34.4,M,,*5E
$GPRMC,153831.500,A,4308.4785,N,07726.7170,W,47.64,265.54,240719,,,A*48
$GPGGA,153831.750,4308.4783,N,07726.7215,W,1,08,1.36,160.9,M,-34.4,M,,*5F
$GPRMC,153832.000,A,4308.4780,N,07726.7259,W,47.31,265.94,240719,,,A*4F
$GPGGA,153832.250,4308.4778,N,07726.7304,W,1,08,1.36,161.2,M,-34.4,M,,*56
$GPRMC,153832.500,A,4308.4776,N,07726.7348,W,46.55,265.74,240719,,,A*4F
$GPGGA,153832.750,4308.4774,N,07726.7392,W,1,08,1.36,161.4,M,-34.4,M,,*56
$GPRMC,153833.000,A,4308.4772,N,07726.7436,W,46.49,265.77,240719,,,A*4F
$GPGGA,153833.250,4308.4770,N,07726.7479,W,1,08,1.36,161.8,M,-34.4,M,,*58
$GPRMC,153833.500,A,4308.4768,N,07726.7522,W,45.49,266.12,240719,,,D*43
$GPGGA,153833.750,4308.4766,N,07726.7565,W,2,08,1.36,162.0,M,-34.4,M,0000,0000*5E
$GPRMC,153834.000,A,4308.4764,N,07726.7607,W,45.45,265.85,240719,,,D*48
$GPGGA,153834.250,4308.4762,N,07726.7650,W,2,08,1.36,162.3,M,-34.4,M,0000,0000*5E
$GPRMC,153834.500,A,4308.4759,N,07726.7692,W,45.04,265.42,240719,,,D*41
$GPGGA,153834.750,4308.4757,N,07726.7734,W,2,08,1.29,162.7,M,-34.4,M,0000,0000*54
$GPRMC,153835.000,A,4308.4755,N,07726.7775,W,43.77,265.07,240719,,,D*42
$GPGGA,153835.250,4308.4752,N,07726.7816,W,2,08,1.36,162.9,M,-34.4,M,0000,0000*5A
$GPRMC,153835.500,A,4308.4749,N,07726.7857,W,43.36,264.95,240719,,,D*4A
$GPGGA,153835.750,4308.4747,N,07726.7897,W,2,08,1.37,162.9,M,-34.4,M,0000,0000*53
$GPRMC,153836.000,A,4308.4744,N,07726.7938,W,43.04,264.61,240719,,,D*43
$GPGGA,153836.250,4308.4741,N,07726.7978,W,2,08,1.36,162.9,M,-34.4,M,0000,0000*52
$GPRMC,153836.500,A,4308.4738,N,07726.8019,W,42.91,264.36,240719,,,D*47
$GPGGA,153836.750,4308.4735,N,07726.8059,W,2,08,1.29,162.8,M,-34.4,M,0000,0000*5E
$GPRMC,153837.000,A,4308.4733,N,07726.8099,W,42.72,264.68,240719,,,D*46
$GPGGA,153837.250,4308.4730,N,07726.8138,W,2,08,1.36,162.6,M,-34.4,M,0000,0000*59
$GPRMC,153837.500,A,4308.4727,N,07726.8178,W,41.91,264.63,240719,,,D*4D
$GPGGA,153837.750,4308.4724,N,07726.8218,W,2,08,1.36,162.4,M,-34.4,M,0000,0000*5A
$GPRMC,153838.000,A,4308.4721,N,07726.8257,W,41.83,264.48,240719,,,D*45
$GPGGA,153836.250,4308.4718,N,07726.8296,W,2,08,1.36,162.2,M,-34.4,M,0000,0000*51
$GPRMC,153836.500,A,4308.4715,N,07726.8335,W,41.48,264.25,240719,,,D*40
$GPGGA,153836.750,4308.4712,N,07726.8374,W,2,08,1.29,162.0,M,-34.4,M,0000,0000*5F
$GPRMC,153837.000,A,4308.4710,N,07726.8413,W,41.23,264.40,240719,,,D*4C
$GPGGA,153837.250,4308.4707,N,07726.8451,W,2,08,1.36,161.9,M,-34.4,M,0000,0000*5B
$GPRMC,153837.500,A,4308.4704,N,07726.8489,W,40.85,264.89,240719,,,D*47
$GPGGA,153837.750,4308.4701,N,07726.8527,W,2,08,1.36,161.8,M,-34.4,M,0000,0000*59
$GPRMC,153838.000,A,4308.4698,N,07726.8565,W,40.50,264.74,240719,,,D*40
$GPGGA,153838.250,4308.4696,N,07726.8603,W,2,08,1.36,161.7,M,-34.4,M,0000,0000*56
$GPRMC,153838.500,A,4308.4693,N,07726.8641,W,40.23,265.28,240719,,,D*47
$GPGGA,153838.750,4308.4691,N,07726.8678,W,2,08,1.36,161.6,M,-34.4,M,0000,0000*59
$GPRMC,153839.000,A,4308.4688,N,07726.8716,W,40.18,265.69,240719,,,D*47
$GPGGA,153839.250,4308.4686,N,07726.8753,W,2,08,1.36,161.5,M,-34.4,M,0000,0000*50
$GPRMC,153839.500,A,4308.4684,N,07726.8791,W,39.92,265.95,240719,,,D*4E
$GPGGA,153839.750,4308.4682,N,07726.8828,W,2,08,1.36,161.5,M,-34.4,M,0000,0000*52
$GPRMC,153840.000,A,4308.4680,N,07726.8865,W,39.84,266.12,240719,,,D*4E
$GPGGA,153840.250,4308.4678,N,07726.8903,W,2,08,1.36,161.4,M,-34.4,M,0000,0000*55
$GPRMC,153840.500,A,4308.4676,N,07726.8940,W,39.78,266.08,240719,,,D*4C
$GPGGA,153840.750,4308.4674,N,07726.8977,W,2,08,1.37,161.4,M,-34.4,M,0000,0000*5E
$GPRMC,153841.000,A,4308.4672,N,07726.9014,W,39.52,265.93,240719,,,D*4C
$GPGGA,153841.250,4308.4669,N,07726.9051,W,2,08,1.36,161.3,M,-34.4,M,0000,0000*5C
$GPRMC,153841.500,A,4308.4667,N,07726.9088,W,39.11,265.43,240719,,,D*42
$GPGGA,153841.750,4308.4665,N,07726.9124,W,2,08,1.37,161.2,M,-34.4,M,0000,0000*56
$GPRMC,153842.000,A,4308.4663,N,07726.9160,W,38.68,264.98,240719,,,D*4F
$GPGGA,153842.250,4308.4660,N,07726.9197,W,2,08,1.36,161.1,M,-34.4,M,0000,0000*5F
$GPRMC,153842.500,A,4308.4658,N,07726.9233,W,38.65,264.95,240719,,,D*47
$GPGGA,153842.750,4308.4656,N,07726.9269,W,2,08,1.36,161.1,M,-34.4,M,0000,0000*5D
$GPRMC,153843.000,A,4308.4654,N,07726.9305,W,38.57,265.22,240719,,,D*47
$GPGGA,153843.250,4308.4652,N,07726.9342,W,2,08,1.37,161.0,M,-34.4,M,0000,0000*55
$GPRMC,153843.500,A,4308.4649,N,07726.9378,W,38.28,264.81,240719,,,D*44
$GPGGA,153843.750,4308.4647,N,07726.9414,W,2,08,1.36,160.9,M,-34.4,M,0000,0000*59
$GPRMC,153844.000,A,4308.4644,N,07726.9449,W,38.24,264.44,240719,,,D*4B
$GPGGA,153844.250,4308.4642,N,07726.9485,W,2,08,1.36,160.8,M,-34.4,M,0000,0000*57
$GPRMC,153844.500,A,4308.4639,N,07726.9521,W,38.02,264.53,240719,,,D*49
$GPGGA,153844.750,4308.4637,N,07726.9557,W,2,08,1.37,160.7,M,-34.4,M,0000,0000*50
$GPRMC,153845.000,A,4308.4634,N,07726.9592,W,37.84,264.43,240719,,,D*48
$GPGGA,153845.250,4308.4631,N,07726.9627,W,2,08,1.29,160.9,M,-34.4,M,0000,0000*57
$GPRMC,153845.500,A,4308.4629,N,07726.9663,W,37.85,264.53,240719,,,D*4C
$GPGGA,153845.750,4308.4627,N,07726.9699,W,2,08,1.37,160.4,M,-34.4,M,0000,0000*52
$GPRMC,153846.000,A,4308.4624,N,07726.9735,W,37.94,264.87,240719,,,D*4C
$GPGGA,153846.250,4308.4622,N,07726.9771,W,2,08,1.37,160.2,M,-34.4,M,0000,0000*50
$GPRMC,153846.500,A,4308.4620,N,07726.9807,W,38.22,265.15,240719,,,D*4B
$GPGGA,153846.750,4308.4618,N,07726.9842,W,2,08,1.37,160.2,M,-34.4,M,0000,0000*53
$GPRMC,153847.000,A,4308.4615,N,07726.9878,W,38.20,265.29,240719,,,D*4C
$GPGGA,153847.250,4308.4613,N,07726.9914,W,2,08,1.37,160.1,M,-34.4,M,0000,0000*5D
$GPRMC,153847.500,A,4308.4611,N,07726.9950,W,38.28,265.28,240719,,,D*4F
$GPGGA,153847.750,4308.4609,N,07726.9986,W,2,08,1.37,159.9,M,-34.4,M,0000,0000*5A
$GPRMC,153848.000,A,4308.4606,N,07727.0023,W,38.31,265.44,240719,,,D*44
$GPGGA,153848.250,4308.4604,N,07727.0059,W,2,08,1.37,159.8,M,-34.4,M,0000,0000*5F
$GPRMC,153848.500,A,4308.4602,N,07727.0095,W,38.40,265.88,240719,,,D*4E
$GPGGA,153848.750,4308.4600,N,07727.0131,W,2,08,1.37,159.7,M,-34.4,M,0000,0000*5E
$GPRMC,153849.000,A,4308.4599,N,07727.0167,W,38.43,266.80,240719,,,D*4F
$GPGGA,153849.250,4308.4597,N,07727.0203,W,2,08,1.37,159.6,M,-34.4,M,0000,0000*54
$GPRMC,153849.500,A,4308.4596,N,07727.0240,W,38.41,267.40,240719,,,D*4C
$GPGGA,153849.750,4308.4595,N,07727.0276,W,2,08,1.37,159.5,M,-34.4,M,0000,0000*52
$GPRMC,153850.000,A,4308.4594,N,07727.0312,W,38.42,267.77,240719,,,D*42
$GPGGA,153850.250,4308.4593,N,07727.0349,W,2,08,1.37,159.3,M,-34.4,M,0000,0000*52
$GPRMC,153850.500,A,4308.4592,N,07727.0385,W,38.64,268.03,240719,,,D*47
$GPGGA,153850.750,4308.4591,N,07727.0422,W,2,08,1.37,159.3,M,-34.4,M,0000,0000*5F
$GPRMC,153851.000,A,4308.4590,N,07727.0458,W,38.56,268.90,240719,,,D*4D
$GPGGA,153851.250,4308.4590,N,07727.0495,W,2,08,1.37,159.2,M,-34.4,M,0000,0000*57
$GPRMC,153851.500,A,4308.4590,N,07727.0531,W,38.49,269.93,240719,,,D*4A
$GPGGA,153851.750,4308.4590,N,07727.0567,W,2,08,1.37,159.1,M,-34.4,M,0000,0000*5D
$GPRMC,153852.000,A,4308.4590,N,07727.0604,W,38.78,270.60,240719,,,D*4F
