Vers 57
USE_SERIAL_FEEDBACK=false
DEVELOPMENT_MODE=false
USE_RMC_ONLY=false

$GPGGA,142239.400,4308.3016,N,07726.2608,W,1,10,0.79,145.0,M,-34.4,M,,*57
$GPRMC,142239.400,A,4308.3016,N,07726.2608,W,0.01,121.93,230419,,,A*70
lng=-77.437675, lat=43.138362, altitude=145.00, speed=0.02, satellites=10, angle=185.2700, fixquality=1
$GPGGA,142239.800,4308.3015,N,07726.2608,W,1,10,0.79,144.9,M,-34.4,M,,*50
$GPRMC,142239.800,A,4308.3015,N,07726.2608,W,0.03,202.19,230419,,,A*7D
lng=-77.437675, lat=43.138355, altitude=144.90, speed=0.01, satellites=10, angle=121.9300, fixquality=1
$GPGGA,142240.000,4308.3015,N,07726.2609,W,1,09,0.86,144.9,M,-3
$GPRMC,142240.200,A,4308.3015,N,07726.2609,W,0.05,215.89,230419,,,A*71
lng=-77.437675, lat=43.138355, altitude=144.90, speed=0.03, satellites=9, angle=202.1900, fixquality=1
$GPGGA,142240.600,4308.3015,N,07726.2608,W,1,10,0.79,144.9,M,-34.4,M,,*50
$GPRMC,142240.600,A,4308.3015,N,07726.2608,W,0.05,216.98,230419,,,A*77
lng=-77.437675, lat=43.138355, altitude=144.90, speed=0.05, satellites=10, angle=215.8900, fixquality=1
$GPGGA,142241.000,4308.3015,N,07726.2608,W,1,10,0.79,144.9,M,-34.4,M,,*57
$GPRMC,142241.000,A,4308.3015,N,07726.2608,W,0.04,227.51,230419,,,A*76
lng=-77.437675, lat=43.138355, altitude=144.90, speed=0.05, satellites=10, angle=216.9800, fixquality=1
$GPGGA,142241.400,4308.3015,N,07726.2608,W,1,10,0.79,144.9,M,-34.4,M,,*53
$GPRMC,142241.400,A,4308.3015,N,07726.2608,W,0.04,236.20,230419,,,A*74
lng=-77.437675, lat=43.138355, altitude=144.90, speed=0.04, satellites=10, angle=227.5100, fixquality=1
$GPRMC,142241.800,A,4308.3015,N,07726.2608,W,0.03,252.66,230419,,,A*7F
$GPGGA,142242.000,4308.3015,N,07726.2608,W,1,10,0.79,144.9,M,-34.4,M,,*54
lng=-77.437675, lat=43.138355, altitude=144.90, speed=0.03, satellites=10, angle=252.6600, fixquality=1
$GPGGA,142242.400,4308.3015,N,07726.2607,W,1,10,0.79,144.9,M,-34.4,M,,*5F
$GPRMC,142242.400,A,4308.3015,N,07726.2607,W,0.03,241.09,230419,,,A*74
lng=-77.437675, lat=43.138355, altitude=144.90, speed=0.03, satellites=10, angle=252.6600, fixquality=1
$GPGGA,142242.600,4308.3015,N,07726.2607,W,1,10,0.79,144.9,M,-34.4,M,,*5D
$GPRMC,142242.600,A,4308.3015,N,07726.2607,W,0.01,234.98,230419,,,A*7E
lng=-77.437675, lat=43.138355, altitude=144.90, speed=0.03, satellites=10, angle=241.0900, fixquality=1
$GPGGA,142242.800,4308.3015,N,07726.2607,W,1,10,0.79,144.9,M,-34.4,M,,*53
$GPRMC,142242.800,A,4308.3015,N,07726.2607,W,0.01,246.83,230419,,,A*7F
lng=-77.437675, lat=43.138355, altitude=144.90, speed=0.01, satellites=10, angle=234.9800, fixquality=1
$GPGGA,142243.000,4308.3015,N,07726.2607,W,1,10,0.79,144.9,M,-34.4,M,,*5A
$GPRMC,142243.000,A,4308.3015,N,07726.2607,W,0.02,269.51,230419
lng=-77.437675, lat=43.138355, altitude=144.90, speed=0.01, satellites=10, angle=246.8300, fixquality=1
$GPGGA,142243.200,4308.3015,N,07726.2608,W,1,10,0.79,144.9,M,-34.4,M,,*57
$GPRMC,142243.200,A,4308.3015,N,07726.2608,W,0.02,267.41,230419,,,A*75
lng=-77.437675, lat=43.138355, altitude=144.90, speed=0.02, satellites=10, angle=269.5100, fixquality=1
$GPGGA,142243.400,4308.3015,N,07726.2608,W,1,10,0.79,144.8,M,-34.4,M,,*50
$GPRMC,142243.400,A,4308.3015,N,07726.2608,W,0.02,254.08,230419
lng=-77.437675, lat=43.138355, altitude=144.80, speed=0.02, satellites=10, angle=267.4100, fixquality=1
$GPGGA,142243.600,4308.3015,N,07726.2608,W,1,10,0.79,144.8,M,-34.4,M,,*52
$GPRMC,142243.600,A,4308.3015,N,07726.2608,W,0.03,240.07,230419,,,A*77
lng=-77.437675, lat=43.138355, altitude=144.80, speed=0.02, satellites=10, angle=254.0800, fixquality=1
$GPGGA,142243.800,4308.3015,N,07726.2608,W,1,10,0.79,144.8,M,-34.4,M,,*5C
$GPRMC,142243.800,A,4308.3015,N,07726.2608,W,0.03,230.10,230419
lng=-77.437675, lat=43.138355, altitude=144.80, speed=0.03, satellites=10, angle=240.0700, fixquality=1
$GPGGA,142244.000,4308.3015,N,07726.2608,W,1,10,0.79,144.8,M,-34.4,M,,*53
$GPRMC,142244.000,A,4308.3015,N,07726.2608,W,0.02,227.41,230419,,,A*74
lng=-77.437675, lat=43.138355, altitude=144.80, speed=0.03, satellites=10, angle=230.1000, fixquality=1
$GPGGA,142244.200,4308.3015,N,07726.2608,W,1,10,0.79,144.8,M,-34.4,M,,*51
$GPRMC,142244.200,A,4308.3015,N,07726.2608,W,0.02,226.09,230419
lng=-77.437675, lat=43.138355, altitude=144.80, speed=0.02, satellites=10, angle=227.4100, fixquality=1
$GPGGA,142244.400,4308.3015,N,07726.2608,W,1,10,0.79,144.8,M,-34.4,M,,*57
$GPRMC,142244.400,A,4308.3015,N,07726.2608,W,0.02,223.90,230419,,,A*78
lng=-77.437675, lat=43.138355, altitude=144.80, speed=0.02, satellites=10, angle=226.0900, fixquality=1
$GPGGA,142244.600,4308.3014,N,07726.2608,W,1,10,0.79,144.8,M,-34.4,M,,*54
$GPRMC,142244.600,A,4308.3014,N,07726.2608,W,0.01,239.44,230419,,,A*7A
lng=-77.437675, lat=43.138355, altitude=144.80, speed=0.02, satellites=10, angle=223.9000, fixquality=1
$GPGGA,142244.800,4308.3015,N,07726.2607,W,1,10,0.79,144.8,M,-34.4,M,,*54
$GPRMC,142244.800,A,4308.3015,N,07726.2607,W,0.01,346.10,230419,,,A*72
lng=-77.437675, lat=43.138355, altitude=144.80, speed=0.01, satellites=10, angle=239.4400, fixquality=1
$GPGGA,142245.000,4308.3015,N,07726.2607,W,1,10,0.79,144.8,M,-34.4,M,,*5D
$GPRMC,142245.000,A,4308.3015,N,07726.2607,W,0.00,326.86,230419,,,A*73
lng=-77.437675, lat=43.138355, altitude=144.80, speed=0.01, satellites=10, angle=346.1000, fixquality=1
$GPGGA,142245.200,4308.3014,N,07726.2607,W,1,10,0.79,144.8,M,-34.4,M,,*5E
$GPRMC,142245.200,A,4308.3014,N,07726.2607,W,0.00,0.00,230419,,,A*79
lng=-77.437675, lat=43.138355, altitude=144.80, speed=0.00, satellites=10, angle=326.8600, fixquality=1
$GPGGA,142245.400,4308.3014,N,07726.2607,W,1,10,0.79,144.8,M,-34.4,M,,*58
$GPRMC,142245.400,A,4308.3014,N,07726.2607,W,0.00,202.22,230419,,,A*7F
lng=-77.437675, lat=43.138355, altitude=144.80, speed=0.00, satellites=10, angle=0.0000, fixquality=1
$GPGGA,142245.600,4308.3014,N,07726.2607,W,1,10,0.79,144.7,M,-34.4,M,,*55
$GPRMC,142245.600,A,4308.3014,N,07726.2607,W,0.00,238.94,230419,,,A*79
lng=-77.437675, lat=43.138355, altitude=144.70, speed=0.00, satellites=10, angle=202.2200, fixquality=1
$GPGGA,142245.800,4308.3014,N,07726.2607,W,1,10,0.79,144.7,M,-34.4,M,,*5B
$GPRMC,142245.800,A,4308.3014,N,07726.2607,W,0.01,257.80,230419,,,A*7A
lng=-77.437675, lat=43.138355, altitude=144.70, speed=0.00, satellites=10, angle=238.9400, fixquality=1
$GPGGA,142246.000,4308.3014,N,07726.2607,W,1,10,0.79,144.7,M,-34.4,M,,*50
$GPRMC,142246.000,A,4308.3014,N,07726.2607,W,0.01,236.79,230419,,,A*70
lng=-77.437675, lat=43.138355, altitude=144.70, speed=0.01, satellites=10, angle=257.8000, fixquality=1
$GPGGA,142246.200,4308.3013,N,07726.2606,W,1,10,0.79,144.7,M,-34.4,M,,*54
$GPRMC,142246.200,A,4308.3013,N,07726.2606,W,0.00,0.00,230419,,,A*7C
lng=-77.437675, lat=43.138355, altitude=144.70, speed=0.01, satellites=10, angle=236.7900, fixquality=1
$GPGGA,142246.400,4308.3013,N,07726.2606,W,1,10,0.79,144.7,M,-34.4,M,,*52
$GPRMC,142246.400,A,4308.3013,N,07726.2606,W,0.00,60.90,230419,,,A*45
lng=-77.437675, lat=43.138355, altitude=144.70, speed=0.00, satellites=10, angle=0.0000, fixquality=1
$GPGGA,142246.600,4308.3013,N,07726.2606,W,1,10,0.79,144.7,M,-34.4,M,,*50
$GPRMC,142246.600,A,4308.3013,N,07726.2606,W,0.01,44.08,230419,,,A*41
lng=-77.437675, lat=43.138355, altitude=144.70, speed=0.00, satellites=10, angle=60.9000, fixquality=1
$GPGGA,142246.800,4308.3013,N,07726.2606,W,1,10,0.79,144.6,M,-34.4,M,,*5F
$GPRMC,142246.800,A,4308.3013,N,07726.2606,W,0.00,171.30,230419,,,A*72
lng=-77.437675, lat=43.138355, altitude=144.60, speed=0.01, satellites=10, angle=44.0800, fixquality=1
$GPGGA,142247.000,4308.3013,N,07726.2605,W,1,10,0.79,144.6,M,-34.4,M,,*55
$GPRMC,142247.000,A,4308.3013,N,07726.2605,W,0.01,151.03,230419,,,A*7B
lng=-77.437675, lat=43.138355, altitude=144.60, speed=0.00, satellites=10, angle=171.3000, fixquality=1
$GPGGA,142247.200,4308.3012,N,07726.2605,W,1,10,0.79,144.6,M,-34.4,M,,*56
$GPRMC,142247.200,A,4308.3012,N,07726.2605,W,0.00,142.06,230419,,,A*7E
lng=-77.437675, lat=43.138355, altitude=144.60, speed=0.01, satellites=10, angle=151.0300, fixquality=1
$GPGGA,142247.400,4308.3012,N,07726.2605,W,1,10,0.79,144.6,M,-34.4,M,,*50
$GPRMC,142247.400,A,4308.3012,N,07726.2605,W,0.01,74.53,230419,,,A*4D
lng=-77.437675, lat=43.138355, altitude=144.60, speed=0.00, satellites=10, angle=142.0600, fixquality=1
$GPGGA,142247.600,4308.3012,N,07726.2604,W,1,10,0.79,144.5,M,-34.4,M,,*50
$GPRMC,142247.600,A,4308.3012,N,07726.2604,W,0.01,87.52,230419,,,A*43
lng=-77.437667, lat=43.138355, altitude=144.50, speed=0.01, satellites=10, angle=74.5300, fixquality=1
$GPGGA,142247.800,4308.3012,N,07726.2604,W,1,10,0.79,144.5,M,-34.4,M,,*5E
$GPRMC,142247.800,A,4308.3012,N,07726.2604,W,0.01,93.39,230419,,,A*45
lng=-77.437667, lat=43.138355, altitude=144.50, speed=0.01, satellites=10, angle=87.5200, fixquality=1
$GPGGA,142248.000,4308.3012,N,07726.2603,W,1,10,0.79,144.5,M,-34.4,M,,*5E
$GPRMC,142248.000,A,4308.3012,N,07726.2603,W,0.01,46.36,230419,,,A*42
lng=-77.437667, lat=43.138355, altitude=144.50, speed=0.01, satellites=10, angle=93.3900, fixquality=1
$GPGGA,142248.200,4308.3012,N,07726.2603,W,1,10,0.79,144.5,M,-34.4,M,,*5C
$GPRMC,142248.200,A,4308.3012,N,07726.2603,W,0.01,11.38,230419,,,A*4C
lng=-77.437667, lat=43.138355, altitude=144.50, speed=0.01, satellites=10, angle=46.3600, fixquality=1
$GPGGA,142248.400,4308.3012,N,07726.2602,W,1,10,0.79,144.5,M,-34.4,M,,*5B
$GPRMC,142248.400,A,4308.3012,N,07726.2602,W,0.00,0.00,230419,,,A*71
lng=-77.437667, lat=43.138355, altitude=144.50, speed=0.01, satellites=10, angle=11.3800, fixquality=1
$GPGGA,142248.600,4308.3012,N,07726.2602,W,1,10,0.79,144.4,M,-34.4,M,,*58
$GPRMC,142248.600,A,4308.3012,N,07726.2602,W,0.00,181.10,230419,,,A*7A
lng=-77.437667, lat=43.138355, altitude=144.40, speed=0.00, satellites=10, angle=0.0000, fixquality=1
$GPGGA,142248.800,4308.3012,N,07726.2602,W,1,10,0.79,144.4,M,-34.4,M,,*56
$GPRMC,142248.800,A,4308.3012,N,07726.2602,W,0.01,71.27,230419
lng=-77.437667, lat=43.138355, altitude=144.40, speed=0.00, satellites=10, angle=181.1000, fixquality=1
$GPGGA,142249.000,4308.3012,N,07726.2601,W,1,10,0.79,144.4,M,-34.4,M,,*5C
$GPRMC,142249.000,A,4308.3012,N,07726.2601,W,0.01,40.34,230419,,,A*45
lng=-77.437667, lat=43.138355, altitude=144.40, speed=0.01, satellites=10, angle=71.2700, fixquality=1
$GPGGA,142249.200,4308.3012,N,07726.2601,W,1,10,0.79,144.4,M,-34.4,M,,*5E
$GPRMC,142249.200,A,4308.3012,N,07726.2601,W,0.01,79.66,230419,
lng=-77.437667, lat=43.138355, altitude=144.40, speed=0.01, satellites=10, angle=40.3400, fixquality=1
$GPGGA,142249.400,4308.3012,N,07726.2601,W,1,09,0.86,144.3,M,-34.4,M,,*57
$GPRMC,142249.400,A,4308.3012,N,07726.2601,W,0.00,58.35,230419,,,A*48
lng=-77.437667, lat=43.138355, altitude=144.30, speed=0.01, satellites=9, angle=79.6600, fixquality=1
$GPGGA,142249.600,4308.3012,N,07726.2600,W,1,09,0.86,144.3,M,-34.4,M,,*54
$GPRMC,142249.600,A,4308.3012,N,07726.2600,W,0.01,24.08,230419
lng=-77.437660, lat=43.138355, altitude=144.30, speed=0.00, satellites=9, angle=58.3500, fixquality=1
$GPGGA,142249.800,4308.3012,N,07726.2600,W,1,10,0.79,144.3,M,-34.4,M,,*52
$GPRMC,142249.800,A,4308.3012,N,07726.2600,W,0.02,2.52,230419,,,A*79
lng=-77.437660, lat=43.138355, altitude=144.30, speed=0.01, satellites=10, angle=24.0800, fixquality=1
$GPGGA,142250.000,4308.3013,N,07726.2600,W,1,10,0.79,144.3,M,-34.4,M,,*53
$GPRMC,142250.000,A,4308.3013,N,07726.2600,W,0.03,3.06,230419,,,A*79
lng=-77.437660, lat=43.138355, altitude=144.30, speed=0.02, satellites=10, angle=2.5200, fixquality=1
$GPGGA,142250.200,4308.3013,N,07726.2600,W,1,09,0.86,144.2,M,-34.4,M,,*58
$GPRMC,142250.200,A,4308.3013,N,07726.2600,W,0.02,3.92,230419,,,A*77
lng=-77.437660, lat=43.138355, altitude=144.20, speed=0.03, satellites=9, angle=3.0600, fixquality=1
$GPGGA,142250.400,4308.3014,N,07726.2599,W,1,10,0.79,144.2,M,-34.4,M,,*52
$GPRMC,142250.400,A,4308.3014,N,07726.2599,W,0.06,4.94,230419,,,A*70
lng=-77.437660, lat=43.138355, altitude=144.20, speed=0.02, satellites=10, angle=3.9200, fixquality=1
$GPGGA,142250.600,4308.3015,N,07726.2599,W,1,09,0.86,144.2,M,-34.4,M,,*59
$GPRMC,142250.600,A,4308.3015,N,07726.2599,W,0.06,8.26,230419,,,A*76
lng=-77.437660, lat=43.138355, altitude=144.20, speed=0.06, satellites=9, angle=4.9400, fixquality=1
$GPGGA,142250.800,4308.3016,N,07726.2599,W,1,10,0.79,144.2,M,-34.4,M,,*5C
$GPRMC,142250.800,A,4308.3016,N,07726.2599,W,0.14,357.32,230419,,,A*74
lng=-77.437660, lat=43.138362, altitude=144.20, speed=0.06, satellites=10, angle=8.2600, fixquality=1
$GPGGA,142251.000,4308.3018,N,07726.2599,W,1,10,0.79,144.2,M,-34.4,M,,*5B
$GPRMC,142251.000,A,4308.3018,N,07726.2599,W,0.09,4.31,230419,,,A*79
lng=-77.437660, lat=43.138362, altitude=144.20, speed=0.14, satellites=10, angle=357.3200, fixquality=1
$GPGGA,142251.200,4308.3018,N,07726.2599,W,1,10,0.79,144.2,M,-34.4,M,,*59
$GPRMC,142251.200,A,4308.3018,N,07726.2599,W,0.13,1.74,230419,,,A*74
lng=-77.437660, lat=43.138362, altitude=144.20, speed=0.09, satellites=10, angle=4.3100, fixquality=1
$GPGGA,142251.400,4308.3019,N,07726.2599,W,1,10,0.79,144.2,M,-34.4,M,,*5E
$GPRMC,142251.400,A,4308.3019,N,07726.2599,W,0.08,358.92,230419,,,A*7E
lng=-77.437660, lat=43.138362, altitude=144.20, speed=0.13, satellites=10, angle=1.7400, fixquality=1
$GPGGA,142251.600,4308.3020,N,07726.2599,W,1,10,0.79,144.2,M,-34.4,M,,*56
$GPRMC,142251.600,A,4308.3020,N,07726.2599,W,0.16,357.41,230419,,,A*78
lng=-77.437660, lat=43.138362, altitude=144.20, speed=0.08, satellites=10, angle=358.9200, fixquality=1
$GPGGA,142251.800,4308.3021,N,07726.2599,W,1,09,0.86,144.2,M,-34.4,M,,*51
$GPRMC,142251.800,A,4308.3021,N,07726.2599,W,0.26,0.73,230419,,,A*74
lng=-77.437660, lat=43.138370, altitude=144.20, speed=0.16, satellites=9, angle=357.4100, fixquality=1
$GPGGA,142252.000,4308.3023,N,07726.2599,W,1,10,0.79,144.2,M,-34.4,M,,*50
$GPRMC,142252.000,A,4308.3023,N,07726.2599,W,0.13,4.38,230419,,,A*70
lng=-77.437660, lat=43.138370, altitude=144.20, speed=0.26, satellites=10, angle=0.7300, fixquality=1
$GPGGA,142252.200,4308.3024,N,07726.2599,W,1,10,0.79,144.1,M,-34.4,M,,*56
$GPRMC,142252.200,A,4308.3024,N,07726.2599,W,0.22,1.71,230419,,,A*7F
lng=-77.437660, lat=43.138370, altitude=144.10, speed=0.13, satellites=10, angle=4.3800, fixquality=1
$GPGGA,142252.400,4308.3026,N,07726.2599,W,1,10,0.79,144.1,M,-34.4,M,,*52
$GPRMC,142252.400,A,4308.3026,N,07726.2599,W,0.40,358.46,230419,,,A*74
lng=-77.437660, lat=43.138378, altitude=144.10, speed=0.22, satellites=10, angle=1.7100, fixquality=1
$GPGGA,142252.600,4308.3028,N,07726.2599,W,1,10,0.79,144.1,M,-34.4,M,,*5E
$GPRMC,142252.600,A,4308.3028,N,07726.2599,W,0.68,3.79,230419,,,A*73
lng=-77.437660, lat=43.138378, altitude=144.10, speed=0.40, satellites=10, angle=358.4600, fixquality=1
$GPGGA,142252.800,4308.3030,N,07726.2598,W,1,09,0.86,144.1,M,-34.4,M,,*50
$GPRMC,142252.800,A,4308.3030,N,07726.2598,W,0.82,6.83,230419,,,A*71
lng=-77.437660, lat=43.138385, altitude=144.10, speed=0.68, satellites=9, angle=3.7900, fixquality=1
$GPGGA,142253.000,4308.3031,N,07726.2598,W,1,10,0.79,144.1,M,-34.4,M,,*50
$GPRMC,142253.000,A,4308.3031,N,07726.2598,W,0.97,9.47,230419,,,A*7A
lng=-77.437660, lat=43.138385, altitude=144.10, speed=0.82, satellites=10, angle=6.8300, fixquality=1
$GPGGA,142253.200,4308.3033,N,07726.2598,W,1,10,0.79,144.1,M,-34.4,M,,*50
$GPRMC,142253.200,A,4308.3033,N,07726.2598,W,1.04,10.91,230419,,,A*42
lng=-77.437660, lat=43.138385, altitude=144.10, speed=0.97, satellites=10, angle=9.4700, fixquality=1
$GPGGA,142253.400,4308.3034,N,07726.2597,W,1,10,0.79,144.0,M,-34.4,M,,*5F
$GPRMC,142253.400,A,4308.3034,N,07726.2597,W,1.14,12.30,230419,,,A*44
lng=-77.437660, lat=43.138385, altitude=144.00, speed=1.04, satellites=10, angle=10.9100, fixquality=1
$GPGGA,142253.600,4308.3036,N,07726.2596,W,1,09,0.86,144.0,M,-34.4,M,,*56
$GPRMC,142253.600,A,4308.3036,N,07726.2596,W,1.26,12.27,230419,,,A*42
lng=-77.437660, lat=43.138393, altitude=144.00, speed=1.14, satellites=9, angle=12.3000, fixquality=1
$GPGGA,142253.800,4308.3037,N,07726.2596,W,1,09,0.86,144.0,M,-34.4,M,,*59
$GPRMC,142253.800,A,4308.3037,N,07726.2596,W,1.29,9.96,230419,,$GPGGA,142254.000,4308.3038,N,07726.2595,W,1,09,0.86,143.9,M,-34.4,M,,*54
lng=-77.437660, lat=43.138393, altitude=144.00, speed=1.26, satellites=9, angle=12.2700, fixquality=1
$GPRMC,142254.200,A,4308.3038,N,07726.2595,W,1.05,8.36,230419,,,A*76
$GPGGA,142254.400,4308.3039,N,07726.2595,W,1,09,0.86,143.9,M,-34.4,M,,*51
lng=-77.437652, lat=43.138393, altitude=144.00, speed=1.05, satellites=9, angle=8.3600, fixquality=1
$GPRMC,142254.600,A,4308.3039,N,07726.2595,W,0.73,5.69,230419,,,A*74
$GPGGA,142254.800,4308.3039,N,07726.2595,W,1,09,0.86,143.8,M,-34.4,M,,*5C
lng=-77.437652, lat=43.138393, altitude=143.90, speed=0.73, satellites=9, angle=5.6900, fixquality=1
$GPRMC,142255.000,A,4308.3039,N,07726.2595,W,0.49,5.53,230419,,,A*73
$GPGGA,142255.200,4308.3039,N,07726.2594,W,1,09,0.86,143.8,M,-34.4,M,,*56
lng=-77.437652, lat=43.138393, altitude=143.80, speed=0.49, satellites=9, angle=5.5300, fixquality=1
$GPRMC,142255.400,A,4308.3040,N,07726.2594,W,0.40,3.00,230419,,,A*71
$GPGGA,142255.600,4308.3040,N,07726.2594,W,1,09,0.86,143.7,M,-34.4,M,,*53
lng=-77.437652, lat=43.138404, altitude=143.80, speed=0.40, satellites=9, angle=3.0000, fixquality=1
$GPRMC,142255.800,A,4308.3040,N,07726.2594,W,0.32,351.95,230419,,,A*70
$GPGGA,142256.000,4308.3040,N,07726.2594,W,1,09,0.86,143.7,M,-34.4,M,,*56
lng=-77.437652, lat=43.138404, altitude=143.70, speed=0.32, satellites=9, angle=351.9500, fixquality=1
$GPRMC,142256.200,A,4308.3040,N,07726.2594,W,0.22,349.09,230419,,,A*74
$GPGGA,142256.400,4308.3040,N,07726.2594,W,1,09,0.86,143.6,M,-34.4,M,,*53
lng=-77.437652, lat=43.138404, altitude=143.70, speed=0.22, satellites=9, angle=349.0900, fixquality=1
$GPRMC,142256.600,A,4308.3041,N,07726.2593,W,0.21,340.05,230419,,,A*70
$GPGGA,142256.800,4308.3041,N,07726.2593,W,1,09,0.86,143.5,M,-34.4,M,,*5A
lng=-77.437652, lat=43.138404, altitude=143.60, speed=0.21, satellites=9, angle=340.0500, fixquality=1
$GPRMC,142257.000,A,4308.3041,N,07726.2592,W,0.23,17.02,230419,,,A*42
$GPGGA,142257.200,4308.3041,N,07726.2592,W,1,09,0.86,143.4,M,-34.4,M,,*51
lng=-77.437652, lat=43.138404, altitude=143.50, speed=0.23, satellites=9, angle=17.0200, fixquality=1
$GPRMC,142257.400,A,4308.3041,N,07726.2591,W,0.19,27.44,230419,,,A*4D
$GPGGA,142257.600,4308.3041,N,07726.2591,W,1,09,0.86,143.4,M,-34.4,M,,*56
lng=-77.437652, lat=43.138404, altitude=143.40, speed=0.19, satellites=9, angle=27.4400, fixquality=1
$GPRMC,142257.800,A,4308.3042,N,07726.2591,W,0.20,24.53,230419,,,A*4D
$GPGGA,142258.000,4308.3042,N,07726.2591,W,1,09,0.86,143.3,M,-34.4,M,,*5B
lng=-77.437652, lat=43.138404, altitude=143.40, speed=0.20, satellites=9, angle=24.5300, fixquality=1
$GPRMC,142258.200,A,4308.3042,N,07726.2591,W,0.16,2.19,230419,,,A*77
$GPGGA,142258.400,4308.3042,N,07726.2591,W,1,09,0.86,143.2,M,-34.4,M,,*5E
lng=-77.437652, lat=43.138404, altitude=143.30, speed=0.16, satellites=9, angle=2.1900, fixquality=1
$GPRMC,142258.600,A,4308.3042,N,07726.2591,W,0.13,323.14,230419,,,A*7B
$GPGGA,142258.800,4308.3042,N,07726.2591,W,1,09,0.86,143.1,M,-34.4,M,,*51
lng=-77.437652, lat=43.138404, altitude=143.20, speed=0.13, satellites=9, angle=323.1400, fixquality=1
$GPRMC,142259.000,A,4308.3042,N,07726.2590,W,0.09,9.44,230419,,,A*78
$GPGGA,142259.200,4308.3042,N,07726.2590,W,1,09,0.86,143.1,M,-34.4,M,,*5B
lng=-77.437644, lat=43.138404, altitude=143.10, speed=0.09, satellites=9, angle=9.4400, fixquality=1
$GPRMC,142259.400,A,4308.3042,N,07726.2590,W,0.04,48.13,230419,,,A*46
$GPGGA,142259.600,4308.3042,N,07726.2590,W,1,09,0.86,143.0,M,-34.4,M,,*5E
lng=-77.437644, lat=43.138404, altitude=143.10, speed=0.04, satellites=9, angle=48.1300, fixquality=1
$GPRMC,142259.800,A,4308.3042,N,07726.2590,W,0.06,12.68,230419,,,A*4B
$GPGGA,142300.000,4308.3042,N,07726.2590,W,1,09,0.86,142.9,M,-34.4,M,,*5D
lng=-77.437644, lat=43.138404, altitude=143.00, speed=0.06, satellites=9, angle=12.6800, fixquality=1
$GPRMC,142300.200,A,4308.3042,N,07726.2589,W,0.00,206.79,230419,,,A*75
$GPGGA,142300.400,4308.3042,N,07726.2589,W,1,09,0.86,142.8,M,-34.4,M,,*50
lng=-77.437644, lat=43.138404, altitude=142.90, speed=0.00, satellites=9, angle=206.7900, fixquality=1
$GPRMC,142300.600,A,4308.3042,N,07726.2589,W,0.04,203.24,230419,,,A*78
$GPGGA,142300.800,4308.3042,N,07726.2589,W,1,09,0.86,142.8,M,-34.4,M,,*5C
lng=-77.437644, lat=43.138404, altitude=142.80, speed=0.04, satellites=9, angle=203.2400, fixquality=1
$GPRMC,142301.000,A,4308.3042,N,07726.2589,W,0.04,246.37,230419,,,A*7C
$GPGGA,142301.200,4308.3042,N,07726.2589,W,1,09,0.86,142.7,M,-34.4,M,,*58
lng=-77.437644, lat=43.138404, altitude=142.80, speed=0.04, satellites=9, angle=246.3700, fixquality=1
$GPRMC,142301.400,A,4308.3042,N,07726.2589,W,0.08,303.52,230419,,,A*77
$GPGGA,142301.600,4308.3043,N,07726.2589,W,1,09,0.86,142.6,M,-34.4,M,,*5C
lng=-77.437644, lat=43.138404, altitude=142.70, speed=0.08, satellites=9, angle=303.5200, fixquality=1
$GPRMC,142301.800,A,4308.3043,N,07726.2589,W,0.18,327.90,230419,,,A*73
$GPGGA,142302.000,4308.3043,N,07726.2589,W,1,09,0.86,142.5,M,-34.4,M,,*5A
lng=-77.437644, lat=43.138404, altitude=142.60, speed=0.18, satellites=9, angle=327.9000, fixquality=1
$GPRMC,142302.200,A,4308.3043,N,07726.2589,W,0.19,332.17,230419,,,A*70
$GPGGA,142302.400,4308.3043,N,07726.2589,W,1,09,0.86,142.4,M,-34.4,M,,*5F
lng=-77.437644, lat=43.138404, altitude=142.50, speed=0.19, satellites=9, angle=332.1700, fixquality=1
$GPRMC,142302.600,A,4308.3043,N,07726.2589,W,0.16,324.64,230419,,,A*78
$GPGGA,142302.800,4308.3043,N,07726.2588,W,1,09,0.86,142.3,M,-34.4,M,,*55
lng=-77.437644, lat=43.138404, altitude=142.40, speed=0.16, satellites=9, angle=324.6400, fixquality=1
$GPRMC,142303.000,A,4308.3044,N,07726.2588,W,0.14,0.07,230419,,,A*7B
$GPGGA,142303.200,4308.3044,N,07726.2588,W,1,09,0.86,142.2,M,-34.4,M,,*58
lng=-77.437644, lat=43.138404, altitude=142.30, speed=0.14, satellites=9, angle=0.0700, fixquality=1
$GPRMC,142303.400,A,4308.3044,N,07726.2588,W,0.10,348.04,230419,,,A*77
$GPGGA,142303.600,4308.3044,N,07726.2588,W,1,09,0.86,142.1,M,-34.4,M,,*5F
lng=-77.437644, lat=43.138404, altitude=142.20, speed=0.10, satellites=9, angle=348.0400, fixquality=1
$GPRMC,142303.800,A,4308.3044,N,07726.2588,W,0.10,289.27,230419,,,A*76
$GPGGA,142304.000,4308.3044,N,07726.2588,W,1,09,0.86,142.0,M,-34.4,M,,*5F
lng=-77.437644, lat=43.138404, altitude=142.10, speed=0.10, satellites=9, angle=289.2700, fixquality=1
$GPRMC,142304.200,A,4308.3044,N,07726.2588,W,0.14,295.53,230419,,,A*71
$GPGGA,142304.400,4308.3045,N,07726.2588,W,1,09,0.86,141.9,M,-34.4,M,,*50
lng=-77.437644, lat=43.138404, altitude=142.00, speed=0.14, satellites=9, angle=295.5300, fixquality=1
$GPRMC,142304.600,A,4308.3045,N,07726.2589,W,0.25,323.58,230419,,,A*70
$GPGGA,142304.800,4308.3046,N,07726.2589,W,1,09,0.86,141.8,M,-34.4,M,,*5F
lng=-77.437644, lat=43.138412, altitude=141.90, speed=0.25, satellites=9, angle=323.5800, fixquality=1
$GPRMC,142305.000,A,4308.3046,N,07726.2589,W,0.31,322.86,230419,,,A*73
$GPGGA,142305.200,4308.3046,N,07726.2589,W,1,09,0.86,141.7,M,-34.4,M,,*5B
lng=-77.437644, lat=43.138412, altitude=141.80, speed=0.31, satellites=9, angle=322.8600, fixquality=1
$GPRMC,142305.400,A,4308.3047,N,07726.2589,W,0.33,325.74,230419,,,A*7E
$GPGGA,142305.600,4308.3047,N,07726.2589,W,1,09,0.86,141.7,M,-34.4,M,,*5E
lng=-77.437644, lat=43.138412, altitude=141.70, speed=0.33, satellites=9, angle=325.7400, fixquality=1
$GPRMC,142305.800,A,4308.3047,N,07726.2589,W,0.29,321.87,230419,,,A*71
$GPGGA,142306.000,4308.3047,N,07726.2589,W,1,09,0.86,141.6,M,-34.4,M,,*5A
lng=-77.437644, lat=43.138412, altitude=141.70, speed=0.29, satellites=9, angle=321.8700, fixquality=1
$GPRMC,142306.200,A,4308.3048,N,07726.2589,W,0.25,319.66,230419,,,A*7F
$GPGGA,142306.400,4308.3048,N,07726.2589,W,1,09,0.86,141.5,M,-34.4,M,,*52
lng=-77.437644, lat=43.138412, altitude=141.60, speed=0.25, satellites=9, angle=319.6600, fixquality=1
$GPRMC,142306.600,A,4308.3048,N,07726.2589,W,0.22,325.55,230419,,,A*73
$GPGGA,142306.800,4308.3048,N,07726.2590,W,1,09,0.86,141.4,M,-34.4,M,,*57
lng=-77.437644, lat=43.138412, altitude=141.50, speed=0.22, satellites=9, angle=325.5500, fixquality=1
$GPRMC,142307.000,A,4308.3048,N,07726.2589,W,0.19,283.80,230419,,,A*79
$GPGGA,142307.200,4308.3048,N,07726.2589,W,1,09,0.86,141.4,M,-34.4,M,,*54
lng=-77.437644, lat=43.138412, altitude=141.40, speed=0.19, satellites=9, angle=283.8000, fixquality=1
$GPRMC,142307.400,A,4308.3048,N,07726.2589,W,0.12,277.59,230419,,,A*79
$GPGGA,142307.600,4308.3048,N,07726.2589,W,1,09,0.86,141.3,M,-34.4,M,,*57
lng=-77.437644, lat=43.138412, altitude=141.40, speed=0.12, satellites=9, angle=277.5900, fixquality=1
$GPRMC,142307.800,A,4308.3048,N,07726.2589,W,0.11,231.55,230419,,,A*78
$GPGGA,142308.000,4308.3048,N,07726.2589,W,1,09,0.86,141.2,M,-34.4,M,,*5F
lng=-77.437644, lat=43.138412, altitude=141.30, speed=0.11, satellites=9, angle=231.5500, fixquality=1
$GPRMC,142308.200,A,4308.3048,N,07726.2589,W,0.14,239.41,230419,,,A*75
$GPGGA,142308.400,4308.3048,N,07726.2589,W,1,09,0.86,141.2,M,-34.4,M,,*5B
lng=-77.437644, lat=43.138412, altitude=141.20, speed=0.14, satellites=9, angle=239.4100, fixquality=1
$GPRMC,142308.600,A,4308.3048,N,07726.2589,W,0.19,225.32,230419,,,A*75
$GPGGA,142308.800,4308.3048,N,07726.2589,W,1,09,0.86,141.1,M,-34.4,M,,*54
lng=-77.437644, lat=43.138412, altitude=141.20, speed=0.19, satellites=9, angle=225.3200, fixquality=1
$GPRMC,142309.000,A,4308.3048,N,07726.2589,W,0.23,235.85,230419,,,A*76
$GPGGA,142309.200,4308.3048,N,07726.2590,W,1,09,0.86,141.0,M,-34.4,M,,*56
lng=-77.437644, lat=43.138412, altitude=141.10, speed=0.23, satellites=9, angle=235.8500, fixquality=1
$GPRMC,142309.400,A,4308.3048,N,07726.2590,W,0.23,238.93,230419,,,A*70
$GPGGA,142309.600,4308.3048,N,07726.2590,W,1,09,0.86,141.0,M,-34.4,M,,*52
lng=-77.437644, lat=43.138412, altitude=141.00, speed=0.23, satellites=9, angle=238.9300, fixquality=1
$GPRMC,142309.800,A,4308.3048,N,07726.2590,W,0.13,247.75,230419,,,A*7F
$GPGGA,142310.000,4308.3049,N,07726.2590,W,1,09,0.86,140.9,M,-34.4,M,,*55
lng=-77.437644, lat=43.138412, altitude=141.00, speed=0.13, satellites=9, angle=247.7500, fixquality=1
$GPRMC,142310.200,A,4308.3049,N,07726.2590,W,0.07,282.96,230419,,,A*7D
$GPGGA,142310.400,4308.3049,N,07726.2590,W,1,08,0.91,140.8,M,-34.4,M,,*57
lng=-77.437644, lat=43.138412, altitude=140.90, speed=0.07, satellites=9, angle=282.9600, fixquality=1
$GPRMC,142310.600,A,4308.3049,N,07726.2590,W,0.12,254.23,230419,,,A*78
$GPGGA,142310.800,4308.3049,N,07726.2590,W,1,08,0.91,140.8,M,-34.4,M,,*5B
lng=-77.437644, lat=43.138412, altitude=140.80, speed=0.12, satellites=8, angle=254.2300, fixquality=1
$GPRMC,142311.000,A,4308.3050,N,07726.2591,W,0.13,295.66,230419,,,A*7B
$GPGGA,142311.200,4308.3050,N,07726.2591,W,1,09,0.86,140.7,M,-34.4,M,,*51
lng=-77.437652, lat=43.138420, altitude=140.80, speed=0.13, satellites=8, angle=295.6600, fixquality=1
$GPRMC,142311.400,A,4308.3050,N,07726.2591,W,0.10,326.34,230419,,,A*72
$GPGGA,142311.600,4308.3050,N,07726.2591,W,1,08,0.91,140.6,M,-34.4,M,,*53
lng=-77.437652, lat=43.138420, altitude=140.70, speed=0.10, satellites=9, angle=326.3400, fixquality=1
$GPRMC,142311.800,A,4308.3050,N,07726.2590,W,0.05,104.45,230419,,,A*7F
$GPGGA,142312.000,4308.3050,N,07726.2590,W,1,08,0.91,140.6,M,-34.4,M,,*57
lng=-77.437644, lat=43.138420, altitude=140.60, speed=0.05, satellites=8, angle=104.4500, fixquality=1
$GPRMC,142312.200,A,4308.3050,N,07726.2590,W,0.04,89.73,230419,,,A*46
$GPGGA,142312.400,4308.3050,N,07726.2590,W,1,09,0.86,140.5,M,-34.4,M,,*57
lng=-77.437644, lat=43.138420, altitude=140.60, speed=0.04, satellites=8, angle=89.7300, fixquality=1
$GPRMC,142312.600,A,4308.3051,N,07726.2591,W,0.01,171.34,230419,,,A*72
$GPGGA,142312.800,4308.3051,N,07726.2591,W,1,09,0.86,140.5,M,-34.4,M,,*5B
lng=-77.437652, lat=43.138420, altitude=140.50, speed=0.01, satellites=9, angle=171.3400, fixquality=1
$GPRMC,142313.000,A,4308.3051,N,07726.2591,W,0.05,335.07,230419,,,A*73
$GPGGA,142313.200,4308.3051,N,07726.2591,W,1,09,0.86,140.4,M,-34.4,M,,*51
lng=-77.437652, lat=43.138420, altitude=140.50, speed=0.05, satellites=9, angle=335.0700, fixquality=1
$GPRMC,142313.400,A,4308.3052,N,07726.2591,W,0.09,327.66,230419,,,A*7C
$GPGGA,142313.600,4308.3052,N,07726.2592,W,1,08,0.91,140.4,M,-34.4,M,,*52
lng=-77.437652, lat=43.138420, altitude=140.40, speed=0.09, satellites=9, angle=327.6600, fixquality=1
$GPRMC,142313.800,A,4308.3052,N,07726.2592,W,0.15,271.41,230419,,,A*79
$GPGGA,142314.000,4308.3051,N,07726.2592,W,1,09,0.86,140.3,M,-34.4,M,,*50
lng=-77.437652, lat=43.138420, altitude=140.40, speed=0.15, satellites=8, angle=271.4100, fixquality=1
$GPRMC,142314.200,A,4308.3051,N,07726.2592,W,0.15,254.67,230419,,,A*74
$GPGGA,142314.400,4308.3051,N,07726.2592,W,1,09,0.86,140.3,M,-34.4,M,,*54
lng=-77.437652, lat=43.138420, altitude=140.30, speed=0.15, satellites=9, angle=254.6700, fixquality=1
$GPRMC,142314.600,A,4308.3051,N,07726.2593,W,0.15,262.10,230419,,,A*74
$GPGGA,142314.800,4308.3052,N,07726.2593,W,1,09,0.86,140.2,M,-34.4,M,,*5B
lng=-77.437652, lat=43.138420, altitude=140.30, speed=0.15, satellites=9, angle=262.1000, fixquality=1
$GPRMC,142315.000,A,4308.3052,N,07726.2593,W,0.11,269.65,230419,,,A*7D
$GPGGA,142315.200,4308.3052,N,07726.2593,W,1,08,0.91,140.2,M,-34.4,M,,*57
lng=-77.437652, lat=43.138420, altitude=140.20, speed=0.11, satellites=9, angle=269.6500, fixquality=1
$GPRMC,142315.400,A,4308.3052,N,07726.2593,W,0.10,272.04,230419,,,A*75
$GPGGA,142315.600,4308.3052,N,07726.2593,W,1,09,0.86,140.1,M,-34.4,M,,*57
lng=-77.437652, lat=43.138420, altitude=140.20, speed=0.10, satellites=8, angle=272.0400, fixquality=1
$GPRMC,142315.800,A,4308.3052,N,07726.2593,W,0.08,278.58,230419,,,A*73
$GPGGA,142316.000,4308.3052,N,07726.2594,W,1,08,0.91,140.0,M,-34.4,M,,*53
lng=-77.437652, lat=43.138420, altitude=140.10, speed=0.08, satellites=9, angle=278.5800, fixquality=1
$GPRMC,142316.200,A,4308.3052,N,07726.2593,W,0.01,231.10,230419,,,A*72
$GPGGA,142316.400,4308.3052,N,07726.2594,W,1,08,0.91,140.0,M,-34.4,M,,*57
lng=-77.437652, lat=43.138420, altitude=140.00, speed=0.01, satellites=8, angle=231.1000, fixquality=1
$GPRMC,142316.600,A,4308.3052,N,07726.2594,W,0.03,189.40,230419,,,A*76
$GPGGA,142316.800,4308.3052,N,07726.2594,W,1,08,0.92,139.9,M,-34.4,M,,*5F
lng=-77.437652, lat=43.138420, altitude=140.00, speed=0.03, satellites=8, angle=189.4000, fixquality=1
$GPRMC,142317.000,A,4308.3052,N,07726.2594,W,0.01,328.37,230419,,,A*7A
$GPGGA,142317.200,4308.3052,N,07726.2594,W,1,08,0.92,139.9,M,-34.4,M,,*54
lng=-77.437652, lat=43.138420, altitude=139.90, speed=0.01, satellites=8, angle=328.3700, fixquality=1
$GPRMC,142317.400,A,4308.3052,N,07726.2594,W,0.01,35.61,230419,,,A*42
$GPGGA,142317.600,4308.3052,N,07726.2594,W,1,08,0.92,139.8,M,-34.4,M,,*51
lng=-77.437652, lat=43.138420, altitude=139.90, speed=0.01, satellites=8, angle=35.6100, fixquality=1
$GPRMC,142317.800,A,4308.3052,N,07726.2594,W,0.00,111.52,230419,,,A*78
$GPGGA,142318.000,4308.3052,N,07726.2595,W,1,08,0.92,139.7,M,-34.4,M,,*56
lng=-77.437652, lat=43.138420, altitude=139.80, speed=0.00, satellites=8, angle=111.5200, fixquality=1
$GPRMC,142318.200,A,4308.3052,N,07726.2595,W,0.01,170.25,230419,,,A*7A
$GPGGA,142318.400,4308.3052,N,07726.2595,W,1,09,0.86,139.7,M,-34.4,M,,*56
lng=-77.437652, lat=43.138420, altitude=139.70, speed=0.01, satellites=8, angle=170.2500, fixquality=1
$GPRMC,142318.600,A,4308.3052,N,07726.2595,W,0.00,32.34,230419,,,A*48
$GPGGA,142318.800,4308.3052,N,07726.2595,W,1,09,0.86,139.6,M,-34.4,M,,*5B
lng=-77.437652, lat=43.138420, altitude=139.70, speed=0.00, satellites=9, angle=32.3400, fixquality=1
$GPRMC,142319.000,A,4308.3052,N,07726.2595,W,0.02,178.78,230419,,,A*7A
$GPGGA,142319.200,4308.3052,N,07726.2595,W,1,09,0.86,139.6,M,-34.4,M,,*50
lng=-77.437652, lat=43.138420, altitude=139.60, speed=0.02, satellites=9, angle=178.7800, fixquality=1
$GPRMC,142319.400,A,4308.3052,N,07726.2595,W,0.03,291.39,230419,,,A*7E
$GPGGA,142319.600,4308.3052,N,07726.2595,W,1,09,0.86,139.5,M,-34.4,M,,*57
lng=-77.437652, lat=43.138420, altitude=139.60, speed=0.03, satellites=9, angle=291.3900, fixquality=1
$GPRMC,142319.800,A,4308.3052,N,07726.2595,W,0.00,300.30,230419,,,A*71
$GPGGA,142320.000,4308.3052,N,07726.2595,W,1,09,0.86,139.5,M,-34.4,M,,*5B
lng=-77.437652, lat=43.138420, altitude=139.50, speed=0.00, satellites=9, angle=300.3000, fixquality=1
$GPRMC,142320.200,A,4308.3052,N,07726.2595,W,0.00,331.29,230419,,,A*7B
$GPGGA,142320.400,4308.3052,N,07726.2595,W,1,09,0.86,139.4,M,-34.4,M,,*5E
lng=-77.437652, lat=43.138420, altitude=139.50, speed=0.00, satellites=9, angle=331.2900, fixquality=1
$GPRMC,142320.600,A,4308.3052,N,07726.2595,W,0.00,104.64,230419,,,A*72
$GPGGA,142320.800,4308.3052,N,07726.2595,W,1,10,0.79,139.4,M,-34.4,M,,*5A
lng=-77.437652, lat=43.138420, altitude=139.40, speed=0.00, satellites=9, angle=104.6400, fixquality=1
$GPRMC,142321.000,A,4308.3052,N,07726.2595,W,0.01,144.18,230419,,,A*7B
$GPGGA,142321.200,4308.3052,N,07726.2595,W,1,09,0.86,139.3,M,-34.4,M,,*5E
lng=-77.437652, lat=43.138420, altitude=139.40, speed=0.01, satellites=10, angle=144.1800, fixquality=1
$GPRMC,142321.400,A,4308.3052,N,07726.2595,W,0.01,123.78,230419,,,A*78
$GPGGA,142321.600,4308.3052,N,07726.2595,W,1,09,0.86,139.3,M,-34.4,M,,*5A
lng=-77.437652, lat=43.138420, altitude=139.30, speed=0.01, satellites=9, angle=123.7800, fixquality=1
$GPRMC,142321.800,A,4308.3052,N,07726.2595,W,0.01,0.29,230419,,,A*70
$GPGGA,142322.000,4308.3052,N,07726.2595,W,1,09,0.86,139.3,M,-34.4,M,,*5F
lng=-77.437652, lat=43.138420, altitude=139.30, speed=0.01, satellites=9, angle=0.2900, fixquality=1
$GPRMC,142322.200,A,4308.3052,N,07726.2595,W,0.01,53.96,230419,,,A*4B
$GPGGA,142322.400,4308.3052,N,07726.2596,W,1,10,0.79,139.2,M,-34.4,M,,*51
lng=-77.437652, lat=43.138420, altitude=139.30, speed=0.01, satellites=9, angle=53.9600, fixquality=1
$GPRMC,142322.600,A,4308.3052,N,07726.2596,W,0.00,154.10,230419,,,A*75
$GPGGA,142322.800,4308.3051,N,07726.2596,W,1,09,0.86,139.2,M,-34.4,M,,*56
lng=-77.437660, lat=43.138420, altitude=139.20, speed=0.00, satellites=10, angle=154.1000, fixquality=1
$GPRMC,142323.000,A,4308.3051,N,07726.2596,W,0.00,209.21,230419,,,A*78
$GPGGA,142323.200,4308.3051,N,07726.2596,W,1,09,0.86,139.1,M,-34.4,M,,*5E
lng=-77.437660, lat=43.138420, altitude=139.20, speed=0.00, satellites=9, angle=209.2100, fixquality=1
$GPRMC,142323.400,A,4308.3051,N,07726.2596,W,0.00,271.03,230419,,,A*73
$GPGGA,142323.600,4308.3051,N,07726.2596,W,1,09,0.86,139.1,M,-34.4,M,,*5A
lng=-77.437660, lat=43.138420, altitude=139.10, speed=0.00, satellites=9, angle=271.0300, fixquality=1
$GPRMC,142323.800,A,4308.3051,N,07726.2596,W,0.00,160.09,230419,,,A*76
$GPGGA,142324.000,4308.3051,N,07726.2596,W,1,09,0.86,139.1,M,-34.4,M,,*5B
lng=-77.437660, lat=43.138420, altitude=139.10, speed=0.00, satellites=9, angle=160.0900, fixquality=1
$GPRMC,142324.200,A,4308.3051,N,07726.2596,W,0.01,273.80,230419,,,A*7A
$GPGGA,142324.400,4308.3051,N,07726.2596,W,1,10,0.79,139.1,M,-34.4,M,,*57
lng=-77.437660, lat=43.138420, altitude=139.10, speed=0.01, satellites=9, angle=273.8000, fixquality=1
$GPRMC,142324.600,A,4308.3051,N,07726.2596,W,0.01,187.42,230419,,,A*78
$GPGGA,142324.800,4308.3051,N,07726.2596,W,1,09,0.86,139.0,M,-34.4,M,,*52
lng=-77.437660, lat=43.138420, altitude=139.10, speed=0.01, satellites=10, angle=187.4200, fixquality=1
$GPRMC,142325.000,A,4308.3050,N,07726.2596,W,0.00,310.79,230419,,,A*7B
$GPGGA,142325.200,4308.3050,N,07726.2596,W,1,09,0.86,139.0,M,-34.4,M,,*58
lng=-77.437660, lat=43.138420, altitude=139.00, speed=0.00, satellites=9, angle=310.7900, fixquality=1
$GPRMC,142325.400,A,4308.3050,N,07726.2596,W,0.01,202.93,230419,,,A*78
$GPGGA,142325.600,4308.3050,N,07726.2596,W,1,09,0.86,139.0,M,-34.4,M,,*5C
lng=-77.437660, lat=43.138420, altitude=139.00, speed=0.01, satellites=9, angle=202.9300, fixquality=1
$GPRMC,142325.800,A,4308.3050,N,07726.2596,W,0.00,161.25,230419,,,A*7E
$GPGGA,142326.000,4308.3050,N,07726.2596,W,1,09,0.86,139.0,M,-34.4,M,,*59
lng=-77.437660, lat=43.138420, altitude=139.00, speed=0.00, satellites=9, angle=161.2500, fixquality=1
$GPRMC,142326.200,A,4308.3050,N,07726.2596,W,0.01,86.22,230419,,,A*49
$GPGGA,142326.400,4308.3050,N,07726.2596,W,1,09,0.86,139.0,M,-34.4,M,,*5D
lng=-77.437660, lat=43.138420, altitude=139.00, speed=0.01, satellites=9, angle=86.2200, fixquality=1
$GPRMC,142326.600,A,4308.3050,N,07726.2596,W,0.01,59.12,230419,,,A*4C
$GPGGA,142326.800,4308.3050,N,07726.2596,W,1,09,0.86,139.0,M,-34.4,M,,*51
lng=-77.437660, lat=43.138420, altitude=139.00, speed=0.01, satellites=9, angle=59.1200, fixquality=1
$GPRMC,142327.000,A,4308.3050,N,07726.2596,W,0.01,87.40,230419,,,A*4F
$GPGGA,142327.200,4308.3050,N,07726.2595,W,1,09,0.86,139.0,M,-34.4,M,,*59
lng=-77.437660, lat=43.138420, altitude=139.00, speed=0.01, satellites=9, angle=87.4000, fixquality=1
$GPRMC,142327.400,A,4308.3049,N,07726.2595,W,0.00,13.43,230419,,,A*4F
$GPGGA,142327.600,4308.3049,N,07726.2595,W,1,09,0.86,139.0,M,-34.4,M,,*55
lng=-77.437652, lat=43.138412, altitude=139.00, speed=0.00, satellites=9, angle=13.4300, fixquality=1
$GPRMC,142327.800,A,4308.3049,N,07726.2595,W,0.01,40.10,230419,,,A*42
$GPGGA,142328.000,4308.3049,N,07726.2595,W,1,09,0.86,139.0,M,-34.4,M,,*5C
lng=-77.437652, lat=43.138412, altitude=139.00, speed=0.01, satellites=9, angle=40.1000, fixquality=1
$GPRMC,142328.200,A,4308.3049,N,07726.2595,W,0.00,190.34,230419,,,A*7C
$GPGGA,142328.400,4308.3049,N,07726.2595,W,1,09,0.86,139.0,M,-34.4,M,,*58
lng=-77.437652, lat=43.138412, altitude=139.00, speed=0.00, satellites=9, angle=190.3400, fixquality=1
$GPRMC,142328.600,A,4308.3049,N,07726.2595,W,0.00,26.34,230419,,,A*44
$GPGGA,142328.800,4308.3049,N,07726.2595,W,1,09,0.86,139.0,M,-34.4,M,,*54
lng=-77.437652, lat=43.138412, altitude=139.00, speed=0.00, satellites=9, angle=26.3400, fixquality=1
$GPRMC,142329.000,A,4308.3049,N,07726.2595,W,0.00,197.72,230419,,,A*7A
$GPGGA,142329.200,4308.3049,N,07726.2595,W,1,09,0.86,139.0,M,-34.4,M,,*5F
lng=-77.437652, lat=43.138412, altitude=139.00, speed=0.00, satellites=9, angle=197.7200, fixquality=1
$GPRMC,142329.400,A,4308.3049,N,07726.2595,W,0.01,167.92,230419,,,A*7E
$GPGGA,142329.600,4308.3049,N,07726.2595,W,1,09,0.86,139.0,M,-34.4,M,,*5B
lng=-77.437652, lat=43.138412, altitude=139.00, speed=0.01, satellites=9, angle=167.9200, fixquality=1
$GPRMC,142329.800,A,4308.3049,N,07726.2595,W,0.00,286.88,230419,,,A*74
$GPGGA,142330.000,4308.3049,N,07726.2595,W,1,09,0.86,139.0,M,-34.4,M,,*55
lng=-77.437652, lat=43.138412, altitude=139.00, speed=0.00, satellites=9, angle=286.8800, fixquality=1
$GPRMC,142330.200,A,4308.3049,N,07726.2595,W,0.01,35.45,230419,,,A*4C
$GPGGA,142330.400,4308.3049,N,07726.2595,W,1,09,0.86,139.0,M,-34.4,M,,*51
lng=-77.437652, lat=43.138412, altitude=139.00, speed=0.01, satellites=9, angle=35.4500, fixquality=1
$GPRMC,142330.600,A,4308.3049,N,07726.2596,W,0.04,6.96,230419,,,A*70
$GPGGA,142330.800,4308.3049,N,07726.2596,W,1,09,0.86,139.0,M,-34.4,M,,*5E
lng=-77.437660, lat=43.138412, altitude=139.00, speed=0.04, satellites=9, angle=6.9600, fixquality=1
$GPRMC,142331.000,A,4308.3050,N,07726.2596,W,0.08,17.84,230419,,,A*40
$GPGGA,142331.200,4308.3050,N,07726.2595,W,1,09,0.86,139.1,M,-34.4,M,,*5F
lng=-77.437660, lat=43.138420, altitude=139.00, speed=0.08, satellites=9, angle=17.8400, fixquality=1
$GPRMC,142331.400,A,4308.3050,N,07726.2595,W,0.01,31.28,230419,,,A*4C
$GPGGA,142331.600,4308.3050,N,07726.2595,W,1,09,0.86,139.1,M,-34.4,M,,*5B
lng=-77.437652, lat=43.138420, altitude=139.10, speed=0.01, satellites=9, angle=31.2800, fixquality=1
$GPRMC,142331.800,A,4308.3050,N,07726.2596,W,0.01,20.97,230419,,,A*47
$GPGGA,142332.000,4308.3050,N,07726.2596,W,1,09,0.86,139.1,M,-34.4,M,,*5D
lng=-77.437660, lat=43.138420, altitude=139.10, speed=0.01, satellites=9, angle=20.9700, fixquality=1
$GPRMC,142332.200,A,4308.3050,N,07726.2596,W,0.01,20.12,230419,,,A*43
$GPGGA,142332.400,4308.3050,N,07726.2596,W,1,10,0.78,139.1,M,-34.4,M,,*50
lng=-77.437660, lat=43.138420, altitude=139.10, speed=0.01, satellites=9, angle=20.1200, fixquality=1
$GPRMC,142332.600,A,4308.3050,N,07726.2596,W,0.14,32.37,230419,,,A*47
$GPGGA,142332.800,4308.3051,N,07726.2596,W,1,10,0.78,139.1,M,-34.4,M,,*5D
lng=-77.437660, lat=43.138420, altitude=139.10, speed=0.14, satellites=10, angle=32.3700, fixquality=1
$GPRMC,142333.000,A,4308.3051,N,07726.2595,W,0.33,33.83,230419,,,A*49
$GPGGA,142333.200,4308.3051,N,07726.2595,W,1,09,0.86,139.1,M,-34.4,M,,*5C
lng=-77.437652, lat=43.138420, altitude=139.10, speed=0.33, satellites=10, angle=33.8300, fixquality=1
$GPRMC,142333.400,A,4308.3051,N,07726.2596,W,0.08,348.67,230419,,,A*73
$GPGGA,142333.600,4308.3052,N,07726.2596,W,1,10,0.79,139.1,M,-34.4,M,,*50
lng=-77.437660, lat=43.138420, altitude=139.10, speed=0.08, satellites=9, angle=348.6700, fixquality=1
$GPRMC,142333.800,A,4308.3053,N,07726.2596,W,0.46,354.86,230419,,,A*75
$GPGGA,142334.000,4308.3054,N,07726.2596,W,1,10,0.79,139.1,M,-34.4,M,,*57
lng=-77.437660, lat=43.138420, altitude=139.10, speed=0.46, satellites=10, angle=354.8600, fixquality=1
$GPRMC,142334.200,A,4308.3055,N,07726.2596,W,0.92,0.38,230419,,,A*70
$GPGGA,142334.400,4308.3056,N,07726.2596,W,1,10,0.79,139.1,M,-34.4,M,,*51
lng=-77.437660, lat=43.138427, altitude=139.10, speed=0.92, satellites=10, angle=0.3800, fixquality=1
$GPRMC,142334.600,A,4308.3058,N,07726.2596,W,2.26,1.64,230419,,,A*7C
$GPGGA,142334.800,4308.3061,N,07726.2595,W,1,10,0.79,139.1,M,-34.4,M,,*5A
lng=-77.437660, lat=43.138427, altitude=139.10, speed=2.26, satellites=10, angle=1.6400, fixquality=1
$GPRMC,142335.000,A,4308.3064,N,07726.2595,W,3.67,358.61,230419,,,A*79
$GPGGA,142335.200,4308.3067,N,07726.2595,W,1,10,0.79,139.1,M,-34.4,M,,*57
lng=-77.437652, lat=43.138442, altitude=139.10, speed=3.67, satellites=10, angle=358.6100, fixquality=1
$GPRMC,142335.400,A,4308.3070,N,07726.2595,W,3.83,357.14,230419,,,A*7F
$GPGGA,142335.600,4308.3074,N,07726.2595,W,1,10,0.79,139.0,M,-34.4,M,,*50
lng=-77.437652, lat=43.138450, altitude=139.10, speed=3.83, satellites=10, angle=357.1400, fixquality=1
$GPRMC,142335.800,A,4308.3077,N,07726.2596,W,4.02,356.59,230419,,,A*71
$GPGGA,142336.000,4308.3080,N,07726.2596,W,1,10,0.79,138.8,M,-34.4,M,,*54
lng=-77.437660, lat=43.138462, altitude=139.00, speed=4.02, satellites=10, angle=356.5900, fixquality=1
$GPRMC,142336.200,A,4308.3084,N,07726.2596,W,4.09,358.22,230419,,,A*7D
$GPGGA,142336.400,4308.3086,N,07726.2596,W,1,10,0.79,138.7,M,-34.4,M,,*59
lng=-77.437660, lat=43.138477, altitude=138.80, speed=4.09, satellites=10, angle=358.2200, fixquality=1
$GPRMC,142336.600,A,4308.3090,N,07726.2596,W,4.06,359.62,230419,,,A*76
$GPGGA,142336.800,4308.3092,N,07726.2595,W,1,09,0.85,138.6,M,-34.4,M,,*59
lng=-77.437660, lat=43.138484, altitude=138.70, speed=4.06, satellites=10, angle=359.6200, fixquality=1
$GPRMC,142337.000,A,4308.3095,N,07726.2595,W,3.76,2.96,230419,,,A*71
$GPGGA,142337.200,4308.3097,N,07726.2595,W,1,10,0.79,138.5,M,-34.4,M,,*5F
lng=-77.437652, lat=43.138492, altitude=138.60, speed=3.76, satellites=9, angle=2.9600, fixquality=1
$GPRMC,142337.400,A,4308.3100,N,07726.2594,W,3.54,6.29,230419,,,A*79
$GPGGA,142337.600,4308.3102,N,07726.2594,W,1,10,0.79,138.4,M,-34.4,M,,*56
lng=-77.437652, lat=43.138500, altitude=138.50, speed=3.54, satellites=10, angle=6.2900, fixquality=1
$GPRMC,142337.800,A,4308.3104,N,07726.2594,W,3.27,13.62,230419,,,A*4E
$GPGGA,142338.000,4308.3106,N,07726.2593,W,1,10,0.79,138.4,M,-34.4,M,,*5C
lng=-77.437652, lat=43.138507, altitude=138.40, speed=3.27, satellites=10, angle=13.6200, fixquality=1
$GPRMC,142338.200,A,4308.3108,N,07726.2593,W,3.50,17.53,230419,,,A*46
$GPGGA,142338.400,4308.3110,N,07726.2593,W,1,10,0.78,138.4,M,-34.4,M,,*5E
lng=-77.437652, lat=43.138515, altitude=138.40, speed=3.50, satellites=10, angle=17.5300, fixquality=1
$GPRMC,142338.600,A,4308.3112,N,07726.2592,W,3.84,27.54,230419,,,A*45
$GPGGA,142338.800,4308.3114,N,07726.2591,W,1,10,0.78,138.3,M,-34.4,M,,*53
lng=-77.437652, lat=43.138515, altitude=138.40, speed=3.84, satellites=10, angle=27.5400, fixquality=1
$GPRMC,142339.000,A,4308.3117,N,07726.2589,W,3.93,33.02,230419,,,A*4D
$GPGGA,142339.200,4308.3119,N,07726.2588,W,1,10,0.79,138.3,M,-34.4,M,,*5C
lng=-77.437644, lat=43.138526, altitude=138.30, speed=3.93, satellites=10, angle=33.0200, fixquality=1
$GPRMC,142339.400,A,4308.3121,N,07726.2586,W,3.62,36.00,230419,,,A*4A
$GPGGA,142339.600,4308.3123,N,07726.2585,W,1,10,0.78,138.3,M,-34.4,M,,*5D
lng=-77.437644, lat=43.138534, altitude=138.30, speed=3.62, satellites=10, angle=36.0000, fixquality=1
$GPRMC,142339.800,A,4308.3124,N,07726.2584,W,3.68,50.58,230419,,,A*46
$GPGGA,142340.000,4308.3127,N,07726.2583,W,1,10,0.78,138.7,M,-34.4,M,,*53
lng=-77.437637, lat=43.138542, altitude=138.30, speed=3.68, satellites=10, angle=50.5800, fixquality=1
$GPRMC,142340.200,A,4308.3130,N,07726.2582,W,3.90,55.66,230419,,,A*4E
$GPGGA,142340.400,4308.3132,N,07726.2580,W,1,10,0.79,138.8,M,-34.4,M,,*5E
lng=-77.437637, lat=43.138549, altitude=138.70, speed=3.90, satellites=10, angle=55.6600, fixquality=1
$GPRMC,142340.600,A,4308.3134,N,07726.2577,W,3.91,67.86,230419,,,A*4A
$GPGGA,142340.800,4308.3136,N,07726.2576,W,1,10,0.79,139.0,M,-34.4,M,,*56
lng=-77.437629, lat=43.138557, altitude=138.80, speed=3.91, satellites=10, angle=67.8600, fixquality=1
$GPRMC,142341.000,A,4308.3137,N,07726.2576,W,3.08,71.37,230419,,,A*42
$GPGGA,142341.200,4308.3139,N,07726.2576,W,1,10,0.78,139.3,M,-34.4,M,,*50
lng=-77.437629, lat=43.138557, altitude=139.00, speed=3.08, satellites=10, angle=71.3700, fixquality=1
$GPRMC,142341.400,A,4308.3140,N,07726.2575,W,2.67,77.56,230419,,,A*4C
$GPGGA,142341.600,4308.3141,N,07726.2575,W,1,10,0.79,139.6,M,-34.4,M,,*5C
lng=-77.437622, lat=43.138565, altitude=139.30, speed=2.67, satellites=10, angle=77.5600, fixquality=1
$GPRMC,142341.800,A,4308.3142,N,07726.2575,W,2.00,81.34,230419,,,A*4E
$GPGGA,142342.000,4308.3142,N,07726.2575,W,1,10,0.78,139.9,M,-34.4,M,,*54
lng=-77.437622, lat=43.138565, altitude=139.60, speed=2.00, satellites=10, angle=81.3400, fixquality=1
$GPRMC,142342.200,A,4308.3143,N,07726.2575,W,1.08,81.63,230419,,,A*4F
$GPGGA,142342.400,4308.3144,N,07726.2576,W,1,10,0.78,140.1,M,-34.4,M,,*53
lng=-77.437622, lat=43.138572, altitude=139.90, speed=1.08, satellites=10, angle=81.6300, fixquality=1
$GPRMC,142342.600,A,4308.3144,N,07726.2577,W,0.47,92.43,230419,,,A*44
$GPGGA,142342.800,4308.3144,N,07726.2577,W,1,10,0.78,140.3,M,-34.4,M,,*5C
lng=-77.437629, lat=43.138572, altitude=140.10, speed=0.47, satellites=10, angle=92.4300, fixquality=1
$GPRMC,142343.000,A,4308.3145,N,07726.2578,W,0.16,164.28,230419,,,A*7C
$GPGGA,142343.200,4308.3145,N,07726.2579,W,1,10,0.78,140.5,M,-34.4,M,,*5E
lng=-77.437629, lat=43.138572, altitude=140.30, speed=0.16, satellites=10, angle=164.2800, fixquality=1
$GPRMC,142343.400,A,4308.3146,N,07726.2580,W,0.24,227.13,230419,,,A*71
$GPGGA,142343.600,4308.3146,N,07726.2581,W,1,10,0.78,140.7,M,-34.4,M,,*5C
lng=-77.437629, lat=43.138572, altitude=140.50, speed=0.24, satellites=10, angle=227.1300, fixquality=1
$GPRMC,142343.800,A,4308.3146,N,07726.2582,W,0.56,251.97,230419,,,A*77
$GPGGA,142344.000,4308.3147,N,07726.2584,W,1,10,0.78,140.8,M,-34.4,M,,*56
lng=-77.437637, lat=43.138572, altitude=140.70, speed=0.56, satellites=10, angle=251.9700, fixquality=1
$GPRMC,142344.200,A,4308.3147,N,07726.2584,W,0.91,262.87,230419,,,A*77
$GPGGA,142344.400,4308.3147,N,07726.2586,W,1,10,0.78,140.9,M,-34.4,M,,*51
lng=-77.437637, lat=43.138584, altitude=140.80, speed=0.91, satellites=10, angle=262.8700, fixquality=1
$GPRMC,142344.600,A,4308.3148,N,07726.2588,W,1.36,264.20,230419,,,A*77
$GPGGA,142344.800,4308.3148,N,07726.2591,W,1,10,0.78,141.0,M,-34.4,M,,*5C
lng=-77.437644, lat=43.138584, altitude=140.90, speed=1.36, satellites=10, angle=264.2000, fixquality=1
$GPRMC,142345.000,A,4308.3148,N,07726.2593,W,3.40,265.49,230419,,,A*77
$GPGGA,142345.200,4308.3148,N,07726.2596,W,1,10,0.78,141.0,M,-34.4,M,,*50
lng=-77.437652, lat=43.138584, altitude=141.00, speed=3.40, satellites=10, angle=265.4900, fixquality=1
$GPRMC,142345.400,A,4308.3148,N,07726.2599,W,4.57,265.40,230419,,,A*71
$GPGGA,142345.600,4308.3148,N,07726.2604,W,1,10,0.79,141.1,M,-34.4,M,,*5C
lng=-77.437660, lat=43.138584, altitude=141.00, speed=4.57, satellites=10, angle=265.4000, fixquality=1
$GPRMC,142345.800,A,4308.3149,N,07726.2608,W,5.94,273.09,230419,,,A*73
$GPGGA,142346.000,4308.3150,N,07726.2613,W,1,10,0.79,141.2,M,-34.4,M,,*55
lng=-77.437675, lat=43.138584, altitude=141.10, speed=5.94, satellites=10, angle=273.0900, fixquality=1
$GPRMC,142346.200,A,4308.3150,N,07726.2619,W,6.83,275.38,230419,,,A*73
$GPGGA,142346.400,4308.3151,N,07726.2625,W,1,10,0.79,141.3,M,-34.4,M,,*54
lng=-77.437698, lat=43.138584, altitude=141.20, speed=6.83, satellites=10, angle=275.3800, fixquality=1
$GPRMC,142346.600,A,4308.3152,N,07726.2631,W,7.95,278.37,230419,,,A*7B
$GPGGA,142346.800,4308.3154,N,07726.2638,W,1,10,0.79,141.3,M,-34.4,M,,*51
lng=-77.437721, lat=43.138591, altitude=141.30, speed=7.95, satellites=10, angle=278.3700, fixquality=1
$GPRMC,142347.000,A,4308.3155,N,07726.2644,W,8.96,281.14,230419,,,A*72
$GPGGA,142347.200,4308.3156,N,07726.2651,W,1,10,0.79,141.4,M,-34.4,M,,*50
lng=-77.437736, lat=43.138591, altitude=141.30, speed=8.96, satellites=10, angle=281.1400, fixquality=1
$GPRMC,142347.400,A,4308.3158,N,07726.2658,W,9.37,282.03,230419,,,A*79
$GPGGA,142347.600,4308.3159,N,07726.2665,W,1,10,0.79,141.5,M,-34.4,M,,*5D
lng=-77.437759, lat=43.138599, altitude=141.40, speed=9.37, satellites=10, angle=282.0300, fixquality=1
$GPRMC,142347.800,A,4308.3160,N,07726.2671,W,9.41,281.88,230419,,,A*74
$GPGGA,142348.000,4308.3161,N,07726.2679,W,1,10,0.79,141.6,M,-34.4,M,,*51
lng=-77.437782, lat=43.138599, altitude=141.50, speed=9.41, satellites=10, angle=281.8800, fixquality=1
$GPRMC,142348.200,A,4308.3162,N,07726.2686,W,9.74,281.99,230419,,,A*7D
$GPGGA,142348.400,4308.3164,N,07726.2693,W,1,10,0.79,141.7,M,-34.4,M,,*55
lng=-77.437812, lat=43.138607, altitude=141.60, speed=9.74, satellites=10, angle=281.9900, fixquality=1
$GPRMC,142348.600,A,4308.3167,N,07726.2701,W,10.01,284.43,230419,,,A*4A
$GPGGA,142348.800,4308.3169,N,07726.2710,W,1,10,0.79,141.7,M,-34.4,M,,*5E
lng=-77.437835, lat=43.138614, altitude=141.70, speed=10.01, satellites=10, angle=284.4300, fixquality=1
$GPRMC,142349.000,A,4308.3171,N,07726.2719,W,10.32,285.43,230419,,,A*42
$GPGGA,142349.200,4308.3172,N,07726.2727,W,1,10,0.79,141.8,M,-34.4,M,,*54
lng=-77.437866, lat=43.138614, altitude=141.70, speed=10.32, satellites=10, angle=285.4300, fixquality=1
$GPRMC,142349.400,A,4308.3173,N,07726.2736,W,10.68,284.93,230419,,,A*4A
$GPGGA,142349.600,4308.3174,N,07726.2745,W,1,10,0.79,141.9,M,-34.4,M,,*53
lng=-77.437889, lat=43.138622, altitude=141.80, speed=10.68, satellites=10, angle=284.9300, fixquality=1
$GPRMC,142349.800,A,4308.3177,N,07726.2754,W,11.25,285.84,230419,,,A*49
$GPGGA,142350.000,4308.3178,N,07726.2762,W,1,10,0.79,141.9,M,-34.4,M,,*54
lng=-77.437919, lat=43.138629, altitude=141.90, speed=11.25, satellites=10, angle=285.8400, fixquality=1
$GPRMC,142350.200,A,4308.3180,N,07726.2770,W,11.50,286.42,230419,,,A*4E
$GPGGA,142350.400,4308.3181,N,07726.2779,W,1,10,0.79,141.9,M,-34.4,M,,*5C
lng=-77.437950, lat=43.138629, altitude=141.90, speed=11.50, satellites=10, angle=286.4200, fixquality=1
$GPRMC,142350.600,A,4308.3183,N,07726.2788,W,12.12,286.52,230419,,,A*4A
$GPGGA,142350.800,4308.3185,N,07726.2798,W,1,10,0.79,141.8,M,-34.4,M,,*5A
lng=-77.437980, lat=43.138637, altitude=141.90, speed=12.12, satellites=10, angle=286.5200, fixquality=1
$GPRMC,142351.000,A,4308.3188,N,07726.2807,W,12.49,287.57,230419,,,A*44
$GPGGA,142351.200,4308.3190,N,07726.2816,W,1,10,0.79,141.8,M,-34.4,M,,*5C
lng=-77.438011, lat=43.138648, altitude=141.80, speed=12.49, satellites=10, angle=287.5700, fixquality=1
$GPRMC,142351.400,A,4308.3192,N,07726.2826,W,12.71,288.28,230419,,,A*44
$GPGGA,142351.600,4308.3195,N,07726.2835,W,1,10,0.79,141.8,M,-34.4,M,,*5C
lng=-77.438041, lat=43.138656, altitude=141.80, speed=12.71, satellites=10, angle=288.2800, fixquality=1
$GPRMC,142351.800,A,4308.3198,N,07726.2844,W,12.83,289.42,230419,,,A*46
$GPGGA,142352.000,4308.3201,N,07726.2854,W,1,10,0.79,141.8,M,-34.4,M,,*50
lng=-77.438072, lat=43.138664, altitude=141.80, speed=12.83, satellites=10, angle=289.4200, fixquality=1
$GPRMC,142352.200,A,4308.3204,N,07726.2863,W,12.84,291.70,230419,,,A*43
$GPGGA,142352.400,4308.3208,N,07726.2873,W,1,10,0.79,141.8,M,-34.4,M,,*58
lng=-77.438102, lat=43.138671, altitude=141.80, speed=12.84, satellites=10, angle=291.7000, fixquality=1
$GPRMC,142352.600,A,4308.3211,N,07726.2883,W,13.15,294.55,230419,,,A*46
$GPGGA,142352.800,4308.3215,N,07726.2893,W,1,10,0.79,141.7,M,-34.4,M,,*59
lng=-77.438133, lat=43.138687, altitude=141.80, speed=13.15, satellites=10, angle=294.5500, fixquality=1
$GPRMC,142353.000,A,4308.3219,N,07726.2903,W,13.42,296.03,230419,,,A*43
$GPGGA,142353.200,4308.3224,N,07726.2913,W,1,10,0.79,141.7,M,-34.4,M,,*59
lng=-77.438179, lat=43.138694, altitude=141.70, speed=13.42, satellites=10, angle=296.0300, fixquality=1
$GPRMC,142353.400,A,4308.3227,N,07726.2923,W,13.65,297.44,230419,,,A*4F
$GPGGA,142353.600,4308.3231,N,07726.2933,W,1,10,0.79,141.8,M,-34.4,M,,*54
lng=-77.438209, lat=43.138713, altitude=141.70, speed=13.65, satellites=10, angle=297.4400, fixquality=1
$GPRMC,142353.800,A,4308.3234,N,07726.2943,W,13.76,298.69,230419,,,A*45
$GPGGA,142354.000,4308.3238,N,07726.2952,W,1,10,0.79,141.9,M,-34.4,M,,*5A
lng=-77.438240, lat=43.138721, altitude=141.80, speed=13.76, satellites=10, angle=298.6900, fixquality=1
$GPRMC,142354.200,A,4308.3242,N,07726.2962,W,13.98,299.48,230419,,,A*48
$GPGGA,142354.400,4308.3246,N,07726.2971,W,1,10,0.79,142.0,M,-34.4,M,,*5C
lng=-77.438270, lat=43.138736, altitude=141.90, speed=13.98, satellites=10, angle=299.4800, fixquality=1
$GPRMC,142354.600,A,4308.3251,N,07726.2981,W,14.23,301.10,230419,,,A*49
$GPGGA,142354.800,4308.3256,N,07726.2991,W,1,10,0.79,142.1,M,-34.4,M,,*5E
lng=-77.438308, lat=43.138751, altitude=142.00, speed=14.23, satellites=10, angle=301.1000, fixquality=1
$GPRMC,142355.000,A,4308.3262,N,07726.3000,W,14.48,302.47,230419,,,A*43
$GPGGA,142355.200,4308.3267,N,07726.3009,W,1,10,0.79,142.3,M,-34.4,M,,*5C
lng=-77.438331, lat=43.138771, altitude=142.10, speed=14.48, satellites=10, angle=302.4700, fixquality=1
$GPRMC,142355.400,A,4308.3272,N,07726.3019,W,14.71,303.15,230419,,,A*42
$GPGGA,142355.600,4308.3277,N,07726.3028,W,1,10,0.79,142.5,M,-34.4,M,,*5C
lng=-77.438362, lat=43.138786, altitude=142.30, speed=14.71, satellites=10, angle=303.1500, fixquality=1
$GPRMC,142355.800,A,4308.3282,N,07726.3037,W,14.81,303.64,230419,,,A*44
$GPGGA,142356.000,4308.3287,N,07726.3047,W,1,10,0.79,142.7,M,-34.4,M,,*5D
lng=-77.438392, lat=43.138801, altitude=142.50, speed=14.81, satellites=10, angle=303.6400, fixquality=1
$GPRMC,142356.200,A,4308.3291,N,07726.3057,W,15.06,303.99,230419,,,A*45
$GPGGA,142356.400,4308.3295,N,07726.3067,W,1,10,0.79,142.9,M,-34.4,M,,*56
lng=-77.438430, lat=43.138816, altitude=142.70, speed=15.06, satellites=10, angle=303.9900, fixquality=1
$GPRMC,142356.600,A,4308.3300,N,07726.3076,W,15.16,303.72,230419,,,A*4F
$GPGGA,142356.800,4308.3305,N,07726.3086,W,1,10,0.79,143.1,M,-34.4,M,,*54
lng=-77.438461, lat=43.138835, altitude=142.90, speed=15.16, satellites=10, angle=303.7200, fixquality=1
$GPRMC,142357.000,A,4308.3309,N,07726.3096,W,15.28,303.46,230419,,,A*45
$GPGGA,142357.200,4308.3314,N,07726.3106,W,1,10,0.79,143.3,M,-34.4,M,,*54
lng=-77.438491, lat=43.138851, altitude=143.10, speed=15.28, satellites=10, angle=303.4600, fixquality=1
$GPRMC,142357.400,A,4308.3319,N,07726.3116,W,15.35,303.10,230419,,,A*46
$GPGGA,142357.600,4308.3324,N,07726.3126,W,1,10,0.79,143.5,M,-34.4,M,,*57
lng=-77.438522, lat=43.138866, altitude=143.30, speed=15.35, satellites=10, angle=303.1000, fixquality=1
$GPRMC,142357.800,A,4308.3330,N,07726.3136,W,15.42,303.38,230419,,,A*49
$GPGGA,142358.000,4308.3335,N,07726.3146,W,1,10,0.79,143.7,M,-34.4,M,,*5A
lng=-77.438560, lat=43.138881, altitude=143.50, speed=15.42, satellites=10, angle=303.3800, fixquality=1
$GPRMC,142358.200,A,4308.3340,N,07726.3157,W,15.49,303.32,230419,,,A*4D
$GPGGA,142358.400,4308.3345,N,07726.3167,W,1,10,0.79,143.8,M,-34.4,M,,*55
lng=-77.438598, lat=43.138900, altitude=143.70, speed=15.49, satellites=10, angle=303.3200, fixquality=1
$GPRMC,142358.600,A,4308.3350,N,07726.3178,W,15.60,302.84,230419,,,A*42
$GPGGA,142358.800,4308.3355,N,07726.3188,W,1,10,0.79,144.0,M,-34.4,M,,*56
lng=-77.438629, lat=43.138916, altitude=143.80, speed=15.60, satellites=10, angle=302.8400, fixquality=1
$GPRMC,142359.000,A,4308.3360,N,07726.3199,W,15.81,302.35,230419,,,A*4C
$GPGGA,142359.200,4308.3364,N,07726.3210,W,1,10,0.79,144.2,M,-34.4,M,,*5F
lng=-77.438667, lat=43.138931, altitude=144.00, speed=15.81, satellites=10, angle=302.3500, fixquality=1
$GPRMC,142359.400,A,4308.3369,N,07726.3220,W,16.00,301.60,230419,,,A*49
$GPGGA,142359.600,4308.3374,N,07726.3231,W,1,10,0.79,144.4,M,-34.4,M,,*5F
lng=-77.438697, lat=43.138950, altitude=144.20, speed=16.00, satellites=10, angle=301.6000, fixquality=1
$GPRMC,142359.800,A,4308.3379,N,07726.3242,W,16.08,301.79,230419,,,A*40
$GPGGA,142400.000,4308.3384,N,07726.3253,W,1,10,0.79,144.5,M,-34.4,M,,*58
lng=-77.438735, lat=43.138965, altitude=144.40, speed=16.08, satellites=10, angle=301.7900, fixquality=1
$GPRMC,142400.200,A,4308.3389,N,07726.3263,W,16.30,301.86,230419,,,A*46
$GPGGA,142400.400,4308.3393,N,07726.3274,W,1,10,0.79,144.7,M,-34.4,M,,*5D
lng=-77.438766, lat=43.138980, altitude=144.50, speed=16.30, satellites=10, angle=301.8600, fixquality=1
$GPRMC,142400.600,A,4308.3399,N,07726.3285,W,17.05,300.26,230419,,,A*47
$GPGGA,142400.800,4308.3404,N,07726.3296,W,1,10,0.79,145.1,M,-34.4,M,,*53
lng=-77.438812, lat=43.138996, altitude=144.70, speed=17.05, satellites=10, angle=300.2600, fixquality=1
$GPRMC,142401.000,A,4308.3409,N,07726.3308,W,17.50,298.40,230419,,,A*4A
$GPGGA,142401.200,4308.3414,N,07726.3320,W,1,10,0.79,145.2,M,-34.4,M,,*56
lng=-77.438842, lat=43.139015, altitude=145.10, speed=17.50, satellites=10, angle=298.4000, fixquality=1
$GPRMC,142401.400,A,4308.3421,N,07726.3330,W,16.87,300.58,230419,,,A*4D
$GPGGA,142401.600,4308.3427,N,07726.3340,W,1,10,0.78,145.0,M,-34.4,M,,*57
lng=-77.438880, lat=43.139038, altitude=145.20, speed=16.87, satellites=10, angle=300.5800, fixquality=1
$GPRMC,142401.800,A,4308.3432,N,07726.3351,W,16.76,303.09,230419,,,A*4D
$GPGGA,142402.000,4308.3437,N,07726.3362,W,1,10,0.79,145.2,M,-34.4,M,,*50
lng=-77.438919, lat=43.139053, altitude=145.00, speed=16.76, satellites=10, angle=303.0900, fixquality=1
$GPRMC,142402.200,A,4308.3442,N,07726.3373,W,16.84,303.29,230419,,,A*4C
$GPGGA,142402.400,4308.3447,N,07726.3384,W,1,10,0.79,145.4,M,-34.4,M,,*5D
lng=-77.438957, lat=43.139072, altitude=145.20, speed=16.84, satellites=10, angle=303.2900, fixquality=1
$GPRMC,142402.600,A,4308.3453,N,07726.3394,W,16.90,304.72,230419,,,A*4D
$GPGGA,142402.800,4308.3458,N,07726.3405,W,1,10,0.79,145.6,M,-34.4,M,,*53
lng=-77.438987, lat=43.139087, altitude=145.40, speed=16.90, satellites=10, angle=304.7200, fixquality=1
$GPRMC,142403.000,A,4308.3463,N,07726.3415,W,17.47,305.05,230419,,,A*4D
$GPGGA,142403.200,4308.3469,N,07726.3426,W,1,10,0.79,145.8,M,-34.4,M,,*55
lng=-77.439018, lat=43.139102, altitude=145.60, speed=17.47, satellites=10, angle=305.0500, fixquality=1
$GPRMC,142403.400,A,4308.3474,N,07726.3437,W,17.90,304.47,230419,,,A*42
$GPGGA,142403.600,4308.3480,N,07726.3448,W,1,10,0.79,146.0,M,-34.4,M,,*55
lng=-77.439064, lat=43.139118, altitude=145.80, speed=17.90, satellites=10, angle=304.4700, fixquality=1
$GPRMC,142403.800,A,4308.3486,N,07726.3459,W,18.83,302.53,230419,,,A*45
$GPGGA,142404.000,4308.3491,N,07726.3471,W,1,10,0.79,146.2,M,-34.4,M,,*5C
lng=-77.439094, lat=43.139144, altitude=146.00, speed=18.83, satellites=10, angle=302.5300, fixquality=1
$GPRMC,142404.200,A,4308.3497,N,07726.3483,W,19.09,303.66,230419,,,A*4B
$GPGGA,142404.400,4308.3504,N,07726.3496,W,1,10,0.79,146.3,M,-34.4,M,,*5D
lng=-77.439132, lat=43.139160, altitude=146.20, speed=19.09, satellites=10, angle=303.6600, fixquality=1
$GPRMC,142404.600,A,4308.3510,N,07726.3508,W,19.63,306.62,230419,,,A*4E
$GPGGA,142404.800,4308.3516,N,07726.3519,W,1,10,0.79,146.4,M,-34.4,M,,*53
