Vers 81
USE_SERIAL_FEEDBACK=true
DEVELOPMENT_MODE=false
USE_RMC_ONLY=false

$GPRMC,122651.750,A,4308.3109,N,07726.2602,W,0.90,65.59,170719,,,A*44
$GPGGA,122652.000,4308.3110,N,07726.2601,W,1,03,4.28,184.3,M,-34.4,M,,*5E
$GPRMC,122652.250,A,4308.3111,N,07726.2599,W,0.70,95.44,170719,,,A*47
$GPGGA,122652.500,4308.3112,N,07726.2597,W,1,03,4.27,184.3,M,-34.4,M,,*5A
$GPRMC,122652.750,A,4308.3110,N,07726.2596,W,0.62,110.88,170719,,,A*73
$GPGGA,122653.000,4308.3109,N,07726.2596,W,1,03,4.28,184.3,M,-34.4,M,,*5A
$GPRMC,122653.250,A,4308.3108,N,07726.2596,W,0.52,129.33,170719,,,A*77
$GPGGA,122653.500,4308.3106,N,07726.2595,W,1,03,4.28,184.3,M,-34.4,M,,*53
$GPRMC,122653.750,A,4308.3105,N,07726.2596,W,0.63,138.94,170719,,,A*70
$GPGGA,122654.000,4308.3104,N,07726.2597,W,1,03,4.28,184.3,M,-34.4,M,,*51
$GPRMC,122654.250,A,4308.3102,N,07726.2597,W,0.68,144.66,170719,,,A*79
$GPGGA,122654.500,4308.3100,N,07726.2599,W,1,03,4.27,184.3,M,-34.4,M,,*51
$GPRMC,122654.750,A,4308.3097,N,07726.2600,W,0.69,150.72,170719,,,A*7D
$GPGGA,122655.000,4308.3093,N,07726.2602,W,1,03,4.27,184.3,M,-34.4,M,,*5F
$GPRMC,122655.250,A,4308.3092,N,07726.2603,W,0.76,165.63,170719,,,A*77
$GPGGA,122655.500,4308.3091,N,07726.2604,W,1,03,4.27,184.3,M,-34.4,M,,*5E
$GPRMC,122655.750,A,4308.3090,N,07726.2605,W,0.78,171.10,170719,,,A*79
$GPGGA,122656.000,4308.3088,N,07726.2606,W,1,03,4.27,184.3,M,-34.4,M,,*52
$GPGGA,122656.500,4308.3085,N,07726.2608,W,1,03,4.27,184.3,M,-34.4,M,,*54
$GPRMC,122656.500,A,4308.3085,N,07726.2608,W,0.74,166.21,170719,,A*7C
$GPGGA,122656.750,4308.3083,N,07726.2610,W,1,03,4.27,184.3,M,-34.4,M,,*5C
$GPRMC,122656.750,A,4308.3083,N,07726.2610,W,0.71,166.19,170719$GPGGA,122657.000,4308.3082,N,07726.2611,W,1,03,4.27,184.3,M,-34.4,M,,*5F
$GPRMC,122657.250,A,4308.3080,N,07726.2612,W,0.63,150.34,170719,,,A*76
$GPGGA,122657.500,4308.3078,N,07726.2613,W,1,03,4.27,184.3,M,-34.4,M,,*5D
$GPRMC,122657.750,A,4308.3076,N,07726.2616,W,0.61,148.49,170719,,,A*7F
$GPGGA,122658.000,4308.3075,N,07726.2617,W,1,03,4.27,184.3,M,-34.4,M,,*5E
$GPRMC,122658.250,A,4308.3074,N,07726.2619,W,0.53,152.05,170719,,,A*7A
$GPGGA,122658.500,4308.3074,N,07726.2620,W,1,03,4.26,184.3,M,-34.4,M,,*5F
$GPRMC,122658.750,A,4308.3074,N,07726.2622,W,0.45,150.08,170719,,,A*7F
$GPGGA,122659.000,4308.3073,N,07726.2626,W,1,03,4.27,184.3,M,-34.4,M,,*5B
$GPRMC,122659.250,A,4308.3072,N,07726.2629,W,0.41,172.42,170719,,,A*7C
$GPGGA,122659.500,4308.3069,N,07726.2632,W,1,03,4.26,184.3,M,-34.4,M,,*51
$GPRMC,122659.750,A,4308.3067,N,07726.2635,W,0.56,187.97,170719,,,A*74
$GPGGA,122700.000,4308.3064,N,07726.2636,W,1,03,4.26,184.3,M,-34.4,M,,*50
$GPRMC,122700.250,A,4308.3063,N,07726.2637,W,0.54,184.96,170719,,,A*7A
$GPGGA,122700.500,4308.3062,N,07726.2637,W,1,03,4.26,184.3,M,-34.4,M,,*52
$GPRMC,122700.750,A,4308.3061,N,07726.2639,W,0.41,179.07,170719,,,A*7D
$GPGGA,122701.000,4308.3060,N,07726.2640,W,1,03,4.26,184.3,M,-34.4,M,,*54
$GPRMC,122701.250,A,4308.3060,N,07726.2642,W,0.31,194.55,170719,,,A*77
$GPGGA,122701.500,4308.3059,N,07726.2645,W,1,03,4.26,184.3,M,-34.4,M,,*5E
$GPRMC,122701.750,A,4308.3057,N,07726.2648,W,0.41,221.86,170719,,,A*78
$GPGGA,122702.000,4308.3057,N,07726.2650,W,1,03,4.26,184.3,M,-34.4,M,,*52
$GPGGA,122702.500,4308.3054,N,07726.2656,W,1,03,4.26,184.4,M,-34.4,M,,*55
$GPRMC,122702.500,A,4308.3054,N,07726.2656,W,0.55,230.27,170719,,,A*7E
$GPGGA,122702.750,4308.3053,N,07726.2657,W,1,03,4.26,184.3,M,-34.4,M,,*53
$GPRMC,122702.750,A,4308.3053,N,07726.2657,W,0.53,227.54,170719,,,A*7B
$GPGGA,122703.000,4308.3052,N,07726.2658,W,1,03,4.26,184.3,M,-34.4,M,,*5E
$GPRMC,122703.000,A,4308.3052,N,07726.2658,W,0.47,226.44,170719,,,A*73
$GPGGA,122703.250,4308.3051,N,07726.2659,W,1,03,4.26,184.3,M,-34.4,M,,*5B
$GPRMC,122703.250,A,4308.3051,N,07726.2659,W,0.40,221.33,170719,,,A*76
$GPGGA,122703.500,4308.3049,N,07726.2660,W,1,03,4.26,184.3,M,-34.4,M,,*5A
$GPRMC,122703.500,A,4308.3049,N,07726.2660,W,0.41,216.83,170719,,,A*79
$GPGGA,122703.750,4308.3048,N,07726.2663,W,1,03,4.26,184.3,M,-34.4,M,,*5F
$GPRMC,122703.750,A,4308.3048,N,07726.2663,W,0.42,219.65,170719,,A*78
$GPGGA,122704.000,4308.3046,N,07726.2665,W,1,03,4.26,184.3,M,-34.4,M,,*52
$GPRMC,122704.000,A,4308.3046,N,07726.2665,W,0.45,220.37,170719$GPGGA,122704.250,4308.3045,N,07726.2667,W,1,03,4.26,184.3,M,-34.4,M,,*54
$GPRMC,122704.500,A,4308.3044,N,07726.2669,W,0.46,227.62,170719,,,A*70
$GPGGA,122704.750,4308.3043,N,07726.2672,W,1,03,4.25,184.3,M,-34.4,M,,*50
$GPRMC,122705.000,A,4308.3042,N,07726.2674,W,0.49,240.18,170719,,,A*7D
$GPGGA,122705.250,4308.3043,N,07726.2676,W,1,03,4.26,184.4,M,-34.4,M,,*54
$GPRMC,122705.500,A,4308.3043,N,07726.2678,W,0.52,253.15,170719,,,A*70
$GPGGA,122705.750,4308.3042,N,07726.2680,W,1,03,4.25,184.4,M,-34.4,M,,*5A
$GPRMC,122706.000,A,4308.3042,N,07726.2682,W,0.55,255.15,170719,,,A*73
$GPGGA,122706.250,4308.3042,N,07726.2684,W,1,03,4.25,184.4,M,-34.4,M,,*58
$GPRMC,122706.500,A,4308.3042,N,07726.2684,W,0.45,257.04,170719,,,A*73
$GPGGA,122706.750,4308.3043,N,07726.2686,W,1,03,4.25,184.4,M,-34.4,M,,*5E
$GPRMC,122707.000,A,4308.3043,N,07726.2687,W,0.36,262.20,170719,,,A*71
$GPGGA,122707.250,4308.3044,N,07726.2688,W,1,03,4.25,184.4,M,-34.4,M,,*53
$GPRMC,122707.500,A,4308.3044,N,07726.2689,W,0.36,268.27,170719,,,A*70
$GPGGA,122707.750,4308.3045,N,07726.2692,W,1,03,4.25,184.4,M,-34.4,M,,*5C
$GPRMC,122708.000,A,4308.3046,N,07726.2693,W,0.39,273.99,170719,,,A*73
$GPGGA,122708.089,4308.3046,N,07726.2694,W,1,03,4.25,184.4,M,-3.4,M,,*55
$GPRMC,122708.500,A,4308.3047,N,07726.2695,W,0.34,276.42,170719,,,A*7F
$GPGGA,122708.750,4308.3047,N,07726.2697,W,1,03,4.25,184.4,M,-34.4,M,,*54
$GPRMC,122709.000,A,4308.3045,N,07726.2698,W,0.27,257.27,170719,,,A*76
$GPGGA,122709.250,4308.3043,N,07726.2700,W,1,03,4.25,184.4,M,-34.4,M,,*5B
$GPRMC,122709.500,A,4308.3041,N,07726.2703,W,0.36,228.10,170719,,,A*78
$GPGGA,122709.750,4308.3041,N,07726.2705,W,1,03,4.25,184.4,M,-34.4,M,,*59
$GPRMC,122710.000,A,4308.3041,N,07726.2708,W,0.42,236.16,170719,,,A*74
$GPGGA,122710.250,4308.3041,N,07726.2711,W,1,03,4.25,184.4,M,-34.4,M,,*51
$GPRMC,122710.500,A,4308.3040,N,07726.2714,W,0.50,234.06,170719,,,A*7D
$GPGGA,122710.750,4308.3038,N,07726.2717,W,1,03,4.24,184.4,M,-34.4,M,,*5D
$GPRMC,122711.000,A,4308.3036,N,07726.2719,W,0.64,225.19,170719,,,A*7C
$GPGGA,122711.250,4308.3035,N,07726.2721,W,1,03,4.24,184.4,M,-34.4,M,,*51
$GPRMC,122711.500,A,4308.3033,N,07726.2724,W,0.76,218.98,170719,,,A*76
$GPGGA,122711.750,4308.3032,N,07726.2726,W,1,03,4.25,184.4,M,-34.4,M,,*55
$GPRMC,122712.000,A,4308.3031,N,07726.2727,W,0.80,213.99,170719,,,A*72
$GPGGA,122712.250,4308.3030,N,07726.2728,W,1,03,4.24,184.4,M,-34.4,M,,*5E
$GPRMC,122712.500,A,4308.3027,N,07726.2729,W,0.86,208.18,170719,,,A*7B
$GPGGA,122712.750,4308.3025,N,07726.2731,W,1,03,4.24,184.4,M,-34.4,M,,*57
$GPRMC,122713.000,A,4308.3023,N,07726.2732,W,0.90,204.01,170719,,,A*72
$GPGGA,122713.250,4308.3022,N,07726.2733,W,1,03,4.24,184.4,M,-34.4,M,,*56
$GPRMC,122713.500,A,4308.3019,N,07726.2734,W,0.99,200.59,170719,,,A*78
$GPGGA,122713.750,4308.3018,N,07726.2735,W,1,03,4.24,184.4,M,-34.4,M,,*5C
$GPRMC,122714.000,A,4308.3017,N,07726.2736,W,1.01,197.46,170719,,,A*75
$GPGGA,122714.089,4308.3017,N,07726.2737,W,1,03,4.24,184.4,M,-3.4,M,,*55
$GPRMC,122714.500,A,4308.3018,N,07726.2739,W,0.93,202.07,170719,,,A*70
$GPGGA,122714.750,4308.3018,N,07726.2740,W,1,03,4.24,184.4,M,-34.4,M,,*59
$GPRMC,122715.000,A,4308.3018,N,07726.2740,W,0.83,200.50,170719,,,A*7B
$GPGGA,122715.250,4308.3017,N,07726.2740,W,1,03,4.24,184.4,M,-34.4,M,,*52
$GPRMC,122715.500,A,4308.3017,N,07726.2741,W,0.79,196.76,170719,,,A*7D
$GPGGA,122715.750,4308.3017,N,07726.2743,W,1,03,4.24,184.4,M,-34.4,M,,*54
$GPRMC,122716.000,A,4308.3018,N,07726.2744,W,0.74,203.27,170719,,,A*77
$GPGGA,122716.250,4308.3019,N,07726.2745,W,1,03,4.24,184.4,M,-34.4,M,,*5A
$GPRMC,122716.500,A,4308.3019,N,07726.2746,W,0.67,208.00,170719,,,A*7D
$GPGGA,122716.750,4308.3019,N,07726.2748,W,1,03,4.23,184.4,M,-34.4,M,,*55
$GPRMC,122717.000,A,4308.3020,N,07726.2750,W,0.66,219.36,170719,,,A*70
$GPGGA,122717.250,4308.3021,N,07726.2751,W,1,03,4.24,184.4,M,-34.4,M,,*55
$GPRMC,122717.500,A,4308.3022,N,07726.2752,W,0.61,226.52,170719,,,A*7C
$GPGGA,122717.750,4308.3024,N,07726.2753,W,1,03,4.23,184.4,M,-34.4,M,,*50
$GPRMC,122718.000,A,4308.3025,N,07726.2753,W,0.51,224.38,170719,,,A*7D
$GPGGA,122718.250,4308.3025,N,07726.2753,W,1,03,4.23,184.4,M,-34.4,M,,*5B
$GPRMC,122718.500,A,4308.3024,N,07726.2753,W,0.46,213.16,170719,,,A*77
$GPGGA,122718.750,4308.3024,N,07726.2754,W,1,03,4.23,184.4,M,-34.4,M,,*58
$GPRMC,122719.000,A,4308.3025,N,07726.2755,W,0.47,218.32,170719,,,A*78
$GPGGA,122719.250,4308.3024,N,07726.2758,W,1,03,4.23,184.4,M,-34.4,M,,*50
$GPRMC,122719.500,A,4308.3023,N,07726.2761,W,0.59,226.94,170719,,,A*72
$GPGGA,122719.750,4308.3022,N,07726.2762,W,1,03,4.23,184.4,M,-34.4,M,,*5A
$GPRMC,122720.000,A,4308.3022,N,07726.2763,W,0.62,228.46,170719,,,A*77
$GPGGA,122720.089,4308.3022,N,07726.2764,W,1,03,4.23,184.4,M,-3.4,M,,*55
$GPRMC,122720.500,A,4308.3023,N,07726.2765,W,0.58,232.43,170719,,,A*72
$GPGGA,122720.750,4308.3024,N,07726.2766,W,1,03,4.23,184.4,M,-34.4,M,,*52
$GPRMC,122721.000,A,4308.3024,N,07726.2766,W,0.54,234.95,170719,,,A*73
$GPGGA,122721.250,4308.3025,N,07726.2767,W,1,03,4.23,184.4,M,-34.4,M,,*56
$GPRMC,122721.500,A,4308.3025,N,07726.2767,W,0.41,231.05,170719,,,A*7E
$GPGGA,122721.750,4308.3025,N,07726.2768,W,1,03,4.23,184.4,M,-34.4,M,,*5C
$GPRMC,122722.000,A,4308.3024,N,07726.2769,W,0.42,232.42,170719,,,A*74
$GPGGA,122722.250,4308.3024,N,07726.2771,W,1,03,4.23,184.4,M,-34.4,M,,*53
$GPRMC,122722.500,A,4308.3023,N,07726.2772,W,0.44,231.01,170719,,,A*7E
$GPGGA,122722.750,4308.3023,N,07726.2773,W,1,03,4.22,184.3,M,-34.4,M,,*55
$GPRMC,122723.000,A,4308.3024,N,07726.2773,W,0.36,237.13,170719,,,A*7C
$GPGGA,122723.250,4308.3025,N,07726.2773,W,1,03,4.22,184.3,M,-34.4,M,,*57
$GPRMC,122723.500,A,4308.3027,N,07726.2774,W,0.26,250.83,170719,,,A*74
$GPGGA,122723.750,4308.3027,N,07726.2775,W,1,03,4.22,184.3,M,-34.4,M,,*56
$GPRMC,122724.000,A,4308.3027,N,07726.2775,W,0.30,243.23,170719,,,A*78
$GPGGA,122724.250,4308.3027,N,07726.2775,W,1,03,4.22,184.3,M,-34.4,M,,*54
$GPRMC,122724.500,A,4308.3027,N,07726.2776,W,0.32,233.92,170719,,,A*71
$GPGGA,122724.750,4308.3027,N,07726.2776,W,1,03,4.22,184.3,M,-34.4,M,,*52
$GPRMC,122725.000,A,4308.3026,N,07726.2776,W,0.29,223.36,170719,,,A*71
$GPGGA,122725.250,4308.3026,N,07726.2776,W,1,03,4.22,184.3,M,-34.4,M,,*57
$GPRMC,122725.500,A,4308.3026,N,07726.2777,W,0.37,218.43,170719,,,A*70
$GPGGA,122725.750,4308.3026,N,07726.2777,W,1,03,4.22,184.3,M,-34.4,M,,*53
$GPRMC,122726.000,A,4308.3026,N,07726.2777,W,0.35,216.33,170719,,,A*7D
$GPGGA,122726.089,4308.3026,N,07726.2777,W,1,03,4.22,184.3,M,-3.4,M,,*53
$GPRMC,122726.500,A,4308.3025,N,07726.2777,W,0.29,215.30,170719,,,A*76
$GPGGA,122726.750,4308.3025,N,07726.2778,W,1,03,4.22,184.3,M,-34.4,M,,*5C
$GPRMC,122727.000,A,4308.3025,N,07726.2778,W,0.36,226.14,170719,,,A*75
$GPGGA,122727.250,4308.3025,N,07726.2778,W,1,03,4.22,184.3,M,-34.4,M,,*58
$GPRMC,122727.500,A,4308.3025,N,07726.2778,W,0.42,232.90,170719,,,A*7A
$GPGGA,122727.750,4308.3025,N,07726.2779,W,1,03,4.22,184.3,M,-34.4,M,,*5C
$GPRMC,122728.000,A,4308.3024,N,07726.2779,W,0.35,228.51,170719,,,A*76
$GPGGA,122728.250,4308.3024,N,07726.2779,W,1,03,4.22,184.3,M,-34.4,M,,*57
$GPRMC,122728.500,A,4308.3024,N,07726.2780,W,0.46,227.60,170719,,,A*7C
$GPGGA,122728.750,4308.3024,N,07726.2780,W,1,03,4.22,184.3,M,-34.4,M,,*54
$GPRMC,122729.000,A,4308.3024,N,07726.2780,W,0.53,226.32,170719,,,A*7A
$GPGGA,122729.250,4308.3023,N,07726.2781,W,1,03,4.21,184.3,M,-34.4,M,,*55
$GPRMC,122729.500,A,4308.3023,N,07726.2781,W,0.51,215.30,170719,,,A*79
$GPGGA,122729.750,4308.3023,N,07726.2781,W,1,03,4.21,184.3,M,-34.4,M,,*50
$GPRMC,122730.000,A,4308.3022,N,07726.2782,W,0.52,209.89,170719,,,A*7A
$GPGGA,122730.250,4308.3022,N,07726.2782,W,1,03,4.21,184.3,M,-34.4,M,,*5F
$GPRMC,122730.500,A,4308.3022,N,07726.2782,W,0.38,211.67,170719,,,A*7A
$GPGGA,122730.750,4308.3022,N,07726.2782,W,1,03,4.21,184.3,M,-34.4,M,,*5A
$GPRMC,122731.000,A,4308.3021,N,07726.2782,W,0.38,205.44,170719,,,A*79
$GPGGA,122731.250,4308.3021,N,07726.2783,W,1,03,4.21,184.3,M,-34.4,M,,*5C
$GPRMC,122731.500,A,4308.3021,N,07726.2783,W,0.46,207.74,170719,,,A*75
$GPGGA,122731.750,4308.3020,N,07726.2783,W,1,03,4.21,184.3,M,-34.4,M,,*58
$GPRMC,122732.000,A,4308.3020,N,07726.2783,W,0.52,208.44,170719,,,A*7B
$GPGGA,122732.089,4308.3020,N,07726.2783,W,1,03,4.21,184.3,M,-39,A,4308.3020,N,07726.2783,W,0.54,203.43,170719,,,A*70
$GPGGA,122732.500,4308.3019,N,07726.2784,W,1,03,4.21,184.3,M,-34.4,M,,*51
$GPRMC,122732.500,A,4308.3019,N,07726.2784,W,0.53,205.19,170719,,A*77
$GPGGA,122732.750,4308.3019,N,07726.2784,W,1,03,4.21,184.3,M,-34.4,M,,*56
$GPRMC,122732.750,A,4308.3019,N,07726.2784,W,0.54,210.22,170719,,,A*7B
$GPGGA,122733.000,4308.3019,N,07726.2784,W,1,03,4.21,184.3,M,-34.4,M,,*55
$GPRMC,122733.000,A,4308.3019,N,07726.2784,W,0.56,213.58,170719,,A*74
$GPGGA,122733.250,4308.3018,N,07726.2785,W,1,03,4.21,184.3,M,-34.4,M,,*52
$GPRMC,122733.250,A,4308.3018,N,07726.2785,W,0.60,216.58,170719,,,A*73
$GPGGA,122733.500,4308.3016,N,07726.2786,W,1,03,4.21,184.3,M,-34.4,M,,*5D
$GPRMC,122733.500,A,4308.3016,N,07726.2786,W,0.63,213.23,170719,,A*76
$GPGGA,122733.750,4308.3015,N,07726.2788,W,1,03,4.21,184.3,M,-34.4,M,,*57
$GPRMC,122733.750,A,4308.3015,N,07726.2788,W,0.65,214.69,170719,,A*73
$GPGGA,122734.000,4308.3013,N,07726.2789,W,1,03,4.21,184.3,M,-34.4,M,,*55
$GPRMC,122734.000,A,4308.3013,N,07726.2789,W,0.65,212.85,170719$GPGGA,122734.250,4308.3012,N,07726.2791,W,1,03,4.21,184.3,M,-34.4,M,,*5A
$GPRMC,122734.500,A,4308.3011,N,07726.2793,W,0.67,218.16,170719,,,A*7B
$GPGGA,122734.750,4308.3009,N,07726.2793,W,1,03,4.21,184.3,M,-34.4,M,,*57
$GPRMC,122735.000,A,4308.3007,N,07726.2794,W,0.68,209.86,170719,,,A*79
$GPGGA,122735.250,4308.3006,N,07726.2795,W,1,03,4.21,184.3,M,-34.4,M,,*5A
$GPRMC,122735.500,A,4308.3005,N,07726.2795,W,0.63,207.65,170719,,,A*77
$GPGGA,122735.750,4308.3004,N,07726.2796,W,1,03,4.20,184.3,M,-34.4,M,,*5F
$GPRMC,122736.000,A,4308.3003,N,07726.2798,W,0.65,213.29,170719,,,A*71
$GPGGA,122736.250,4308.3002,N,07726.2800,W,1,03,4.20,184.2,M,-34.4,M,,*5E
$GPRMC,122736.500,A,4308.3000,N,07726.2801,W,0.69,213.64,170719,,,A*7D
$GPGGA,122736.750,4308.2998,N,07726.2802,W,1,03,4.20,184.2,M,-34.4,M,,*52
$GPRMC,122737.000,A,4308.2997,N,07726.2803,W,0.71,215.08,170719,,,A*78
$GPGGA,122737.250,4308.2995,N,07726.2805,W,1,03,4.20,184.2,M,-34.4,M,,*5C
$GPRMC,122737.500,A,4308.2993,N,07726.2806,W,0.79,217.43,170719,,,A*79
$GPGGA,122737.750,4308.2991,N,07726.2808,W,1,03,4.20,184.2,M,-34.4,M,,*50
$GPRMC,122738.000,A,4308.2990,N,07726.2810,W,0.86,219.86,170719,,,A*70
$GPGGA,122738.089,4308.2989,N,07726.2810,W,1,03,4.20,184.2,M,-3.4,M,,*5C
$GPRMC,122738.500,A,4308.2987,N,07726.2811,W,0.83,217.02,170719,,,A*75
$GPGGA,122738.750,4308.2986,N,07726.2811,W,1,03,4.20,184.2,M,-34.4,M,,*51
$GPRMC,122739.000,A,4308.2985,N,07726.2810,W,0.79,210.16,170719,,,A*75
$GPGGA,122739.250,4308.2983,N,07726.2810,W,1,03,4.20,184.2,M,-34.4,M,,*51
$GPRMC,122739.500,A,4308.2981,N,07726.2811,W,0.82,206.39,170719,,,A*7B
$GPGGA,122739.750,4308.2979,N,07726.2812,W,1,03,4.20,184.2,M,-34.4,M,,*53
$GPRMC,122740.000,A,4308.2977,N,07726.2811,W,0.85,202.39,170719,,,A*7A
$GPGGA,122740.250,4308.2975,N,07726.2812,W,1,03,4.19,184.2,M,-34.4,M,,*5E
$GPRMC,122740.500,A,4308.2973,N,07726.2812,W,0.89,198.58,170719,,,A*73
$GPGGA,122740.750,4308.2971,N,07726.2813,W,1,03,4.19,184.2,M,-34.4,M,,*5E
$GPRMC,122741.000,A,4308.2969,N,07726.2815,W,0.94,202.38,170719,,,A*71
$GPGGA,122741.250,4308.2966,N,07726.2817,W,1,03,4.19,184.2,M,-34.4,M,,*58
$GPRMC,122741.500,A,4308.2964,N,07726.2817,W,0.96,201.90,170719,,,A*78
$GPGGA,122741.750,4308.2963,N,07726.2816,W,1,03,4.19,184.1,M,-34.4,M,,*5A
$GPRMC,122742.000,A,4308.2961,N,07726.2817,W,0.97,196.95,170719,,,A*72
$GPGGA,122742.250,4308.2959,N,07726.2817,W,1,03,4.19,184.1,M,-34.4,M,,*54
$GPRMC,122742.500,A,4308.2957,N,07726.2819,W,1.02,202.41,170719,,,A*76
$GPGGA,122742.750,4308.2955,N,07726.2820,W,1,03,4.19,184.1,M,-34.4,M,,*59
$GPRMC,122743.000,A,4308.2953,N,07726.2820,W,1.06,203.69,170719,,,A*73
$GPGGA,122743.250,4308.2952,N,07726.2820,W,1,03,4.19,184.1,M,-34.4,M,,*5A
$GPRMC,122743.500,A,4308.2950,N,07726.2819,W,1.06,202.38,170719,,,A*7A
$GPGGA,122743.750,4308.2949,N,07726.2819,W,1,03,4.19,184.1,M,-34.4,M,,*5F
$GPRMC,122744.000,A,4308.2947,N,07726.2818,W,1.06,199.82,170719,,,A*7F
$GPGGA,122744.089,4308.2946,N,07726.2817,W,1,03,4.19,184.1,M,-3.4,M,,*5A
$GPRMC,122744.500,A,4308.2944,N,07726.2815,W,1.05,191.38,170719,,,A*7E
$GPGGA,122744.750,4308.2943,N,07726.2815,W,1,03,4.19,184.1,M,-34.4,M,,*5E
$GPRMC,122745.000,A,4308.2941,N,07726.2814,W,1.07,189.83,170719,,,A*75
$GPGGA,122745.250,4308.2940,N,07726.2814,W,1,03,4.19,184.1,M,-34.4,M,,*58
$GPRMC,122745.500,A,4308.2938,N,07726.2814,W,1.09,189.83,170719,,,A*70
$GPGGA,122745.750,4308.2936,N,07726.2814,W,1,03,4.19,184.1,M,-34.4,M,,*5C
$GPRMC,122746.000,A,4308.2934,N,07726.2813,W,1.12,187.11,170719,,,A*72
$GPGGA,122746.250,4308.2933,N,07726.2812,W,1,03,4.19,184.1,M,-34.4,M,,*59
$GPRMC,122746.500,A,4308.2931,N,07726.2810,W,1.15,182.39,170719,,,A*79
$GPGGA,122746.750,4308.2929,N,07726.2809,W,1,03,4.18,184.1,M,-34.4,M,,*5C
$GPRMC,122747.000,A,4308.2927,N,07726.2809,W,1.17,181.65,170719,,,A*7A
$GPGGA,122747.250,4308.2925,N,07726.2809,W,1,03,4.19,184.1,M,-34.4,M,,*55
$GPRMC,122747.500,A,4308.2924,N,07726.2808,W,1.20,180.94,170719,,,A*76
$GPGGA,122747.750,4308.2922,N,07726.2806,W,1,03,4.18,184.1,M,-34.4,M,,*59
$GPRMC,122748.000,A,4308.2920,N,07726.2806,W,1.24,176.87,170719,,,A*79
$GPGGA,122748.250,4308.2919,N,07726.2805,W,1,03,4.18,184.1,M,-34.4,M,,*58
$GPRMC,122748.500,A,4308.2917,N,07726.2805,W,1.24,177.92,170719,,,A*7E
$GPGGA,122748.750,4308.2916,N,07726.2804,W,1,03,4.18,184.1,M,-34.4,M,,*53
$GPRMC,122749.000,A,4308.2914,N,07726.2803,W,1.23,178.48,170719,,,A*70
$GPGGA,122749.250,4308.2913,N,07726.2803,W,1,03,4.18,184.1,M,-34.4,M,,*55
$GPRMC,122749.500,A,4308.2911,N,07726.2802,W,1.24,178.88,170719,,,A*7A
$GPGGA,122749.750,4308.2909,N,07726.2802,W,1,03,4.18,184.1,M,-34.4,M,,*5A
$GPRMC,122750.000,A,4308.2907,N,07726.2801,W,1.27,177.20,170719,,,A*7D
$GPGGA,122750.089,4308.2906,N,07726.2801,W,1,03,4.18,184.1,M,-3.4,M,,*5D
$GPRMC,122750.500,A,4308.2904,N,07726.2800,W,1.27,178.09,170719,,,A*7E
$GPGGA,122750.750,4308.2902,N,07726.2800,W,1,03,4.18,184.1,M,-34.4,M,,*5B
$GPRMC,122751.000,A,4308.2900,N,07726.2800,W,1.28,179.04,170719,,,A*7D
$GPGGA,122751.250,4308.2897,N,07726.2800,W,1,03,4.18,184.1,M,-34.4,M,,*52
$GPRMC,122751.500,A,4308.2895,N,07726.2800,W,1.34,179.81,170719,,,A*75
$GPGGA,122751.750,4308.2893,N,07726.2799,W,1,03,4.18,184.1,M,-34.4,M,,*5C
$GPRMC,122752.000,A,4308.2891,N,07726.2798,W,1.38,178.25,170719,,,A*7A
$GPGGA,122752.250,4308.2889,N,07726.2797,W,1,03,4.17,184.1,M,-34.4,M,,*50
$GPRMC,122752.500,A,4308.2887,N,07726.2798,W,1.40,179.43,170719,,,A*76
$GPGGA,122752.750,4308.2885,N,07726.2797,W,1,03,4.17,184.1,M,-34.4,M,,*59
$GPRMC,122753.000,A,4308.2883,N,07726.2798,W,1.41,181.42,170719,,,A*71
$GPGGA,122753.250,4308.2881,N,07726.2799,W,1,03,4.17,184.1,M,-34.4,M,,*57
$GPRMC,122753.500,A,4308.2879,N,07726.2799,W,1.43,183.85,170719,,,A*7B
$GPGGA,122753.750,4308.2877,N,07726.2798,W,1,03,4.18,184.1,M,-34.4,M,,*55
$GPRMC,122754.000,A,4308.2875,N,07726.2798,W,1.47,183.21,170719,,,A*7E
$GPGGA,122754.250,4308.2872,N,07726.2798,W,1,03,4.17,184.1,M,-34.4,M,,*5D
$GPRMC,122754.500,A,4308.2870,N,07726.2798,W,1.51,184.08,170719,,,A*75
$GPGGA,122754.750,4308.2867,N,07726.2799,W,1,03,4.17,184.1,M,-34.4,M,,*5D
$GPRMC,122755.000,A,4308.2865,N,07726.2799,W,1.54,186.31,170719,,,A*79
$GPGGA,122755.250,4308.2863,N,07726.2801,W,1,03,4.17,184.1,M,-34.4,M,,*53
$GPRMC,122755.500,A,4308.2861,N,07726.2802,W,1.56,190.70,170719,,,A*75
$GPGGA,122755.750,4308.2858,N,07726.2802,W,1,03,4.17,184.1,M,-34.4,M,,*5D
$GPRMC,122756.000,A,4308.2856,N,07726.2803,W,1.61,191.18,170719,,,A*7D
$GPGGA,122756.089,4308.2862,N,07726.2802,W,1,04,2.45,184.7,M,-3.4,M,,*54
$GPRMC,122756.500,A,4308.2865,N,07726.2800,W,1.41,188.52,170719,,,A*7F
$GPGGA,122756.750,4308.2870,N,07726.2798,W,1,04,2.44,185.0,M,-34.4,M,,*5F
$GPRMC,122757.000,A,4308.2872,N,07726.2797,W,1.27,187.64,170719,,,A*76
$GPGGA,122757.250,4308.2873,N,07726.2798,W,1,04,2.45,185.2,M,-34.4,M,,*5B
$GPRMC,122757.500,A,4308.2874,N,07726.2799,W,1.24,194.50,170719,,,A*7D
$GPGGA,122757.750,4308.2874,N,07726.2800,W,1,04,2.44,185.4,M,-34.4,M,,*50
$GPRMC,122758.000,A,4308.2876,N,07726.2799,W,1.21,194.46,170719,,,A*77
$GPGGA,122758.250,4308.2878,N,07726.2799,W,1,04,2.44,185.6,M,-34.4,M,,*5B
$GPRMC,122758.500,A,4308.2879,N,07726.2798,W,1.10,193.91,170719,,,A*73
$GPGGA,122758.750,4308.2881,N,07726.2796,W,1,04,2.44,185.7,M,-34.4,M,,*56
$GPRMC,122759.000,A,4308.2882,N,07726.2794,W,1.02,185.10,170719,,,A*72
$GPGGA,122759.250,4308.2883,N,07726.2794,W,1,04,2.44,185.9,M,-34.4,M,,*5C
$GPRMC,122759.500,A,4308.2884,N,07726.2793,W,0.98,183.91,170719,,,A*7B
$GPGGA,122759.750,4308.2884,N,07726.2793,W,1,04,2.44,186.0,M,-34.4,M,,*53
$GPRMC,122800.000,A,4308.2885,N,07726.2793,W,0.95,185.16,170719,,,A*78
$GPGGA,122800.250,4308.2886,N,07726.2793,W,1,04,2.44,186.2,M,-34.4,M,,*55
$GPRMC,122800.500,A,4308.2886,N,07726.2793,W,0.90,188.14,170719,,,A*74
$GPGGA,122800.750,4308.2887,N,07726.2793,W,1,04,2.44,186.3,M,-34.4,M,,*50
$GPRMC,122801.000,A,4308.2888,N,07726.2792,W,0.85,189.57,170719,,,A*7D
$GPGGA,122801.250,4308.2889,N,07726.2792,W,1,04,2.44,186.4,M,-34.4,M,,*5C
$GPRMC,122801.500,A,4308.2891,N,07726.2791,W,0.75,189.14,170719,,,A*7B
$GPGGA,122801.750,4308.2892,N,07726.2790,W,1,04,2.44,186.5,M,-34.4,M,,*50
$GPRMC,122802.000,A,4308.2893,N,07726.2790,W,0.64,188.54,170719,,,A*7B
$GPGGA,122802.250,4308.2894,N,07726.2790,W,1,04,2.44,186.6,M,-34.4,M,,*53
$GPRMC,122802.500,A,4308.2894,N,07726.2790,W,0.58,194.64,170719,,,A*78
$GPGGA,122802.750,4308.2894,N,07726.2790,W,1,04,2.44,186.7,M,-34.4,M,,*57
$GPRMC,122803.000,A,4308.2894,N,07726.2789,W,0.57,189.28,170719,,,A*7F
$GPGGA,122803.250,4308.2894,N,07726.2790,W,1,04,2.44,186.8,M,-34.4,M,,*5C
$GPRMC,122803.500,A,4308.2894,N,07726.2791,W,0.59,198.56,170719,,,A*74
$GPGGA,122803.750,4308.2894,N,07726.2792,W,1,04,2.44,186.9,M,-34.4,M,,*5A
$GPRMC,122804.000,A,4308.2894,N,07726.2792,W,0.60,198.53,170719,,,A*7A
$GPGGA,122804.250,4308.2893,N,07726.2792,W,1,04,2.44,187.0,M,-34.4,M,,*57
$GPRMC,122804.500,A,4308.2893,N,07726.2793,W,0.62,201.60,170719,,,A*78
$GPGGA,122804.750,4308.2892,N,07726.2793,W,1,04,2.44,187.1,M,-34.4,M,,*53
$GPRMC,122805.000,A,4308.2892,N,07726.2793,W,0.59,199.63,170719,,,A*74
$GPGGA,122805.250,4308.2892,N,07726.2794,W,1,04,2.44,187.2,M,-34.4,M,,*53
$GPRMC,122805.500,A,4308.2892,N,07726.2794,W,0.57,202.40,170719,,,A*78
$GPGGA,122805.750,4308.2891,N,07726.2794,W,1,04,2.44,187.3,M,-34.4,M,,*54
$GPRMC,122806.000,A,4308.2891,N,07726.2794,W,0.57,196.86,170719,,,A*79
$GPGGA,122806.250,4308.2891,N,07726.2795,W,1,04,2.44,187.3,M,-34.4,M,,*53
$GPRMC,122806.500,A,4308.2891,N,07726.2795,W,0.55,197.05,170719,,,A*75
$GPGGA,122806.750,4308.2891,N,07726.2795,W,1,04,2.44,187.4,M,-34.4,M,,*51
$GPRMC,122807.000,A,4308.2890,N,07726.2796,W,0.57,201.75,170719,,,A*7A
$GPGGA,122807.250,4308.2889,N,07726.2798,W,1,04,2.44,187.6,M,-34.4,M,,*53
$GPRMC,122807.500,A,4308.2888,N,07726.2800,W,0.64,211.08,170719,,,A*7D
$GPGGA,122807.750,4308.2887,N,07726.2801,W,1,04,2.44,187.7,M,-34.4,M,,*56
$GPRMC,122808.000,A,4308.2887,N,07726.2801,W,0.65,211.40,170719,,,A*74
$GPGGA,122808.250,4308.2887,N,07726.2802,W,1,04,2.44,187.7,M,-34.4,M,,*5F
$GPRMC,122808.500,A,4308.2886,N,07726.2802,W,0.63,209.70,170719,,,A*7F
$GPGGA,122808.750,4308.2886,N,07726.2803,W,1,04,2.44,187.8,M,-34.4,M,,*55
$GPRMC,122809.000,A,4308.2886,N,07726.2803,W,0.61,209.84,170719,,,A*73
$GPGGA,122809.250,4308.2885,N,07726.2804,W,1,04,2.44,187.9,M,-34.4,M,,*54
$GPRMC,122809.500,A,4308.2883,N,07726.2806,W,0.67,210.45,170719,,,A*75
$GPGGA,122809.750,4308.2883,N,07726.2806,W,1,04,2.44,188.0,M,-34.4,M,,*53
$GPRMC,122810.000,A,4308.2882,N,07726.2807,W,0.68,209.49,170719,,,A*73
$GPGGA,122810.250,4308.2881,N,07726.2808,W,1,04,2.44,188.1,M,-34.4,M,,*53
$GPRMC,122810.500,A,4308.2880,N,07726.2809,W,0.78,212.16,170719,,,A*7B
$GPGGA,122810.750,4308.2879,N,07726.2810,W,1,04,2.44,188.2,M,-34.4,M,,*5B
$GPRMC,122811.000,A,4308.2878,N,07726.2809,W,0.76,206.72,170719,,,A*71
$GPGGA,122811.250,4308.2877,N,07726.2810,W,1,04,2.44,188.3,M,-34.4,M,,*50
$GPRMC,122811.500,A,4308.2876,N,07726.2811,W,0.85,207.18,170719,,,A*72
$GPGGA,122811.750,4308.2875,N,07726.2812,W,1,04,2.44,188.5,M,-34.4,M,,*53
$GPRMC,122812.000,A,4308.2874,N,07726.2813,W,0.90,209.06,170719,,,A*71
$GPGGA,122812.250,4308.2874,N,07726.2813,W,1,04,2.44,188.6,M,-34.4,M,,*56
$GPRMC,122812.500,A,4308.2873,N,07726.2814,W,0.90,207.90,170719,,,A*75
$GPGGA,122812.750,4308.2872,N,07726.2815,W,1,04,2.44,188.7,M,-34.4,M,,*52
$GPRMC,122813.000,A,4308.2871,N,07726.2817,W,0.95,210.02,170719,,,A*78
$GPGGA,122813.250,4308.2871,N,07726.2818,W,1,04,2.44,188.8,M,-34.4,M,,*57
$GPRMC,122813.500,A,4308.2870,N,07726.2818,W,0.93,208.15,170719,,,A*7A
$GPGGA,122813.750,4308.2869,N,07726.2819,W,1,04,2.44,188.8,M,-34.4,M,,*5A
$GPRMC,122814.000,A,4308.2869,N,07726.2820,W,0.94,207.45,170719,,,A*76
$GPGGA,122814.250,4308.2868,N,07726.2820,W,1,04,2.44,188.9,M,-34.4,M,,*52
$GPRMC,122814.500,A,4308.2867,N,07726.2822,W,0.97,205.61,170719,,,A*78
$GPGGA,122814.750,4308.2866,N,07726.2823,W,1,04,2.44,189.0,M,-34.4,M,,*52
$GPRMC,122815.000,A,4308.2866,N,07726.2825,W,1.01,208.66,170719,,,A*7E
$GPGGA,122815.250,4308.2865,N,07726.2826,W,1,04,2.44,189.1,M,-34.4,M,,*51
$GPRMC,122815.500,A,4308.2865,N,07726.2827,W,1.01,211.54,170719,,,A*73
$GPGGA,122815.750,4308.2865,N,07726.2828,W,1,04,2.44,189.2,M,-34.4,M,,*59
$GPRMC,122816.000,A,4308.2865,N,07726.2829,W,0.98,210.42,170719,,,A*7C
$GPGGA,122816.250,4308.2865,N,07726.2830,W,1,04,2.44,189.2,M,-34.4,M,,*56
$GPRMC,122816.500,A,4308.2865,N,07726.2831,W,0.95,212.79,170719,,,A*77
$GPGGA,122816.750,4308.2865,N,07726.2832,W,1,04,2.44,189.3,M,-34.4,M,,*50
$GPRMC,122817.000,A,4308.2865,N,07726.2833,W,0.92,212.47,170719,,,A*7B
$GPGGA,122817.250,4308.2866,N,07726.2834,W,1,04,2.44,189.4,M,-34.4,M,,*56
$GPRMC,122817.500,A,4308.2866,N,07726.2835,W,0.86,217.53,170719,,,A*7E
$GPGGA,122817.750,4308.2866,N,07726.2836,W,1,04,2.44,189.5,M,-34.4,M,,*50
$GPRMC,122818.000,A,4308.2866,N,07726.2837,W,0.79,214.29,170719,,,A*78
$GPGGA,122818.250,4308.2867,N,07726.2837,W,1,04,2.44,189.6,M,-38.250,A,4308.2867,N,07726.2837,W,0.74,215.58,170719,,,A*74
$GPGGA,122818.500,4308.2867,N,07726.2838,W,1,04,2.44,189.6,M,-
$GPGGA,122819.000,4308.2866,N,07726.2841,W,1,04,2.44,189.6,M,-34.4,M,,*5F
$GPRMC,122819.250,A,4308.2866,N,07726.2842,W,0.72,216.81,170719,,,A*77
$GPGGA,122819.500,4308.2867,N,07726.2843,W,1,04,2.44,189.7,M,-34.4,M,,*58
$GPRMC,122819.750,A,4308.2866,N,07726.2844,W,0.66,217.45,170719,,,A*78
$GPGGA,122820.000,4308.2867,N,07726.2845,W,1,04,2.44,189.7,M,-34.4,M,,*51
$GPRMC,122820.250,A,4308.2867,N,07726.2845,W,0.57,217.51,170719,,,A*70
$GPGGA,122820.500,4308.2868,N,07726.2846,W,1,04,2.44,189.8,M,-34.4,M,,*57
$GPRMC,122820.750,A,4308.2868,N,07726.2846,W,0.49,221.40,170719,,,A*73
$GPGGA,122821.000,4308.2868,N,07726.2846,W,1,04,2.44,189.8,M,-34.4,M,,*53
$GPRMC,122821.250,A,4308.2869,N,07726.2847,W,0.44,229.54,170719,,,A*77
$GPGGA,122821.500,4308.2870,N,07726.2848,W,1,04,2.44,189.9,M,-34.4,M,,*50
$GPRMC,122821.750,A,4308.2870,N,07726.2849,W,0.41,236.91,170719,,,A*76
$GPGGA,122822.000,4308.2869,N,07726.2850,W,1,04,2.44,189.9,M,-34.4,M,,*57
$GPRMC,122822.250,A,4308.2870,N,07726.2850,W,0.40,241.73,170719,,,A*75
$GPGGA,122822.500,4308.2871,N,07726.2850,W,1,04,2.44,189.9,M,-34.4,M,,*5B
$GPRMC,122822.750,A,4308.2873,N,07726.2849,W,0.28,251.77,170719,,,A*70
$GPGGA,122823.000,4308.2874,N,07726.2849,W,1,04,2.44,190.0,M,-34.4,M,,*53
$GPRMC,122823.250,A,4308.2875,N,07726.2849,W,0.26,272.59,170719,,,A*71
$GPGGA,122823.500,4308.2875,N,07726.2849,W,1,04,2.44,190.0,M,-34.4,M,,*57
$GPRMC,122823.750,A,4308.2875,N,07726.2849,W,0.23,280.53,170719,,,A*76
$GPGGA,122824.000,4308.2875,N,07726.2849,W,1,04,2.44,190.0,M,-34.4,M,,*55
$GPRMC,122824.250,A,4308.2875,N,07726.2849,W,0.21,300.96,170719,,,A*76
$GPGGA,122824.500,4308.2876,N,07726.2849,W,1,04,2.44,190.0,M,-34.4,M,,*53
$GPRMC,122824.750,A,4308.2876,N,07726.2849,W,0.20,330.79,170719,,,A*73
$GPGGA,122825.000,4308.2876,N,07726.2850,W,1,04,2.44,190.0,M,-34.4,M,,*5F
$GPRMC,122825.250,A,4308.2876,N,07726.2850,W,0.16,327.02,170719,,,A*70
$GPGGA,122825.500,4308.2876,N,07726.2850,W,1,04,2.44,190.0,M,-34.4,M,,*5A
$GPRMC,122825.750,A,4308.2876,N,07726.2850,W,0.20,333.34,170719,,,A*70
$GPGGA,122826.000,4308.2876,N,07726.2850,W,1,04,2.44,190.0,M,-34.4,M,,*5C
$GPRMC,122826.250,A,4308.2877,N,07726.2850,W,0.34,329.83,170719,,,A*75
$GPGGA,122826.500,4308.2877,N,07726.2850,W,1,04,2.44,190.0,M,-34.4,M,,*58
$GPRMC,122826.750,A,4308.2877,N,07726.2850,W,0.44,336.17,170719,,,A*74
$GPGGA,122827.000,4308.2877,N,07726.2850,W,1,04,2.43,190.0,M,-34.4,M,,*5B
$GPRMC,122827.250,A,4308.2878,N,07726.2851,W,0.35,338.62,170719,,,A*74
$GPGGA,122827.500,4308.2878,N,07726.2851,W,1,04,2.44,190.0,M,-34.4,M,,*57
$GPRMC,122827.750,A,4308.2878,N,07726.2851,W,0.28,339.90,170719,,,A*71
$GPGGA,122828.000,4308.2878,N,07726.2851,W,1,04,2.44,190.0,M,-34.4,M,,*5D
$GPRMC,122828.250,A,4308.2878,N,07726.2851,W,0.28,358.45,170719,,,A*74
$GPGGA,122828.500,4308.2879,N,07726.2851,W,1,04,2.91,190.0,M,-34.4,M,,*51
$GPRMC,122828.750,A,4308.2879,N,07726.2851,W,0.33,352.94,170719,,,A*7C
$GPGGA,122829.000,4308.2879,N,07726.2851,W,1,04,2.90,190.0,M,-34.4,M,,*54
$GPRMC,122829.250,A,4308.2879,N,07726.2851,W,0.29,339.16,170719,,,A*74
$GPGGA,122829.500,4308.2880,N,07726.2851,W,1,04,2.44,190.0,M,-34.4,M,,*5E
$GPRMC,122829.750,A,4308.2880,N,07726.2851,W,0.22,341.15,170719,,,A*70
$GPGGA,122830.000,4308.2880,N,07726.2851,W,1,04,2.44,190.0,M,-34.4,M,,*53
$GPRMC,122830.250,A,4308.2880,N,07726.2851,W,0.25,337.62,170719,,,A*7B
$GPGGA,122830.500,4308.2880,N,07726.2851,W,1,04,2.43,190.0,M,-34.4,M,,*51
$GPRMC,122830.750,A,4308.2880,N,07726.2852,W,0.23,352.84,170719,,,A*70
$GPGGA,122831.000,4308.2881,N,07726.2852,W,1,04,2.90,190.0,M,-34.4,M,,*59
$GPRMC,122831.250,A,4308.2881,N,07726.2851,W,0.25,21.48,170719,,,A*47
$GPGGA,122831.500,4308.2881,N,07726.2851,W,1,04,2.43,190.0,M,-34.4,M,,*51
$GPRMC,122831.750,A,4308.2881,N,07726.2851,W,0.36,38.83,170719,,,A*4F
$GPGGA,122832.000,4308.2881,N,07726.2851,W,1,04,2.43,190.0,M,-34.4,M,,*57
$GPRMC,122832.250,A,4308.2882,N,07726.2851,W,0.33,22.25,170719,,,A*48
$GPGGA,122832.500,4308.2882,N,07726.2851,W,1,04,2.43,190.0,M,-34.4,M,,*51
$GPRMC,122832.750,A,4308.2882,N,07726.2850,W,0.27,30.31,170719,,,A*4F
$GPGGA,122833.000,4308.2882,N,07726.2850,W,1,04,2.43,190.0,M,-34.4,M,,*54
$GPRMC,122833.250,A,4308.2882,N,07726.2850,W,0.22,52.91,170719,,,A*40
$GPGGA,122833.500,4308.2882,N,07726.2850,W,1,04,2.43,190.0,M,-34.4,M,,*51
$GPRMC,122833.750,A,4308.2883,N,07726.2850,W,0.23,49.13,170719,,,A*45
$GPGGA,122834.000,4308.2883,N,07726.2850,W,1,04,2.44,190.0,M,-34.4,M,,*55
$GPRMC,122834.250,A,4308.2883,N,07726.2849,W,0.18,35.86,170719,,,A*40
$GPGGA,122834.500,4308.2883,N,07726.2849,W,1,04,2.44,190.0,M,-34.4,M,,*58
$GPRMC,122834.750,A,4308.2883,N,07726.2849,W,0.22,38.78,170719,,,A*40
$GPGGA,122835.000,4308.2883,N,07726.2849,W,1,04,2.43,190.0,M,-34.4,M,,*5B
$GPRMC,122835.250,A,4308.2883,N,07726.2849,W,0.33,47.19,170719,,,A*4B
$GPGGA,122835.500,4308.2884,N,07726.2849,W,1,04,2.43,190.0,M,-34.4,M,,*59
$GPRMC,122835.750,A,4308.2884,N,07726.2848,W,0.33,26.15,170719,,,A*43
$GPGGA,122836.000,4308.2884,N,07726.2848,W,1,04,2.43,190.0,M,-34.4,M,,*5E
$GPRMC,122836.250,A,4308.2884,N,07726.2848,W,0.30,21.40,170719,,,A*41
$GPGGA,122836.500,4308.2884,N,07726.2848,W,1,04,2.43,190.0,M,-34.4,M,,*5B
$GPRMC,122836.750,A,4308.2885,N,07726.2848,W,0.40,34.74,170719,,,A*41
$GPGGA,122837.000,4308.2885,N,07726.2847,W,1,04,2.43,190.0,M,-34.4,M,,*51
$GPRMC,122837.250,A,4308.2885,N,07726.2847,W,0.51,35.88,170719,,,A*48
$GPGGA,122837.500,4308.2886,N,07726.2847,W,1,04,2.43,190.0,M,-34.4,M,,*57
$GPRMC,122837.750,A,4308.2886,N,07726.2847,W,0.52,35.91,170719,,,A*45
$GPGGA,122838.000,4308.2886,N,07726.2846,W,1,04,2.43,190.0,M,-34.4,M,,*5C
$GPRMC,122838.250,A,4308.2886,N,07726.2846,W,0.52,46.24,170719,,,A*44
$GPGGA,122838.500,4308.2887,N,07726.2846,W,1,04,2.43,190.0,M,-34.4,M,,*58
$GPRMC,122838.750,A,4308.2887,N,07726.2845,W,0.47,50.40,170719,,,A*42
$GPGGA,122839.000,4308.2887,N,07726.2845,W,1,04,2.43,190.0,M,-34.4,M,,*5F
$GPRMC,122839.250,A,4308.2887,N,07726.2844,W,0.47,46.32,170719,,,A*45
$GPGGA,122839.500,4308.2888,N,07726.2844,W,1,04,2.43,190.0,M,-34.4,M,,*54
$GPRMC,122839.750,A,4308.2888,N,07726.2844,W,0.54,38.42,170719,,,A*43
$GPGGA,122840.000,4308.2888,N,07726.2843,W,1,04,2.43,189.9,M,-34.4,M,,*59
$GPRMC,122840.250,A,4308.2889,N,07726.2843,W,0.51,37.09,170719,,,A*4B
$GPGGA,122840.500,4308.2889,N,07726.2843,W,1,04,2.43,189.9,M,-34.4,M,,*5D
$GPRMC,122840.750,A,4308.2889,N,07726.2842,W,0.53,38.37,170719,,,A*4F
$GPGGA,122841.000,4308.2890,N,07726.2842,W,1,04,2.43,189.9,M,-34.4,M,,*50
$GPRMC,122841.250,A,4308.2890,N,07726.2842,W,0.46,33.30,170719,,,A*4B
$GPGGA,122841.500,4308.2890,N,07726.2842,W,1,04,2.43,189.9,M,-34.4,M,,*55
$GPRMC,122841.750,A,4308.2890,N,07726.2841,W,0.45,25.49,170719,,,A*47
$GPGGA,122842.000,4308.2891,N,07726.2841,W,1,04,2.43,189.9,M,-34.4,M,,*51
$GPRMC,122842.250,A,4308.2891,N,07726.2841,W,0.54,26.49,170719,,,A*43
$GPGGA,122842.500,4308.2891,N,07726.2841,W,1,04,2.43,189.9,M,-34.4,M,,*54
$GPRMC,122842.750,A,4308.2892,N,07726.2841,W,0.50,15.70,170719,,,A*4B
$GPGGA,122843.000,4308.2892,N,07726.2840,W,1,04,2.43,189.9,M,-34.4,M,,*52
$GPRMC,122843.250,A,4308.2892,N,07726.2840,W,0.40,17.85,170719,,,A*47
$GPGGA,122843.500,4308.2893,N,07726.2840,W,1,04,2.43,189.9,M,-34.4,M,,*56
$GPRMC,122843.750,A,4308.2893,N,07726.2840,W,0.31,33.06,170719,,,A*48
$GPGGA,122844.000,4308.2893,N,07726.2840,W,1,04,2.43,189.9,M,-34.4,M,,*54
$GPRMC,122844.250,A,4308.2893,N,07726.2840,W,0.31,24.57,170719,,,A*48
$GPGGA,122844.500,4308.2894,N,07726.2840,W,1,04,2.43,189.9,M,-34.4,M,,*56
$GPRMC,122844.750,A,4308.2894,N,07726.2839,W,0.25,31.56,170719,,,A*44
$GPGGA,122845.000,4308.2894,N,07726.2839,W,1,04,2.43,189.9,M,-34.4,M,,*5C
$GPRMC,122845.250,A,4308.2894,N,07726.2839,W,0.23,39.72,170719,,,A*48
$GPGGA,122845.500,4308.2894,N,07726.2839,W,1,04,2.43,189.9,M,-34.4,M,,*59
$GPRMC,122845.750,A,4308.2894,N,07726.2839,W,0.26,45.77,170719,,,A*46
$GPGGA,122846.000,4308.2894,N,07726.2839,W,1,04,2.43,189.9,M,-34.4,M,,*5F
$GPRMC,122846.250,A,4308.2895,N,07726.2838,W,0.28,31.79,170719,,,A*43
$GPGGA,122846.500,4308.2895,N,07726.2838,W,1,04,2.43,189.9,M,-34.4,M,,*5A
$GPRMC,122846.750,A,4308.2895,N,07726.2838,W,0.29,40.38,170719,,,A*44
$GPGGA,122847.000,4308.2895,N,07726.2838,W,1,04,2.43,189.9,M,-34.4,M,,*5E
$GPRMC,122847.250,A,4308.2895,N,07726.2838,W,0.29,29.40,170719,,,A*40
$GPGGA,122847.500,4308.2895,N,07726.2838,W,1,04,2.43,189.9,M,-34.4,M,,*5B
$GPRMC,122847.750,A,4308.2896,N,07726.2838,W,0.35,19.03,170719,,,A*4F
$GPGGA,122848.000,4308.2896,N,07726.2837,W,1,04,2.43,189.9,M,-34.4,M,,*5D
$GPRMC,122848.250,A,4308.2896,N,07726.2837,W,0.37,30.10,170719,,,A*41
$GPGGA,122848.500,4308.2896,N,07726.2837,W,1,04,2.43,189.9,M,-34.4,M,,*58
$GPRMC,122848.750,A,4308.2897,N,07726.2837,W,0.38,39.89,170719,,,A*43
$GPGGA,122849.000,4308.2897,N,07726.2837,W,1,04,2.43,189.9,M,-34.4,M,,*5D
$GPRMC,122849.250,A,4308.2897,N,07726.2836,W,0.40,36.74,170719,,,A*44
$GPGGA,122849.500,4308.2897,N,07726.2836,W,1,04,2.43,189.9,M,-34.4,M,,*59
$GPRMC,122849.750,A,4308.2898,N,07726.2836,W,0.41,33.88,170719,,,A*49
$GPGGA,122850.000,4308.2898,N,07726.2836,W,1,04,2.43,189.9,M,-34.4,M,,*5B
$GPRMC,122850.250,A,4308.2898,N,07726.2835,W,0.44,36.21,170719,,,A*44
$GPGGA,122850.500,4308.2898,N,07726.2835,W,1,04,2.43,189.9,M,-34.4,M,,*5D
$GPRMC,122850.750,A,4308.2899,N,07726.2835,W,0.43,37.65,170719,,,A*46
$GPGGA,122851.000,4308.2899,N,07726.2834,W,1,04,2.43,189.9,M,-34.4,M,,*59
$GPRMC,122851.250,A,4308.2899,N,07726.2834,W,0.46,23.26,170719,,,A*44
$GPGGA,122851.500,4308.2899,N,07726.2834,W,1,04,2.43,189.9,M,-34.4,M,,*5C
$GPRMC,122851.750,A,4308.2900,N,07726.2834,W,0.50,22.84,170719,,,A*4E
$GPGGA,122852.000,4308.2900,N,07726.2834,W,1,04,2.43,189.9,M,-34.4,M,,*5B
$GPRMC,122852.250,A,4308.2900,N,07726.2833,W,0.53,20.90,170719,,,A*4B
$GPGGA,122852.500,4308.2901,N,07726.2833,W,1,04,2.43,189.9,M,-34.4,M,,*58
$GPRMC,122852.750,A,4308.2901,N,07726.2833,W,0.56,13.37,170719,,,A*47
$GPGGA,122853.000,4308.2902,N,07726.2833,W,1,04,2.88,189.9,M,-34.4,M,,*58
$GPRMC,122853.250,A,4308.2902,N,07726.2833,W,0.59,32.79,170719,,,A*46
$GPGGA,122853.500,4308.2903,N,07726.2830,W,1,04,2.43,189.8,M,-34.4,M,,*59
$GPRMC,122853.750,A,4308.2904,N,07726.2828,W,0.65,42.79,170719,,,A*47
$GPGGA,122854.000,4308.2905,N,07726.2826,W,1,04,2.43,189.7,M,-34.4,M,,*55
$GPRMC,122854.250,A,4308.2906,N,07726.2823,W,0.73,47.27,170719,,,A*45
$GPGGA,122854.500,4308.2907,N,07726.2822,W,1,04,2.43,189.6,M,-34.4,M,,*57
$GPRMC,122854.750,A,4308.2907,N,07726.2820,W,0.72,51.78,170719,,,A*4E
$GPGGA,122855.000,4308.2908,N,07726.2819,W,1,04,2.43,189.5,M,-34.4,M,,*57
$GPRMC,122855.250,A,4308.2909,N,07726.2818,W,0.73,52.36,170719,,,A*47
$GPGGA,122855.500,4308.2911,N,07726.2816,W,1,04,2.43,189.4,M,-34.4,M,,*54
$GPRMC,122855.750,A,4308.2912,N,07726.2814,W,0.76,49.99,170719,,,A*4E
$GPGGA,122856.000,4308.2913,N,07726.2813,W,1,04,2.43,189.3,M,-34.4,M,,*52
$GPRMC,122856.250,A,4308.2914,N,07726.2811,W,0.81,50.49,170719,,,A*46
$GPGGA,122856.500,4308.2914,N,07726.2809,W,1,04,2.43,189.2,M,-34.4,M,,*5A
$GPRMC,122856.750,A,4308.2915,N,07726.2808,W,0.81,52.34,170719,,,A*42
$GPGGA,122857.000,4308.2916,N,07726.2807,W,1,04,2.43,189.1,M,-34.4,M,,*51
$GPRMC,122857.250,A,4308.2917,N,07726.2805,W,0.75,49.34,170719,,,A*48
$GPGGA,122857.500,4308.2918,N,07726.2804,W,1,04,2.43,189.1,M,-34.4,M,,*59
$GPRMC,122857.750,A,4308.2920,N,07726.2802,W,0.77,45.15,170719,,,A*43
$GPGGA,122858.000,4308.2922,N,07726.2800,W,1,04,2.43,189.0,M,-34.4,M,,*5F
$GPRMC,122858.250,A,4308.2923,N,07726.2797,W,0.91,45.07,170719,,,A*42
$GPGGA,122858.500,4308.2925,N,07726.2795,W,1,04,2.43,188.9,M,-34.4,M,,*56
$GPRMC,122858.750,A,4308.2926,N,07726.2793,W,0.96,44.02,170719,,,A*45
$GPGGA,122859.000,4308.2927,N,07726.2792,W,1,04,2.43,188.8,M,-34.4,M,,*56
$GPRMC,122859.250,A,4308.2928,N,07726.2791,W,0.90,44.49,170719,,,A*44
$GPGGA,122859.500,4308.2928,N,07726.2791,W,1,04,2.43,188.6,M,-34.4,M,,*51
$GPRMC,122859.750,A,4308.2928,N,07726.2791,W,0.72,43.15,170719,,,A*43
$GPGGA,122900.000,4308.2927,N,07726.2791,W,1,04,2.43,188.5,M,-34.4,M,,*55
$GPRMC,122900.250,A,4308.2929,N,07726.2790,W,0.66,41.01,170719,,,A*49
$GPGGA,122900.500,4308.2931,N,07726.2788,W,1,04,2.43,188.3,M,-34.4,M,,*59
$GPRMC,122900.750,A,4308.2933,N,07726.2787,W,0.77,36.58,170719,,,A*4D
$GPGGA,122901.000,4308.2935,N,07726.2786,W,1,04,2.43,188.2,M,-34.4,M,,*56
$GPRMC,122901.250,A,4308.2936,N,07726.2787,W,0.79,27.72,170719,,,A*4A
$GPGGA,122901.500,4308.2937,N,07726.2787,W,1,04,2.43,188.1,M,-34.4,M,,*53
$GPRMC,122901.750,A,4308.2938,N,07726.2786,W,0.76,23.93,170719,,,A*44
$GPGGA,122902.000,4308.2939,N,07726.2787,W,1,04,2.42,187.9,M,-34.4,M,,*5D
$GPRMC,122902.250,A,4308.2940,N,07726.2785,W,0.73,20.64,170719,,,A*40
$GPGGA,122902.500,4308.2940,N,07726.2782,W,1,04,2.43,187.7,M,-34.4,M,,*5C
$GPRMC,122902.750,A,4308.2941,N,07726.2782,W,0.71,32.92,170719,,,A*4B
$GPGGA,122903.000,4308.2942,N,07726.2780,W,1,04,2.43,187.6,M,-34.4,M,,*59
$GPRMC,122903.250,A,4308.2943,N,07726.2780,W,0.71,29.34,170719,,,A*49
$GPGGA,122903.500,4308.2943,N,07726.2779,W,1,04,2.42,187.5,M,-34.4,M,,*59
$GPRMC,122903.750,A,4308.2944,N,07726.2779,W,0.67,28.46,170719,,,A*4E
$GPGGA,122904.000,4308.2945,N,07726.2778,W,1,04,2.43,187.4,M,-34.4,M,,*5C
$GPRMC,122904.250,A,4308.2946,N,07726.2777,W,0.67,26.07,170719,,,A*4B
$GPGGA,122904.500,4308.2947,N,07726.2776,W,1,04,2.42,187.2,M,-34.4,M,,*52
$GPRMC,122904.750,A,4308.2948,N,07726.2775,W,0.67,27.75,170719,,,A*46
$GPGGA,122905.000,4308.2949,N,07726.2774,W,1,04,2.43,187.1,M,-34.4,M,,*58
$GPRMC,122905.250,A,4308.2950,N,07726.2773,W,0.71,32.35,170719,,,A*4A
$GPGGA,122905.500,4308.2951,N,07726.2771,W,1,04,2.42,187.0,M,-34.4,M,,*51
$GPRMC,122905.750,A,4308.2952,N,07726.2770,W,0.75,32.90,170719,,,A*45
$GPGGA,122906.000,4308.2952,N,07726.2770,W,1,04,2.43,186.8,M,-34.4,M,,*5D
$GPRMC,122906.250,A,4308.2953,N,07726.2770,W,0.66,29.96,170719,,,A*4C
$GPGGA,122906.500,4308.2953,N,07726.2770,W,1,04,2.42,186.7,M,-34.4,M,,*57
$GPRMC,122906.750,A,4308.2954,N,07726.2770,W,0.58,21.32,170719,,,A*45
$GPGGA,122907.000,4308.2955,N,07726.2771,W,1,04,2.42,186.6,M,-34.4,M,,*55
$GPRMC,122907.250,A,4308.2955,N,07726.2770,W,0.53,11.29,170719,,,A*42
$GPGGA,122907.500,4308.2955,N,07726.2768,W,1,04,2.87,186.5,M,-34.4,M,,*52
$GPRMC,122907.750,A,4308.2956,N,07726.2767,W,0.51,27.46,170719,,,A*4C
$GPGGA,122908.000,4308.2957,N,07726.2765,W,1,04,2.42,186.4,M,-34.4,M,,*5F
$GPRMC,122908.250,A,4308.2958,N,07726.2764,W,0.57,26.56,170719,,,A*4D
$GPGGA,122908.500,4308.2959,N,07726.2763,W,1,04,2.42,186.3,M,-34.4,M,,*55
$GPRMC,122908.750,A,4308.2960,N,07726.2762,W,0.63,27.83,170719,,,A*4B
$GPGGA,122909.000,4308.2961,N,07726.2760,W,1,04,2.42,186.2,M,-34.4,M,,*58
$GPRMC,122909.250,A,4308.2962,N,07726.2759,W,0.64,34.13,170719,,,A*49
$GPGGA,122909.500,4308.2962,N,07726.2758,W,1,04,2.42,186.1,M,-34.4,M,,*56
$GPRMC,122909.750,A,4308.2962,N,07726.2757,W,0.61,32.99,170719,,,A*43
$GPGGA,122910.000,4308.2963,N,07726.2756,W,1,04,2.42,186.1,M,-34.4,M,,*54
$GPRMC,122910.250,A,4308.2963,N,07726.2756,W,0.60,30.80,170719,,,A*45
$GPGGA,122910.500,4308.2964,N,07726.2756,W,1,04,2.42,186.0,M,-34.4,M,,*57
$GPRMC,122910.750,A,4308.2965,N,07726.2755,W,0.60,27.42,170719,,,A*4D
$GPGGA,122911.000,4308.2966,N,07726.2754,W,1,04,2.43,186.0,M,-34.4,M,,*52
$GPRMC,122911.250,A,4308.2966,N,07726.2754,W,0.64,25.76,170719,,,A*4A
$GPGGA,122911.500,4308.2966,N,07726.2754,W,1,04,2.42,185.9,M,-34.4,M,,*5C
$GPRMC,122911.750,A,4308.2966,N,07726.2755,W,0.55,20.87,170719,,,A*47
$GPGGA,122912.000,4308.2964,N,07726.2755,W,1,04,2.42,185.9,M,-34.4,M,,*59
$GPRMC,122912.250,A,4308.2964,N,07726.2756,W,0.40,17.79,170719,,,A*41
$GPGGA,122912.500,4308.2964,N,07726.2755,W,1,04,2.42,185.9,M,-34.4,M,,*5C
$GPRMC,122912.750,A,4308.2965,N,07726.2755,W,0.45,20.02,170719,,,A*4B
$GPGGA,122913.000,4308.2966,N,07726.2754,W,1,04,2.42,185.8,M,-34.4,M,,*5A
$GPRMC,122913.250,A,4308.2966,N,07726.2755,W,0.51,8.67,170719,,,A*70
$GPGGA,122913.500,4308.2966,N,07726.2756,W,1,04,2.86,185.8,M,-34.4,M,,*55
$GPRMC,122913.750,A,4308.2965,N,07726.2757,W,0.45,357.44,170719,,,A*79
$GPGGA,122914.000,4308.2964,N,07726.2758,W,1,04,2.86,185.8,M,-34.4,M,,*5B
$GPRMC,122914.250,A,4308.2964,N,07726.2757,W,0.39,355.43,170719,,,A*74
$GPGGA,122914.500,4308.2964,N,07726.2758,W,1,04,2.86,185.8,M,-34.4,M,,*5E
$GPRMC,122914.750,A,4308.2964,N,07726.2758,W,0.38,345.95,170719,,,A*75
$GPGGA,122915.000,4308.2963,N,07726.2758,W,1,04,2.86,185.8,M,-34.4,M,,*5D
$GPRMC,122915.250,A,4308.2964,N,07726.2758,W,0.32,0.11,170719,,,A*75
$GPGGA,122915.500,4308.2964,N,07726.2758,W,1,04,2.86,185.8,M,-34.4,M,,*5F
$GPRMC,122915.750,A,4308.2964,N,07726.2758,W,0.28,2.06,170719,,,A*7F
$GPGGA,122916.000,4308.2964,N,07726.2758,W,1,04,2.86,185.8,M,-34.4,M,,*59
$GPRMC,122916.250,A,4308.2964,N,07726.2758,W,0.25,351.10,170719,,,A*76
$GPGGA,122916.500,4308.2965,N,07726.2758,W,1,04,2.86,185.8,M,-34.4,M,,*5D
$GPRMC,122916.750,A,4308.2965,N,07726.2758,W,0.22,348.93,170719,,,A*76
$GPGGA,122917.000,4308.2965,N,07726.2758,W,1,04,2.86,185.8,M,-34.4,M,,*59
$GPRMC,122917.250,A,4308.2965,N,07726.2758,W,0.15,359.41,170719,,,A*79
$GPGGA,122917.500,4308.2965,N,07726.2758,W,1,04,2.86,185.8,M,-34.4,M,,*5C
$GPRMC,122917.750,A,4308.2965,N,07726.2758,W,0.15,19.36,170719,,,A*4B
$GPGGA,122918.000,4308.2965,N,07726.2758,W,1,04,2.42,185.8,M,-34.4,M,,*5E
$GPRMC,122918.250,A,4308.2965,N,07726.2758,W,0.16,14.43,170719,,,A*4D
$GPGGA,122918.500,4308.2965,N,07726.2758,W,1,04,2.86,185.8,M,-34.4,M,,*53
$GPRMC,122918.750,A,4308.2965,N,07726.2758,W,0.13,25.49,170719,,,A*45
$GPGGA,122919.000,4308.2966,N,07726.2758,W,1,04,2.42,185.8,M,-34.4,M,,*5C
$GPRMC,122919.250,A,4308.2966,N,07726.2758,W,0.18,88.33,170719,,,A*43
$GPGGA,122919.500,4308.2966,N,07726.2758,W,1,04,2.42,185.8,M,-34.4,M,,*59
$GPRMC,122919.750,A,4308.2965,N,07726.2758,W,0.18,107.92,170719,,,A*78
$GPGGA,122920.000,4308.2965,N,07726.2757,W,1,04,2.42,185.8,M,-34.4,M,,*5A
$GPRMC,122920.250,A,4308.2965,N,07726.2757,W,0.25,109.41,170719,,,A*76
$GPGGA,122920.500,4308.2965,N,07726.2757,W,1,04,2.42,185.8,M,-34.4,M,,*5F
$GPRMC,122920.750,A,4308.2965,N,07726.2757,W,0.29,101.41,170719,,,A*77
$GPGGA,122921.000,4308.2965,N,07726.2756,W,1,04,2.42,185.8,M,-34.4,M,,*5A
$GPRMC,122921.250,A,4308.2965,N,07726.2756,W,0.19,92.95,170719,,,A*43
$GPGGA,122921.500,4308.2965,N,07726.2756,W,1,04,2.42,185.8,M,-34.4,M,,*5F
$GPRMC,122921.750,A,4308.2965,N,07726.2756,W,0.21,60.73,170719,,,A*48
$GPGGA,122922.000,4308.2965,N,07726.2756,W,1,04,2.42,185.8,M,-34.4,M,,*59
$GPRMC,122922.250,A,4308.2965,N,07726.2756,W,0.27,50.22,170719,,,A*4F
$GPGGA,122922.500,4308.2966,N,07726.2755,W,1,04,2.42,185.8,M,-34.4,M,,*5C
$GPRMC,122922.750,A,4308.2966,N,07726.2755,W,0.28,42.91,170719,,,A*4E
$GPGGA,122923.000,4308.2966,N,07726.2755,W,1,04,2.42,185.8,M,-34.4,M,,*58
$GPRMC,122923.250,A,4308.2966,N,07726.2755,W,0.20,32.98,170719,,,A*4C
$GPGGA,122923.500,4308.2966,N,07726.2755,W,1,04,2.42,185.8,M,-34.4,M,,*5D
$GPRMC,122923.750,A,4308.2966,N,07726.2755,W,0.12,34.84,170719,,,A*43
$GPGGA,122924.000,4308.2966,N,07726.2755,W,1,04,2.42,185.8,M,-34.4,M,,*5F
$GPRMC,122924.250,A,4308.2966,N,07726.2755,W,0.03,86.45,170719,,,A*45
$GPGGA,122924.500,4308.2966,N,07726.2755,W,1,04,2.42,185.8,M,-34.4,M,,*5A
$GPRMC,122924.750,A,4308.2966,N,07726.2755,W,0.16,193.60,170719,,,A*76
$GPGGA,122925.000,4308.2966,N,07726.2755,W,1,04,2.42,185.8,M,-34.4,M,,*5E
$GPRMC,122925.250,A,4308.2966,N,07726.2755,W,0.17,198.74,170719,,,A*7D
$GPGGA,122925.500,4308.2966,N,07726.2755,W,1,04,2.42,185.8,M,-34.4,M,,*5B
$GPRMC,122925.750,A,4308.2966,N,07726.2755,W,0.11,174.37,170719,,,A*7B
$GPGGA,122926.000,4308.2966,N,07726.2755,W,1,04,2.42,185.8,M,-34.4,M,,*5D
$GPRMC,122926.250,A,4308.2966,N,07726.2755,W,0.08,250.52,170719,,,A*73
$GPGGA,122926.500,4308.2965,N,07726.2755,W,1,04,2.42,185.8,M,-34.4,M,,*5B
$GPRMC,122926.750,A,4308.2965,N,07726.2755,W,0.04,194.76,170719,,,A*74
$GPGGA,122927.000,4308.2965,N,07726.2755,W,1,04,2.42,185.8,M,-34.4,M,,*5F
$GPRMC,122927.250,A,4308.2965,N,07726.2755,W,0.05,188.14,170719,,,A*78
$GPGGA,122927.500,4308.2965,N,07726.2755,W,1,04,2.42,185.8,M,-34.4,M,,*5A
$GPRMC,122927.750,A,4308.2965,N,07726.2755,W,0.05,202.95,170719,,,A*75
$GPGGA,122928.000,4308.2965,N,07726.2755,W,1,04,2.41,185.8,M,-34.4,M,,*53
$GPRMC,122928.250,A,4308.2965,N,07726.2755,W,0.07,36.05,170719,,,A*41
$GPGGA,122928.500,4308.2965,N,07726.2755,W,1,04,2.42,185.8,M,-34.4,M,,*55
$GPRMC,122928.750,A,4308.2965,N,07726.2755,W,0.10,28.42,170719,,,A*4E
$GPGGA,122929.000,4308.2965,N,07726.2755,W,1,04,2.42,185.8,M,-34.4,M,,*51
$GPRMC,122929.250,A,4308.2965,N,07726.2755,W,0.11,69.16,170719,,,A*4F
$GPGGA,122929.500,4308.2965,N,07726.2755,W,1,04,2.42,185.8,M,-34.4,M,,*54
$GPRMC,122929.750,A,4308.2966,N,07726.2755,W,0.17,81.83,170719,,,A*45
$GPGGA,122930.000,4308.2966,N,07726.2754,W,1,04,2.42,185.8,M,-34.4,M,,*5B
$GPRMC,122930.250,A,4308.2965,N,07726.2754,W,0.18,120.43,170719,,,A*73
$GPGGA,122930.500,4308.2965,N,07726.2754,W,1,04,2.42,185.8,M,-34.4,M,,*5D
$GPRMC,122930.750,A,4308.2965,N,07726.2754,W,0.08,114.33,170719,,,A*77
$GPGGA,122931.000,4308.2965,N,07726.2754,W,1,04,2.41,185.8,M,-34.4,M,,*5A
$GPRMC,122931.250,A,4308.2965,N,07726.2754,W,0.12,28.12,170719,,,A*45
$GPGGA,122931.500,4308.2965,N,07726.2754,W,1,04,2.42,185.8,M,-34.4,M,,*5C
$GPRMC,122931.750,A,4308.2966,N,07726.2754,W,0.14,334.07,170719,,,A*7F
$GPGGA,122932.000,4308.2966,N,07726.2754,W,1,04,2.42,185.8,M,-34.4,M,,*59
$GPRMC,122932.250,A,4308.2966,N,07726.2754,W,0.14,309.41,170719,,,A*75
$GPGGA,122932.500,4308.2966,N,07726.2754,W,1,04,2.42,185.8,M,-34.4,M,,*5C
$GPRMC,122932.750,A,4308.2966,N,07726.2754,W,0.23,313.30,170719,,,A*79
$GPGGA,122933.000,4308.2966,N,07726.2754,W,1,04,2.41,185.8,M,-34.4,M,,*5B
$GPRMC,122933.250,A,4308.2966,N,07726.2755,W,0.21,347.23,170719,,,A*7D
$GPGGA,122933.500,4308.2966,N,07726.2755,W,1,04,2.84,185.8,M,-34.4,M,,*56
$GPRMC,122933.750,A,4308.2966,N,07726.2755,W,0.17,1.81,170719,,,A*74
$GPGGA,122934.000,4308.2966,N,07726.2755,W,1,04,2.84,185.8,M,-34.4,M,,*54
$GPRMC,122934.250,A,4308.2967,N,07726.2755,W,0.15,337.84,170719,,,A*76
$GPGGA,122934.500,4308.2967,N,07726.2755,W,1,04,2.41,185.8,M,-34.4,M,,*59
$GPRMC,122934.750,A,4308.2967,N,07726.2755,W,0.09,346.23,170719,,,A*75
$GPGGA,122935.000,4308.2967,N,07726.2755,W,1,04,2.84,185.8,M,-34.4,M,,*54
$GPRMC,122935.250,A,4308.2967,N,07726.2755,W,0.05,304.94,170719,,,A*77
$GPGGA,122935.500,4308.2967,N,07726.2755,W,1,04,2.41,185.8,M,-34.4,M,,*58
$GPRMC,122935.750,A,4308.2967,N,07726.2755,W,0.10,261.84,170719,,,A*75
$GPGGA,122936.000,4308.2967,N,07726.2755,W,1,04,2.41,185.8,M,-34.4,M,,*5E
$GPRMC,122936.250,A,4308.2967,N,07726.2755,W,0.11,282.80,170719,,,A*7B
$GPGGA,122936.500,4308.2967,N,07726.2755,W,1,04,2.41,185.8,M,-34.4,M,,*5B
$GPRMC,122936.750,A,4308.2967,N,07726.2755,W,0.13,264.70,170719,,,A*7B
$GPGGA,122937.000,4308.2967,N,07726.2755,W,1,04,2.41,185.8,M,-34.4,M,,*5F
$GPRMC,122937.250,A,4308.2967,N,07726.2756,W,0.09,246.91,170719,,,A*78
$GPGGA,122937.500,4308.2967,N,07726.2756,W,1,04,2.41,185.8,M,-34.4,M,,*59
$GPRMC,122937.750,A,4308.2967,N,07726.2756,W,0.04,82.60,170719,,,A*44
$GPGGA,122938.000,4308.2967,N,07726.2756,W,1,04,2.42,185.8,M,-34.4,M,,*50
$GPRMC,122938.250,A,4308.2967,N,07726.2756,W,0.05,4.99,170719,,,A*77
$GPGGA,122938.500,4308.2967,N,07726.2756,W,1,04,2.84,185.8,M,-34.4,M,,*5F
$GPRMC,122938.750,A,4308.2967,N,07726.2756,W,0.10,31.68,170719,,,A*4E
$GPGGA,122939.000,4308.2967,N,07726.2756,W,1,04,2.41,185.8,M,-34.4,M,,*52
$GPRMC,122939.250,A,4308.2967,N,07726.2755,W,0.12,64.00,170719,,,A*45
$GPGGA,122939.500,4308.2967,N,07726.2755,W,1,04,2.41,185.8,M,-34.4,M,,*54
$GPRMC,122939.750,A,4308.2967,N,07726.2755,W,0.02,92.41,170719,,,A*4D
$GPGGA,122940.000,4308.2967,N,07726.2755,W,1,04,2.41,185.8,M,-34.4,M,,*5F
$GPRMC,122940.250,A,4308.2967,N,07726.2755,W,0.06,238.52,170719,,,A*72
$GPGGA,122940.500,4308.2967,N,07726.2755,W,1,04,2.41,185.8,M,-34.4,M,,*5A
$GPRMC,122940.750,A,4308.2967,N,07726.2755,W,0.12,189.98,170719,,,A*7D
$GPGGA,122941.000,4308.2967,N,07726.2755,W,1,04,2.41,185.8,M,-34.4,M,,*5E
$GPRMC,122941.250,A,4308.2966,N,07726.2756,W,0.25,210.94,170719,,,A*70
$GPGGA,122941.500,4308.2966,N,07726.2756,W,1,04,2.41,185.8,M,-34.4,M,,*59
$GPRMC,122941.750,A,4308.2966,N,07726.2756,W,0.28,221.52,170719,,,A*70
$GPGGA,122942.000,4308.2966,N,07726.2756,W,1,04,2.41,185.8,M,-34.4,M,,*5F
$GPRMC,122942.250,A,4308.2966,N,07726.2756,W,0.27,211.76,170719,,,A*7C
$GPGGA,122942.500,4308.2966,N,07726.2756,W,1,04,2.42,185.8,M,-34.4,M,,*59
$GPRMC,122942.750,A,4308.2966,N,07726.2756,W,0.23,196.45,170719,,,A*71
$GPGGA,122943.000,4308.2965,N,07726.2756,W,1,04,2.41,185.8,M,-34.4,M,,*5D
$GPRMC,122943.250,A,4308.2965,N,07726.2756,W,0.20,176.02,170719,,,A*78
$GPGGA,122943.500,4308.2965,N,07726.2756,W,1,04,2.41,185.8,M,-34.4,M,,*58
$GPRMC,122943.750,A,4308.2965,N,07726.2756,W,0.26,161.11,170719,,,A*7F
$GPGGA,122944.000,4308.2965,N,07726.2756,W,1,04,2.41,185.8,M,-34.4,M,,*5A
$GPRMC,122944.250,A,4308.2964,N,07726.2756,W,0.28,169.55,170719,,,A*7A
$GPGGA,122944.500,4308.2964,N,07726.2756,W,1,04,2.41,185.8,M,-34.4,M,,*5E
$GPRMC,122944.750,A,4308.2964,N,07726.2756,W,0.26,170.58,170719,,,A*74
$GPGGA,122945.000,4308.2964,N,07726.2756,W,1,04,2.41,185.8,M,-34.4,M,,*5A
$GPRMC,122945.250,A,4308.2964,N,07726.2756,W,0.28,185.57,170719,,,A*7B
$GPGGA,122945.500,4308.2964,N,07726.2756,W,1,04,2.41,185.8,M,-34.4,M,,*5F
$GPRMC,122945.750,A,4308.2963,N,07726.2756,W,0.32,210.27,170719,,,A*7A
$GPGGA,122946.000,4308.2963,N,07726.2756,W,1,04,2.41,185.8,M,-34.4,M,,*5E
$GPRMC,122946.250,A,4308.2963,N,07726.2757,W,0.36,192.85,170719,,,A*78
$GPGGA,122946.500,4308.2963,N,07726.2757,W,1,04,2.41,185.8,M,-34.4,M,,*5A
$GPRMC,122946.750,A,4308.2962,N,07726.2757,W,0.27,175.45,170719,,,A*79
$GPGGA,122947.000,4308.2962,N,07726.2757,W,1,04,2.42,185.8,M,-34.4,M,,*5C
$GPRMC,122947.250,A,4308.2962,N,07726.2757,W,0.24,193.94,170719,,,A*7A
$GPGGA,122947.500,4308.2962,N,07726.2757,W,1,04,2.41,185.8,M,-34.4,M,,*5A
$GPRMC,122947.750,A,4308.2962,N,07726.2757,W,0.15,194.67,170719,,,A*76
$GPGGA,122948.000,4308.2962,N,07726.2757,W,1,04,2.41,185.8,M,-34.4,M,,*50
$GPRMC,122948.250,A,4308.2962,N,07726.2757,W,0.05,289.48,170719,,,A*7F
$GPGGA,122948.500,4308.2962,N,07726.2757,W,1,04,2.41,185.8,M,-34.4,M,,*55
$GPRMC,122948.750,A,4308.2962,N,07726.2757,W,0.05,0.61,170719,,,A*72
$GPGGA,122949.000,4308.2962,N,07726.2757,W,1,04,2.83,185.8,M,-34.4,M,,*5F
$GPRMC,122949.250,A,4308.2962,N,07726.2757,W,0.07,151.99,170719,,,A*76
$GPGGA,122949.500,4308.2962,N,07726.2757,W,1,04,2.41,185.8,M,-34.4,M,,*54
$GPRMC,122949.750,A,4308.2962,N,07726.2757,W,0.10,134.50,170719,,,A*73
$GPGGA,122950.000,4308.2962,N,07726.2757,W,1,04,2.41,185.8,M,-34.4,M,,*59
$GPRMC,122950.250,A,4308.2961,N,07726.2757,W,0.05,84.60,170719,,,A*40
$GPGGA,122950.500,4308.2961,N,07726.2757,W,1,04,2.41,185.8,M,-34.4,M,,*5F
$GPRMC,122950.750,A,4308.2961,N,07726.2757,W,0.06,123.80,170719,,,A*74
$GPGGA,122951.000,4308.2961,N,07726.2756,W,1,04,2.41,185.8,M,-34.4,M,,*5A
$GPRMC,122951.250,A,4308.2961,N,07726.2756,W,0.19,127.44,170719,,,A*73
$GPGGA,122951.500,4308.2961,N,07726.2756,W,1,04,2.41,185.8,M,-34.4,M,,*5F
$GPRMC,122951.750,A,4308.2961,N,07726.2756,W,0.11,127.82,170719,,,A*74
$GPGGA,122952.000,4308.2961,N,07726.2756,W,1,04,2.41,185.8,M,-34.4,M,,*59
$GPRMC,122952.250,A,4308.2961,N,07726.2756,W,0.05,263.18,170719,,,A*77
$GPGGA,122952.500,4308.2961,N,07726.2756,W,1,04,2.41,185.8,M,-34.4,M,,*5C
$GPRMC,122952.750,A,4308.2961,N,07726.2756,W,0.03,86.15,170719,,,A*40
$GPGGA,122953.000,4308.2961,N,07726.2756,W,1,04,2.41,185.8,M,-34.4,M,,*58
$GPRMC,122953.250,A,4308.2961,N,07726.2756,W,0.01,97.53,170719,,,A*44
$GPGGA,122953.500,4308.2961,N,07726.2756,W,1,04,2.41,185.8,M,-34.4,M,,*5D
$GPRMC,122953.750,A,4308.2961,N,07726.2756,W,0.12,137.62,170719,,,A*7A
$GPGGA,122954.000,4308.2961,N,07726.2756,W,1,04,2.41,185.8,M,-34.4,M,,*5F
$GPRMC,122954.250,A,4308.2961,N,07726.2756,W,0.19,142.12,170719,,,A*76
$GPGGA,122954.500,4308.2961,N,07726.2756,W,1,04,2.41,185.8,M,-34.4,M,,*5A
$GPRMC,122954.750,A,4308.2961,N,07726.2756,W,0.17,146.32,170719,,,A*7B
$GPGGA,122955.000,4308.2961,N,07726.2755,W,1,04,2.41,185.8,M,-34.4,M,,*5D
$GPRMC,122955.250,A,4308.2960,N,07726.2755,W,0.17,151.46,170719,,,A*78
$GPGGA,122955.500,4308.2960,N,07726.2755,W,1,04,2.41,185.8,M,-34.4,M,,*59
$GPRMC,122955.750,A,4308.2960,N,07726.2755,W,0.14,101.89,170719,,,A*78
$GPGGA,122956.000,4308.2960,N,07726.2755,W,1,04,2.41,185.8,M,-34.4,M,,*5F
$GPRMC,122956.250,A,4308.2960,N,07726.2755,W,0.22,70.25,170719,,,A*4A
$GPGGA,122956.500,4308.2960,N,07726.2755,W,1,04,2.41,185.8,M,-34.4,M,,*5A
$GPRMC,122956.750,A,4308.2960,N,07726.2755,W,0.16,76.73,170719,,,A*4D
$GPGGA,122957.000,4308.2960,N,07726.2754,W,1,04,2.41,185.9,M,-34.4,M,,*5E
$GPRMC,122957.250,A,4308.2960,N,07726.2754,W,0.16,72.43,170719,,,A*4F
$GPGGA,122957.500,4308.2960,N,07726.2754,W,1,04,2.41,185.9,M,-34.4,M,,*5B
$GPRMC,122957.750,A,4308.2960,N,07726.2754,W,0.03,62.36,170719,,,A*4D
$GPGGA,122958.000,4308.2960,N,07726.2754,W,1,04,2.41,185.9,M,-34.4,M,,*51
$GPRMC,122958.250,A,4308.2960,N,07726.2754,W,0.03,162.22,170719,,,A*73
$GPGGA,122958.500,4308.2960,N,07726.2754,W,1,04,2.41,185.9,M,-34.4,M,,*54
$GPRMC,122958.750,A,4308.2960,N,07726.2754,W,0.09,78.85,170719,,,A*4B
$GPGGA,122959.000,4308.2960,N,07726.2754,W,1,04,2.41,185.9,M,-34.4,M,,*50
$GPRMC,122959.250,A,4308.2960,N,07726.2754,W,0.14,48.17,170719,,,A*4B
$GPGGA,122959.500,4308.2961,N,07726.2754,W,1,04,2.41,185.9,M,-34.4,M,,*54
$GPRMC,122959.750,A,4308.2961,N,07726.2754,W,0.12,7.01,170719,,,A*75
$GPGGA,123000.000,4308.2961,N,07726.2754,W,1,04,2.82,185.9,M,-34.4,M,,*5A
$GPRMC,123000.250,A,4308.2961,N,07726.2754,W,0.11,29.14,170719,,,A*4F
$GPGGA,123000.500,4308.2961,N,07726.2754,W,1,04,2.41,185.9,M,-34.4,M,,*50
$GPRMC,123000.750,A,4308.2961,N,07726.2754,W,0.11,12.06,170719,,,A*41
$GPGGA,123001.000,4308.2961,N,07726.2754,W,1,04,2.82,185.9,M,-34.4,M,,*5B
$GPRMC,123001.250,A,4308.2961,N,07726.2754,W,0.11,2.63,170719,,,A*77
$GPGGA,123001.500,4308.2961,N,07726.2754,W,1,04,2.82,185.9,M,-34.4,M,,*5E
$GPRMC,123001.750,A,4308.2961,N,07726.2754,W,0.12,352.75,170719,,,A*70
$GPGGA,123002.000,4308.2961,N,07726.2754,W,1,04,2.82,185.9,M,-34.4,M,,*58
$GPRMC,123002.250,A,4308.2961,N,07726.2754,W,0.17,333.04,170719,,,A*72
$GPGGA,123002.500,4308.2961,N,07726.2754,W,1,04,2.41,185.9,M,-34.4,M,,*52
$GPRMC,123002.750,A,4308.2962,N,07726.2754,W,0.14,314.38,170719,,,A*7D
$GPGGA,123003.000,4308.2962,N,07726.2754,W,1,04,2.41,185.9,M,-34.4,M,,*55
$GPRMC,123003.250,A,4308.2962,N,07726.2754,W,0.10,256.30,170719,,,A*72
$GPGGA,123003.500,4308.2962,N,07726.2754,W,1,04,2.41,185.9,M,-34.4,M,,*50
$GPRMC,123003.750,A,4308.2961,N,07726.2754,W,0.19,212.60,170719,,,A*78
$GPGGA,123004.000,4308.2961,N,07726.2754,W,1,04,2.41,185.9,M,-34.4,M,,*51
$GPRMC,123004.250,A,4308.2961,N,07726.2754,W,0.25,200.85,170719,,,A*7D
$GPGGA,123004.500,4308.2961,N,07726.2755,W,1,04,2.41,185.9,M,-34.4,M,,*55
$GPRMC,123004.750,A,4308.2961,N,07726.2755,W,0.19,183.07,170719,,,A*74
$GPGGA,123005.000,4308.2961,N,07726.2755,W,1,04,2.41,185.9,M,-34.4,M,,*51
$GPRMC,123005.250,A,4308.2961,N,07726.2755,W,0.17,172.80,170719,,,A*7F
$GPGGA,123005.500,4308.2960,N,07726.2755,W,1,04,2.41,185.9,M,-34.4,M,,*55
$GPRMC,123005.750,A,4308.2960,N,07726.2755,W,0.17,189.01,170719,,,A*76
$GPGGA,123006.000,4308.2960,N,07726.2755,W,1,04,2.41,185.9,M,-34.4,M,,*53
$GPRMC,123006.250,A,4308.2960,N,07726.2755,W,0.14,225.07,170719,,,A*70
$GPGGA,123006.500,4308.2960,N,07726.2755,W,1,04,2.40,185.9,M,-34.4,M,,*57
$GPRMC,123006.750,A,4308.2960,N,07726.2755,W,0.22,219.61,170719,,,A*7F
$GPGGA,123007.000,4308.2960,N,07726.2755,W,1,04,2.41,185.9,M,-34.4,M,,*52
$GPRMC,123007.250,A,4308.2960,N,07726.2755,W,0.32,230.13,170719,,,A*74
$GPGGA,123007.500,4308.2960,N,07726.2756,W,1,04,2.41,185.9,M,-34.4,M,,*54
$GPRMC,123007.750,A,4308.2959,N,07726.2756,W,0.20,254.38,170719,,,A*70
$GPGGA,123008.000,4308.2959,N,07726.2756,W,1,04,2.41,185.9,M,-34.4,M,,*54
$GPRMC,123008.250,A,4308.2959,N,07726.2756,W,0.13,265.38,170719,,,A*78
$GPGGA,123008.500,4308.2959,N,07726.2756,W,1,04,2.40,185.9,M,-34.4,M,,*50
$GPRMC,123008.750,A,4308.2959,N,07726.2756,W,0.15,254.77,170719,,,A*72
$GPGGA,123009.000,4308.2959,N,07726.2756,W,1,04,2.41,185.9,M,-34.4,M,,*55
$GPRMC,123009.250,A,4308.2959,N,07726.2757,W,0.18,265.80,170719,,,A*70
$GPGGA,123009.500,4308.2959,N,07726.2757,W,1,04,2.40,185.9,M,-34.4,M,,*50
$GPRMC,123009.750,A,4308.2959,N,07726.2757,W,0.21,270.13,170719,,,A*71
$GPGGA,123010.000,4308.2959,N,07726.2757,W,1,04,2.41,185.9,M,-34.4,M,,*5C
$GPRMC,123010.250,A,4308.2959,N,07726.2757,W,0.14,254.30,170719,,,A*7D
$GPGGA,123010.500,4308.2959,N,07726.2757,W,1,04,2.40,185.9,M,-34.4,M,,*58
$GPRMC,123010.750,A,4308.2959,N,07726.2757,W,0.13,230.82,170719,,,A*74
$GPGGA,123011.000,4308.2959,N,07726.2758,W,1,04,2.40,185.9,M,-34.4,M,,*53
$GPRMC,123011.250,A,4308.2959,N,07726.2758,W,0.13,188.77,170719,,,A*75
$GPGGA,123011.500,4308.2959,N,07726.2758,W,1,04,2.40,185.9,M,-34.4,M,,*56
$GPRMC,123011.750,A,4308.2959,N,07726.2758,W,0.15,188.17,170719,,,A*70
$GPGGA,123012.000,4308.2959,N,07726.2758,W,1,04,2.40,185.9,M,-34.4,M,,*50
$GPRMC,123012.250,A,4308.2959,N,07726.2758,W,0.15,184.39,170719,,,A*76
$GPGGA,123012.500,4308.2958,N,07726.2758,W,1,04,2.40,185.9,M,-34.4,M,,*54
$GPRMC,123012.750,A,4308.2958,N,07726.2758,W,0.19,196.11,170719,,,A*77
$GPGGA,123013.000,4308.2958,N,07726.2758,W,1,04,2.40,185.9,M,-34.4,M,,*50
$GPRMC,123013.250,A,4308.2958,N,07726.2758,W,0.30,188.17,170719,,,A*71
$GPGGA,123013.500,4308.2958,N,07726.2758,W,1,04,2.40,185.9,M,-34.4,M,,*55
$GPRMC,123013.750,A,4308.2958,N,07726.2758,W,0.29,186.63,170719,,,A*71
$GPGGA,123014.000,4308.2957,N,07726.2758,W,1,04,2.40,185.9,M,-34.4,M,,*58
$GPRMC,123014.250,A,4308.2957,N,07726.2758,W,0.27,190.84,170719,,,A*7C
$GPGGA,123014.500,4308.2957,N,07726.2758,W,1,04,2.40,185.9,M,-34.4,M,,*5D
$GPRMC,123014.750,A,4308.2957,N,07726.2758,W,0.30,208.42,170719,,,A*77
$GPGGA,123015.000,4308.2957,N,07726.2758,W,1,04,2.40,185.9,M,-34.4,M,,*59
