Vers 81
USE_SERIAL_FEEDBACK=true
DEVELOPMENT_MODE=false
USE_RMC_ONLY=false

$GPGGA,133454.250,4308.2926,N,07726.2631,W,1,04,1.62,91.7,M,-34.4,M,,*6F
$GPRMC,133454.250,A,4308.2926,N,07726.2631,W,0.05,199.84,181019,,,A*75
$GPGGA,133454.500,4308.2927,N,07726.2632,W,1,04,1.62,92.5,M,-34.4,M,,*6E
$GPRMC,133454.500,A,4308.2927,N,07726.2632,W,0.05,76.67,181019,,,A*48
$GPGGA,133454.750,4308.2929,N,07726.2633,W,1,04,1.62,93.2,M,-34.4,M,,*60
$GPRMC,133454.750,A,4308.2929,N,07726.2633,W,0.05,74.27,181019,,,A*46
$GPGGA,133455.000,4308.2930,N,07726.2634,W,1,04,1.62,94.0,M,-34.4,M,,*69
$GPRMC,133455.000,A,4308.2930,N,07726.2634,W,0.06,47.61,181019,$GPGGA,133455.250,4308.2931,N,07726.2634,W,1,04,1.61,94.6,M,-34.4,M,,*6A
$GPRMC,133455.500,A,4308.2933,N,07726.2635,W,0.08,59.45,181019,,,A*4B
$GPGGA,133455.750,4308.2934,N,07726.2635,W,1,04,1.62,96.0,M,-34.4,M,,*6C
$GPRMC,133456.000,A,4308.2935,N,07726.2636,W,0.05,69.19,181019,,,A*4F
$GPGGA,133456.250,4308.2936,N,07726.2636,W,1,04,1.62,97.4,M,-34.4,M,,*6E
$GPRMC,133456.500,A,4308.2937,N,07726.2637,W,0.04,354.36,181019,,,A*78
$GPGGA,133456.750,4308.2937,N,07726.2637,W,1,04,2.33,98.4,M,-34.4,M,,*63
$GPRMC,133457.000,A,4308.2937,N,07726.2637,W,0.01,159.72,181019,,,A*76
$GPGGA,133457.250,4308.2937,N,07726.2637,W,1,04,1.62,99.3,M,-34.4,M,,*66
$GPRMC,133457.500,A,4308.2937,N,07726.2637,W,0.10,140.84,181019,,,A*72
$GPGGA,133457.750,4308.2937,N,07726.2636,W,1,04,1.61,100.3,M,-34.4,M,,*50
$GPRMC,133458.000,A,4308.2937,N,07726.2636,W,0.17,135.28,181019,,,A*7A
$GPGGA,133458.250,4308.2937,N,07726.2635,W,1,04,1.62,101.3,M,-34.4,M,,*5B
$GPRMC,133458.500,A,4308.2937,N,07726.2635,W,0.21,150.02,181019,,,A*72
$GPGGA,133458.750,4308.2937,N,07726.2635,W,1,04,1.62,102.0,M,-34.4,M,,*5E
$GPRMC,133459.000,A,4308.2937,N,07726.2634,W,0.23,131.37,181019,,,A*74
$GPGGA,133459.250,4308.2938,N,07726.2634,W,1,04,1.62,103.0,M,-34.4,M,,*55
$GPRMC,133459.500,A,4308.2938,N,07726.2634,W,0.24,126.18,181019,,,A*72
$GPGGA,133459.750,4308.2939,N,07726.2634,W,1,04,1.62,104.1,M,-34.4,M,,*57
$GPRMC,133500.000,A,4308.2940,N,07726.2634,W,0.24,122.63,181019,,,A*7D
$GPGGA,133500.250,4308.2941,N,07726.2634,W,1,04,1.62,105.3,M,-34.4,M,,*53
$GPRMC,133500.500,A,4308.2942,N,07726.2635,W,0.20,119.14,181019,,,A*77
$GPGGA,133500.750,4308.2942,N,07726.2635,W,1,04,1.62,106.3,M,-34.4,M,,*57
$GPRMC,133501.000,A,4308.2943,N,07726.2635,W,0.20,119.73,181019,,,A*73
$GPGGA,133501.250,4308.2943,N,07726.2635,W,1,04,1.62,107.0,M,-34.4,M,,*50
$GPRMC,133501.500,A,4308.2944,N,07726.2635,W,0.21,108.09,181019,,,A*7D
$GPGGA,133501.750,4308.2944,N,07726.2635,W,1,04,1.62,107.3,M,-34.4,M,,*51
$GPRMC,133502.000,A,4308.2944,N,07726.2635,W,0.17,124.67,181019,,,A*78
$GPGGA,133502.250,4308.2970,N,07726.2650,W,1,07,1.06,118.1,M,-34.4,M,,*5E
$GPRMC,133502.500,A,4308.2985,N,07726.2659,W,0.19,326.59,181019,,,A*79
$GPGGA,133502.750,4308.2995,N,07726.2664,W,1,07,1.06,128.1,M,-34.4,M,,*54
$GPRMC,133503.000,A,4308.3003,N,07726.2669,W,0.19,324.93,181019,,,A*7C
$GPGGA,133503.250,4308.3009,N,07726.2672,W,1,07,1.06,134.1,M,-34.4,M,,*57
$GPRMC,133503.500,A,4308.3013,N,07726.2675,W,0.14,288.55,181019,,,A*75
$GPGGA,133503.750,4308.3016,N,07726.2676,W,1,07,1.06,137.5,M,-34.4,M,,*5F
$GPRMC,133504.000,A,4308.3020,N,07726.2677,W,0.11,320.65,181019,,,A*70
$GPGGA,133504.250,4308.3022,N,07726.2678,W,1,07,1.06,140.1,M,-34.4,M,,*50
$GPRMC,133504.500,A,4308.3023,N,07726.2679,W,0.11,320.27,181019,,,A*7E
$GPGGA,133504.750,4308.3024,N,07726.2679,W,1,07,1.06,141.5,M,-34.4,M,,*57
$GPRMC,133505.000,A,4308.3026,N,07726.2680,W,0.19,328.72,181019,,,A*79
$GPGGA,133505.250,4308.3027,N,07726.2680,W,1,07,1.06,142.8,M,-34.4,M,,*58
$GPRMC,133505.500,A,4308.3028,N,07726.2681,W,0.27,322.64,181019,,,A*73
$GPGGA,133505.750,4308.3029,N,07726.2682,W,1,07,1.06,143.6,M,-34.4,M,,*5E
$GPRMC,133506.000,A,4308.3029,N,07726.2682,W,0.28,309.14,181019,,,A*76
$GPGGA,133506.250,4308.3029,N,07726.2682,W,1,07,1.06,144.1,M,-34.4,M,,*58
$GPRMC,133506.500,A,4308.3029,N,07726.2682,W,0.23,300.97,181019,,,A*7A
$GPGGA,133506.750,4308.3029,N,07726.2682,W,1,07,1.06,144.4,M,-34.4,M,,*58
$GPRMC,133507.000,A,4308.3029,N,07726.2683,W,0.24,300.68,181019,,,A*78
$GPGGA,133507.250,4308.3029,N,07726.2682,W,1,07,1.06,144.6,M,-34.4,M,,*5E
$GPRMC,133507.500,A,4308.3030,N,07726.2682,W,0.22,341.01,181019,,,A*78
$GPGGA,133507.750,4308.3030,N,07726.2682,W,1,07,1.06,144.9,M,-34.4,M,,*5C
$GPRMC,133508.000,A,4308.3030,N,07726.2682,W,0.18,331.87,181019,,,A*72
$GPGGA,133508.250,4308.3029,N,07726.2682,W,1,07,1.06,145.0,M,-34.4,M,,*56
$GPRMC,133508.500,A,4308.3029,N,07726.2682,W,0.09,294.30,181019,,,A*7D
$GPGGA,133508.750,4308.3029,N,07726.2682,W,1,07,1.06,145.2,M,-34.4,M,,*51
$GPRMC,133509.000,A,4308.3029,N,07726.2682,W,0.05,317.36,181019,,,A*79
$GPGGA,133509.250,4308.3029,N,07726.2681,W,1,07,1.06,145.4,M,-34.4,M,,*50
$GPRMC,133509.500,A,4308.3029,N,07726.2681,W,0.03,239.07,181019,,,A*76
$GPGGA,133509.750,4308.3029,N,07726.2681,W,1,07,1.06,145.7,M,-34.4,M,,*56
$GPRMC,133510.000,A,4308.3028,N,07726.2680,W,0.03,173.43,181019,,,A*76
$GPGGA,133510.250,4308.3028,N,07726.2680,W,1,07,1.06,145.8,M,-34.4,M,,*54
$GPRMC,133510.500,A,4308.3028,N,07726.2680,W,0.07,181.85,181019,,,A*70
$GPGGA,133510.750,4308.3028,N,07726.2679,W,1,07,1.06,146.2,M,-34.4,M,,*5E
$GPRMC,133511.000,A,4308.3028,N,07726.2678,W,0.10,153.44,181019,,,A*77
$GPGGA,133511.250,4308.3028,N,07726.2678,W,1,07,1.06,146.3,M,-34.4,M,,*5A
$GPRMC,133511.500,A,4308.3028,N,07726.2678,W,0.10,122.32,181019,,,A*75
$GPGGA,133511.750,4308.3028,N,07726.2677,W,1,07,1.06,146.4,M,-34.4,M,,*57
$GPRMC,133512.000,A,4308.3028,N,07726.2677,W,0.10,153.90,181019,,,A*72
$GPGGA,133512.250,4308.3028,N,07726.2677,W,1,07,1.06,146.5,M,-34.4,M,,*50
$GPRMC,133512.500,A,4308.3028,N,07726.2677,W,0.09,182.50,181019,,,A*7F
$GPGGA,133512.750,4308.3028,N,07726.2676,W,1,07,1.06,146.5,M,-34.4,M,,*54
$GPRMC,133513.000,A,4308.3028,N,07726.2676,W,0.10,100.76,181019,,,A*7C
$GPGGA,133513.250,4308.3028,N,07726.2676,W,1,07,1.06,146.5,M,-34.4,M,,*50
$GPRMC,133513.500,A,4308.3029,N,07726.2676,W,0.10,44.57,181019,,,A*4A
$GPGGA,133513.750,4308.3028,N,07726.2675,W,1,07,1.06,146.4,M,-34.4,M,,*57
$GPRMC,133514.000,A,4308.3028,N,07726.2675,W,0.01,44.66,181019,,,A*48
$GPGGA,133514.250,4308.3028,N,07726.2675,W,1,07,1.06,146.5,M,-34.4,M,,*54
$GPRMC,133514.500,A,4308.3029,N,07726.2675,W,0.09,315.70,181019,,,A*74
$GPGGA,133514.750,4308.3029,N,07726.2675,W,1,07,1.06,146.6,M,-34.4,M,,*53
$GPRMC,133515.000,A,4308.3029,N,07726.2675,W,0.06,350.89,181019,,,A*78
$GPGGA,133515.250,4308.3029,N,07726.2675,W,1,07,1.12,146.7,M,-34.4,M,,*53
$GPRMC,133515.500,A,4308.3029,N,07726.2675,W,0.13,352.79,181019,,,A*74
$GPGGA,133515.750,4308.3029,N,07726.2675,W,1,07,1.12,146.6,M,-34.4,M,,*57
$GPRMC,133516.000,A,4308.3029,N,07726.2674,W,0.12,8.71,181019,,,A*76
$GPGGA,133516.250,4308.3029,N,07726.2674,W,1,07,1.12,146.7,M,-34.4,M,,*51
$GPRMC,133516.500,A,4308.3029,N,07726.2674,W,0.10,321.39,181019,,,A*75
$GPGGA,133516.750,4308.3029,N,07726.2674,W,1,07,1.06,146.7,M,-34.4,M,,*51
$GPRMC,133517.000,A,4308.3029,N,07726.2674,W,0.08,328.81,181019,,,A*72
$GPGGA,133517.250,4308.3029,N,07726.2674,W,1,07,1.06,146.7,M,-34.4,M,,*55
$GPRMC,133517.500,A,4308.3029,N,07726.2674,W,0.08,288.98,181019,,,A*74
$GPGGA,133517.750,4308.3029,N,07726.2674,W,1,07,1.06,146.8,M,-34.4,M,,*5F
$GPRMC,133518.000,A,4308.3029,N,07726.2674,W,0.11,341.85,181019,,,A*7E
$GPGGA,133518.250,4308.3029,N,07726.2674,W,1,07,1.06,146.8,M,-34.4,M,,*55
$GPRMC,133518.500,A,4308.3029,N,07726.2673,W,0.15,24.72,181019,,,A*40
$GPGGA,133518.750,4308.3030,N,07726.2673,W,1,07,1.06,146.9,M,-34.4,M,,*5E
$GPRMC,133519.000,A,4308.3029,N,07726.2673,W,0.15,21.94,181019,,,A*49
$GPGGA,133519.250,4308.3029,N,07726.2673,W,1,07,1.06,147.1,M,-34.4,M,,*5B
$GPRMC,133519.500,A,4308.3029,N,07726.2673,W,0.09,87.04,181019,,,A*44
$GPGGA,133519.750,4308.3028,N,07726.2672,W,1,07,1.06,147.2,M,-34.4,M,,*5D
$GPRMC,133520.000,A,4308.3028,N,07726.2672,W,0.07,117.41,181019,,,A*7C
$GPGGA,133520.250,4308.3029,N,07726.2673,W,1,07,1.06,147.3,M,-34.4,M,,*53
$GPRMC,133520.500,A,4308.3029,N,07726.2673,W,0.06,290.93,181019,,,A*7B
$GPGGA,133520.750,4308.3029,N,07726.2673,W,1,07,1.06,147.4,M,-34.4,M,,*51
$GPRMC,133521.000,A,4308.3029,N,07726.2674,W,0.11,279.95,181019,,,A*7F
$GPGGA,133521.250,4308.3029,N,07726.2674,W,1,07,1.06,147.3,M,-34.4,M,,*55
$GPRMC,133521.500,A,4308.3028,N,07726.2674,W,0.08,272.57,181019,,,A*76
$GPGGA,133521.750,4308.3029,N,07726.2674,W,1,07,1.06,147.3,M,-34.4,M,,*50
$GPRMC,133522.000,A,4308.3029,N,07726.2674,W,0.16,328.56,181019,,,A*71
$GPGGA,133522.250,4308.3029,N,07726.2675,W,1,07,1.06,147.3,M,-34.4,M,,*57
$GPRMC,133522.500,A,4308.3029,N,07726.2675,W,0.15,321.40,181019,,,A*78
$GPGGA,133522.750,4308.3029,N,07726.2675,W,1,07,1.06,147.3,M,-34.4,M,,*52
$GPRMC,133523.000,A,4308.3030,N,07726.2675,W,0.20,322.93,181019,,,A*7F
$GPGGA,133523.250,4308.3030,N,07726.2676,W,1,07,1.06,147.3,M,-34.4,M,,*5D
$GPRMC,133523.500,A,4308.3030,N,07726.2676,W,0.26,318.46,181019,,,A*7E
$GPGGA,133523.750,4308.3030,N,07726.2676,W,1,07,1.06,147.4,M,-34.4,M,,*5F
$GPRMC,133524.000,A,4308.3030,N,07726.2676,W,0.24,322.42,181019,,,A*73
$GPGGA,133524.250,4308.3031,N,07726.2676,W,1,07,1.06,147.4,M,-34.4,M,,*5C
$GPRMC,133524.500,A,4308.3031,N,07726.2676,W,0.26,289.82,181019,,,A*79
$GPGGA,133524.750,4308.3031,N,07726.2677,W,1,07,1.06,147.4,M,-34.4,M,,*58
$GPRMC,133525.000,A,4308.3031,N,07726.2677,W,0.26,279.28,181019,,,A*73
$GPGGA,133525.250,4308.3031,N,07726.2677,W,1,07,1.06,147.4,M,-34.4,M,,*5C
$GPRMC,133525.500,A,4308.3031,N,07726.2677,W,0.23,289.77,181019,,,A*76
$GPGGA,133525.750,4308.3031,N,07726.2678,W,1,07,1.06,147.4,M,-34.4,M,,*56
$GPRMC,133526.000,A,4308.3031,N,07726.2678,W,0.21,299.43,181019,,,A*7B
$GPGGA,133526.250,4308.3031,N,07726.2678,W,1,07,1.06,147.4,M,-34.4,M,,*50
$GPRMC,133526.500,A,4308.3031,N,07726.2678,W,0.17,298.54,181019,,,A*7C
$GPGGA,133526.750,4308.3031,N,07726.2678,W,1,07,1.06,147.4,M,-34.4,M,,*55
$GPRMC,133527.000,A,4308.3031,N,07726.2678,W,0.12,296.62,181019,,,A*76
$GPGGA,133527.250,4308.3031,N,07726.2679,W,1,07,1.06,147.4,M,-34.4,M,,*50
$GPRMC,133527.500,A,4308.3031,N,07726.2679,W,0.07,295.67,181019,,,A*70
$GPGGA,133527.750,4308.3031,N,07726.2679,W,1,07,1.06,147.4,M,-34.4,M,,*55
$GPRMC,133528.000,A,4308.3031,N,07726.2679,W,0.09,296.23,181019,,,A*77
$GPGGA,133528.250,4308.3031,N,07726.2679,W,1,07,1.06,147.4,M,-34.4,M,,*5F
$GPRMC,133528.500,A,4308.3031,N,07726.2679,W,0.08,226.37,181019,,,A*7D
$GPGGA,133528.750,4308.3031,N,07726.2679,W,1,07,1.06,147.4,M,-34.4,M,,*5A
$GPRMC,133529.000,A,4308.3031,N,07726.2679,W,0.03,161.30,181019,,,A*75
$GPGGA,133529.250,4308.3031,N,07726.2679,W,1,07,1.06,147.4,M,-34.4,M,,*5E
$GPRMC,133529.500,A,4308.3031,N,07726.2679,W,0.04,256.34,181019,,,A*74
$GPGGA,133529.750,4308.3031,N,07726.2679,W,1,07,1.06,147.4,M,-34.4,M,,*5B
$GPRMC,133530.000,A,4308.3031,N,07726.2679,W,0.04,210.36,181019,,,A*79
$GPGGA,133530.250,4308.3031,N,07726.2679,W,1,07,1.06,147.4,M,-34.4,M,,*56
$GPRMC,133530.500,A,4308.3031,N,07726.2679,W,0.08,271.59,181019,,,A*7E
$GPGGA,133530.750,4308.3031,N,07726.2679,W,1,07,1.06,147.4,M,-34.4,M,,*53
$GPRMC,133531.000,A,4308.3031,N,07726.2679,W,0.03,290.77,181019,,,A*72
$GPGGA,133531.250,4308.3031,N,07726.2679,W,1,07,1.06,147.4,M,-34.4,M,,*57
$GPRMC,133531.500,A,4308.3031,N,07726.2679,W,0.09,230.12,181019,,,A*74
$GPGGA,133531.750,4308.3031,N,07726.2679,W,1,07,1.06,147.4,M,-34.4,M,,*52
$GPRMC,133532.000,A,4308.3031,N,07726.2679,W,0.12,240.17,181019,,,A*7A
$GPGGA,133532.250,4308.3031,N,07726.2680,W,1,07,1.06,147.4,M,-34.4,M,,*52
$GPRMC,133532.500,A,4308.3031,N,07726.2680,W,0.11,239.58,181019,,,A*7F
$GPGGA,133532.750,4308.3031,N,07726.2680,W,1,07,1.06,147.4,M,-34.4,M,,*57
$GPRMC,133533.000,A,4308.3031,N,07726.2680,W,0.13,205.12,181019,,,A*78
$GPGGA,133533.250,4308.3031,N,07726.2680,W,1,07,1.06,147.4,M,-34.4,M,,*53
$GPRMC,133533.500,A,4308.3031,N,07726.2680,W,0.19,194.25,181019,,,A*78
$GPGGA,133533.750,4308.3030,N,07726.2680,W,1,07,1.06,147.4,M,-34.4,M,,*57
$GPRMC,133534.000,A,4308.3030,N,07726.2680,W,0.22,155.74,181019,,,A*7A
$GPGGA,133534.250,4308.3030,N,07726.2680,W,1,07,1.06,147.4,M,-34.4,M,,*55
$GPRMC,133534.500,A,4308.3030,N,07726.2680,W,0.25,138.16,181019,,,A*77
$GPGGA,133534.750,4308.3030,N,07726.2679,W,1,07,1.06,147.4,M,-34.4,M,,*56
$GPRMC,133535.000,A,4308.3030,N,07726.2679,W,0.26,153.42,181019,,,A*7A
$GPGGA,133535.250,4308.3030,N,07726.2679,W,1,07,1.06,147.4,M,-34.4,M,,*52
$GPRMC,133535.500,A,4308.3029,N,07726.2679,W,0.26,137.17,181019,,,A*75
$GPGGA,133535.750,4308.3029,N,07726.2679,W,1,07,1.06,147.4,M,-34.4,M,,*5F
$GPRMC,133536.000,A,4308.3029,N,07726.2679,W,0.28,129.66,181019,,,A*74
$GPGGA,133536.250,4308.3029,N,07726.2678,W,1,07,1.06,147.4,M,-34.4,M,,*58
$GPRMC,133536.500,A,4308.3029,N,07726.2678,W,0.24,139.40,181019,,,A*79
$GPGGA,133536.750,4308.3029,N,07726.2678,W,1,07,1.06,147.4,M,-34.4,M,,*5D
$GPRMC,133537.000,A,4308.3029,N,07726.2678,W,0.19,131.14,181019,,,A*7A
$GPGGA,133537.250,4308.3028,N,07726.2678,W,1,07,1.06,147.4,M,-34.4,M,,*58
$GPRMC,133537.500,A,4308.3028,N,07726.2678,W,0.17,127.57,181019,,,A*70
$GPGGA,133537.750,4308.3028,N,07726.2678,W,1,07,1.06,147.4,M,-34.4,M,,*5D
$GPRMC,133538.000,A,4308.3028,N,07726.2677,W,0.18,138.56,181019,,,A*75
$GPGGA,133538.250,4308.3028,N,07726.2677,W,1,07,1.06,147.4,M,-34.4,M,,*58
$GPRMC,133538.500,A,4308.3028,N,07726.2677,W,0.16,175.76,181019,,,A*75
$GPGGA,133538.750,4308.3028,N,07726.2677,W,1,07,1.06,147.4,M,-34.4,M,,*5D
$GPRMC,133539.000,A,4308.3028,N,07726.2677,W,0.26,179.05,181019,,,A*7A
$GPGGA,133539.250,4308.3028,N,07726.2677,W,1,07,1.06,147.4,M,-34.4,M,,*59
$GPRMC,133539.500,A,4308.3027,N,07726.2677,W,0.25,172.96,181019,,,A*72
$GPGGA,133539.750,4308.3027,N,07726.2677,W,1,07,1.06,147.4,M,-34.4,M,,*53
$GPRMC,133540.000,A,4308.3027,N,07726.2677,W,0.21,179.41,181019,,,A*7C
$GPGGA,133540.250,4308.3027,N,07726.2677,W,1,07,1.06,147.4,M,-34.4,M,,*58
$GPRMC,133540.500,A,4308.3027,N,07726.2677,W,0.13,147.74,181019,,,A*73
$GPGGA,133540.750,4308.3027,N,07726.2677,W,1,07,1.06,147.4,M,-34.4,M,,*5D
$GPRMC,133541.000,A,4308.3027,N,07726.2677,W,0.10,139.04,181019,,,A*7A
$GPGGA,133541.250,4308.3027,N,07726.2677,W,1,07,1.06,147.4,M,-34.4,M,,*59
$GPRMC,133541.500,A,4308.3026,N,07726.2677,W,0.15,111.37,181019,,,A*71
$GPGGA,133541.750,4308.3026,N,07726.2677,W,1,07,1.06,147.4,M,-34.4,M,,*5D
$GPRMC,133542.000,A,4308.3026,N,07726.2676,W,0.20,128.07,181019,,,A*79
$GPGGA,133542.250,4308.3026,N,07726.2676,W,1,07,1.06,147.4,M,-34.4,M,,*5A
$GPRMC,133542.500,A,4308.3026,N,07726.2676,W,0.25,139.63,181019,,,A*7B
$GPGGA,133542.750,4308.3026,N,07726.2676,W,1,07,1.06,147.4,M,-34.4,M,,*5F
$GPRMC,133543.000,A,4308.3026,N,07726.2676,W,0.19,144.00,181019,,,A*7F
$GPGGA,133543.250,4308.3026,N,07726.2676,W,1,07,1.06,147.4,M,-34.4,M,,*5B
$GPRMC,133543.500,A,4308.3026,N,07726.2676,W,0.20,112.13,181019,,,A*71
$GPGGA,133543.750,4308.3026,N,07726.2675,W,1,07,1.06,147.4,M,-34.4,M,,*5D
$GPRMC,133544.000,A,4308.3026,N,07726.2675,W,0.21,112.62,181019,,,A*77
$GPGGA,133544.250,4308.3025,N,07726.2675,W,1,07,1.06,147.4,M,-34.4,M,,*5C
$GPRMC,133544.500,A,4308.3025,N,07726.2675,W,0.17,128.87,181019,,,A*76
$GPGGA,133544.750,4308.3025,N,07726.2675,W,1,07,1.06,147.4,M,-34.4,M,,*59
$GPRMC,133545.000,A,4308.3025,N,07726.2675,W,0.16,126.79,181019,,,A*7C
$GPGGA,133545.250,4308.3025,N,07726.2674,W,1,07,1.06,147.4,M,-34.4,M,,*5C
$GPRMC,133545.500,A,4308.3025,N,07726.2674,W,0.17,140.08,181019,,,A*7F
$GPGGA,133545.750,4308.3025,N,07726.2674,W,1,07,1.06,147.4,M,-34.4,M,,*59
$GPRMC,133546.000,A,4308.3025,N,07726.2674,W,0.16,170.56,181019,,,A*70
$GPGGA,133546.250,4308.3025,N,07726.2674,W,1,07,1.06,147.4,M,-34.4,M,,*5F
$GPRMC,133546.500,A,4308.3025,N,07726.2674,W,0.20,140.61,181019,,,A*77
$GPGGA,133546.750,4308.3025,N,07726.2674,W,1,07,1.06,147.4,M,-34.4,M,,*5A
$GPRMC,133547.000,A,4308.3024,N,07726.2674,W,0.17,134.85,181019,,,A*7F
$GPGGA,133547.250,4308.3024,N,07726.2674,W,1,07,1.06,147.4,M,-34.4,M,,*5F
$GPRMC,133547.500,A,4308.3024,N,07726.2674,W,0.07,77.91,181019,,,A*48
$GPGGA,133547.750,4308.3024,N,07726.2674,W,1,07,1.06,147.4,M,-34.4,M,,*5A
$GPRMC,133548.000,A,4308.3024,N,07726.2673,W,0.05,49.71,181019,,,A*44
$GPGGA,133548.250,4308.3024,N,07726.2673,W,1,07,1.06,147.4,M,-34.4,M,,*57
$GPRMC,133548.500,A,4308.3024,N,07726.2673,W,0.01,239.21,181019,,,A*75
$GPGGA,133548.750,4308.3024,N,07726.2673,W,1,07,1.06,147.4,M,-34.4,M,,*52
$GPRMC,133549.000,A,4308.3024,N,07726.2673,W,0.10,55.13,181019,,,A*48
$GPGGA,133549.250,4308.3024,N,07726.2673,W,1,07,1.06,147.4,M,-34.4,M,,*56
$GPRMC,133549.500,A,4308.3024,N,07726.2673,W,0.07,58.34,181019,,,A*43
$GPGGA,133549.750,4308.3024,N,07726.2673,W,1,07,1.06,147.4,M,-34.4,M,,*53
$GPRMC,133550.000,A,4308.3024,N,07726.2673,W,0.07,16.67,181019,,,A*42
$GPGGA,133550.250,4308.3025,N,07726.2673,W,1,07,1.06,147.4,M,-34.4,M,,*5F
$GPRMC,133550.500,A,4308.3025,N,07726.2673,W,0.18,318.64,181019,,,A*76
$GPGGA,133550.750,4308.3025,N,07726.2673,W,1,07,1.06,147.4,M,-34.4,M,,*5A
$GPRMC,133551.000,A,4308.3025,N,07726.2673,W,0.20,309.49,181019,,,A*76
$GPGGA,133551.250,4308.3025,N,07726.2674,W,1,07,1.06,147.4,M,-34.4,M,,*59
$GPRMC,133551.500,A,4308.3025,N,07726.2674,W,0.16,340.84,181019,,,A*7D
$GPGGA,133551.750,4308.3025,N,07726.2674,W,1,07,1.06,147.4,M,-34.4,M,,*5C
$GPRMC,133552.000,A,4308.3025,N,07726.2674,W,0.18,346.40,181019,,,A*7B
$GPGGA,133552.250,4308.3025,N,07726.2674,W,1,07,1.12,147.4,M,-34.4,M,,*5F
$GPRMC,133552.500,A,4308.3025,N,07726.2674,W,0.14,329.39,181019,,,A*75
$GPGGA,133552.750,4308.3025,N,07726.2674,W,1,07,1.06,147.4,M,-34.4,M,,*5F
$GPRMC,133553.000,A,4308.3026,N,07726.2674,W,0.13,298.26,181019,,,A*70
$GPGGA,133553.250,4308.3026,N,07726.2674,W,1,07,1.06,147.3,M,-34.4,M,,*5F
$GPRMC,133553.500,A,4308.3026,N,07726.2674,W,0.17,297.66,181019,,,A*7A
$GPGGA,133553.750,4308.3026,N,07726.2674,W,1,07,1.06,147.3,M,-34.4,M,,*5A
$GPRMC,133554.000,A,4308.3026,N,07726.2675,W,0.18,306.62,181019,,,A*7B
$GPGGA,133554.250,4308.3026,N,07726.2675,W,1,07,1.06,147.3,M,-34.4,M,,*59
$GPRMC,133554.500,A,4308.3026,N,07726.2675,W,0.17,319.82,181019,,,A*71
$GPGGA,133554.750,4308.3026,N,07726.2675,W,1,07,1.06,147.3,M,-34.4,M,,*5C
$GPRMC,133555.000,A,4308.3026,N,07726.2675,W,0.17,316.05,181019,,,A*75
$GPGGA,133555.250,4308.3026,N,07726.2675,W,1,07,1.06,147.3,M,-34.4,M,,*58
$GPRMC,133555.500,A,4308.3026,N,07726.2675,W,0.18,311.17,181019,,,A*7B
$GPGGA,133555.750,4308.3026,N,07726.2675,W,1,07,1.06,147.3,M,-34.4,M,,*5D
$GPRMC,133556.000,A,4308.3026,N,07726.2676,W,0.21,294.93,181019,,,A*74
$GPGGA,133556.250,4308.3026,N,07726.2676,W,1,07,1.06,147.3,M,-34.4,M,,*58
$GPRMC,133556.500,A,4308.3026,N,07726.2676,W,0.22,264.13,181019,,,A*75
$GPGGA,133556.750,4308.3026,N,07726.2676,W,1,07,1.06,147.3,M,-34.4,M,,*5D
$GPRMC,133557.000,A,4308.3026,N,07726.2676,W,0.18,256.33,181019,,,A*7B
$GPGGA,133557.250,4308.3026,N,07726.2676,W,1,07,1.06,147.3,M,-34.4,M,,*59
$GPRMC,133557.500,A,4308.3026,N,07726.2677,W,0.16,330.58,181019,,,A*7D
$GPGGA,133557.750,4308.3027,N,07726.2677,W,1,07,1.06,147.3,M,-34.4,M,,*5C
$GPRMC,133558.000,A,4308.3027,N,07726.2677,W,0.19,334.80,181019,,,A*78
$GPGGA,133558.250,4308.3027,N,07726.2677,W,1,07,1.12,147.3,M,-34.4,M,,*53
$GPRMC,133558.500,A,4308.3027,N,07726.2677,W,0.06,339.52,181019,,,A*71
$GPGGA,133558.750,4308.3027,N,07726.2677,W,1,07,1.12,147.3,M,-34.4,M,,*56
$GPRMC,133559.000,A,4308.3027,N,07726.2677,W,0.01,265.81,181019,,,A*74
$GPGGA,133559.250,4308.3027,N,07726.2677,W,1,07,1.12,147.3,M,-34.4,M,,*52
$GPRMC,133559.500,A,4308.3027,N,07726.2677,W,0.03,210.44,181019,,,A*78
$GPGGA,133559.750,4308.3027,N,07726.2677,W,1,07,1.12,147.3,M,-34.4,M,,*57
$GPRMC,133600.000,A,4308.3027,N,07726.2677,W,0.04,331.93,181019,,,A*7D
$GPGGA,133600.250,4308.3027,N,07726.2677,W,1,07,1.12,147.3,M,-34.4,M,,*5D
$GPRMC,133600.500,A,4308.3027,N,07726.2677,W,0.05,0.92,181019,,,A*79
$GPGGA,133600.750,4308.3027,N,07726.2677,W,1,07,1.12,147.3,M,-34.4,M,,*58
$GPRMC,133601.000,A,4308.3027,N,07726.2677,W,0.02,230.63,181019,,,A*75
$GPGGA,133601.250,4308.3027,N,07726.2677,W,1,07,1.12,147.3,M,-34.4,M,,*5C
$GPRMC,133601.500,A,4308.3027,N,07726.2677,W,0.03,4.27,181019,,,A*74
$GPGGA,133601.750,4308.3027,N,07726.2677,W,1,07,1.12,147.3,M,-34.4,M,,*59
$GPRMC,133602.000,A,4308.3027,N,07726.2677,W,0.02,157.64,181019,,,A*73
$GPGGA,133602.250,4308.3027,N,07726.2677,W,1,07,1.12,147.3,M,-34.4,M,,*5F
$GPRMC,133602.500,A,4308.3027,N,07726.2677,W,0.03,162.61,181019,,,A*74
$GPGGA,133602.750,4308.3027,N,07726.2677,W,1,07,1.12,147.3,M,-34.4,M,,*5A
$GPRMC,133603.000,A,4308.3027,N,07726.2677,W,0.02,129.09,181019,,,A*70
$GPGGA,133603.250,4308.3027,N,07726.2677,W,1,07,1.12,147.3,M,-34.4,M,,*5E
$GPRMC,133603.500,A,4308.3027,N,07726.2677,W,0.02,72.12,181019,,,A*40
$GPGGA,133603.750,4308.3027,N,07726.2677,W,1,07,1.12,147.3,M,-34.4,M,,*5B
$GPRMC,133604.000,A,4308.3027,N,07726.2677,W,0.02,138.14,181019,,,A*7B
$GPGGA,133604.250,4308.3027,N,07726.2677,W,1,07,1.12,147.3,M,-34.4,M,,*59
$GPRMC,133604.500,A,4308.3027,N,07726.2677,W,0.01,92.10,181019,,,A*48
$GPGGA,133604.750,4308.3027,N,07726.2677,W,1,07,1.12,147.3,M,-34.4,M,,*5C
$GPRMC,133605.000,A,4308.3027,N,07726.2677,W,0.01,332.90,181019,,,A*7D
$GPGGA,133605.250,4308.3027,N,07726.2677,W,1,07,1.12,147.3,M,-34.4,M,,*58
$GPRMC,133605.500,A,4308.3027,N,07726.2677,W,0.00,276.01,181019,,,A*70
$GPGGA,133605.750,4308.3027,N,07726.2677,W,1,07,1.12,147.3,M,-34.4,M,,*5D
$GPRMC,133606.000,A,4308.3027,N,07726.2677,W,0.00,187.33,181019,,,A*7A
$GPGGA,133606.250,4308.3027,N,07726.2677,W,1,07,1.12,147.3,M,-34.4,M,,*5B
$GPRMC,133606.500,A,4308.3027,N,07726.2677,W,0.01,172.14,181019,,,A*71
$GPGGA,133606.750,4308.3027,N,07726.2677,W,1,07,1.12,147.3,M,-34.4,M,,*5E
$GPRMC,133607.000,A,4308.3027,N,07726.2677,W,0.00,166.90,181019,,,A*7D
$GPGGA,133607.250,4308.3027,N,07726.2677,W,1,07,1.12,147.3,M,-34.4,M,,*5A
$GPRMC,133607.500,A,4308.3027,N,07726.2677,W,0.01,200.06,181019,,,A*75
$GPGGA,133607.750,4308.3027,N,07726.2677,W,1,07,1.12,147.3,M,-34.4,M,,*5F
$GPRMC,133608.000,A,4308.3027,N,07726.2677,W,0.01,198.63,181019,,,A*7E
$GPGGA,133608.250,4308.3026,N,07726.2677,W,1,07,1.12,147.3,M,-34.4,M,,*54
$GPRMC,133608.500,A,4308.3026,N,07726.2677,W,0.00,0.00,181019,,,A*7E
$GPGGA,133608.750,4308.3026,N,07726.2677,W,1,07,1.12,147.3,M,-34.4,M,,*51
$GPRMC,133609.000,A,4308.3026,N,07726.2677,W,0.00,248.28,181019,,,A*7E
$GPGGA,133609.250,4308.3026,N,07726.2677,W,1,07,1.12,147.3,M,-34.4,M,,*55
$GPRMC,133609.500,A,4308.3026,N,07726.2677,W,0.00,274.68,181019,,,A*70
$GPGGA,133609.750,4308.3026,N,07726.2677,W,1,07,1.12,147.3,M,-34.4,M,,*50
$GPRMC,133610.000,A,4308.3026,N,07726.2677,W,0.00,12.44,181019,,,A*41
$GPGGA,133610.250,4308.3026,N,07726.2677,W,1,07,1.12,147.3,M,-34.4,M,,*5D
$GPRMC,133610.500,A,4308.3026,N,07726.2677,W,0.00,0.00,181019,,,A*77
$GPGGA,133610.750,4308.3026,N,07726.2677,W,1,07,1.12,147.3,M,-34.4,M,,*58
$GPRMC,133611.000,A,4308.3026,N,07726.2677,W,0.00,60.54,181019,,,A*44
$GPGGA,133611.250,4308.3026,N,07726.2677,W,1,07,1.12,147.3,M,-34.4,M,,*5C
$GPRMC,133611.500,A,4308.3026,N,07726.2677,W,0.01,341.38,181019,,,A*7A
$GPGGA,133611.750,4308.3026,N,07726.2677,W,1,07,1.12,147.3,M,-34.4,M,,*59
$GPRMC,133612.000,A,4308.3026,N,07726.2677,W,0.00,139.62,181019,,,A*7F
$GPGGA,133612.250,4308.3026,N,07726.2677,W,1,07,1.12,147.3,M,-34.4,M,,*5F
$GPRMC,133612.500,A,4308.3026,N,07726.2677,W,0.01,255.23,181019,,,A*77
$GPGGA,133612.750,4308.3026,N,07726.2677,W,1,07,1.12,147.3,M,-34.4,M,,*5A
$GPRMC,133613.000,A,4308.3026,N,07726.2677,W,0.01,348.70,181019,,,A*78
$GPGGA,133613.250,4308.3027,N,07726.2677,W,1,07,1.12,147.3,M,-34.4,M,,*5F
$GPRMC,133613.500,A,4308.3027,N,07726.2677,W,0.00,325.43,181019,,,A*76
$GPGGA,133613.750,4308.3027,N,07726.2677,W,1,07,1.12,147.3,M,-34.4,M,,*5A
$GPRMC,133614.000,A,4308.3027,N,07726.2677,W,0.01,342.56,181019,,,A*70
$GPGGA,133614.250,4308.3027,N,07726.2677,W,1,07,1.12,147.3,M,-34.4,M,,*58
$GPRMC,133614.500,A,4308.3027,N,07726.2677,W,0.01,162.26,181019,,,A*72
$GPGGA,133614.750,4308.3027,N,07726.2677,W,1,07,1.12,147.3,M,-34.4,M,,*5D
$GPRMC,133615.000,A,4308.3027,N,07726.2677,W,0.00,107.15,181019,,,A*74
$GPGGA,133615.250,4308.3027,N,07726.2677,W,1,07,1.12,147.3,M,-34.4,M,,*59
$GPRMC,133615.500,A,4308.3027,N,07726.2677,W,0.01,284.97,181019,,,A*72
$GPGGA,133615.750,4308.3027,N,07726.2677,W,1,07,1.12,147.3,M,-34.4,M,,*5C
$GPRMC,133616.000,A,4308.3027,N,07726.2677,W,0.00,93.45,181019,,,A*4E
$GPGGA,133616.250,4308.3027,N,07726.2677,W,1,07,1.12,147.3,M,-34.4,M,,*5A
$GPRMC,133616.500,A,4308.3027,N,07726.2677,W,0.02,103.00,181019,,,A*70
$GPGGA,133616.750,4308.3027,N,07726.2677,W,1,07,1.12,147.3,M,-34.4,M,,*5F
$GPRMC,133617.000,A,4308.3027,N,07726.2677,W,0.00,196.41,181019,,,A*7F
$GPGGA,133617.250,4308.3027,N,07726.2677,W,1,07,1.12,147.3,M,-34.4,M,,*5B
$GPRMC,133617.500,A,4308.3026,N,07726.2677,W,0.02,139.91,181019,,,A*71
$GPGGA,133617.750,4308.3026,N,07726.2677,W,1,07,1.12,147.3,M,-34.4,M,,*5F
$GPRMC,133618.000,A,4308.3026,N,07726.2677,W,0.00,0.00,181019,,,A*7A
$GPGGA,133618.250,4308.3026,N,07726.2677,W,1,07,1.12,147.3,M,-34.4,M,,*55
$GPRMC,133618.500,A,4308.3026,N,07726.2677,W,0.01,147.71,181019,,,A*7A
$GPGGA,133618.750,4308.3026,N,07726.2677,W,1,07,1.12,147.3,M,-34.4,M,,*50
$GPRMC,133619.000,A,4308.3026,N,07726.2677,W,0.00,139.62,181019,,,A*74
$GPGGA,133619.250,4308.3026,N,07726.2677,W,1,07,1.12,147.3,M,-34.4,M,,*54
$GPRMC,133619.500,A,4308.3026,N,07726.2677,W,0.01,48.54,181019,,,A*42
$GPGGA,133619.750,4308.3026,N,07726.2677,W,1,07,1.12,147.3,M,-34.4,M,,*51
$GPRMC,133620.000,A,4308.3026,N,07726.2677,W,0.01,175.37,181019,,,A*77
$GPGGA,133620.250,4308.3026,N,07726.2677,W,1,07,1.12,147.3,M,-34.4,M,,*5E
$GPRMC,133620.500,A,4308.3026,N,07726.2677,W,0.00,195.06,181019,,,A*7F
$GPGGA,133620.750,4308.3026,N,07726.2677,W,1,07,1.12,147.3,M,-34.4,M,,*5B
$GPRMC,133621.000,A,4308.3026,N,07726.2677,W,0.00,0.00,181019,,,A*70
$GPGGA,133621.250,4308.3026,N,07726.2677,W,1,07,1.12,147.3,M,-34.4,M,,*5F
$GPRMC,133621.500,A,4308.3026,N,07726.2677,W,0.01,223.59,181019,,,A*7B
$GPGGA,133621.750,4308.3026,N,07726.2677,W,1,07,1.12,147.3,M,-34.4,M,,*5A
$GPRMC,133622.000,A,4308.3026,N,07726.2677,W,0.00,248.87,181019,,,A*72
$GPGGA,133622.250,4308.3026,N,07726.2677,W,1,07,1.12,147.3,M,-34.4,M,,*5C
$GPRMC,133622.500,A,4308.3026,N,07726.2677,W,0.00,245.05,181019,,,A*70
$GPGGA,133622.750,4308.3026,N,07726.2677,W,1,07,1.12,147.3,M,-34.4,M,,*59
$GPRMC,133623.000,A,4308.3026,N,07726.2677,W,0.00,144.25,181019,,,A*74
$GPGGA,133623.250,4308.3026,N,07726.2677,W,1,07,1.12,147.3,M,-34.4,M,,*5D
$GPRMC,133623.500,A,4308.3026,N,07726.2677,W,0.00,340.73,181019,,,A*74
$GPGGA,133623.750,4308.3026,N,07726.2677,W,1,07,1.12,147.3,M,-34.4,M,,*58
$GPRMC,133624.000,A,4308.3026,N,07726.2677,W,0.00,216.24,181019,,,A*76
$GPGGA,133624.250,4308.3026,N,07726.2677,W,1,07,1.12,147.3,M,-34.4,M,,*5A
$GPRMC,133624.500,A,4308.3026,N,07726.2677,W,0.01,191.85,181019,,,A*75
$GPGGA,133624.750,4308.3026,N,07726.2677,W,1,07,1.12,147.3,M,-34.4,M,,*5F
$GPRMC,133625.000,A,4308.3026,N,07726.2677,W,0.00,223.93,181019,,,A*7D
$GPGGA,133625.250,4308.3026,N,07726.2677,W,1,07,1.12,147.3,M,-34.4,M,,*5B
$GPRMC,133625.500,A,4308.3026,N,07726.2677,W,0.01,111.12,181019,,,A*72
$GPGGA,133625.750,4308.3026,N,07726.2677,W,1,07,1.12,147.3,M,-34.4,M,,*5E
$GPRMC,133626.000,A,4308.3026,N,07726.2677,W,0.01,120.95,181019,,,A*79
$GPGGA,133626.250,4308.3026,N,07726.2677,W,1,07,1.12,147.3,M,-34.4,M,,*58
$GPRMC,133626.500,A,4308.3026,N,07726.2677,W,0.00,186.89,181019,,,A*7C
$GPGGA,133626.750,4308.3026,N,07726.2677,W,1,07,1.12,147.3,M,-34.4,M,,*5D
$GPRMC,133627.000,A,4308.3026,N,07726.2677,W,0.00,333.03,181019,,,A*76
$GPGGA,133627.250,4308.3026,N,07726.2677,W,1,07,1.12,147.3,M,-34.4,M,,*59
$GPRMC,133627.500,A,4308.3026,N,07726.2677,W,0.01,209.51,181019,,,A*7D
$GPGGA,133627.750,4308.3026,N,07726.2677,W,1,07,1.12,147.3,M,-34.4,M,,*5C
$GPRMC,133628.000,A,4308.3026,N,07726.2677,W,0.01,241.42,181019,,,A*79
$GPGGA,133628.250,4308.3026,N,07726.2677,W,1,07,1.12,147.3,M,-34.4,M,,*56
$GPRMC,133628.500,A,4308.3026,N,07726.2677,W,0.01,235.82,181019,,,A*73
$GPGGA,133628.750,4308.3026,N,07726.2677,W,1,07,1.12,147.3,M,-34.4,M,,*53
$GPRMC,133629.000,A,4308.3026,N,07726.2677,W,0.01,35.73,181019,,,A*4B
$GPGGA,133629.250,4308.3026,N,07726.2677,W,1,07,1.12,147.3,M,-34.4,M,,*57
$GPRMC,133629.500,A,4308.3026,N,07726.2677,W,0.00,98.22,181019,,,A*4C
$GPGGA,133629.750,4308.3026,N,07726.2677,W,1,07,1.12,147.3,M,-34.4,M,,*52
$GPRMC,133630.000,A,4308.3026,N,07726.2677,W,0.00,111.88,181019,,,A*71
$GPGGA,133630.250,4308.3026,N,07726.2677,W,1,07,1.12,147.3,M,-34.4,M,,*5F
$GPRMC,133630.500,A,4308.3026,N,07726.2677,W,0.00,204.46,181019,,,A*71
$GPGGA,133630.750,4308.3026,N,07726.2677,W,1,07,1.12,147.3,M,-34.4,M,,*5A
$GPRMC,133631.000,A,4308.3026,N,07726.2677,W,0.00,235.16,181019,,,A*72
$GPGGA,133631.250,4308.3026,N,07726.2677,W,1,07,1.12,147.3,M,-34.4,M,,*5E
$GPRMC,133631.500,A,4308.3026,N,07726.2677,W,0.00,46.28,181019,,,A*4C
$GPGGA,133631.750,4308.3026,N,07726.2677,W,1,07,1.12,147.3,M,-34.4,M,,*5B
$GPRMC,133632.000,A,4308.3026,N,07726.2677,W,0.01,34.04,181019,,,A*40
$GPGGA,133632.250,4308.3026,N,07726.2677,W,1,07,1.12,147.3,M,-34.4,M,,*5D
$GPRMC,133632.500,A,4308.3026,N,07726.2677,W,0.01,31.66,181019,,,A*44
$GPGGA,133632.750,4308.3026,N,07726.2677,W,1,07,1.12,147.3,M,-34.4,M,,*58
$GPRMC,133633.000,A,4308.3026,N,07726.2677,W,0.00,232.10,181019,,,A*71
$GPGGA,133633.250,4308.3026,N,07726.2677,W,1,07,1.12,147.3,M,-34.4,M,,*5C
$GPRMC,133633.500,A,4308.3026,N,07726.2677,W,0.01,178.17,181019,,,A*7F
$GPGGA,133633.750,4308.3026,N,07726.2677,W,1,07,1.12,147.3,M,-34.4,M,,*59
$GPRMC,133634.000,A,4308.3026,N,07726.2677,W,0.01,207.83,181019,,,A*7B
$GPGGA,133634.250,4308.3026,N,07726.2677,W,1,07,1.12,147.3,M,-34.4,M,,*5B
$GPRMC,133634.500,A,4308.3026,N,07726.2677,W,0.01,319.86,181019,,,A*75
$GPGGA,133634.750,4308.3026,N,07726.2677,W,1,07,1.12,147.3,M,-34.4,M,,*5E
$GPRMC,133635.000,A,4308.3026,N,07726.2677,W,0.01,294.19,181019,,,A*73
$GPGGA,133635.250,4308.3026,N,07726.2677,W,1,07,1.12,147.3,M,-34.4,M,,*5A
$GPRMC,133635.500,A,4308.3026,N,07726.2677,W,0.00,345.76,181019,,,A*73
$GPGGA,133635.750,4308.3026,N,07726.2677,W,1,07,1.12,147.3,M,-34.4,M,,*5F
$GPRMC,133636.000,A,4308.3026,N,07726.2677,W,0.00,0.00,181019,,,A*76
$GPGGA,133636.250,4308.3026,N,07726.2677,W,1,07,1.12,147.3,M,-34.4,M,,*59
$GPRMC,133636.500,A,4308.3026,N,07726.2677,W,0.00,336.77,181019,,,A*75
$GPGGA,133636.750,4308.3026,N,07726.2677,W,1,07,1.12,147.3,M,-34.4,M,,*5C
$GPRMC,133637.000,A,4308.3026,N,07726.2677,W,0.00,202.65,181019,,,A*74
$GPGGA,133637.250,4308.3026,N,07726.2677,W,1,07,1.12,147.3,M,-34.4,M,,*58
$GPRMC,133637.500,A,4308.3026,N,07726.2677,W,0.01,313.44,181019,,,A*72
$GPGGA,133637.750,4308.3026,N,07726.2677,W,1,07,1.12,147.3,M,-34.4,M,,*5D
$GPRMC,133638.000,A,4308.3026,N,07726.2677,W,0.00,315.36,181019,,,A*7A
$GPGGA,133638.250,4308.3026,N,07726.2677,W,1,07,1.12,147.3,M,-34.4,M,,*57
$GPRMC,133638.500,A,4308.3026,N,07726.2677,W,0.01,313.24,181019,,,A*7B
$GPGGA,133638.750,4308.3026,N,07726.2677,W,1,07,1.12,147.3,M,-34.4,M,,*52
$GPRMC,133639.000,A,4308.3026,N,07726.2677,W,0.01,343.93,181019,,,A*76
$GPGGA,133639.250,4308.3026,N,07726.2677,W,1,07,1.12,147.3,M,-34.4,M,,*56
$GPRMC,133639.500,A,4308.3026,N,07726.2677,W,0.01,41.80,181019,,,A*40
$GPGGA,133639.750,4308.3026,N,07726.2677,W,1,07,1.12,147.3,M,-34.4,M,,*53
$GPRMC,133640.000,A,4308.3026,N,07726.2677,W,0.02,49.10,181019,,,A*49
$GPGGA,133640.250,4308.3026,N,07726.2677,W,1,07,1.12,147.3,M,-34.4,M,,*58
$GPRMC,133640.500,A,4308.3026,N,07726.2677,W,0.00,253.79,181019,,,A*78
$GPGGA,133640.750,4308.3026,N,07726.2677,W,1,07,1.12,147.3,M,-34.4,M,,*5D
$GPRMC,133641.000,A,4308.3026,N,07726.2677,W,0.01,333.57,181019,,,A*76
$GPGGA,133641.250,4308.3026,N,07726.2677,W,1,07,1.12,147.3,M,-34.4,M,,*59
$GPRMC,133641.500,A,4308.3026,N,07726.2677,W,0.01,58.55,181019,,,A*4F
$GPGGA,133641.750,4308.3026,N,07726.2677,W,1,07,1.12,147.3,M,-34.4,M,,*5C
$GPRMC,133642.000,A,4308.3026,N,07726.2677,W,0.00,189.59,181019,,,A*79
$GPGGA,133642.250,4308.3026,N,07726.2677,W,1,07,1.12,147.3,M,-34.4,M,,*5A
$GPRMC,133642.500,A,4308.3026,N,07726.2677,W,0.01,239.51,181019,,,A*7D
$GPGGA,133642.750,4308.3026,N,07726.2677,W,1,07,1.12,147.3,M,-34.4,M,,*5F
$GPRMC,133643.000,A,4308.3026,N,07726.2677,W,0.01,330.30,181019,,,A*76
$GPGGA,133643.250,4308.3026,N,07726.2677,W,1,07,1.12,147.3,M,-34.4,M,,*5B
$GPRMC,133643.500,A,4308.3027,N,07726.2677,W,0.01,359.10,181019,,,A*7F
$GPGGA,133643.750,4308.3027,N,07726.2677,W,1,07,1.12,147.3,M,-34.4,M,,*5F
$GPRMC,133644.000,A,4308.3027,N,07726.2677,W,0.00,37.47,181019,,,A*45
$GPGGA,133644.250,4308.3027,N,07726.2677,W,1,07,1.12,147.3,M,-34.4,M,,*5D
$GPRMC,133644.500,A,4308.3027,N,07726.2677,W,0.01,242.18,181019,,,A*7B
$GPGGA,133644.750,4308.3027,N,07726.2677,W,1,07,1.12,147.3,M,-34.4,M,,*58
$GPRMC,133645.000,A,4308.3027,N,07726.2677,W,0.00,248.00,181019,,,A*7D
$GPGGA,133645.250,4308.3027,N,07726.2677,W,1,07,1.12,147.3,M,-34.4,M,,*5C
$GPRMC,133645.500,A,4308.3027,N,07726.2677,W,0.01,8.85,181019,,,A*72
$GPGGA,133645.750,4308.3027,N,07726.2677,W,1,07,1.12,147.3,M,-34.4,M,,*59
$GPRMC,133646.000,A,4308.3027,N,07726.2677,W,0.00,333.05,181019,,,A*76
$GPGGA,133646.250,4308.3027,N,07726.2677,W,1,07,1.12,147.3,M,-34.4,M,,*5F
$GPRMC,133646.500,A,4308.3027,N,07726.2677,W,0.00,9.34,181019,,,A*7B
$GPGGA,133646.750,4308.3027,N,07726.2677,W,1,07,1.12,147.3,M,-34.4,M,,*5A
$GPRMC,133647.000,A,4308.3027,N,07726.2677,W,0.01,44.81,181019,,,A*49
$GPGGA,133647.250,4308.3027,N,07726.2677,W,1,07,1.12,147.3,M,-34.4,M,,*5E
$GPRMC,133647.500,A,4308.3027,N,07726.2677,W,0.00,293.88,181019,,,A*7C
$GPGGA,133647.750,4308.3027,N,07726.2677,W,1,07,1.12,147.3,M,-34.4,M,,*5B
$GPRMC,133648.000,A,4308.3027,N,07726.2677,W,0.00,275.99,181019,,,A*7E
$GPGGA,133648.250,4308.3027,N,07726.2677,W,1,07,1.12,147.3,M,-34.4,M,,*51
$GPRMC,133648.500,A,4308.3027,N,07726.2677,W,0.01,29.90,181019,,,A*48
$GPGGA,133648.750,4308.3027,N,07726.2677,W,1,07,1.12,147.3,M,-34.4,M,,*54
$GPRMC,133649.000,A,4308.3027,N,07726.2677,W,0.01,279.61,181019,,,A*75
$GPGGA,133649.250,4308.3027,N,07726.2677,W,1,07,1.12,147.3,M,-34.4,M,,*50
$GPRMC,133649.500,A,4308.3027,N,07726.2677,W,0.01,7.67,181019,,,A*7D
$GPGGA,133649.750,4308.3027,N,07726.2677,W,1,07,1.12,147.3,M,-34.4,M,,*55
$GPRMC,133650.000,A,4308.3027,N,07726.2677,W,0.01,263.34,181019,,,A*76
$GPGGA,133650.250,4308.3027,N,07726.2677,W,1,07,1.12,147.3,M,-34.4,M,,*58
$GPRMC,133650.500,A,4308.3027,N,07726.2677,W,0.00,355.36,181019,,,A*74
$GPGGA,133650.750,4308.3027,N,07726.2677,W,1,07,1.12,147.3,M,-34.4,M,,*5D
$GPRMC,133651.000,A,4308.3027,N,07726.2677,W,0.01,13.19,181019,,,A*4D
$GPGGA,133651.250,4308.3027,N,07726.2677,W,1,07,1.12,147.3,M,-34.4,M,,*59
$GPRMC,133651.500,A,4308.3027,N,07726.2677,W,0.00,338.35,181019,,,A*7D
$GPGGA,133651.750,4308.3027,N,07726.2677,W,1,07,1.12,147.3,M,-34.4,M,,*5C
$GPRMC,133652.000,A,4308.3027,N,07726.2677,W,0.00,325.78,181019,,,A*7E
$GPGGA,133652.250,4308.3027,N,07726.2677,W,1,07,1.12,147.3,M,-34.4,M,,*5A
$GPRMC,133652.500,A,4308.3027,N,07726.2677,W,0.01,27.65,181019,,,A*47
$GPGGA,133652.750,4308.3027,N,07726.2677,W,1,07,1.12,147.3,M,-34.4,M,,*5F
$GPRMC,133653.000,A,4308.3027,N,07726.2677,W,0.01,18.37,181019,,,A*48
$GPGGA,133653.250,4308.3027,N,07726.2677,W,1,07,1.12,147.3,M,-34.4,M,,*5B
$GPRMC,133653.500,A,4308.3027,N,07726.2677,W,0.04,37.28,181019,,,A*4B
$GPGGA,133653.750,4308.3027,N,07726.2677,W,1,07,1.12,147.3,M,-34.4,M,,*5E
$GPRMC,133654.000,A,4308.3027,N,07726.2677,W,0.06,37.22,181019,,,A*41
$GPGGA,133654.250,4308.3027,N,07726.2677,W,1,07,1.06,147.3,M,-34.4,M,,*59
$GPRMC,133654.500,A,4308.3027,N,07726.2677,W,0.20,42.41,181019,,,A*47
$GPGGA,133654.750,4308.3027,N,07726.2677,W,1,07,1.06,147.3,M,-34.4,M,,*5C
$GPRMC,133655.000,A,4308.3027,N,07726.2676,W,2.46,31.67,181019,,,A*40
$GPGGA,133655.250,4308.3032,N,07726.2675,W,1,07,1.06,147.3,M,-34.4,M,,*5E
$GPRMC,133655.500,A,4308.3036,N,07726.2674,W,5.05,25.94,181019,,,A*4E
$GPGGA,133655.750,4308.3041,N,07726.2673,W,1,07,1.12,147.3,M,-34.4,M,,*5C
$GPRMC,133656.000,A,4308.3047,N,07726.2673,W,6.43,13.19,181019,,,A*48
$GPGGA,133656.250,4308.3053,N,07726.2672,W,1,07,1.12,147.2,M,-34.4,M,,*59
$GPRMC,133656.500,A,4308.3059,N,07726.2672,W,7.12,8.18,181019,,,A*7D
$GPGGA,133656.750,4308.3065,N,07726.2671,W,1,07,1.12,147.2,M,-34.4,M,,*5A
$GPRMC,133657.000,A,4308.3070,N,07726.2670,W,7.16,4.94,181019,,,A*7C
$GPGGA,133657.250,4308.3075,N,07726.2669,W,1,07,1.12,147.2,M,-34.4,M,,*56
$GPRMC,133657.500,A,4308.3081,N,07726.2668,W,7.29,8.27,181019,,,A*76
$GPGGA,133657.750,4308.3086,N,07726.2667,W,1,07,1.12,147.2,M,-34.4,M,,*51
$GPRMC,133658.000,A,4308.3091,N,07726.2666,W,6.98,6.84,181019,,,A*7F
$GPGGA,133658.250,4308.3096,N,07726.2665,W,1,07,1.12,147.3,M,-34.4,M,,*59
$GPRMC,133658.500,A,4308.3101,N,07726.2664,W,6.24,6.53,181019,,,A*7D
$GPGGA,133658.750,4308.3105,N,07726.2663,W,1,07,1.12,147.4,M,-34.4,M,,*56
$GPRMC,133659.000,A,4308.3109,N,07726.2662,W,5.64,7.93,181019,,,A*7D
$GPGGA,133659.250,4308.3112,N,07726.2660,W,1,07,1.12,147.4,M,-34.4,M,,*57
$GPRMC,133659.500,A,4308.3115,N,07726.2658,W,4.60,10.62,181019,,,A*41
$GPGGA,133659.750,4308.3117,N,07726.2656,W,1,07,1.12,147.5,M,-34.4,M,,*53
$GPRMC,133700.000,A,4308.3119,N,07726.2655,W,3.53,16.11,181019,,,A*4D
$GPGGA,133700.250,4308.3121,N,07726.2654,W,1,07,1.06,147.6,M,-34.4,M,,*5A
$GPRMC,133700.500,A,4308.3123,N,07726.2653,W,3.00,17.51,181019,,,A*44
$GPGGA,133700.750,4308.3125,N,07726.2652,W,1,07,1.06,147.8,M,-34.4,M,,*53
$GPRMC,133701.000,A,4308.3127,N,07726.2651,W,2.73,28.02,181019,,,A*49
$GPGGA,133701.250,4308.3129,N,07726.2649,W,1,07,1.06,147.7,M,-34.4,M,,*5E
$GPRMC,133701.500,A,4308.3130,N,07726.2648,W,2.37,33.84,181019,,,A*46
$GPGGA,133701.750,4308.3131,N,07726.2647,W,1,07,1.06,147.7,M,-34.4,M,,*5C
$GPRMC,133702.000,A,4308.3133,N,07726.2645,W,2.29,36.09,181019,,,A*41
$GPGGA,133702.250,4308.3134,N,07726.2644,W,1,07,1.06,147.7,M,-34.4,M,,*5C
$GPRMC,133702.500,A,4308.3136,N,07726.2642,W,2.69,37.41,181019,,,A*4F
$GPGGA,133702.750,4308.3138,N,07726.2641,W,1,07,1.06,147.7,M,-34.4,M,,*50
$GPRMC,133703.000,A,4308.3139,N,07726.2640,W,1.79,31.56,181019,,,A*44
$GPGGA,133703.250,4308.3139,N,07726.2639,W,1,07,1.06,147.8,M,-34.4,M,,*55
$GPRMC,133703.500,A,4308.3139,N,07726.2638,W,0.96,58.32,181019,,,A*43
$GPGGA,133703.750,4308.3140,N,07726.2638,W,1,07,1.06,147.8,M,-34.4,M,,*5F
$GPRMC,133704.000,A,4308.3140,N,07726.2638,W,0.68,51.43,181019,,,A*41
$GPGGA,133704.250,4308.3141,N,07726.2639,W,1,07,1.06,147.9,M,-34.4,M,,*5C
$GPRMC,133704.500,A,4308.3141,N,07726.2640,W,0.40,9.55,181019,,,A*7A
$GPGGA,133704.750,4308.3141,N,07726.2642,W,1,07,1.12,148.0,M,-34.4,M,,*56
$GPRMC,133705.000,A,4308.3141,N,07726.2645,W,0.66,277.75,181019,,,A*76
$GPGGA,133705.250,4308.3141,N,07726.2649,W,1,07,1.06,148.0,M,-34.4,M,,*5C
$GPRMC,133705.500,A,4308.3141,N,07726.2654,W,1.69,265.18,181019,,,A*75
$GPGGA,133705.750,4308.3141,N,07726.2658,W,1,07,1.06,148.1,M,-34.4,M,,*58
$GPRMC,133706.000,A,4308.3141,N,07726.2663,W,3.52,260.58,181019,,,A*7C
$GPGGA,133706.250,4308.3142,N,07726.2669,W,1,07,1.06,148.2,M,-34.4,M,,*5C
$GPRMC,133706.500,A,4308.3142,N,07726.2674,W,5.58,263.95,181019,,,A*72
$GPGGA,133706.750,4308.3141,N,07726.2680,W,1,07,1.12,148.3,M,-34.4,M,,*59
$GPRMC,133707.000,A,4308.3141,N,07726.2686,W,7.03,265.06,181019,,,A*78
$GPGGA,133707.250,4308.3141,N,07726.2693,W,1,07,1.12,148.4,M,-34.4,M,,*58
$GPRMC,133707.500,A,4308.3142,N,07726.2701,W,7.97,274.01,181019,,,A*7A
$GPGGA,133707.750,4308.3142,N,07726.2708,W,1,07,1.12,148.5,M,-34.4,M,,*5C
$GPRMC,133708.000,A,4308.3142,N,07726.2716,W,8.46,273.10,181019,,,A*72
$GPGGA,133708.250,4308.3143,N,07726.2724,W,1,07,1.12,148.5,M,-34.4,M,,*59
$GPRMC,133708.500,A,4308.3143,N,07726.2733,W,8.76,273.06,181019,,,A*75
$GPGGA,133708.750,4308.3144,N,07726.2742,W,1,07,1.12,148.6,M,-34.4,M,,*58
$GPRMC,133709.000,A,4308.3145,N,07726.2751,W,9.15,277.51,181019,,,A*71
$GPGGA,133709.250,4308.3148,N,07726.2761,W,1,07,1.12,148.8,M,-34.4,M,,*5F
$GPRMC,133709.500,A,4308.3150,N,07726.2771,W,10.64,284.32,181019,,,A*45
$GPGGA,133709.750,4308.3150,N,07726.2780,W,1,07,1.06,149.1,M,-34.4,M,,*51
$GPRMC,133710.000,A,4308.3152,N,07726.2791,W,11.55,286.31,181019,,,A*46
$GPGGA,133710.250,4308.3155,N,07726.2801,W,1,07,1.12,149.2,M,-34.4,M,,*59
$GPRMC,133710.500,A,4308.3157,N,07726.2812,W,12.10,287.86,181019,,,A*4D
$GPGGA,133710.750,4308.3159,N,07726.2824,W,1,07,1.12,149.3,M,-34.4,M,,*56
$GPRMC,133711.000,A,4308.3162,N,07726.2836,W,12.73,288.88,181019,,,A*4D
$GPGGA,133711.250,4308.3164,N,07726.2848,W,1,07,1.12,149.3,M,-34.4,M,,*56
$GPRMC,133711.500,A,4308.3167,N,07726.2860,W,13.35,289.95,181019,,,A*40
$GPGGA,133711.750,4308.3171,N,07726.2873,W,1,07,1.06,149.4,M,-34.4,M,,*5D
$GPRMC,133712.000,A,4308.3174,N,07726.2886,W,13.80,291.19,181019,,,A*4F
$GPGGA,133712.250,4308.3178,N,07726.2900,W,1,07,1.12,149.5,M,-34.4,M,,*53
$GPRMC,133712.500,A,4308.3183,N,07726.2913,W,14.18,292.90,181019,,,A*4B
$GPGGA,133712.750,4308.3188,N,07726.2926,W,1,07,1.06,149.7,M,-34.4,M,,*5A
$GPRMC,133713.000,A,4308.3192,N,07726.2939,W,14.29,294.37,181019,,,A*4E
$GPGGA,133713.250,4308.3198,N,07726.2953,W,1,07,1.06,149.9,M,-34.4,M,,*53
$GPRMC,133713.500,A,4308.3204,N,07726.2966,W,15.03,296.11,181019,,,A*42
$GPGGA,133713.750,4308.3210,N,07726.2979,W,1,07,1.06,150.0,M,-34.4,M,,*5C
$GPRMC,133714.000,A,4308.3216,N,07726.2992,W,15.56,296.75,181019,,,A*4A
$GPGGA,133714.250,4308.3222,N,07726.3006,W,1,07,1.12,150.1,M,-34.4,M,,*5B
$GPRMC,133714.500,A,4308.3229,N,07726.3021,W,16.17,298.44,181019,,,A*49
$GPGGA,133714.750,4308.3235,N,07726.3035,W,1,07,1.06,150.3,M,-34.4,M,,*5F
$GPRMC,133715.000,A,4308.3242,N,07726.3050,W,16.77,299.28,181019,,,A*4B
$GPGGA,133715.250,4308.3250,N,07726.3066,W,1,07,1.12,150.4,M,-34.4,M,,*5C
$GPRMC,133715.500,A,4308.3257,N,07726.3081,W,17.88,299.90,181019,,,A*44
$GPGGA,133715.750,4308.3265,N,07726.3097,W,1,07,1.06,150.6,M,-34.4,M,,*56
$GPRMC,133716.000,A,4308.3273,N,07726.3113,W,18.72,300.40,181019,,,A*48
$GPGGA,133716.250,4308.3281,N,07726.3130,W,1,07,1.12,150.7,M,-34.4,M,,*52
$GPRMC,133716.500,A,4308.3289,N,07726.3148,W,19.81,301.30,181019,,,A*4D
$GPGGA,133716.750,4308.3297,N,07726.3165,W,1,07,1.06,150.8,M,-34.4,M,,*5A
$GPRMC,133717.000,A,4308.3305,N,07726.3182,W,20.54,301.44,181019,,,A*4B
$GPGGA,133717.250,4308.3314,N,07726.3201,W,1,07,1.12,151.0,M,-34.4,M,,*59
$GPRMC,133717.500,A,4308.3323,N,07726.3219,W,21.24,301.78,181019,,,A*42
$GPGGA,133717.750,4308.3332,N,07726.3237,W,1,07,1.06,151.1,M,-34.4,M,,*59
$GPRMC,133718.000,A,4308.3341,N,07726.3256,W,21.70,302.10,181019,,,A*4B
$GPGGA,133718.250,4308.3350,N,07726.3275,W,1,07,1.12,151.2,M,-34.4,M,,*57
$GPRMC,133718.500,A,4308.3359,N,07726.3293,W,21.84,302.23,181019,,,A*45
$GPGGA,133718.750,4308.3368,N,07726.3312,W,1,07,1.06,151.4,M,-34.4,M,,*5A
$GPRMC,133719.000,A,4308.3377,N,07726.3330,W,22.10,302.55,181019,,,A*4A
$GPGGA,133719.250,4308.3387,N,07726.3349,W,1,07,1.06,151.6,M,-34.4,M,,*53
$GPRMC,133719.500,A,4308.3396,N,07726.3368,W,22.57,303.04,181019,,,A*4B
$GPGGA,133719.750,4308.3405,N,07726.3387,W,1,07,1.06,151.7,M,-34.4,M,,*58
$GPRMC,133720.000,A,4308.3414,N,07726.3406,W,22.71,303.42,181019,,,A*40
$GPGGA,133720.250,4308.3424,N,07726.3425,W,1,07,1.12,151.9,M,-34.4,M,,*50
$GPRMC,133720.500,A,4308.3433,N,07726.3443,W,22.57,304.57,181019,,,A*46
$GPGGA,133720.750,4308.3442,N,07726.3461,W,1,07,1.06,152.1,M,-34.4,M,,*5B
$GPRMC,133721.000,A,4308.3451,N,07726.3478,W,22.41,305.53,181019,,,A*4C
$GPGGA,133721.250,4308.3461,N,07726.3495,W,1,07,1.12,152.3,M,-34.4,M,,*52
$GPRMC,133721.500,A,4308.3469,N,07726.3511,W,22.01,306.72,181019,,,A*48
$GPGGA,133721.750,4308.3478,N,07726.3526,W,1,07,1.12,152.5,M,-34.4,M,,*50
$GPRMC,133722.000,A,4308.3486,N,07726.3542,W,21.39,307.82,181019,,,A*4F
$GPGGA,133722.250,4308.3496,N,07726.3557,W,1,07,1.12,152.7,M,-34.4,M,,*52
$GPRMC,133722.500,A,4308.3505,N,07726.3571,W,20.76,311.56,181019,,,A*44
$GPGGA,133722.750,4308.3515,N,07726.3586,W,1,07,1.06,152.8,M,-34.4,M,,*5B
$GPRMC,133723.000,A,4308.3525,N,07726.3600,W,20.64,312.98,181019,,,A*45
$GPGGA,133723.250,4308.3535,N,07726.3613,W,1,07,1.06,153.1,M,-34.4,M,,*5A
$GPRMC,133723.500,A,4308.3544,N,07726.3626,W,20.68,314.45,181019,,,A*49
$GPGGA,133723.750,4308.3555,N,07726.3638,W,1,07,1.06,153.4,M,-34.4,M,,*55
$GPRMC,133724.000,A,4308.3567,N,07726.3651,W,20.92,319.60,181019,,,A*45
$GPGGA,133724.250,4308.3580,N,07726.3664,W,1,07,1.06,153.7,M,-34.4,M,,*55
$GPRMC,133724.500,A,4308.3593,N,07726.3677,W,21.31,322.96,181019,,,A*46
$GPGGA,133724.750,4308.3606,N,07726.3689,W,1,07,1.06,154.0,M,-34.4,M,,*5E
$GPRMC,133725.000,A,4308.3619,N,07726.3699,W,21.56,327.03,181019,,,A*4B
$GPGGA,133725.250,4308.3634,N,07726.3709,W,1,07,1.12,154.3,M,-34.4,M,,*54
$GPRMC,133725.500,A,4308.3649,N,07726.3720,W,22.32,332.55,181019,,,A*4E
$GPGGA,133725.750,4308.3664,N,07726.3730,W,1,07,1.06,154.5,M,-34.4,M,,*5D
$GPRMC,133726.000,A,4308.3679,N,07726.3740,W,22.34,334.43,181019,,,A*4A
$GPGGA,133726.250,4308.3693,N,07726.3749,W,1,07,1.06,154.7,M,-34.4,M,,*5F
$GPRMC,133726.500,A,4308.3708,N,07726.3758,W,22.30,336.41,181019,,,A*45
$GPGGA,133726.750,4308.3725,N,07726.3764,W,1,07,1.06,154.8,M,-34.4,M,,*56
$GPRMC,133727.000,A,4308.3740,N,07726.3771,W,22.65,341.42,181019,,,A*45
$GPGGA,133727.250,4308.3757,N,07726.3776,W,1,07,1.06,155.1,M,-34.4,M,,*5C
$GPRMC,133727.500,A,4308.3773,N,07726.3781,W,22.83,344.73,181019,,,A*40
$GPGGA,133727.750,4308.3788,N,07726.3785,W,1,07,1.06,155.4,M,-34.4,M,,*52
$GPRMC,133728.000,A,4308.3804,N,07726.3785,W,22.51,350.08,181019,,,A*47
$GPGGA,133728.250,4308.3822,N,07726.3783,W,1,07,1.12,155.7,M,-34.4,M,,*57
$GPRMC,133728.500,A,4308.3841,N,07726.3783,W,24.04,357.34,181019,,,A*4B
$GPGGA,133728.750,4308.3858,N,07726.3782,W,1,07,1.12,155.9,M,-34.4,M,,*50
$GPRMC,133729.000,A,4308.3877,N,07726.3779,W,24.96,1.78,181019,,,A*4C
$GPGGA,133729.250,4308.3894,N,07726.3777,W,1,07,1.12,156.1,M,-34.4,M,,*55
$GPRMC,133729.500,A,4308.3912,N,07726.3775,W,25.23,4.19,181019,,,A*4A
$GPGGA,133729.750,4308.3929,N,07726.3772,W,1,07,1.06,156.3,M,-34.4,M,,*55
$GPRMC,133730.000,A,4308.3947,N,07726.3769,W,25.89,5.93,181019,,,A*49
$GPGGA,133730.250,4308.3964,N,07726.3766,W,1,07,1.12,156.5,M,-34.4,M,,*57
$GPRMC,133730.500,A,4308.3981,N,07726.3763,W,25.69,6.78,181019,,,A*44
$GPGGA,133730.750,4308.3999,N,07726.3759,W,1,07,1.06,156.6,M,-34.4,M,,*5A
$GPRMC,133731.000,A,4308.4016,N,07726.3755,W,25.63,7.81,181019,,,A*48
$GPGGA,133731.250,4308.4034,N,07726.3751,W,1,07,1.12,156.8,M,-34.4,M,,*54
$GPRMC,133731.500,A,4308.4051,N,07726.3747,W,25.67,8.87,181019,,,A*40
$GPGGA,133731.750,4308.4069,N,07726.3742,W,1,07,1.06,157.0,M,-34.4,M,,*57
$GPRMC,133732.000,A,4308.4086,N,07726.3737,W,25.60,9.59,181019,,,A*4E
$GPGGA,133732.250,4308.4103,N,07726.3733,W,1,07,1.06,157.2,M,-34.4,M,,*58
$GPRMC,133732.500,A,4308.4120,N,07726.3729,W,24.96,10.18,181019,,,A*7C
$GPGGA,133732.750,4308.4136,N,07726.3724,W,1,07,1.12,157.4,M,-34.4,M,,*5E
$GPRMC,133733.000,A,4308.4153,N,07726.3720,W,24.48,10.33,181019,,,A*7F
$GPGGA,133733.250,4308.4168,N,07726.3715,W,1,07,1.12,157.6,M,-34.4,M,,*51
$GPRMC,133733.500,A,4308.4184,N,07726.3711,W,23.82,10.24,181019,,,A*75
$GPGGA,133733.750,4308.4200,N,07726.3707,W,1,07,1.12,157.7,M,-34.4,M,,*5B
$GPRMC,133734.000,A,4308.4216,N,07726.3703,W,23.60,9.83,181019,,,A*45
$GPGGA,133734.250,4308.4232,N,07726.3700,W,1,07,1.12,157.9,M,-34.4,M,,*51
$GPRMC,133734.500,A,4308.4247,N,07726.3696,W,23.04,9.75,181019,,,A*42
$GPGGA,133734.750,4308.4262,N,07726.3692,W,1,07,1.12,158.1,M,-34.4,M,,*5C
$GPRMC,133735.000,A,4308.4277,N,07726.3688,W,22.49,10.63,181019,,,A*7D
$GPGGA,133735.250,4308.4292,N,07726.3684,W,1,07,1.12,158.3,M,-34.4,M,,*52
$GPRMC,133735.500,A,4308.4307,N,07726.3680,W,22.27,11.47,181019,,,A*79
$GPGGA,133735.750,4308.4322,N,07726.3675,W,1,07,1.12,158.5,M,-34.4,M,,*55
$GPRMC,133736.000,A,4308.4336,N,07726.3672,W,21.36,11.00,181019,,,A*70
$GPGGA,133736.250,4308.4349,N,07726.3668,W,1,07,1.12,158.6,M,-34.4,M,,*51
$GPRMC,133736.500,A,4308.4363,N,07726.3664,W,20.62,10.83,181019,,,A*78
$GPGGA,133736.750,4308.4375,N,07726.3660,W,1,07,1.12,158.7,M,-34.4,M,,*52
$GPRMC,133737.000,A,4308.4387,N,07726.3656,W,19.56,11.62,181019,,,A*74
$GPGGA,133737.250,4308.4399,N,07726.3652,W,1,07,1.12,159.0,M,-34.4,M,,*53
$GPRMC,133737.500,A,4308.4411,N,07726.3649,W,18.73,11.56,181019,,,A*76
$GPGGA,133737.750,4308.4423,N,07726.3645,W,1,07,1.12,159.2,M,-34.4,M,,*54
$GPRMC,133738.000,A,4308.4435,N,07726.3641,W,18.26,12.06,181019,,,A*74
$GPGGA,133738.250,4308.4446,N,07726.3638,W,1,07,1.12,159.3,M,-34.4,M,,*56
$GPRMC,133738.500,A,4308.4458,N,07726.3635,W,17.20,12.20,181019,,,A*74
$GPGGA,133738.750,4308.4468,N,07726.3632,W,1,07,1.12,159.5,M,-34.4,M,,*53
$GPRMC,133739.000,A,4308.4478,N,07726.3630,W,15.39,10.13,181019,,,A*7F
$GPGGA,133739.250,4308.4486,N,07726.3627,W,1,07,1.12,159.7,M,-34.4,M,,*51
$GPRMC,133739.500,A,4308.4493,N,07726.3625,W,12.29,10.76,181019,,,A*7E
$GPGGA,133739.750,4308.4501,N,07726.3623,W,1,07,1.12,160.0,M,-34.4,M,,*53
$GPRMC,133740.000,A,4308.4508,N,07726.3621,W,10.52,11.96,181019,,,A*73
$GPGGA,133740.250,4308.4514,N,07726.3620,W,1,07,1.12,160.2,M,-34.4,M,,*5D
$GPRMC,133740.500,A,4308.4520,N,07726.3618,W,8.06,12.26,181019,,,A*46
$GPGGA,133740.750,4308.4525,N,07726.3617,W,1,07,1.12,160.3,M,-34.4,M,,*5F
$GPRMC,133741.000,A,4308.4528,N,07726.3616,W,5.45,9.05,181019,,,A*75
$GPGGA,133741.250,4308.4531,N,07726.3615,W,1,07,1.12,160.4,M,-34.4,M,,*5B
$GPRMC,133741.500,A,4308.4534,N,07726.3615,W,3.73,7.93,181019,,,A*7C
$GPGGA,133741.750,4308.4537,N,07726.3614,W,1,07,1.12,160.7,M,-34.4,M,,*5A
$GPRMC,133742.000,A,4308.4540,N,07726.3612,W,3.37,8.01,181019,,,A*7A
$GPGGA,133742.250,4308.4543,N,07726.3612,W,1,07,1.12,161.1,M,-34.4,M,,*5E
$GPRMC,133742.500,A,4308.4547,N,07726.3611,W,3.71,5.76,181019,,,A*74
$GPGGA,133742.750,4308.4552,N,07726.3611,W,1,07,1.12,161.4,M,-34.4,M,,*5D
$GPRMC,133743.000,A,4308.4555,N,07726.3612,W,4.78,3.40,181019,,,A*7D
$GPGGA,133743.250,4308.4559,N,07726.3612,W,1,07,1.12,161.5,M,-34.4,M,,*50
$GPRMC,133743.500,A,4308.4566,N,07726.3612,W,6.09,353.74,181019,,,A*7D
$GPGGA,133743.750,4308.4572,N,07726.3613,W,1,07,1.12,161.6,M,-34.4,M,,*5E
$GPRMC,133744.000,A,4308.4579,N,07726.3614,W,6.16,346.74,181019,,,A*7D
$GPGGA,133744.250,4308.4585,N,07726.3616,W,1,07,1.12,161.7,M,-34.4,M,,*50
$GPRMC,133744.500,A,4308.4591,N,07726.3621,W,6.75,327.30,181019,,,A*7A
$GPGGA,133744.750,4308.4598,N,07726.3624,W,1,07,1.06,161.6,M,-34.4,M,,*5C
$GPRMC,133745.000,A,4308.4602,N,07726.3630,W,7.38,310.90,181019,,,A*71
$GPGGA,133745.250,4308.4606,N,07726.3637,W,1,07,1.06,161.6,M,-34.4,M,,*5E
$GPRMC,133745.500,A,4308.4611,N,07726.3646,W,8.86,296.82,181019,,,A*71
$GPGGA,133745.750,4308.4615,N,07726.3657,W,1,07,1.06,161.8,M,-34.4,M,,*51
$GPRMC,133746.000,A,4308.4617,N,07726.3667,W,10.62,288.87,181019,,,A*4B
$GPGGA,133746.250,4308.4619,N,07726.3679,W,1,07,1.06,162.0,M,-34.4,M,,*5C
$GPRMC,133746.500,A,4308.4622,N,07726.3693,W,12.30,281.52,181019,,,A*47
$GPGGA,133746.750,4308.4623,N,07726.3706,W,1,07,1.06,162.1,M,-34.4,M,,*58
$GPRMC,133747.000,A,4308.4624,N,07726.3721,W,13.97,277.32,181019,,,A*4E
$GPGGA,133747.250,4308.4625,N,07726.3738,W,1,07,1.12,162.3,M,-34.4,M,,*50
$GPRMC,133747.500,A,4308.4627,N,07726.3754,W,15.63,274.72,181019,,,A*40
$GPGGA,133747.750,4308.4625,N,07726.3773,W,1,07,1.06,162.5,M,-34.4,M,,*59
$GPRMC,133748.000,A,4308.4624,N,07726.3795,W,16.83,273.99,181019,,,A*4B
$GPGGA,133748.250,4308.4623,N,07726.3817,W,1,07,1.12,162.6,M,-34.4,M,,*5E
$GPRMC,133748.500,A,4308.4624,N,07726.3838,W,17.96,273.69,181019,,,A*4C
$GPGGA,133748.750,4308.4625,N,07726.3859,W,1,07,1.06,162.8,M,-34.4,M,,*5C
$GPRMC,133749.000,A,4308.4625,N,07726.3878,W,18.30,274.00,181019,,,A*46
$GPGGA,133749.250,4308.4625,N,07726.3898,W,1,07,1.06,162.9,M,-34.4,M,,*54
$GPRMC,133749.500,A,4308.4625,N,07726.3917,W,18.30,274.39,181019,,,A*41
$GPGGA,133749.750,4308.4626,N,07726.3936,W,1,07,1.06,163.1,M,-34.4,M,,*5E
$GPRMC,133750.000,A,4308.4627,N,07726.3955,W,18.29,275.28,181019,,,A*41
$GPGGA,133750.250,4308.4629,N,07726.3975,W,1,07,1.06,163.2,M,-34.4,M,,*58
$GPRMC,133750.500,A,4308.4630,N,07726.3993,W,18.32,275.86,181019,,,A*46
$GPGGA,133750.750,4308.4631,N,07726.4012,W,1,07,1.06,163.3,M,-34.4,M,,*5A
$GPRMC,133751.000,A,4308.4633,N,07726.4030,W,18.38,276.26,181019,,,A*45
$GPGGA,133751.250,4308.4635,N,07726.4048,W,1,07,1.12,163.4,M,-34.4,M,,*57
$GPRMC,133751.500,A,4308.4637,N,07726.4066,W,18.19,277.64,181019,,,A*43
$GPGGA,133751.750,4308.4639,N,07726.4084,W,1,07,1.12,163.5,M,-34.4,M,,*5F
$GPRMC,133752.000,A,4308.4641,N,07726.4102,W,18.17,277.13,181019,,,A*49
$GPGGA,133752.250,4308.4642,N,07726.4121,W,1,07,1.12,163.7,M,-34.4,M,,*59
$GPRMC,133752.500,A,4308.4644,N,07726.4138,W,18.10,276.40,181019,,,A*40
$GPGGA,133752.750,4308.4645,N,07726.4156,W,1,07,1.06,163.8,M,-34.4,M,,*51
$GPRMC,133753.000,A,4308.4647,N,07726.4173,W,17.83,276.48,181019,,,A*45
$GPGGA,133753.250,4308.4648,N,07726.4190,W,1,07,1.12,163.9,M,-34.4,M,,*56
$GPRMC,133753.500,A,4308.4650,N,07726.4207,W,17.74,277.32,181019,,,A*42
$GPGGA,133753.750,4308.4652,N,07726.4224,W,1,07,1.06,164.1,M,-34.4,M,,*5E
$GPRMC,133754.000,A,4308.4654,N,07726.4241,W,17.63,278.03,181019,,,A*4D
$GPGGA,133754.250,4308.4656,N,07726.4257,W,1,07,1.12,164.2,M,-34.4,M,,*5A
$GPRMC,133754.500,A,4308.4658,N,07726.4272,W,16.74,278.87,181019,,,A*4F
$GPGGA,133754.750,4308.4660,N,07726.4287,W,1,07,1.06,164.2,M,-34.4,M,,*52
$GPRMC,133755.000,A,4308.4662,N,07726.4301,W,15.55,279.90,181019,,,A*40
$GPGGA,133755.250,4308.4663,N,07726.4314,W,1,07,1.12,164.3,M,-34.4,M,,*5A
$GPRMC,133755.500,A,4308.4664,N,07726.4328,W,14.03,281.53,181019,,,A*42
$GPGGA,133755.750,4308.4664,N,07726.4341,W,1,07,1.12,164.4,M,-34.4,M,,*5F
$GPRMC,133756.000,A,4308.4664,N,07726.4352,W,12.34,283.81,181019,,,A*46
$GPGGA,133756.250,4308.4665,N,07726.4361,W,1,07,1.12,164.5,M,-34.4,M,,*5B
$GPRMC,133756.500,A,4308.4666,N,07726.4370,W,10.22,286.70,181019,,,A*4F
$GPGGA,133756.750,4308.4667,N,07726.4378,W,1,07,1.06,164.6,M,-34.4,M,,*52
$GPRMC,133757.000,A,4308.4669,N,07726.4384,W,8.25,290.96,181019,,,A*7E
$GPGGA,133757.250,4308.4670,N,07726.4390,W,1,07,1.12,164.7,M,-34.4,M,,*52
$GPRMC,133757.500,A,4308.4671,N,07726.4394,W,6.59,293.77,181019,,,A*7A
$GPGGA,133757.750,4308.4672,N,07726.4398,W,1,07,1.06,165.0,M,-34.4,M,,*5E
$GPRMC,133758.000,A,4308.4673,N,07726.4401,W,4.96,298.53,181019,,,A*75
$GPGGA,133758.250,4308.4674,N,07726.4404,W,1,07,1.12,165.2,M,-34.4,M,,*57
$GPRMC,133758.500,A,4308.4675,N,07726.4407,W,4.14,298.39,181019,,,A*76
$GPGGA,133758.750,4308.4676,N,07726.4409,W,1,07,1.06,165.4,M,-34.4,M,,*5E
$GPRMC,133759.000,A,4308.4676,N,07726.4411,W,3.27,297.89,181019,,,A*75
$GPGGA,133759.250,4308.4676,N,07726.4412,W,1,07,1.06,165.7,M,-34.4,M,,*53
$GPRMC,133759.500,A,4308.4677,N,07726.4413,W,1.96,297.89,181019,,,A*7B
$GPGGA,133759.750,4308.4677,N,07726.4413,W,1,07,1.06,166.0,M,-34.4,M,,*52
$GPRMC,133800.000,A,4308.4677,N,07726.4412,W,1.15,297.89,181019,,,A*77
$GPGGA,133800.250,4308.4676,N,07726.4411,W,1,07,1.06,166.3,M,-34.4,M,,*54
$GPRMC,133800.500,A,4308.4676,N,07726.4411,W,0.68,297.89,181019,,,A*7B
$GPGGA,133800.750,4308.4672,N,07726.4408,W,1,07,1.06,166.2,M,-34.4,M,,*5C
$GPRMC,133801.000,A,4308.4671,N,07726.4406,W,0.32,297.89,181019,,,A*71
$GPGGA,133801.250,4308.4671,N,07726.4405,W,1,07,1.06,165.9,M,-34.4,M,,*5E
$GPRMC,133801.500,A,4308.4670,N,07726.4405,W,0.26,297.89,181019,,,A*73
$GPGGA,133801.750,4308.4670,N,07726.4405,W,1,07,1.06,165.8,M,-34.4,M,,*5B
$GPRMC,133802.000,A,4308.4670,N,07726.4405,W,0.20,297.89,181019,,,A*73
$GPGGA,133802.250,4308.4670,N,07726.4404,W,1,07,1.06,165.8,M,-34.4,M,,*5C
$GPRMC,133802.500,A,4308.4669,N,07726.4403,W,0.17,125.29,181019,,,A*7C
$GPGGA,133802.750,4308.4668,N,07726.4403,W,1,07,1.06,165.8,M,-34.4,M,,*57
$GPRMC,133803.000,A,4308.4668,N,07726.4402,W,0.15,125.29,181019,,,A*7A
$GPGGA,133803.250,4308.4668,N,07726.4402,W,1,07,1.06,165.9,M,-34.4,M,,*53
$GPRMC,133803.500,A,4308.4668,N,07726.4402,W,0.15,125.29,181019,,,A*7F
$GPGGA,133803.750,4308.4668,N,07726.4402,W,1,07,1.06,166.0,M,-34.4,M,,*5C
$GPRMC,133804.000,A,4308.4668,N,07726.4402,W,0.14,125.29,181019,,,A*7C
$GPGGA,133804.250,4308.4668,N,07726.4402,W,1,07,1.06,166.0,M,-34.4,M,,*5E
$GPRMC,133804.500,A,4308.4667,N,07726.4402,W,0.09,125.29,181019,,,A*7A
$GPGGA,133804.750,4308.4667,N,07726.4402,W,1,07,1.06,166.0,M,-34.4,M,,*54
$GPRMC,133805.000,A,4308.4667,N,07726.4402,W,0.14,125.29,181019,,,A*72
$GPGGA,133805.250,4308.4667,N,07726.4402,W,1,07,1.06,166.1,M,-34.4,M,,*51
$GPRMC,133805.500,A,4308.4667,N,07726.4401,W,0.13,125.29,181019,,,A*73
$GPGGA,133805.750,4308.4667,N,07726.4401,W,1,07,1.06,166.1,M,-34.4,M,,*57
$GPRMC,133806.000,A,4308.4667,N,07726.4401,W,0.13,125.29,181019,,,A*75
$GPGGA,133806.250,4308.4667,N,07726.4401,W,1,07,1.06,166.1,M,-34.4,M,,*51
$GPRMC,133806.500,A,4308.4667,N,07726.4401,W,0.15,125.29,181019,,,A*76
$GPGGA,133806.750,4308.4667,N,07726.4401,W,1,07,1.06,166.1,M,-34.4,M,,*54
$GPRMC,133807.000,A,4308.4667,N,07726.4401,W,0.16,125.29,181019,,,A*71
$GPGGA,133807.250,4308.4667,N,07726.4401,W,1,07,1.06,166.2,M,-34.4,M,,*53
$GPRMC,133807.500,A,4308.4667,N,07726.4401,W,0.17,125.29,181019,,,A*75
$GPGGA,133807.750,4308.4667,N,07726.4401,W,1,07,1.06,166.2,M,-34.4,M,,*56
$GPRMC,133808.000,A,4308.4666,N,07726.4401,W,0.18,125.29,181019,,,A*71
$GPGGA,133808.250,4308.4666,N,07726.4400,W,1,07,1.06,166.2,M,-34.4,M,,*5C
$GPRMC,133808.500,A,4308.4666,N,07726.4400,W,0.18,125.29,181019,,,A*75
$GPGGA,133808.750,4308.4666,N,07726.4400,W,1,07,1.06,166.2,M,-34.4,M,,*59
$GPRMC,133809.000,A,4308.4666,N,07726.4400,W,0.18,125.29,181019,,,A*71
$GPGGA,133809.250,4308.4666,N,07726.4400,W,1,07,1.06,166.2,M,-34.4,M,,*5D
$GPRMC,133809.500,A,4308.4666,N,07726.4400,W,0.25,125.29,181019,,,A*7A
$GPGGA,133809.750,4308.4666,N,07726.4400,W,1,07,1.06,166.3,M,-34.4,M,,*59
$GPRMC,133810.000,A,4308.4665,N,07726.4400,W,0.20,125.29,181019,,,A*71
$GPGGA,133810.250,4308.4665,N,07726.4400,W,1,07,1.06,166.3,M,-34.4,M,,*57
$GPRMC,133810.500,A,4308.4665,N,07726.4400,W,0.21,125.29,181019,,,A*75
$GPGGA,133810.750,4308.4665,N,07726.4400,W,1,07,1.06,166.3,M,-34.4,M,,*52
$GPRMC,133811.000,A,4308.4665,N,07726.4400,W,0.20,125.29,181019,,,A*70
$GPGGA,133811.250,4308.4665,N,07726.4400,W,1,07,1.06,166.3,M,-34.4,M,,*56
$GPRMC,133811.500,A,4308.4665,N,07726.4400,W,0.14,125.29,181019,,,A*72
$GPGGA,133811.750,4308.4665,N,07726.4399,W,1,07,1.06,166.3,M,-34.4,M,,*54
$GPRMC,133812.000,A,4308.4665,N,07726.4399,W,0.04,125.29,181019,,,A*72
$GPGGA,133812.250,4308.4665,N,07726.4399,W,1,07,1.06,166.3,M,-34.4,M,,*52
$GPRMC,133812.500,A,4308.4665,N,07726.4399,W,0.08,125.29,181019,,,A*7B
$GPGGA,133812.750,4308.4664,N,07726.4399,W,1,07,1.06,166.3,M,-34.4,M,,*56
$GPRMC,133813.000,A,4308.4664,N,07726.4399,W,0.03,125.29,181019,,,A*75
$GPGGA,133813.250,4308.4664,N,07726.4399,W,1,07,1.06,166.3,M,-34.4,M,,*52
$GPRMC,133813.500,A,4308.4664,N,07726.4399,W,0.06,125.29,181019,,,A*75
$GPGGA,133813.750,4308.4664,N,07726.4399,W,1,07,1.06,166.3,M,-34.4,M,,*57
$GPRMC,133814.000,A,4308.4664,N,07726.4399,W,0.05,125.29,181019,,,A*74
$GPGGA,133814.250,4308.4664,N,07726.4399,W,1,07,1.06,166.3,M,-34.4,M,,*55
$GPRMC,133814.500,A,4308.4664,N,07726.4399,W,0.05,125.29,181019,,,A*71
$GPGGA,133814.750,4308.4664,N,07726.4399,W,1,07,1.06,166.4,M,-34.4,M,,*57
$GPRMC,133815.000,A,4308.4664,N,07726.4399,W,0.01,125.29,181019,,,A*71
$GPGGA,133815.250,4308.4664,N,07726.4399,W,1,07,1.06,166.4,M,-34.4,M,,*53
$GPRMC,133815.500,A,4308.4664,N,07726.4399,W,0.03,125.29,181019,,,A*76
$GPGGA,133815.750,4308.4664,N,07726.4399,W,1,07,1.06,166.4,M,-34.4,M,,*56
$GPRMC,133816.000,A,4308.4664,N,07726.4399,W,0.04,125.29,181019,,,A*77
$GPGGA,133816.250,4308.4664,N,07726.4399,W,1,07,1.06,166.4,M,-34.4,M,,*50
$GPRMC,133816.500,A,4308.4664,N,07726.4399,W,0.00,125.29,181019,,,A*76
$GPGGA,133816.750,4308.4664,N,07726.4399,W,1,07,1.12,166.4,M,-34.4,M,,*50
$GPRMC,133817.000,A,4308.4664,N,07726.4399,W,0.00,125.29,181019,,,A*72
$GPGGA,133817.250,4308.4664,N,07726.4399,W,1,07,1.12,166.4,M,-34.4,M,,*54
$GPRMC,133817.500,A,4308.4664,N,07726.4399,W,0.06,125.29,181019,,,A*71
$GPGGA,133817.750,4308.4664,N,07726.4399,W,1,07,1.06,166.4,M,-34.4,M,,*54
$GPRMC,133818.000,A,4308.4664,N,07726.4399,W,0.04,125.29,181019,,,A*79
$GPGGA,133818.250,4308.4664,N,07726.4399,W,1,07,1.06,166.4,M,-34.4,M,,*5E
$GPRMC,133818.500,A,4308.4664,N,07726.4399,W,0.06,125.29,181019,,,A*7E
$GPGGA,133818.750,4308.4664,N,07726.4399,W,1,07,1.06,166.4,M,-34.4,M,,*5B
$GPRMC,133819.000,A,4308.4664,N,07726.4399,W,0.07,125.29,181019,,,A*7B
$GPGGA,133819.250,4308.4664,N,07726.4399,W,1,07,1.06,166.4,M,-34.4,M,,*5F
$GPRMC,133819.500,A,4308.4665,N,07726.4399,W,0.02,125.29,181019,,,A*7A
$GPGGA,133819.750,4308.4665,N,07726.4399,W,1,07,1.12,166.4,M,-34.4,M,,*5E
