Vers 81
USE_SERIAL_FEEDBACK=true
DEVELOPMENT_MODE=false
USE_RMC_ONLY=false

$GPRMC,160552.500,A,4308.3011,N,07726.2648,W,0.10,327.87,140919,,,A*70
$GPGGA,160552.750,4308.3011,N,07726.2650,W,1,05,2.81,154.2,M,-34.4,M,,*52
$GPRMC,160553.000,A,4308.3008,N,07726.2648,W,0.22,108.79,140919,,,A*73
$GPGGA,160553.250,4308.3010,N,07726.2650,W,1,05,2.81,153.0,M,-34.4,M,,*52
$GPRMC,160553.500,A,4308.3009,N,07726.2650,W,0.41,27.96,140919,,,A*46
$GPGGA,160553.750,4308.3009,N,07726.2648,W,1,05,2.81,152.5,M,-34.4,M,,*52
$GPRMC,160554.000,A,4308.3008,N,07726.2645,W,0.71,54.57,140919,,,A*4B
$GPGGA,160554.250,4308.3009,N,07726.2644,W,1,05,2.81,152.2,M,-34.4,M,,*5B
$GPRMC,160554.500,A,4308.3010,N,07726.2643,W,1.23,37.69,140919,,,A*4F
$GPGGA,160554.750,4308.3014,N,07726.2644,W,1,05,2.81,151.7,M,-34.4,M,,*54
$GPRMC,160555.000,A,4308.3017,N,07726.2644,W,1.96,21.12,140919,,,A*4E
$GPGGA,160555.250,4308.3020,N,07726.2644,W,1,05,2.81,151.2,M,-34.4,M,,*52
$GPRMC,160555.500,A,4308.3022,N,07726.2642,W,2.39,23.78,140919,,,A*43
$GPGGA,160555.750,4308.3023,N,07726.2639,W,1,05,2.81,151.3,M,-34.4,M,,*5F
$GPRMC,160556.000,A,4308.3024,N,07726.2635,W,2.74,26.10,140919,,,A*41
$GPGGA,160556.250,4308.3026,N,07726.2632,W,1,05,2.81,151.7,M,-34.4,M,,*53
$GPRMC,160556.500,A,4308.3028,N,07726.2630,W,2.97,24.83,140919,,,A*48
$GPGGA,160556.750,4308.3031,N,07726.2628,W,1,05,2.81,151.8,M,-34.4,M,,*54
$GPRMC,160557.000,A,4308.3034,N,07726.2627,W,3.54,22.25,140919,,,A*43
$GPGGA,160557.250,4308.3036,N,07726.2626,W,1,05,2.81,151.8,M,-34.4,M,,*59
$GPRMC,160557.500,A,4308.3039,N,07726.2625,W,3.54,18.20,140919,,,A*45
$GPGGA,160557.750,4308.3043,N,07726.2625,W,1,05,2.81,151.7,M,-34.4,M,,*52
$GPRMC,160558.000,A,4308.3045,N,07726.2624,W,4.06,12.08,140919,,,A*45
$GPGGA,160558.250,4308.3049,N,07726.2624,W,1,05,3.00,151.6,M,-34.4,M,,*5A
$GPRMC,160558.500,A,4308.3052,N,07726.2624,W,4.04,9.17,140919,,,A*70
$GPGGA,160558.750,4308.3055,N,07726.2623,W,1,05,3.00,151.6,M,-34.4,M,,*55
$GPRMC,160559.000,A,4308.3057,N,07726.2622,W,3.58,10.04,140919,,,A*43
$GPGGA,160559.250,4308.3060,N,07726.2622,W,1,05,3.00,151.6,M,-34.4,M,,*56
$GPRMC,160559.500,A,4308.3065,N,07726.2623,W,4.01,8.45,140919,,,A*71
$GPGGA,160559.750,4308.3069,N,07726.2624,W,1,05,3.00,151.6,M,-34.4,M,,*5C
$GPRMC,160600.000,A,4308.3072,N,07726.2624,W,4.18,1.26,140919,,,A*7E
$GPGGA,160600.250,4308.3075,N,07726.2624,W,1,05,3.00,151.6,M,-34.4,M,,*5B
$GPRMC,160600.500,A,4308.3078,N,07726.2624,W,4.29,4.08,140919,,,A*7A
$GPGGA,160600.750,4308.3082,N,07726.2624,W,1,05,3.00,151.3,M,-34.4,M,,*53
$GPRMC,160601.000,A,4308.3085,N,07726.2623,W,4.42,5.60,140919,,,A*79
$GPGGA,160601.250,4308.3088,N,07726.2623,W,1,05,3.00,151.4,M,-34.4,M,,*5D
$GPRMC,160601.500,A,4308.3091,N,07726.2622,W,3.97,7.78,140919,,,A*7C
$GPGGA,160601.750,4308.3095,N,07726.2622,W,1,05,3.00,151.4,M,-34.4,M,,*55
$GPRMC,160602.000,A,4308.3098,N,07726.2623,W,3.89,4.11,140919,,,A*71
$GPGGA,160602.250,4308.3100,N,07726.2622,W,1,05,3.00,151.6,M,-34.4,M,,*5C
$GPRMC,160602.500,A,4308.3102,N,07726.2621,W,3.10,8.80,140919,,,A*70
$GPGGA,160602.750,4308.3104,N,07726.2620,W,1,05,3.00,151.7,M,-34.4,M,,*5E
$GPRMC,160603.000,A,4308.3106,N,07726.2619,W,2.78,21.87,140919,,,A*48
$GPGGA,160603.250,4308.3109,N,07726.2620,W,1,05,2.81,151.6,M,-34.4,M,,*5E
$GPRMC,160603.500,A,4308.3111,N,07726.2620,W,2.64,11.80,140919,,,A*48
$GPGGA,160603.750,4308.3113,N,07726.2620,W,1,05,3.00,151.6,M,-34.4,M,,*58
$GPRMC,160604.000,A,4308.3115,N,07726.2621,W,1.97,5.96,140919,,,A*72
$GPGGA,160604.250,4308.3116,N,07726.2621,W,1,05,3.00,151.7,M,-34.4,M,,*5F
$GPRMC,160604.500,A,4308.3117,N,07726.2620,W,1.34,22.07,140919,,,A*40
$GPGGA,160604.750,4308.3118,N,07726.2619,W,1,05,2.81,151.6,M,-34.4,M,,*56
$GPRMC,160605.000,A,4308.3120,N,07726.2619,W,1.49,48.18,140919,,,A*42
$GPGGA,160605.250,4308.3123,N,07726.2620,W,1,05,2.81,151.4,M,-34.4,M,,*52
$GPRMC,160605.500,A,4308.3125,N,07726.2620,W,1.69,39.05,140919,,,A*40
$GPGGA,160605.750,4308.3127,N,07726.2619,W,1,05,2.81,151.3,M,-34.4,M,,*5E
$GPRMC,160606.000,A,4308.3129,N,07726.2617,W,2.11,38.32,140919,,,A*47
$GPGGA,160606.250,4308.3132,N,07726.2617,W,1,05,2.81,151.4,M,-34.4,M,,*55
$GPRMC,160606.500,A,4308.3134,N,07726.2616,W,2.32,37.99,140919,,,A*40
$GPGGA,160606.750,4308.3135,N,07726.2615,W,1,04,2.89,151.4,M,-34.4,M,,*5C
$GPRMC,160607.000,A,4308.3136,N,07726.2614,W,2.22,40.25,140919,,,A*42
$GPGGA,160607.250,4308.3136,N,07726.2612,W,1,04,5.15,151.5,M,-34.4,M,,*5F
$GPRMC,160607.500,A,4308.3137,N,07726.2610,W,2.12,44.79,140919,,,A*4C
$GPGGA,160607.750,4308.3138,N,07726.2609,W,1,04,5.15,151.5,M,-34.4,M,,*5E
$GPRMC,160608.000,A,4308.3138,N,07726.2608,W,1.82,50.85,140919,,,A*4C
$GPGGA,160608.250,4308.3137,N,07726.2607,W,1,05,2.81,151.7,M,-34.4,M,,*5C
$GPRMC,160608.500,A,4308.3137,N,07726.2607,W,1.27,63.83,140919,,,A*40
$GPGGA,160608.750,4308.3136,N,07726.2606,W,1,05,2.81,151.8,M,-34.4,M,,*56
$GPRMC,160609.000,A,4308.3136,N,07726.2606,W,0.84,81.43,140919,,,A*4C
$GPGGA,160609.250,4308.3136,N,07726.2607,W,1,05,2.81,152.0,M,-34.4,M,,*58
$GPRMC,160609.500,A,4308.3136,N,07726.2608,W,0.47,99.97,140919,,,A*48
$GPGGA,160609.750,4308.3137,N,07726.2611,W,1,05,2.81,152.2,M,-34.4,M,,*59
$GPRMC,160610.000,A,4308.3138,N,07726.2615,W,0.52,222.23,140919,,,A*7E
$GPGGA,160610.250,4308.3140,N,07726.2619,W,1,05,2.81,152.4,M,-34.4,M,,*5A
$GPRMC,160610.500,A,4308.3142,N,07726.2623,W,1.10,249.22,140919,,,A*78
$GPGGA,160610.750,4308.3144,N,07726.2627,W,1,05,2.81,152.7,M,-34.4,M,,*55
$GPRMC,160611.000,A,4308.3145,N,07726.2630,W,1.59,253.10,140919,,,A*7E
$GPGGA,160611.250,4308.3146,N,07726.2634,W,1,05,2.81,153.1,M,-34.4,M,,*56
$GPRMC,160611.500,A,4308.3147,N,07726.2637,W,1.88,254.67,140919,,,A*75
$GPGGA,160611.750,4308.3147,N,07726.2640,W,1,05,2.81,153.4,M,-34.4,M,,*54
$GPRMC,160612.000,A,4308.3149,N,07726.2645,W,2.20,255.02,140919,,,A*7B
$GPGGA,160612.250,4308.3151,N,07726.2651,W,1,05,2.81,154.0,M,-34.4,M,,*56
$GPRMC,160612.500,A,4308.3152,N,07726.2656,W,3.85,253.19,140919,,,A*74
$GPGGA,160612.750,4308.3154,N,07726.2663,W,1,05,2.81,154.5,M,-34.4,M,,*52
$GPRMC,160613.000,A,4308.3156,N,07726.2670,W,4.93,264.64,140919,,,A*7E
$GPGGA,160613.250,4308.3157,N,07726.2676,W,1,05,3.00,154.9,M,-34.4,M,,*55
$GPRMC,160613.500,A,4308.3159,N,07726.2683,W,5.70,268.05,140919,,,A*7F
$GPGGA,160613.750,4308.3162,N,07726.2691,W,1,05,3.00,155.3,M,-34.4,M,,*54
$GPRMC,160614.000,A,4308.3165,N,07726.2700,W,6.72,275.36,140919,,,A*75
$GPGGA,160614.250,4308.3167,N,07726.2709,W,1,05,3.00,155.6,M,-34.4,M,,*56
$GPRMC,160614.500,A,4308.3169,N,07726.2717,W,7.60,276.26,140919,,,A*7A
$GPGGA,160614.750,4308.3172,N,07726.2727,W,1,05,3.00,155.8,M,-34.4,M,,*55
$GPRMC,160615.000,A,4308.3174,N,07726.2737,W,8.99,278.16,140919,,,A*74
$GPGGA,160615.250,4308.3176,N,07726.2747,W,1,05,3.00,155.9,M,-34.4,M,,*52
$GPRMC,160615.500,A,4308.3178,N,07726.2759,W,9.92,277.92,140919,,,A*7C
$GPGGA,160615.750,4308.3180,N,07726.2769,W,1,05,2.81,155.9,M,-34.4,M,,*5A
$GPRMC,160616.000,A,4308.3181,N,07726.2781,W,10.42,277.29,140919,,,A*4C
$GPGGA,160616.250,4308.3183,N,07726.2793,W,1,05,2.81,155.9,M,-34.4,M,,*5A
$GPRMC,160616.500,A,4308.3184,N,07726.2805,W,11.32,276.37,140919,,,A*47
$GPGGA,160616.750,4308.3186,N,07726.2818,W,1,05,2.81,155.9,M,-34.4,M,,*56
$GPRMC,160617.000,A,4308.3187,N,07726.2832,W,12.20,276.01,140919,,,A*41
$GPGGA,160617.250,4308.3189,N,07726.2846,W,1,05,2.81,155.8,M,-34.4,M,,*57
$GPRMC,160617.500,A,4308.3191,N,07726.2860,W,12.91,276.60,140919,,,A*49
$GPGGA,160617.750,4308.3193,N,07726.2874,W,1,05,2.81,155.8,M,-34.4,M,,*58
$GPRMC,160618.000,A,4308.3196,N,07726.2887,W,13.12,278.11,140919,,,A*4F
$GPGGA,160618.250,4308.3199,N,07726.2901,W,1,05,2.82,155.7,M,-34.4,M,,*57
$GPRMC,160618.500,A,4308.3202,N,07726.2914,W,13.28,280.43,140919,,,A*46
$GPGGA,160618.750,4308.3206,N,07726.2927,W,1,05,2.82,155.6,M,-34.4,M,,*52
$GPRMC,160619.000,A,4308.3210,N,07726.2941,W,13.51,283.58,140919,,,A*46
$GPGGA,160619.250,4308.3214,N,07726.2956,W,1,05,2.82,155.7,M,-34.4,M,,*52
$GPRMC,160619.500,A,4308.3219,N,07726.2971,W,13.90,286.75,140919,,,A*4E
$GPGGA,160619.750,4308.3225,N,07726.2986,W,1,05,2.82,155.7,M,-34.4,M,,*58
$GPRMC,160620.000,A,4308.3231,N,07726.3002,W,14.63,289.55,140919,,,A*41
$GPGGA,160620.250,4308.3237,N,07726.3019,W,1,05,2.82,155.7,M,-34.4,M,,*5A
$GPRMC,160620.500,A,4308.3243,N,07726.3036,W,15.43,291.64,140919,,,A*4E
$GPGGA,160620.750,4308.3250,N,07726.3053,W,1,05,2.82,155.8,M,-34.4,M,,*5F
$GPRMC,160621.000,A,4308.3256,N,07726.3069,W,15.87,293.71,140919,,,A*4A
$GPGGA,160621.250,4308.3263,N,07726.3086,W,1,05,2.82,155.9,M,-34.4,M,,*52
$GPRMC,160621.500,A,4308.3270,N,07726.3103,W,16.46,295.29,140919,,,A*43
$GPGGA,160621.750,4308.3277,N,07726.3120,W,1,05,2.82,156.0,M,-34.4,M,,*55
$GPRMC,160622.000,A,4308.3286,N,07726.3138,W,17.12,296.57,140919,,,A*4E
$GPGGA,160622.250,4308.3294,N,07726.3156,W,1,05,2.82,156.0,M,-34.4,M,,*5F
$GPRMC,160622.500,A,4308.3303,N,07726.3175,W,17.76,298.02,140919,,,A*42
$GPGGA,160622.750,4308.3312,N,07726.3194,W,1,05,2.82,156.0,M,-34.4,M,,*5B
$GPRMC,160623.000,A,4308.3320,N,07726.3213,W,18.47,298.83,140919,,,A*40
$GPGGA,160623.250,4308.3328,N,07726.3230,W,1,04,5.14,156.1,M,-34.4,M,,*53
$GPRMC,160623.500,A,4308.3337,N,07726.3249,W,18.93,299.66,140919,,,A*4F
$GPGGA,160623.750,4308.3346,N,07726.3268,W,1,05,2.82,156.1,M,-34.4,M,,*5A
$GPRMC,160624.000,A,4308.3355,N,07726.3286,W,19.43,300.37,140919,,,A*43
$GPGGA,160624.250,4308.3365,N,07726.3305,W,1,05,2.82,156.1,M,-34.4,M,,*53
$GPRMC,160624.500,A,4308.3374,N,07726.3325,W,20.00,300.44,140919,,,A*44
$GPGGA,160624.750,4308.3384,N,07726.3344,W,1,05,2.82,156.1,M,-34.4,M,,*5C
$GPRMC,160625.000,A,4308.3393,N,07726.3363,W,20.44,300.96,140919,,,A*44
$GPGGA,160625.250,4308.3401,N,07726.3381,W,1,04,5.14,156.1,M,-34.4,M,,*52
$GPRMC,160625.500,A,4308.3409,N,07726.3398,W,20.51,301.18,140919,,,A*42
$GPGGA,160625.750,4308.3417,N,07726.3416,W,1,05,2.82,156.2,M,-34.4,M,,*53
$GPRMC,160626.000,A,4308.3425,N,07726.3433,W,20.55,301.81,140919,,,A*48
$GPGGA,160626.250,4308.3435,N,07726.3451,W,1,05,2.82,156.1,M,-34.4,M,,*55
$GPRMC,160626.500,A,4308.3444,N,07726.3469,W,20.59,302.72,140919,,,A*46
$GPGGA,160626.750,4308.3455,N,07726.3488,W,1,05,2.82,156.1,M,-34.4,M,,*52
$GPRMC,160627.000,A,4308.3465,N,07726.3506,W,20.67,303.89,140919,,,A*41
$GPGGA,160627.250,4308.3475,N,07726.3524,W,1,05,2.82,156.1,M,-34.4,M,,*53
$GPRMC,160627.500,A,4308.3486,N,07726.3542,W,20.91,305.29,140919,,,A*4C
$GPGGA,160627.750,4308.3495,N,07726.3558,W,1,05,2.82,156.1,M,-34.4,M,,*53
$GPRMC,160628.000,A,4308.3505,N,07726.3573,W,20.61,307.62,140919,,,A*4C
$GPGGA,160628.250,4308.3516,N,07726.3589,W,1,05,2.82,156.1,M,-34.4,M,,*5F
$GPRMC,160628.500,A,4308.3529,N,07726.3607,W,20.56,310.68,140919,,,A*4F
$GPGGA,160628.750,4308.3550,N,07726.3630,W,1,05,2.82,156.3,M,-34.4,M,,*5B
$GPRMC,160629.000,A,4308.3568,N,07726.3651,W,21.04,314.98,140919,,,A*40
$GPGGA,160629.250,4308.3587,N,07726.3672,W,1,05,2.82,156.7,M,-34.4,M,,*57
$GPRMC,160629.500,A,4308.3605,N,07726.3691,W,21.59,317.62,140919,,,A*4F
$GPGGA,160629.750,4308.3625,N,07726.3711,W,1,05,2.82,157.1,M,-34.4,M,,*5A
$GPRMC,160630.000,A,4308.3642,N,07726.3729,W,22.17,319.81,140919,,,A*49
$GPGGA,160630.250,4308.3660,N,07726.3745,W,1,05,2.82,157.3,M,-34.4,M,,*55
$GPRMC,160630.500,A,4308.3675,N,07726.3760,W,22.46,322.99,140919,,,A*40
$GPGGA,160630.750,4308.3692,N,07726.3773,W,1,05,2.82,157.3,M,-34.4,M,,*58
$GPRMC,160631.000,A,4308.3708,N,07726.3784,W,23.01,327.92,140919,,,A*49
$GPGGA,160631.250,4308.3723,N,07726.3795,W,1,05,2.82,157.3,M,-34.4,M,,*5F
$GPRMC,160631.500,A,4308.3738,N,07726.3805,W,23.23,331.80,140919,,,A*4D
$GPGGA,160631.750,4308.3752,N,07726.3815,W,1,05,2.82,157.3,M,-34.4,M,,*5B
$GPRMC,160632.000,A,4308.3767,N,07726.3824,W,23.30,334.13,140919,,,A*4F
$GPGGA,160632.250,4308.3781,N,07726.3832,W,1,05,2.82,157.3,M,-34.4,M,,*56
$GPRMC,160632.500,A,4308.3796,N,07726.3840,W,23.35,336.03,140919,,,A*40
$GPGGA,160632.750,4308.3812,N,07726.3849,W,1,05,2.82,157.4,M,-34.4,M,,*5D
$GPRMC,160633.000,A,4308.3829,N,07726.3857,W,23.58,339.14,140919,,,A*4B
$GPGGA,160633.250,4308.3845,N,07726.3863,W,1,05,2.82,157.5,M,-34.4,M,,*52
$GPRMC,160633.500,A,4308.3861,N,07726.3870,W,23.57,341.08,140919,,,A*4A
$GPGGA,160633.750,4308.3878,N,07726.3877,W,1,05,2.82,157.6,M,-34.4,M,,*5F
$GPRMC,160634.000,A,4308.3894,N,07726.3882,W,23.57,343.25,140919,,,A*42
$GPGGA,160634.250,4308.3910,N,07726.3883,W,1,05,2.82,157.7,M,-34.4,M,,*58
$GPRMC,160634.500,A,4308.3928,N,07726.3887,W,23.65,348.09,140919,,,A*40
$GPGGA,160634.750,4308.3944,N,07726.3888,W,1,05,3.00,157.8,M,-34.4,M,,*53
$GPRMC,160635.000,A,4308.3960,N,07726.3888,W,23.84,352.04,140919,,,A*4E
$GPGGA,160635.250,4308.3975,N,07726.3888,W,1,05,3.00,158.0,M,-34.4,M,,*52
$GPRMC,160635.500,A,4308.3991,N,07726.3888,W,23.87,354.36,140919,,,A*41
$GPGGA,160635.750,4308.4006,N,07726.3888,W,1,05,3.00,157.9,M,-34.4,M,,*5B
$GPRMC,160636.000,A,4308.4022,N,07726.3887,W,23.87,355.98,140919,,,A*4B
$GPGGA,160636.250,4308.4037,N,07726.3886,W,1,05,3.00,157.9,M,-34.4,M,,*51
$GPRMC,160636.500,A,4308.4054,N,07726.3885,W,23.90,357.79,140919,,,A*46
$GPGGA,160636.750,4308.4070,N,07726.3885,W,1,05,3.00,157.9,M,-34.4,M,,*54
$GPRMC,160637.000,A,4308.4087,N,07726.3885,W,23.89,358.96,140919,,,A*4A
$GPGGA,160637.250,4308.4103,N,07726.3884,W,1,05,3.00,157.9,M,-34.4,M,,*54
$GPRMC,160637.500,A,4308.4120,N,07726.3883,W,23.88,0.24,140919,,,A*43
$GPGGA,160637.750,4308.4136,N,07726.3881,W,1,05,3.00,158.0,M,-34.4,M,,*54
$GPRMC,160638.000,A,4308.4151,N,07726.3878,W,23.84,1.53,140919,,,A*46
$GPGGA,160638.250,4308.4167,N,07726.3875,W,1,05,3.00,158.0,M,-34.4,M,,*51
$GPRMC,160638.500,A,4308.4182,N,07726.3872,W,23.75,2.70,140919,,,A*4B
$GPGGA,160638.750,4308.4196,N,07726.3868,W,1,05,3.00,157.9,M,-34.4,M,,*50
$GPRMC,160639.000,A,4308.4211,N,07726.3865,W,23.49,3.66,140919,,,A*49
$GPGGA,160639.250,4308.4227,N,07726.3862,W,1,05,3.00,157.9,M,-34.4,M,,*57
$GPRMC,160639.500,A,4308.4243,N,07726.3860,W,23.28,4.13,140919,,,A*4C
$GPGGA,160639.750,4308.4258,N,07726.3858,W,1,05,3.00,157.9,M,-34.4,M,,*53
$GPRMC,160640.000,A,4308.4271,N,07726.3853,W,22.85,4.72,140919,,,A*47
$GPGGA,160640.250,4308.4284,N,07726.3848,W,1,05,3.00,157.9,M,-34.4,M,,*58
$GPRMC,160640.500,A,4308.4296,N,07726.3842,W,22.30,5.25,140919,,,A*46
$GPGGA,160640.750,4308.4309,N,07726.3836,W,1,05,3.00,158.0,M,-34.4,M,,*56
$GPRMC,160641.000,A,4308.4319,N,07726.3828,W,21.64,5.82,140919,,,A*47
$GPGGA,160641.250,4308.4326,N,07726.3819,W,1,05,3.00,158.1,M,-34.4,M,,*53
$GPRMC,160641.500,A,4308.4338,N,07726.3814,W,20.93,6.70,140919,,,A*49
$GPGGA,160641.750,4308.4350,N,07726.3809,W,1,05,3.00,158.1,M,-34.4,M,,*56
$GPRMC,160642.000,A,4308.4361,N,07726.3804,W,20.40,7.23,140919,,,A*4B
$GPGGA,160642.250,4308.4371,N,07726.3799,W,1,05,3.00,158.2,M,-34.4,M,,*56
$GPRMC,160642.500,A,4308.4384,N,07726.3797,W,19.88,7.04,140919,,,A*4B
$GPGGA,160642.750,4308.4397,N,07726.3794,W,1,05,3.00,158.3,M,-34.4,M,,*57
$GPRMC,160643.000,A,4308.4408,N,07726.3790,W,19.40,6.77,140919,,,A*4A
$GPGGA,160643.250,4308.4418,N,07726.3786,W,1,05,3.00,158.4,M,-34.4,M,,*57
$GPRMC,160643.500,A,4308.4428,N,07726.3781,W,18.73,6.49,140919,,,A*41
$GPGGA,160643.750,4308.4437,N,07726.3777,W,1,05,3.00,158.5,M,-34.4,M,,*50
$GPRMC,160644.000,A,4308.4446,N,07726.3771,W,17.99,6.15,140919,,,A*46
$GPGGA,160644.250,4308.4455,N,07726.3766,W,1,05,3.00,158.6,M,-34.4,M,,*55
$GPRMC,160644.500,A,4308.4466,N,07726.3763,W,17.42,5.89,140919,,,A*42
$GPGGA,160644.750,4308.4475,N,07726.3758,W,1,05,3.00,158.7,M,-34.4,M,,*5E
$GPRMC,160645.000,A,4308.4484,N,07726.3753,W,16.86,6.00,140919,,,A*42
$GPGGA,160645.250,4308.4494,N,07726.3749,W,1,05,3.00,159.0,M,-34.4,M,,*53
$GPRMC,160645.500,A,4308.4503,N,07726.3745,W,16.49,6.17,140919,,,A*4B
$GPGGA,160645.750,4308.4512,N,07726.3741,W,1,05,3.00,159.1,M,-34.4,M,,*50
$GPRMC,160646.000,A,4308.4520,N,07726.3735,W,15.91,5.80,140919,,,A*40
$GPGGA,160646.250,4308.4528,N,07726.3731,W,1,05,3.00,159.3,M,-34.4,M,,*5A
$GPRMC,160646.500,A,4308.4536,N,07726.3726,W,15.12,5.05,140919,,,A*46
$GPGGA,160646.750,4308.4544,N,07726.3723,W,1,05,3.00,159.6,M,-34.4,M,,*53
$GPRMC,160647.000,A,4308.4551,N,07726.3720,W,14.31,3.85,140919,,,A*4B
$GPGGA,160647.250,4308.4559,N,07726.3719,W,1,05,3.00,159.9,M,-34.4,M,,*5D
$GPRMC,160647.500,A,4308.4566,N,07726.3716,W,13.43,1.90,140919,,,A*4B
$GPGGA,160647.750,4308.4571,N,07726.3713,W,1,05,3.00,160.1,M,-34.4,M,,*5A
$GPRMC,160648.000,A,4308.4577,N,07726.3710,W,12.48,0.80,140919,,,A*4D
$GPGGA,160648.250,4308.4581,N,07726.3707,W,1,05,3.01,160.2,M,-34.4,M,,*58
$GPRMC,160648.500,A,4308.4587,N,07726.3704,W,11.58,0.85,140919,,,A*45
$GPGGA,160648.750,4308.4589,N,07726.3700,W,1,05,3.01,160.3,M,-34.4,M,,*53
$GPRMC,160649.000,A,4308.4592,N,07726.3698,W,10.35,0.96,140919,,,A*49
$GPGGA,160649.250,4308.4595,N,07726.3695,W,1,05,3.01,160.5,M,-34.4,M,,*51
$GPRMC,160649.500,A,4308.4597,N,07726.3694,W,9.07,358.98,140919,,,A*7C
$GPGGA,160649.750,4308.4599,N,07726.3692,W,1,05,3.01,160.8,M,-34.4,M,,*52
$GPRMC,160650.000,A,4308.4601,N,07726.3690,W,7.93,356.71,140919,,,A*73
$GPGGA,160650.250,4308.4603,N,07726.3688,W,1,05,3.01,160.9,M,-34.4,M,,*55
$GPRMC,160650.500,A,4308.4603,N,07726.3686,W,6.90,354.13,140919,,,A*77
$GPGGA,160650.750,4308.4604,N,07726.3684,W,1,05,3.01,161.0,M,-34.4,M,,*53
$GPRMC,160651.000,A,4308.4603,N,07726.3680,W,5.72,351.35,140919,,,A*7B
$GPGGA,160651.250,4308.4602,N,07726.3676,W,1,05,3.01,161.1,M,-34.4,M,,*5D
$GPRMC,160651.500,A,4308.4600,N,07726.3671,W,4.49,352.09,140919,,,A*76
$GPGGA,160651.750,4308.4599,N,07726.3666,W,1,05,3.00,161.4,M,-34.4,M,,*5C
$GPRMC,160652.000,A,4308.4600,N,07726.3663,W,4.12,358.38,140919,,,A*75
$GPGGA,160652.250,4308.4601,N,07726.3660,W,1,05,3.00,161.8,M,-34.4,M,,*52
$GPRMC,160652.500,A,4308.4603,N,07726.3658,W,4.23,2.00,140919,,,A*7E
$GPGGA,160652.750,4308.4605,N,07726.3658,W,1,05,3.01,162.0,M,-34.4,M,,*52
$GPRMC,160653.000,A,4308.4610,N,07726.3659,W,5.05,1.54,140919,,,A*7E
$GPGGA,160653.250,4308.4613,N,07726.3660,W,1,05,3.01,162.0,M,-34.4,M,,*5A
$GPRMC,160653.500,A,4308.4617,N,07726.3661,W,5.32,355.57,140919,,,A*72
$GPGGA,160653.750,4308.4621,N,07726.3662,W,1,05,3.01,162.1,M,-34.4,M,,*5D
$GPRMC,160654.000,A,4308.4626,N,07726.3666,W,5.31,343.91,140919,,,A*7B
$GPGGA,160654.250,4308.4630,N,07726.3670,W,1,05,2.82,162.2,M,-34.4,M,,*55
$GPRMC,160654.500,A,4308.4635,N,07726.3677,W,5.63,325.84,140919,,,A*7F
$GPGGA,160654.750,4308.4640,N,07726.3685,W,1,05,2.82,162.1,M,-34.4,M,,*5E
$GPRMC,160655.000,A,4308.4645,N,07726.3693,W,6.74,310.95,140919,,,A*75
$GPGGA,160655.250,4308.4649,N,07726.3702,W,1,05,2.83,161.9,M,-34.4,M,,*57
$GPRMC,160655.500,A,4308.4652,N,07726.3709,W,7.76,301.32,140919,,,A*7A
$GPGGA,160655.750,4308.4655,N,07726.3718,W,1,05,2.82,161.8,M,-34.4,M,,*54
$GPRMC,160656.000,A,4308.4657,N,07726.3727,W,8.63,295.04,140919,,,A*77
$GPGGA,160656.250,4308.4660,N,07726.3741,W,1,05,2.82,161.7,M,-34.4,M,,*57
$GPRMC,160656.500,A,4308.4662,N,07726.3755,W,10.89,282.63,140919,,,A*4B
$GPGGA,160656.750,4308.4664,N,07726.3770,W,1,05,2.82,161.6,M,-34.4,M,,*55
$GPRMC,160657.000,A,4308.4665,N,07726.3786,W,12.84,276.01,140919,,,A*46
$GPGGA,160657.250,4308.4667,N,07726.3804,W,1,05,2.82,161.6,M,-34.4,M,,*5E
$GPRMC,160657.500,A,4308.4669,N,07726.3821,W,14.57,272.68,140919,,,A*4E
$GPGGA,160657.750,4308.4669,N,07726.3839,W,1,05,2.82,161.5,M,-34.4,M,,*58
$GPRMC,160658.000,A,4308.4669,N,07726.3855,W,15.63,271.36,140919,,,A*49
$GPGGA,160658.250,4308.4670,N,07726.3872,W,1,05,2.83,161.6,M,-34.4,M,,*57
$GPRMC,160658.500,A,4308.4670,N,07726.3888,W,16.18,271.07,140919,,,A*49
$GPGGA,160658.750,4308.4670,N,07726.3904,W,1,05,2.83,161.6,M,-34.4,M,,*52
$GPRMC,160659.000,A,4308.4670,N,07726.3921,W,16.46,271.48,140919,,,A*4F
$GPGGA,160659.250,4308.4671,N,07726.3940,W,1,05,2.83,161.7,M,-34.4,M,,*56
$GPRMC,160659.500,A,4308.4672,N,07726.3957,W,16.66,271.90,140919,,,A*4E
$GPGGA,160659.750,4308.4672,N,07726.3974,W,1,05,2.83,161.6,M,-34.4,M,,*56
$GPRMC,160700.000,A,4308.4672,N,07726.3991,W,16.72,272.17,140919,,,A*45
$GPGGA,160700.250,4308.4673,N,07726.4009,W,1,05,2.83,161.6,M,-34.4,M,,*5B
$GPRMC,160700.500,A,4308.4674,N,07726.4025,W,16.80,273.06,140919,,,A*4B
$GPGGA,160700.750,4308.4675,N,07726.4042,W,1,05,2.83,161.6,M,-34.4,M,,*57
$GPRMC,160701.000,A,4308.4677,N,07726.4059,W,16.83,273.89,140919,,,A*43
$GPGGA,160701.250,4308.4678,N,07726.4076,W,1,05,2.83,161.6,M,-34.4,M,,*59
$GPRMC,160701.500,A,4308.4679,N,07726.4092,W,16.80,274.30,140919,,,A*49
$GPGGA,160701.750,4308.4680,N,07726.4110,W,1,05,2.83,161.6,M,-34.4,M,,*5A
$GPRMC,160702.000,A,4308.4682,N,07726.4127,W,16.74,274.81,140919,,,A*45
$GPGGA,160702.250,4308.4683,N,07726.4145,W,1,05,2.83,161.6,M,-34.4,M,,*5F
$GPRMC,160702.500,A,4308.4684,N,07726.4161,W,16.70,275.32,140919,,,A*49
$GPGGA,160702.750,4308.4686,N,07726.4177,W,1,05,2.83,161.6,M,-34.4,M,,*5E
$GPRMC,160703.000,A,4308.4688,N,07726.4193,W,16.70,276.26,140919,,,A*4A
$GPGGA,160703.250,4308.4691,N,07726.4210,W,1,05,2.83,161.7,M,-34.4,M,,*5F
$GPRMC,160703.500,A,4308.4694,N,07726.4226,W,16.71,277.71,140919,,,A*4D
$GPGGA,160703.750,4308.4695,N,07726.4241,W,1,05,2.83,161.8,M,-34.4,M,,*55
$GPRMC,160704.000,A,4308.4697,N,07726.4255,W,16.30,278.67,140919,,,A*45
$GPGGA,160704.250,4308.4698,N,07726.4269,W,1,05,2.83,161.9,M,-34.4,M,,*51
$GPRMC,160704.500,A,4308.4699,N,07726.4283,W,15.65,280.15,140919,,,A*44
$GPGGA,160704.750,4308.4701,N,07726.4296,W,1,05,2.83,161.9,M,-34.4,M,,*55
$GPRMC,160705.000,A,4308.4703,N,07726.4309,W,14.89,282.04,140919,,,A*40
$GPGGA,160705.250,4308.4705,N,07726.4322,W,1,05,2.83,162.0,M,-34.4,M,,*51
$GPRMC,160705.500,A,4308.4708,N,07726.4334,W,13.84,284.82,140919,,,A*42
$GPGGA,160705.750,4308.4710,N,07726.4344,W,1,05,2.83,162.1,M,-34.4,M,,*51
$GPRMC,160706.000,A,4308.4713,N,07726.4355,W,12.51,288.54,140919,,,A*47
$GPGGA,160706.250,4308.4715,N,07726.4367,W,1,05,2.83,162.3,M,-34.4,M,,*51
$GPRMC,160706.500,A,4308.4717,N,07726.4375,W,11.32,291.55,140919,,,A*4B
$GPGGA,160706.750,4308.4718,N,07726.4383,W,1,05,2.83,162.4,M,-34.4,M,,*54
$GPRMC,160707.000,A,4308.4719,N,07726.4390,W,9.98,294.29,140919,,,A*7D
$GPGGA,160707.250,4308.4721,N,07726.4398,W,1,05,2.83,162.5,M,-34.4,M,,*51
$GPRMC,160707.500,A,4308.4723,N,07726.4405,W,9.18,295.57,140919,,,A*7A
$GPGGA,160707.750,4308.4724,N,07726.4409,W,1,05,2.83,162.6,M,-34.4,M,,*5D
$GPRMC,160708.000,A,4308.4725,N,07726.4414,W,7.95,296.60,140919,,,A*7A
$GPGGA,160708.250,4308.4725,N,07726.4417,W,1,05,2.83,162.7,M,-34.4,M,,*58
$GPRMC,160708.500,A,4308.4725,N,07726.4421,W,7.00,295.15,140919,,,A*74
$GPGGA,160708.750,4308.4725,N,07726.4424,W,1,05,2.83,162.7,M,-34.4,M,,*5D
$GPRMC,160709.000,A,4308.4724,N,07726.4426,W,5.91,295.36,140919,,,A*7D
$GPGGA,160709.250,4308.4723,N,07726.4427,W,1,05,2.83,162.7,M,-34.4,M,,*5C
$GPRMC,160709.500,A,4308.4723,N,07726.4429,W,4.79,297.92,140919,,,A*7B
$GPGGA,160709.750,4308.4723,N,07726.4430,W,1,05,2.83,162.7,M,-34.4,M,,*5F
$GPRMC,160710.000,A,4308.4722,N,07726.4430,W,3.63,309.13,140919,,,A*7C
$GPGGA,160710.250,4308.4722,N,07726.4429,W,1,05,2.83,162.8,M,-34.4,M,,*54
$GPRMC,160710.500,A,4308.4721,N,07726.4429,W,2.76,315.12,140919,,,A*7B
$GPGGA,160710.750,4308.4720,N,07726.4427,W,1,05,2.83,162.9,M,-34.4,M,,*5C
$GPRMC,160711.000,A,4308.4718,N,07726.4425,W,1.94,315.12,140919,,,A*76
$GPGGA,160711.250,4308.4716,N,07726.4423,W,1,05,2.83,163.0,M,-34.4,M,,*51
$GPRMC,160711.500,A,4308.4715,N,07726.4422,W,1.46,315.12,140919,,,A*76
$GPGGA,160711.750,4308.4714,N,07726.4420,W,1,05,2.83,163.1,M,-34.4,M,,*54
$GPRMC,160712.000,A,4308.4712,N,07726.4418,W,0.98,315.12,140919,,,A*7C
$GPGGA,160712.250,4308.4711,N,07726.4417,W,1,05,2.83,163.2,M,-34.4,M,,*50
$GPRMC,160712.500,A,4308.4711,N,07726.4416,W,0.75,315.12,140919,,,A*77
$GPGGA,160712.750,4308.4710,N,07726.4415,W,1,05,2.83,163.4,M,-34.4,M,,*50
$GPRMC,160713.000,A,4308.4708,N,07726.4413,W,0.65,315.12,140919,,,A*7F
$GPGGA,160713.250,4308.4707,N,07726.4410,W,1,05,2.83,163.4,M,-34.4,M,,*57
$GPRMC,160713.500,A,4308.4706,N,07726.4409,W,0.47,315.12,140919,,,A*7F
$GPGGA,160713.750,4308.4705,N,07726.4408,W,1,05,3.01,163.5,M,-34.4,M,,*53
$GPRMC,160714.000,A,4308.4704,N,07726.4407,W,0.42,315.12,140919,,,A*74
$GPGGA,160714.250,4308.4703,N,07726.4406,W,1,05,3.01,163.7,M,-34.4,M,,*5B
$GPRMC,160714.500,A,4308.4702,N,07726.4405,W,0.34,315.12,140919,,,A*74
$GPGGA,160714.750,4308.4702,N,07726.4404,W,1,05,3.01,163.7,M,-34.4,M,,*5D
$GPRMC,160715.000,A,4308.4702,N,07726.4404,W,0.00,315.12,140919,,,A*76
$GPGGA,160715.250,4308.4702,N,07726.4404,W,1,05,3.01,163.7,M,-34.4,M,,*59
$GPRMC,160715.500,A,4308.4702,N,07726.4404,W,0.00,315.12,140919,,,A*73
$GPGGA,160715.750,4308.4702,N,07726.4404,W,1,05,3.01,163.7,M,-34.4,M,,*5C
$GPRMC,160716.000,A,4308.4702,N,07726.4404,W,0.00,315.12,140919,,,A*75
$GPGGA,160716.250,4308.4702,N,07726.4404,W,1,05,3.01,163.7,M,-34.4,M,,*5A
$GPRMC,160716.500,A,4308.4702,N,07726.4404,W,0.00,315.12,140919,,,A*70
$GPGGA,160716.750,4308.4702,N,07726.4404,W,1,05,3.01,163.7,M,-34.4,M,,*5F
$GPRMC,160717.000,A,4308.4702,N,07726.4404,W,0.00,315.12,140919,,,A*74
$GPGGA,160717.250,4308.4702,N,07726.4404,W,1,05,3.01,163.7,M,-34.4,M,,*5B
$GPRMC,160717.500,A,4308.4702,N,07726.4404,W,0.00,315.12,140919,,,A*71
$GPGGA,160717.750,4308.4702,N,07726.4404,W,1,05,3.01,163.7,M,-34.4,M,,*5E
$GPRMC,160718.000,A,4308.4702,N,07726.4404,W,0.00,315.12,140919,,,A*7B
$GPGGA,160718.250,4308.4702,N,07726.4404,W,1,05,3.01,163.7,M,-34.4,M,,*54
$GPRMC,160718.500,A,4308.4702,N,07726.4404,W,0.00,315.12,140919,,,A*7E
$GPGGA,160718.750,4308.4702,N,07726.4404,W,1,05,3.01,163.7,M,-34.4,M,,*51
$GPRMC,160719.000,A,4308.4702,N,07726.4404,W,0.00,315.12,140919,,,A*7A
$GPGGA,160719.250,4308.4702,N,07726.4404,W,1,05,3.01,163.7,M,-34.4,M,,*55
$GPRMC,160719.500,A,4308.4702,N,07726.4404,W,0.00,315.12,140919,,,A*7F
$GPGGA,160719.750,4308.4702,N,07726.4404,W,1,05,3.01,163.7,M,-34.4,M,,*50
$GPRMC,160720.000,A,4308.4702,N,07726.4404,W,0.00,315.12,140919,,,A*70
$GPGGA,160720.250,4308.4702,N,07726.4404,W,1,05,3.01,163.7,M,-34.4,M,,*5F
$GPRMC,160720.500,A,4308.4702,N,07726.4404,W,0.00,315.12,140919,,,A*75
$GPGGA,160720.750,4308.4702,N,07726.4404,W,1,05,3.01,163.7,M,-34.4,M,,*5A
$GPRMC,160721.000,A,4308.4702,N,07726.4404,W,0.00,315.12,140919,,,A*71
$GPGGA,160721.250,4308.4702,N,07726.4404,W,1,05,3.01,163.7,M,-34.4,M,,*5E
$GPRMC,160721.500,A,4308.4702,N,07726.4404,W,0.00,315.12,140919,,,A*74
$GPGGA,160721.750,4308.4702,N,07726.4404,W,1,05,3.01,163.7,M,-34.4,M,,*5B
$GPRMC,160722.000,A,4308.4702,N,07726.4404,W,0.00,315.12,140919,,,A*72
$GPGGA,160722.250,4308.4702,N,07726.4404,W,1,05,3.01,163.7,M,-34.4,M,,*5D
$GPRMC,160722.500,A,4308.4702,N,07726.4404,W,0.00,315.12,140919,,,A*77
$GPGGA,160722.750,4308.4702,N,07726.4404,W,1,05,3.01,163.7,M,-34.4,M,,*58
$GPRMC,160723.000,A,4308.4702,N,07726.4404,W,0.00,315.12,140919,,,A*73
$GPGGA,160723.250,4308.4702,N,07726.4404,W,1,05,3.01,163.7,M,-34.4,M,,*5C
$GPRMC,160723.500,A,4308.4702,N,07726.4404,W,0.00,315.12,140919,,,A*76
$GPGGA,160723.750,4308.4702,N,07726.4404,W,1,05,3.01,163.7,M,-34.4,M,,*59
$GPRMC,160724.000,A,4308.4702,N,07726.4404,W,0.00,315.12,140919,,,A*74
$GPGGA,160724.250,4308.4702,N,07726.4404,W,1,05,3.01,163.7,M,-34.4,M,,*5B
$GPRMC,160724.500,A,4308.4702,N,07726.4404,W,0.00,315.12,140919,,,A*71
$GPGGA,160724.750,4308.4702,N,07726.4404,W,1,05,3.01,163.7,M,-34.4,M,,*5E
$GPRMC,160725.000,A,4308.4702,N,07726.4404,W,0.00,315.12,140919,,,A*75
$GPGGA,160725.250,4308.4702,N,07726.4404,W,1,05,3.01,163.7,M,-34.4,M,,*5A
$GPRMC,160725.500,A,4308.4702,N,07726.4404,W,0.00,315.12,140919,,,A*70
$GPGGA,160725.750,4308.4702,N,07726.4404,W,1,05,3.01,163.7,M,-34.4,M,,*5F
$GPRMC,160726.000,A,4308.4702,N,07726.4404,W,0.00,315.12,140919,,,A*76
$GPGGA,160726.250,4308.4702,N,07726.4404,W,1,05,3.01,163.7,M,-34.4,M,,*59
$GPRMC,160726.500,A,4308.4702,N,07726.4404,W,0.00,315.12,140919,,,A*73
$GPGGA,160726.750,4308.4702,N,07726.4404,W,1,05,3.01,163.7,M,-34.4,M,,*5C
$GPRMC,160727.000,A,4308.4702,N,07726.4404,W,0.00,315.12,140919,,,A*77
$GPGGA,160727.250,4308.4702,N,07726.4404,W,1,05,2.83,163.7,M,-34.4,M,,*53
$GPRMC,160727.500,A,4308.4702,N,07726.4404,W,0.00,315.12,140919,,,A*72
$GPGGA,160727.750,4308.4702,N,07726.4404,W,1,05,3.01,163.8,M,-34.4,M,,*52
$GPRMC,160728.000,A,4308.4702,N,07726.4404,W,0.00,315.12,140919,,,A*78
$GPGGA,160728.250,4308.4702,N,07726.4404,W,1,05,3.01,163.8,M,-34.4,M,,*58
$GPRMC,160728.500,A,4308.4702,N,07726.4404,W,0.00,315.12,140919,,,A*7D
$GPGGA,160728.750,4308.4702,N,07726.4404,W,1,05,3.01,163.8,M,-34.4,M,,*5D
$GPRMC,160729.000,A,4308.4702,N,07726.4404,W,0.00,315.12,140919,,,A*79
$GPGGA,160729.250,4308.4702,N,07726.4404,W,1,05,3.01,163.8,M,-34.4,M,,*59
$GPRMC,160729.500,A,4308.4702,N,07726.4404,W,0.00,315.12,140919,,,A*7C
$GPGGA,160729.750,4308.4702,N,07726.4404,W,1,05,3.01,163.8,M,-34.4,M,,*5C
$GPRMC,160730.000,A,4308.4702,N,07726.4404,W,0.08,315.12,140919,,,A*79
$GPGGA,160730.250,4308.4702,N,07726.4404,W,1,05,2.83,163.8,M,-34.4,M,,*5A
$GPRMC,160730.500,A,4308.4702,N,07726.4404,W,0.00,315.12,140919,,,A*74
$GPGGA,160730.750,4308.4702,N,07726.4404,W,1,05,3.01,163.8,M,-34.4,M,,*54
$GPRMC,160731.000,A,4308.4702,N,07726.4404,W,0.00,315.12,140919,,,A*70
$GPGGA,160731.250,4308.4702,N,07726.4405,W,1,05,2.83,163.8,M,-34.4,M,,*5A
$GPRMC,160731.500,A,4308.4702,N,07726.4405,W,0.26,315.12,140919,,,A*70
$GPGGA,160731.750,4308.4702,N,07726.4405,W,1,05,2.83,163.8,M,-34.4,M,,*5F
$GPRMC,160732.000,A,4308.4702,N,07726.4405,W,0.00,315.12,140919,,,A*72
$GPGGA,160732.250,4308.4702,N,07726.4405,W,1,06,1.98,163.8,M,-34.4,M,,*53
$GPRMC,160732.500,A,4308.4702,N,07726.4405,W,0.00,315.12,140919,,,A*77
$GPGGA,160732.750,4308.4702,N,07726.4405,W,1,05,1.57,163.8,M,-34.4,M,,*56
$GPRMC,160733.000,A,4308.4702,N,07726.4405,W,0.00,315.12,140919,,,A*73
$GPGGA,160733.250,4308.4702,N,07726.4405,W,1,05,3.03,163.8,M,-34.4,M,,*51
$GPRMC,160733.500,A,4308.4702,N,07726.4405,W,0.00,315.12,140919,,,A*76
$GPGGA,160733.750,4308.4702,N,07726.4405,W,1,05,3.03,163.8,M,-34.4,M,,*54
$GPRMC,160734.000,A,4308.4702,N,07726.4405,W,0.00,315.12,140919,,,A*74
$GPGGA,160734.250,4308.4702,N,07726.4405,W,1,05,3.03,163.8,M,-34.4,M,,*56
$GPRMC,160734.500,A,4308.4702,N,07726.4405,W,0.00,315.12,140919,,,A*71
$GPGGA,160734.750,4308.4702,N,07726.4405,W,1,05,3.03,163.8,M,-34.4,M,,*53
$GPRMC,160735.000,A,4308.4702,N,07726.4405,W,0.00,315.12,140919,,,A*75
$GPGGA,160735.250,4308.4702,N,07726.4405,W,1,05,3.03,163.8,M,-34.4,M,,*57
$GPRMC,160735.500,A,4308.4702,N,07726.4405,W,0.00,315.12,140919,,,A*70
$GPGGA,160735.750,4308.4702,N,07726.4405,W,1,05,3.03,163.8,M,-34.4,M,,*52
$GPRMC,160736.000,A,4308.4702,N,07726.4405,W,0.00,315.12,140919,,,A*76
$GPGGA,160736.250,4308.4702,N,07726.4405,W,1,05,3.03,163.8,M,-34.4,M,,*54
$GPRMC,160736.500,A,4308.4702,N,07726.4405,W,0.00,315.12,140919,,,A*73
$GPGGA,160736.750,4308.4702,N,07726.4405,W,1,05,3.03,163.8,M,-34.4,M,,*51
$GPRMC,160737.000,A,4308.4702,N,07726.4405,W,0.00,315.12,140919,,,A*77
$GPGGA,160737.250,4308.4702,N,07726.4405,W,1,06,1.98,163.8,M,-34.4,M,,*56
$GPRMC,160737.500,A,4308.4702,N,07726.4405,W,0.00,315.12,140919,,,A*72
$GPGGA,160737.750,4308.4702,N,07726.4405,W,1,06,1.98,163.8,M,-34.4,M,,*53
$GPRMC,160738.000,A,4308.4702,N,07726.4405,W,0.00,315.12,140919,,,A*78
$GPGGA,160738.250,4308.4702,N,07726.4405,W,1,06,1.98,163.8,M,-34.4,M,,*59
$GPRMC,160738.500,A,4308.4702,N,07726.4405,W,0.00,315.12,140919,,,A*7D
$GPGGA,160738.750,4308.4702,N,07726.4405,W,1,06,1.98,163.8,M,-34.4,M,,*5C
$GPRMC,160739.000,A,4308.4702,N,07726.4405,W,0.00,315.12,140919,,,A*79
$GPGGA,160739.250,4308.4702,N,07726.4405,W,1,06,1.98,163.8,M,-34.4,M,,*58
$GPRMC,160739.500,A,4308.4702,N,07726.4405,W,0.00,315.12,140919,,,A*7C
$GPGGA,160739.750,4308.4702,N,07726.4405,W,1,06,1.98,163.8,M,-34.4,M,,*5D
$GPRMC,160740.000,A,4308.4702,N,07726.4405,W,0.00,315.12,140919,,,A*77
$GPGGA,160740.250,4308.4702,N,07726.4405,W,1,06,1.39,163.8,M,-34.4,M,,*5D
$GPRMC,160740.500,A,4308.4702,N,07726.4405,W,0.12,315.12,140919,,,A*71
$GPGGA,160740.750,4308.4702,N,07726.4405,W,1,05,1.57,163.8,M,-34.4,M,,*53
$GPRMC,160741.000,A,4308.4702,N,07726.4405,W,0.22,315.12,140919,,,A*76
$GPGGA,160741.250,4308.4701,N,07726.4405,W,1,05,1.57,163.8,M,-34.4,M,,*54
$GPRMC,160741.500,A,4308.4701,N,07726.4405,W,0.24,315.12,140919,,,A*76
$GPGGA,160741.750,4308.4701,N,07726.4405,W,1,05,1.57,163.8,M,-34.4,M,,*51
$GPRMC,160742.000,A,4308.4701,N,07726.4405,W,0.22,315.12,140919,,,A*76
$GPGGA,160742.250,4308.4701,N,07726.4405,W,1,05,1.57,163.7,M,-34.4,M,,*58
$GPRMC,160742.500,A,4308.4701,N,07726.4405,W,0.21,315.12,140919,,,A*70
$GPGGA,160742.750,4308.4701,N,07726.4405,W,1,05,1.57,163.7,M,-34.4,M,,*5D
$GPRMC,160743.000,A,4308.4700,N,07726.4405,W,0.20,315.12,140919,,,A*74
$GPGGA,160743.250,4308.4700,N,07726.4405,W,1,05,1.57,163.7,M,-34.4,M,,*58
$GPRMC,160743.500,A,4308.4700,N,07726.4405,W,0.17,315.12,140919,,,A*75
$GPGGA,160743.750,4308.4700,N,07726.4405,W,1,05,1.57,163.7,M,-34.4,M,,*5D
$GPRMC,160744.000,A,4308.4700,N,07726.4405,W,0.14,315.12,140919,,,A*74
$GPGGA,160744.250,4308.4700,N,07726.4405,W,1,06,1.39,163.7,M,-34.4,M,,*54
$GPRMC,160744.500,A,4308.4700,N,07726.4405,W,0.13,315.12,140919,,,A*76
$GPGGA,160744.750,4308.4700,N,07726.4405,W,1,05,1.57,163.7,M,-34.4,M,,*5A
$GPRMC,160745.000,A,4308.4700,N,07726.4405,W,0.14,315.12,140919,,,A*75
$GPGGA,160745.250,4308.4700,N,07726.4405,W,1,06,1.39,163.7,M,-34.4,M,,*55
$GPRMC,160745.500,A,4308.4699,N,07726.4405,W,0.17,315.12,140919,,,A*72
$GPGGA,160745.750,4308.4699,N,07726.4405,W,1,06,1.39,163.7,M,-34.4,M,,*51
$GPRMC,160746.000,A,4308.4699,N,07726.4405,W,0.19,315.12,140919,,,A*7A
$GPGGA,160746.250,4308.4699,N,07726.4405,W,1,06,1.39,163.7,M,-34.4,M,,*57
$GPRMC,160746.500,A,4308.4699,N,07726.4405,W,0.17,315.12,140919,,,A*71
$GPGGA,160746.750,4308.4699,N,07726.4405,W,1,06,1.39,163.7,M,-34.4,M,,*52
$GPRMC,160747.000,A,4308.4699,N,07726.4405,W,0.14,315.12,140919,,,A*76
$GPGGA,160747.250,4308.4699,N,07726.4405,W,1,06,1.39,163.7,M,-34.4,M,,*56
$GPRMC,160747.500,A,4308.4698,N,07726.4405,W,0.13,315.12,140919,,,A*75
$GPGGA,160747.750,4308.4698,N,07726.4405,W,1,06,1.39,163.7,M,-34.4,M,,*52
$GPRMC,160748.000,A,4308.4698,N,07726.4405,W,0.16,315.12,140919,,,A*7A
$GPGGA,160748.250,4308.4698,N,07726.4405,W,1,06,1.39,163.7,M,-34.4,M,,*58
$GPRMC,160748.500,A,4308.4698,N,07726.4405,W,0.19,315.12,140919,,,A*70
$GPGGA,160748.750,4308.4698,N,07726.4405,W,1,06,1.39,163.7,M,-34.4,M,,*5D
$GPRMC,160749.000,A,4308.4698,N,07726.4405,W,0.16,315.12,140919,,,A*7B
$GPGGA,160749.250,4308.4698,N,07726.4405,W,1,06,1.39,163.7,M,-34.4,M,,*59
$GPRMC,160749.500,A,4308.4698,N,07726.4405,W,0.13,315.12,140919,,,A*7B
$GPGGA,160749.750,4308.4698,N,07726.4405,W,1,06,1.39,163.7,M,-34.4,M,,*5C
$GPRMC,160750.000,A,4308.4698,N,07726.4405,W,0.11,315.12,140919,,,A*74
$GPGGA,160750.250,4308.4697,N,07726.4405,W,1,06,1.39,163.7,M,-34.4,M,,*5E
$GPRMC,160750.250,A,4308.4697,N,07726.4405,W,0.10,315.12,14091
$GPRMC,160750.750,A,4308.4697,N,07726.4405,W,0.05,315.12,1409191.000,A,4308.4697,N,07726.4405,W,0.01,315.12,140919,,,A*7B
$GPRMC,160751.500,A,4308.4697,N,07726.4405,W,0.02,315.12,140919,,,A*7D
$GPGGA,160751.750,4308.4697,N,07726.4405,W,1,06,1.39,163.7,M,-34.4,M,,*5A
$GPRMC,160752.000,A,4308.4697,N,07726.4404,W,0.03,315.12,140919,,,A*7B
$GPGGA,160752.250,4308.4697,N,07726.4404,W,1,06,1.39,163.7,M,-34.4,M,,*5D
$GPRMC,160752.500,A,4308.4697,N,07726.4404,W,0.05,315.12,140919,,,A*78
$GPGGA,160752.750,4308.4697,N,07726.4405,W,1,06,1.39,163.7,M,-34.4,M,,*59
$GPRMC,160753.000,A,4308.4697,N,07726.4405,W,0.05,315.12,140919,,,A*7D
$GPGGA,160753.250,4308.4698,N,07726.4405,W,1,06,1.39,163.7,M,-34.4,M,,*52
$GPRMC,160753.500,A,4308.4698,N,07726.4405,W,0.05,315.12,140919,,,A*77
$GPGGA,160753.750,4308.4698,N,07726.4405,W,1,06,1.39,163.7,M,-34.4,M,,*57
$GPRMC,160754.000,A,4308.4698,N,07726.4405,W,0.05,315.12,140919,,,A*75
$GPGGA,160754.250,4308.4698,N,07726.4405,W,1,06,1.39,163.7,M,-34.4,M,,*55
$GPRMC,160754.500,A,4308.4698,N,07726.4405,W,0.05,315.12,140919,,,A*70
$GPGGA,160754.750,4308.4698,N,07726.4405,W,1,06,1.39,163.7,M,-34.4,M,,*50
$GPRMC,160755.000,A,4308.4698,N,07726.4405,W,0.04,315.12,140919,,,A*75
$GPGGA,160755.250,4308.4698,N,07726.4405,W,1,06,1.39,163.7,M,-34.4,M,,*54
$GPRMC,160755.500,A,4308.4698,N,07726.4405,W,0.04,315.12,140919,,,A*70
$GPGGA,160755.750,4308.4698,N,07726.4405,W,1,06,1.39,163.7,M,-34.4,M,,*51
$GPRMC,160756.000,A,4308.4697,N,07726.4405,W,0.06,315.12,140919,,,A*7B
$GPGGA,160756.250,4308.4697,N,07726.4405,W,1,06,1.39,163.7,M,-34.4,M,,*58
$GPRMC,160756.500,A,4308.4697,N,07726.4405,W,0.08,315.12,140919,,,A*70
$GPGGA,160756.750,4308.4697,N,07726.4405,W,1,06,1.39,163.7,M,-34.4,M,,*5D
$GPRMC,160757.000,A,4308.4697,N,07726.4405,W,0.07,315.12,140919,,,A*7B
$GPGGA,160757.250,4308.4697,N,07726.4405,W,1,06,1.39,163.7,M,-34.4,M,,*59
$GPRMC,160757.500,A,4308.4697,N,07726.4405,W,0.09,315.12,140919,,,A*70
$GPGGA,160757.750,4308.4697,N,07726.4405,W,1,06,1.39,163.7,M,-34.4,M,,*5C
$GPRMC,160758.000,A,4308.4697,N,07726.4405,W,0.14,315.12,140919,,,A*76
$GPGGA,160758.250,4308.4697,N,07726.4405,W,1,06,1.39,163.7,M,-34.4,M,,*56
$GPRMC,160758.500,A,4308.4697,N,07726.4405,W,0.20,315.12,140919,,,A*74
$GPGGA,160758.750,4308.4697,N,07726.4405,W,1,06,1.39,163.7,M,-34.4,M,,*53
$GPRMC,160759.000,A,4308.4696,N,07726.4405,W,0.21,315.12,140919,,,A*70
$GPGGA,160759.250,4308.4696,N,07726.4405,W,1,06,1.39,163.7,M,-34.4,M,,*56
$GPRMC,160759.500,A,4308.4696,N,07726.4405,W,0.24,315.12,140919,,,A*70
$GPGGA,160759.750,4308.4696,N,07726.4405,W,1,06,1.39,163.7,M,-34.4,M,,*53
$GPRMC,160800.000,A,4308.4696,N,07726.4405,W,0.25,315.12,140919,,,A*77
$GPGGA,160800.250,4308.4696,N,07726.4405,W,1,06,1.39,163.7,M,-34.4,M,,*55
$GPRMC,160800.500,A,4308.4695,N,07726.4405,W,0.25,315.12,140919,,,A*71
$GPGGA,160800.750,4308.4695,N,07726.4405,W,1,06,1.39,163.7,M,-34.4,M,,*53
$GPRMC,160801.000,A,4308.4695,N,07726.4405,W,0.20,315.12,140919,,,A*70
$GPGGA,160801.250,4308.4695,N,07726.4405,W,1,06,1.39,163.7,M,-34.4,M,,*57
$GPRMC,160801.500,A,4308.4695,N,07726.4405,W,0.16,315.12,140919,,,A*70
$GPGGA,160801.750,4308.4695,N,07726.4405,W,1,06,1.39,163.7,M,-34.4,M,,*52
$GPRMC,160802.000,A,4308.4694,N,07726.4405,W,0.18,315.12,140919,,,A*79
$GPGGA,160802.250,4308.4694,N,07726.4405,W,1,08,0.94,163.7,M,-34.4,M,,*5D
$GPRMC,160802.500,A,4308.4694,N,07726.4406,W,0.29,315.12,140919,,,A*7D
$GPGGA,160802.750,4308.4694,N,07726.4407,W,1,08,0.94,163.8,M,-34.4,M,,*55
$GPRMC,160803.000,A,4308.4695,N,07726.4409,W,0.86,315.12,140919,,,A*72
$GPGGA,160803.250,4308.4696,N,07726.4414,W,1,08,0.94,163.9,M,-34.4,M,,*50
$GPRMC,160803.500,A,4308.4696,N,07726.4416,W,1.85,315.12,140919,,,A*78
$GPGGA,160803.750,4308.4696,N,07726.4417,W,1,08,0.94,163.9,M,-34.4,M,,*56
$GPRMC,160804.000,A,4308.4696,N,07726.4422,W,5.02,274.71,140919,,,A*75
$GPGGA,160804.250,4308.4691,N,07726.4425,W,1,08,0.95,164.2,M,-34.4,M,,*5F
$GPRMC,160804.500,A,4308.4689,N,07726.4431,W,7.23,277.99,140919,,,A*78
$GPGGA,160804.750,4308.4688,N,07726.4437,W,1,08,0.95,164.3,M,-34.4,M,,*50
$GPRMC,160805.000,A,4308.4689,N,07726.4445,W,8.83,276.28,140919,,,A*71
$GPGGA,160805.250,4308.4689,N,07726.4453,W,1,08,0.95,164.5,M,-34.4,M,,*51
$GPRMC,160805.500,A,4308.4689,N,07726.4461,W,9.74,274.64,140919,,,A*71
$GPGGA,160805.750,4308.4689,N,07726.4471,W,1,08,0.95,164.6,M,-34.4,M,,*57
$GPRMC,160806.000,A,4308.4689,N,07726.4480,W,10.47,271.05,140919,,,A*42
$GPGGA,160806.250,4308.4689,N,07726.4491,W,1,08,0.95,164.6,M,-34.4,M,,*5F
$GPRMC,160806.500,A,4308.4689,N,07726.4502,W,11.25,269.57,140919,,,A*47
$GPGGA,160806.750,4308.4689,N,07726.4514,W,1,08,0.94,164.7,M,-34.4,M,,*56
$GPRMC,160807.000,A,4308.4690,N,07726.4527,W,12.51,271.50,140919,,,A*42
$GPGGA,160807.250,4308.4690,N,07726.4542,W,1,08,0.95,164.8,M,-34.4,M,,*57
$GPRMC,160807.500,A,4308.4690,N,07726.4557,W,14.10,273.36,140919,,,A*41
$GPGGA,160807.750,4308.4691,N,07726.4573,W,1,08,0.95,164.8,M,-34.4,M,,*51
$GPRMC,160808.000,A,4308.4692,N,07726.4588,W,15.23,275.71,140919,,,A*4F
$GPGGA,160808.250,4308.4693,N,07726.4603,W,1,08,0.95,164.9,M,-34.4,M,,*5C
$GPRMC,160808.500,A,4308.4694,N,07726.4618,W,15.95,275.56,140919,,,A*4E
$GPGGA,160808.750,4308.4695,N,07726.4635,W,1,08,0.94,164.9,M,-34.4,M,,*5B
$GPRMC,160809.000,A,4308.4696,N,07726.4651,W,16.94,274.52,140919,,,A*42
$GPGGA,160809.250,4308.4697,N,07726.4668,W,1,08,0.95,165.0,M,-34.4,M,,*5C
$GPRMC,160809.500,A,4308.4698,N,07726.4686,W,18.12,274.41,140919,,,A*41
$GPGGA,160809.750,4308.4699,N,07726.4705,W,1,08,0.95,165.0,M,-34.4,M,,*5D
$GPRMC,160810.000,A,4308.4701,N,07726.4725,W,19.59,274.62,140919,,,A*4A
$GPGGA,160810.250,4308.4703,N,07726.4746,W,1,08,0.95,165.2,M,-34.4,M,,*57
$GPRMC,160810.500,A,4308.4704,N,07726.4765,W,20.44,274.20,140919,,,A*4E
$GPGGA,160810.750,4308.4706,N,07726.4786,W,1,08,0.95,165.2,M,-34.4,M,,*5B
$GPRMC,160811.000,A,4308.4707,N,07726.4808,W,21.63,273.96,140919,,,A*43
$GPGGA,160811.250,4308.4709,N,07726.4829,W,1,08,0.95,165.3,M,-34.4,M,,*5B
$GPRMC,160811.500,A,4308.4710,N,07726.4850,W,21.99,274.16,140919,,,A*47
$GPGGA,160811.750,4308.4712,N,07726.4872,W,1,08,0.94,165.4,M,-34.4,M,,*5C
$GPRMC,160812.000,A,4308.4713,N,07726.4894,W,22.68,273.74,140919,,,A*44
$GPGGA,160812.250,4308.4715,N,07726.4916,W,1,08,0.95,165.4,M,-34.4,M,,*5F
$GPRMC,160812.500,A,4308.4716,N,07726.4939,W,23.06,273.72,140919,,,A*4D
$GPGGA,160812.750,4308.4718,N,07726.4962,W,1,08,0.94,165.5,M,-34.4,M,,*54
$GPRMC,160813.000,A,4308.4720,N,07726.4985,W,23.66,273.54,140919,,,A*49
$GPGGA,160813.250,4308.4722,N,07726.5009,W,1,08,0.95,165.5,M,-34.4,M,,*5D
$GPRMC,160813.500,A,4308.4724,N,07726.5034,W,24.54,274.09,140919,,,A*43
$GPGGA,160813.750,4308.4727,N,07726.5061,W,1,08,0.94,165.7,M,-34.4,M,,*50
$GPRMC,160814.000,A,4308.4729,N,07726.5086,W,25.67,274.64,140919,,,A*4F
$GPGGA,160814.250,4308.4731,N,07726.5111,W,1,08,0.95,165.7,M,-34.4,M,,*52
$GPRMC,160814.500,A,4308.4733,N,07726.5137,W,26.32,274.47,140919,,,A*48
$GPGGA,160814.750,4308.4734,N,07726.5162,W,1,08,0.94,165.7,M,-34.4,M,,*57
$GPRMC,160815.000,A,4308.4735,N,07726.5189,W,26.81,273.83,140919,,,A*48
$GPGGA,160815.250,4308.4736,N,07726.5216,W,1,08,0.94,165.8,M,-34.4,M,,*5E
$GPRMC,160815.500,A,4308.4737,N,07726.5243,W,27.46,273.19,140919,,,A*43
$GPGGA,160815.750,4308.4739,N,07726.5271,W,1,08,0.94,165.9,M,-34.4,M,,*54
$GPRMC,160816.000,A,4308.4740,N,07726.5299,W,27.61,272.80,140919,,,A*46
$GPGGA,160816.250,4308.4742,N,07726.5327,W,1,08,0.94,166.0,M,-34.4,M,,*56
$GPRMC,160816.500,A,4308.4744,N,07726.5356,W,29.04,272.80,140919,,,A*48
$GPGGA,160816.750,4308.4745,N,07726.5385,W,1,08,0.94,166.1,M,-34.4,M,,*5D
$GPRMC,160817.000,A,4308.4747,N,07726.5414,W,29.67,272.41,140919,,,A*46
$GPGGA,160817.250,4308.4748,N,07726.5444,W,1,08,0.94,166.1,M,-34.4,M,,*5E
$GPRMC,160817.500,A,4308.4750,N,07726.5474,W,30.23,272.23,140919,,,A*4F
$GPGGA,160817.750,4308.4751,N,07726.5504,W,1,08,0.94,166.2,M,-34.4,M,,*55
$GPRMC,160818.000,A,4308.4752,N,07726.5535,W,30.69,272.03,140919,,,A*4F
$GPGGA,160818.250,4308.4754,N,07726.5565,W,1,08,0.95,166.2,M,-34.4,M,,*5C
$GPRMC,160818.500,A,4308.4755,N,07726.5596,W,31.25,272.08,140919,,,A*46
$GPGGA,160818.750,4308.4756,N,07726.5628,W,1,08,0.94,166.2,M,-34.4,M,,*50
$GPRMC,160819.000,A,4308.4758,N,07726.5660,W,31.41,271.95,140919,,,A*40
$GPGGA,160819.250,4308.4759,N,07726.5691,W,1,08,0.94,166.2,M,-34.4,M,,*59
$GPRMC,160819.500,A,4308.4761,N,07726.5724,W,32.37,271.87,140919,,,A*4F
$GPGGA,160819.750,4308.4762,N,07726.5757,W,1,08,0.94,166.2,M,-34.4,M,,*5F
$GPRMC,160820.000,A,4308.4763,N,07726.5790,W,32.49,271.46,140919,,,A*49
$GPGGA,160820.250,4308.4765,N,07726.5823,W,1,08,0.94,166.2,M,-34.4,M,,*5B
$GPRMC,160820.500,A,4308.4766,N,07726.5857,W,32.84,271.57,140919,,,A*4C
$GPGGA,160820.750,4308.4767,N,07726.5891,W,1,08,0.94,166.2,M,-34.4,M,,*55
$GPRMC,160821.000,A,4308.4768,N,07726.5925,W,33.04,271.24,140919,,,A*4F
$GPGGA,160821.250,4308.4770,N,07726.5959,W,1,08,0.94,166.1,M,-34.4,M,,*51
$GPRMC,160821.500,A,4308.4771,N,07726.5993,W,34.28,271.11,140919,,,A*40
$GPGGA,160821.750,4308.4772,N,07726.6027,W,1,08,0.94,166.1,M,-34.4,M,,*55
$GPRMC,160822.000,A,4308.4773,N,07726.6062,W,34.50,270.74,140919,,,A*4D
$GPGGA,160822.250,4308.4773,N,07726.6097,W,1,08,0.94,166.0,M,-34.4,M,,*58
$GPRMC,160822.500,A,4308.4774,N,07726.6130,W,34.72,270.37,140919,,,A*4E
$GPGGA,160822.750,4308.4774,N,07726.6165,W,1,07,0.95,166.0,M,-34.4,M,,*58
$GPRMC,160823.000,A,4308.4775,N,07726.6199,W,34.80,269.82,140919,,,A*43
$GPGGA,160823.250,4308.4775,N,07726.6234,W,1,08,0.94,165.9,M,-34.4,M,,*5E
$GPRMC,160823.500,A,4308.4778,N,07726.6270,W,34.90,269.76,140919,,,A*45
$GPGGA,160823.750,4308.4779,N,07726.6305,W,1,07,0.95,165.8,M,-34.4,M,,*5B
$GPRMC,160824.000,A,4308.4780,N,07726.6340,W,35.05,269.28,140919,,,A*44
$GPGGA,160824.250,4308.4781,N,07726.6376,W,1,07,0.95,165.8,M,-34.4,M,,*5A
$GPRMC,160824.500,A,4308.4782,N,07726.6411,W,35.25,269.01,140919,,,A*49
$GPGGA,160824.750,4308.4782,N,07726.6447,W,1,07,0.95,165.7,M,-34.4,M,,*56
$GPRMC,160825.000,A,4308.4783,N,07726.6483,W,35.48,268.43,140919,,,A*4B
$GPGGA,160825.250,4308.4784,N,07726.6521,W,1,08,0.94,165.7,M,-34.4,M,,*5B
$GPRMC,160825.500,A,4308.4785,N,07726.6558,W,35.75,268.06,140919,,,A*40
$GPGGA,160825.750,4308.4786,N,07726.6594,W,1,08,0.94,165.7,M,-34.4,M,,*52
$GPRMC,160826.000,A,4308.4787,N,07726.6631,W,36.03,267.40,140919,,,A*47
$GPGGA,160826.250,4308.4788,N,07726.6669,W,1,08,0.95,165.7,M,-34.4,M,,*5A
$GPRMC,160826.500,A,4308.4787,N,07726.6706,W,36.32,266.92,140919,,,A*4B
$GPGGA,160826.750,4308.4788,N,07726.6743,W,1,08,0.95,165.8,M,-34.4,M,,*59
$GPRMC,160827.000,A,4308.4788,N,07726.6781,W,36.62,266.47,140919,,,A*42
$GPGGA,160827.250,4308.4787,N,07726.6818,W,1,08,0.95,165.9,M,-34.4,M,,*52
$GPRMC,160827.500,A,4308.4786,N,07726.6855,W,38.09,266.12,140919,,,A*4C
$GPGGA,160827.750,4308.4784,N,07726.6892,W,1,08,0.95,166.0,M,-34.4,M,,*5C
$GPRMC,160828.000,A,4308.4782,N,07726.6928,W,38.05,265.72,140919,,,A*40
$GPGGA,160828.250,4308.4781,N,07726.6965,W,1,08,0.95,166.2,M,-34.4,M,,*58
$GPRMC,160828.500,A,4308.4779,N,07726.7002,W,38.00,265.75,140919,,,A*43
$GPGGA,160828.750,4308.4777,N,07726.7038,W,1,08,0.94,166.4,M,-34.4,M,,*53
$GPRMC,160829.000,A,4308.4775,N,07726.7075,W,37.81,265.78,140919,,,A*40
$GPGGA,160829.250,4308.4773,N,07726.7111,W,1,08,0.95,166.5,M,-34.4,M,,*59
$GPRMC,160829.500,A,4308.4771,N,07726.7147,W,37.59,265.46,140919,,,A*49
$GPGGA,160829.750,4308.4769,N,07726.7183,W,1,08,0.94,166.7,M,-34.4,M,,*5F
$GPRMC,160830.000,A,4308.4767,N,07726.7219,W,37.51,265.29,140919,,,A*4A
$GPGGA,160830.250,4308.4765,N,07726.7254,W,1,08,0.94,166.9,M,-34.4,M,,*59
$GPRMC,160830.500,A,4308.4763,N,07726.7290,W,37.41,265.12,140919,,,A*43
$GPGGA,160830.750,4308.4761,N,07726.7325,W,1,08,0.94,167.0,M,-34.4,M,,*57
$GPRMC,160831.000,A,4308.4759,N,07726.7360,W,37.32,264.85,140919,,,A*4B
$GPGGA,160831.250,4308.4757,N,07726.7395,W,1,08,0.94,167.2,M,-34.4,M,,*5F
$GPRMC,160831.500,A,4308.4755,N,07726.7430,W,37.23,264.99,140919,,,A*4D
$GPGGA,160831.750,4308.4753,N,07726.7466,W,1,08,0.94,167.4,M,-34.4,M,,*53
$GPRMC,160832.000,A,4308.4752,N,07726.7501,W,37.24,265.21,140919,,,A*4A
$GPGGA,160832.250,4308.4750,N,07726.7536,W,1,08,0.94,167.6,M,-34.4,M,,*50
$GPRMC,160832.500,A,4308.4748,N,07726.7571,W,37.33,265.30,140919,,,A*45
$GPGGA,160832.750,4308.4746,N,07726.7607,W,1,08,0.94,167.7,M,-34.4,M,,*52
$GPRMC,160833.000,A,4308.4744,N,07726.7642,W,37.60,265.59,140919,,,A*47
$GPGGA,160833.250,4308.4742,N,07726.7677,W,1,08,0.94,167.9,M,-34.4,M,,*5B
$GPRMC,160833.500,A,4308.4740,N,07726.7712,W,37.52,265.71,140919,,,A*49
$GPGGA,160833.750,4308.4738,N,07726.7747,W,1,08,0.94,168.0,M,-34.4,M,,*57
$GPRMC,160834.000,A,4308.4736,N,07726.7782,W,37.12,266.18,140919,,,A*4B
$GPGGA,160834.250,4308.4734,N,07726.7817,W,1,08,0.95,168.1,M,-34.4,M,,*53
$GPRMC,160834.500,A,4308.4732,N,07726.7852,W,37.07,266.21,140919,,,A*46
$GPGGA,160834.750,4308.4730,N,07726.7888,W,1,08,0.94,168.2,M,-34.4,M,,*56
$GPRMC,160835.000,A,4308.4728,N,07726.7923,W,36.98,266.24,140919,,,A*4C
$GPGGA,160835.250,4308.4726,N,07726.7959,W,1,08,0.94,168.2,M,-34.4,M,,*58
$GPRMC,160835.500,A,4308.4724,N,07726.7995,W,37.01,265.87,140919,,,A*43
$GPGGA,160835.750,4308.4723,N,07726.8031,W,1,08,0.94,168.2,M,-34.4,M,,*50
$GPRMC,160836.000,A,4308.4721,N,07726.8067,W,37.06,266.80,140919,,,A*48
$GPGGA,160836.250,4308.4719,N,07726.8104,W,1,08,0.94,168.1,M,-34.4,M,,*5B
$GPRMC,160836.500,A,4308.4717,N,07726.8141,W,37.61,266.63,140919,,,A*41
$GPGGA,160836.750,4308.4714,N,07726.8178,W,1,08,0.94,168.1,M,-34.4,M,,*58
$GPRMC,160837.000,A,4308.4712,N,07726.8214,W,37.42,266.43,140919,,,A*40
$GPGGA,160837.250,4308.4709,N,07726.8250,W,1,08,0.94,168.0,M,-34.4,M,,*58
$GPRMC,160837.500,A,4308.4707,N,07726.8286,W,37.21,265.88,140919,,,A*4B
$GPGGA,160837.750,4308.4706,N,07726.8322,W,1,08,0.94,167.9,M,-34.4,M,,*50
$GPRMC,160838.000,A,4308.4704,N,07726.8359,W,37.26,265.55,140919,,,A*46
$GPGGA,160836.250,4308.4703,N,07726.8396,W,1,08,0.94,167.8,M,-34.4,M,,*5F
$GPRMC,160836.500,A,4308.4702,N,07726.8433,W,37.51,265.42,140919,,,A*46
$GPGGA,160836.750,4308.4701,N,07726.8471,W,1,07,1.20,167.6,M,-34.4,M,,*59
$GPRMC,160837.000,A,4308.4700,N,07726.8508,W,37.96,265.66,140919,,,A*44
$GPGGA,160837.250,4308.4698,N,07726.8546,W,1,08,0.94,167.5,M,-34.4,M,,*5B
$GPRMC,160837.500,A,4308.4697,N,07726.8583,W,38.24,265.42,140919,,,A*4D
$GPGGA,160837.750,4308.4695,N,07726.8622,W,1,08,0.94,167.4,M,-34.4,M,,*53
$GPRMC,160838.000,A,4308.4694,N,07726.8660,W,38.60,265.68,140919,,,A*42
$GPGGA,160838.250,4308.4692,N,07726.8698,W,1,08,0.94,167.3,M,-34.4,M,,*58
$GPRMC,160838.500,A,4308.4691,N,07726.8737,W,38.83,265.59,140919,,,A*4E
$GPGGA,160838.750,4308.4689,N,07726.8774,W,1,08,0.94,167.1,M,-34.4,M,,*56
$GPRMC,160839.000,A,4308.4687,N,07726.8812,W,38.93,265.65,140919,,,A*4B
$GPGGA,160839.250,4308.4685,N,07726.8850,W,1,08,0.94,167.1,M,-34.4,M,,*57
$GPRMC,160839.500,A,4308.4682,N,07726.8887,W,39.12,265.48,140919,,,A*40
$GPGGA,160839.750,4308.4680,N,07726.8925,W,1,08,0.94,167.0,M,-34.4,M,,*55
$GPRMC,160840.000,A,4308.4678,N,07726.8962,W,39.17,265.26,140919,,,A*49
$GPGGA,160840.250,4308.4675,N,07726.8999,W,1,08,0.94,166.8,M,-34.4,M,,*5A
$GPRMC,160840.500,A,4308.4672,N,07726.9037,W,39.20,264.85,140919,,,A*42
$GPGGA,160840.750,4308.4670,N,07726.9075,W,1,08,0.94,166.6,M,-34.4,M,,*5E
$GPRMC,160841.000,A,4308.4669,N,07726.9114,W,39.47,265.08,140919,,,A*49
$GPGGA,160841.250,4308.4667,N,07726.9152,W,1,08,0.94,166.4,M,-34.4,M,,*5A
$GPRMC,160841.500,A,4308.4664,N,07726.9191,W,39.54,265.18,140919,,,A*4F
$GPGGA,160841.750,4308.4663,N,07726.9229,W,1,08,0.94,166.2,M,-34.4,M,,*52
$GPRMC,160842.000,A,4308.4661,N,07726.9268,W,39.23,265.30,140919,,,A*43
$GPGGA,160842.250,4308.4659,N,07726.9306,W,1,08,0.94,166.0,M,-34.4,M,,*53
$GPRMC,160842.500,A,4308.4657,N,07726.9344,W,39.07,265.27,140919,,,A*4C
$GPGGA,160842.750,4308.4655,N,07726.9381,W,1,08,0.94,165.8,M,-34.4,M,,*5E
$GPRMC,160843.000,A,4308.4653,N,07726.9419,W,39.13,265.50,140919,,,A*46
$GPGGA,160843.250,4308.4651,N,07726.9457,W,1,07,1.20,165.6,M,-34.4,M,,*5D
$GPRMC,160843.500,A,4308.4650,N,07726.9495,W,39.16,265.40,140919,,,A*40
$GPGGA,160843.750,4308.4648,N,07726.9533,W,1,07,1.20,165.4,M,-34.4,M,,*51
$GPRMC,160844.000,A,4308.4646,N,07726.9571,W,39.16,266.00,140919,,,A*49
$GPGGA,160844.250,4308.4644,N,07726.9609,W,1,08,0.94,165.1,M,-34.4,M,,*51
$GPRMC,160844.500,A,4308.4642,N,07726.9647,W,39.20,266.12,140919,,,A*48
$GPGGA,160844.750,4308.4641,N,07726.9684,W,1,07,1.20,164.9,M,-34.4,M,,*5C
$GPRMC,160845.000,A,4308.4639,N,07726.9722,W,39.27,266.28,140919,,,A*4C
$GPGGA,160845.250,4308.4638,N,07726.9760,W,1,08,0.94,164.6,M,-34.4,M,,*53
$GPRMC,160845.500,A,4308.4636,N,07726.9797,W,39.36,265.86,140919,,,A*4F
$GPGGA,160845.750,4308.4634,N,07726.9835,W,1,08,0.94,164.3,M,-34.4,M,,*50
$GPRMC,160846.000,A,4308.4632,N,07726.9873,W,39.43,265.28,140919,,,A*4E
$GPGGA,160846.250,4308.4630,N,07726.9911,W,1,08,0.94,164.1,M,-34.4,M,,*57
$GPRMC,160846.500,A,4308.4628,N,07726.9949,W,39.72,265.10,140919,,,A*41
$GPGGA,160846.750,4308.4626,N,07726.9987,W,1,08,0.94,163.8,M,-34.4,M,,*54
$GPRMC,160847.000,A,4308.4624,N,07727.0026,W,40.19,265.05,140919,,,A*46
$GPGGA,160847.250,4308.4621,N,07727.0064,W,1,08,0.94,163.6,M,-34.4,M,,*55
$GPRMC,160847.500,A,4308.4619,N,07727.0102,W,40.34,265.14,140919,,,A*45
$GPGGA,160847.750,4308.4617,N,07727.0141,W,1,08,0.94,163.3,M,-34.4,M,,*56
$GPRMC,160848.000,A,4308.4615,N,07727.0180,W,40.66,265.52,140919,,,A*4C
$GPGGA,160848.250,4308.4612,N,07727.0219,W,1,08,0.94,163.0,M,-34.4,M,,*54
$GPRMC,160848.500,A,4308.4610,N,07727.0257,W,40.76,265.76,140919,,,A*42
$GPGGA,160848.750,4308.4608,N,07727.0296,W,1,08,0.94,162.8,M,-34.4,M,,*54
$GPRMC,160849.000,A,4308.4606,N,07727.0336,W,40.94,265.94,140919,,,A*47
$GPGGA,160849.250,4308.4605,N,07727.0375,W,1,08,0.95,162.5,M,-34.4,M,,*5D
$GPRMC,160849.500,A,4308.4603,N,07727.0414,W,41.15,266.43,140919,,,A*41
$GPGGA,160849.750,4308.4601,N,07727.0453,W,1,08,0.94,162.3,M,-34.4,M,,*58
$GPRMC,160850.000,A,4308.4600,N,07727.0493,W,41.21,267.51,140919,,,A*45
$GPGGA,160850.250,4308.4599,N,07727.0532,W,1,08,0.94,162.0,M,-34.4,M,,*52
$GPRMC,160850.500,A,4308.4598,N,07727.0571,W,41.12,268.38,140919,,,A*4F
$GPGGA,160850.750,4308.4598,N,07727.0610,W,1,08,0.94,161.8,M,-34.4,M,,*5E
$GPRMC,160851.000,A,4308.4598,N,07727.0649,W,41.11,269.80,140919,,,A*42
$GPGGA,160851.250,4308.4598,N,07727.0688,W,1,08,0.94,161.6,M,-34.4,M,,*55
$GPRMC,160851.500,A,4308.4598,N,07727.0727,W,40.66,270.23,140919,,,A*4E
$GPGGA,160851.750,4308.4599,N,07727.0766,W,1,08,0.94,161.4,M,-34.4,M,,*52
$GPRMC,160852.000,A,4308.4601,N,07727.0806,W,40.53,272.05,140919,,,A*47
$GPGGA,160852.250,4308.4602,N,07727.0846,W,1,08,0.94,161.1,M,-34.4,M,,*5D
$GPRMC,160852.500,A,4308.4604,N,07727.0886,W,40.83,273.34,140919,,,A*41
$GPGGA,160852.750,4308.4607,N,07727.0925,W,1,08,0.94,160.9,M,-34.4,M,,*50
$GPRMC,160853.000,A,4308.4609,N,07727.0964,W,40.91,274.16,140919,,,A*41
$GPGGA,160853.250,4308.4612,N,07727.1004,W,1,08,0.94,160.6,M,-34.4,M,,*54
$GPRMC,160853.500,A,4308.4615,N,07727.1044,W,41.34,275.02,140919,,,A*49
$GPGGA,160853.750,4308.4619,N,07727.1085,W,1,08,0.94,160.3,M,-34.4,M,,*56
$GPRMC,160854.000,A,4308.4622,N,07727.1125,W,41.79,276.09,140919,,,A*48
$GPGGA,160854.250,4308.4626,N,07727.1164,W,1,07,1.20,160.0,M,-34.4,M,,*54
$GPRMC,160854.500,A,4308.4630,N,07727.1204,W,41.91,276.55,140919,,,A*41
$GPGGA,160854.750,4308.4634,N,07727.1244,W,1,08,0.94,159.8,M,-34.4,M,,*50
$GPRMC,160855.000,A,4308.4638,N,07727.1284,W,41.98,277.15,140919,,,A*49
$GPGGA,160855.250,4308.4642,N,07727.1323,W,1,08,0.94,159.6,M,-34.4,M,,*5B
$GPRMC,160855.500,A,4308.4646,N,07727.1363,W,41.93,277.62,140919,,,A*46
$GPGGA,160855.750,4308.4650,N,07727.1402,W,1,08,0.94,159.4,M,-34.4,M,,*5B
$GPRMC,160856.000,A,4308.4654,N,07727.1441,W,41.93,278.01,140919,,,A*4E
$GPGGA,160856.250,4308.4659,N,07727.1480,W,1,08,0.94,159.3,M,-34.4,M,,*59
$GPRMC,160856.500,A,4308.4663,N,07727.1520,W,42.23,278.26,140919,,,A*44
$GPGGA,160856.750,4308.4668,N,07727.1559,W,1,08,0.94,159.1,M,-34.4,M,,*59
$GPRMC,160857.000,A,4308.4672,N,07727.1598,W,42.22,278.39,140919,,,A*4C
$GPGGA,160857.250,4308.4676,N,07727.1637,W,1,08,0.94,159.0,M,-34.4,M,,*58
$GPRMC,160857.500,A,4308.4681,N,07727.1676,W,42.05,278.63,140919,,,A*4C
$GPGGA,160857.750,4308.4685,N,07727.1715,W,1,08,0.94,158.8,M,-34.4,M,,*59
$GPRMC,160858.000,A,4308.4690,N,07727.1754,W,42.03,278.92,140919,,,A*4F
$GPGGA,160858.250,4308.4695,N,07727.1793,W,1,08,0.94,158.8,M,-34.4,M,,*5C
$GPRMC,160858.500,A,4308.4699,N,07727.1831,W,42.02,279.20,140919,,,A*46
$GPGGA,160858.750,4308.4704,N,07727.1871,W,1,08,0.94,158.7,M,-34.4,M,,*5C
$GPRMC,160859.000,A,4308.4709,N,07727.1910,W,42.26,279.27,140919,,,A*49
$GPGGA,160859.250,4308.4714,N,07727.1950,W,1,08,0.94,158.5,M,-34.4,M,,*59
$GPRMC,160859.500,A,4308.4719,N,07727.1990,W,42.52,279.46,140919,,,A*41
$GPGGA,160859.750,4308.4724,N,07727.2029,W,1,08,0.94,158.4,M,-34.4,M,,*5A
$GPRMC,160900.000,A,4308.4728,N,07727.2069,W,42.46,279.57,140919,,,A*42
$GPGGA,160900.250,4308.4733,N,07727.2108,W,1,08,0.94,158.3,M,-34.4,M,,*51
$GPRMC,160900.500,A,4308.4738,N,07727.2148,W,42.36,279.39,140919,,,A*4B
$GPGGA,160900.750,4308.4742,N,07727.2186,W,1,08,0.94,158.2,M,-34.4,M,,*55
$GPRMC,160901.000,A,4308.4746,N,07727.2224,W,42.29,278.96,140919,,,A*45
$GPGGA,160901.250,4308.4750,N,07727.2263,W,1,08,0.94,158.1,M,-34.4,M,,*59
$GPRMC,160901.500,A,4308.4754,N,07727.2301,W,41.05,278.44,140919,,,A*47
$GPGGA,160901.750,4308.4758,N,07727.2339,W,1,08,0.94,157.9,M,-34.4,M,,*5D
$GPRMC,160902.000,A,4308.4762,N,07727.2377,W,40.99,278.58,140919,,,A*4C
$GPGGA,160902.250,4308.4767,N,07727.2415,W,1,08,0.94,157.8,M,-34.4,M,,*5F
$GPRMC,160902.500,A,4308.4771,N,07727.2453,W,40.86,278.80,140919,,,A*41
$GPGGA,160902.750,4308.4776,N,07727.2491,W,1,08,0.94,157.7,M,-34.4,M,,*59
$GPRMC,160903.000,A,4308.4780,N,07727.2528,W,40.52,279.25,140919,,,A*41
$GPGGA,160903.250,4308.4784,N,07727.2566,W,1,08,0.94,157.6,M,-34.4,M,,*58
$GPRMC,160903.500,A,4308.4788,N,07727.2602,W,40.10,279.43,140919,,,A*41
$GPGGA,160903.750,4308.4792,N,07727.2637,W,1,08,0.94,157.3,M,-34.4,M,,*58
$GPRMC,160904.000,A,4308.4796,N,07727.2673,W,39.58,279.60,140919,,,A*49
$GPGGA,160904.250,4308.4800,N,07727.2709,W,1,08,0.95,157.1,M,-34.4,M,,*51
$GPRMC,160904.500,A,4308.4805,N,07727.2745,W,38.99,279.50,140919,,,A*42
$GPGGA,160904.750,4308.4809,N,07727.2781,W,1,08,0.94,156.9,M,-34.4,M,,*55
$GPRMC,160905.000,A,4308.4813,N,07727.2818,W,38.78,279.18,140919,,,A*45
$GPGGA,160905.250,4308.4817,N,07727.2853,W,1,08,0.94,156.9,M,-34.4,M,,*5E
$GPRMC,160905.500,A,4308.4821,N,07727.2888,W,37.72,279.03,140919,,,A*47
$GPGGA,160905.750,4308.4825,N,07727.2923,W,1,08,0.94,156.8,M,-34.4,M,,*5D
$GPRMC,160906.000,A,4308.4829,N,07727.2958,W,37.51,279.14,140919,,,A*42
$GPGGA,160906.250,4308.4833,N,07727.2993,W,1,07,1.20,156.8,M,-34.4,M,,*56
$GPRMC,160906.500,A,4308.4837,N,07727.3027,W,37.06,279.30,140919,,,A*4C
$GPGGA,160906.750,4308.4841,N,07727.3062,W,1,08,0.94,156.7,M,-34.4,M,,*5E
$GPRMC,160907.000,A,4308.4845,N,07727.3097,W,37.30,279.20,140919,,,A*42
$GPGGA,160907.250,4308.4849,N,07727.3131,W,1,08,0.94,156.6,M,-34.4,M,,*54
$GPRMC,160907.500,A,4308.4854,N,07727.3166,W,37.42,279.61,140919,,,A*48
$GPGGA,160907.750,4308.4858,N,07727.3201,W,1,08,0.94,156.6,M,-34.4,M,,*51
$GPRMC,160908.000,A,4308.4863,N,07727.3236,W,37.50,279.29,140919,,,A*4F
$GPGGA,160908.250,4308.4867,N,07727.3271,W,1,08,0.94,156.5,M,-34.4,M,,*53
$GPRMC,160908.500,A,4308.4871,N,07727.3307,W,37.53,279.40,140919,,,A*46
$GPGGA,160908.750,4308.4875,N,07727.3342,W,1,08,0.94,156.4,M,-34.4,M,,*55
$GPRMC,160909.000,A,4308.4879,N,07727.3378,W,37.32,278.95,140919,,,A*4C
$GPGGA,160909.250,4308.4882,N,07727.3413,W,1,08,0.94,156.3,M,-34.4,M,,*5D
$GPRMC,160909.500,A,4308.4886,N,07727.3449,W,37.30,278.55,140919,,,A*42
$GPGGA,160909.750,4308.4890,N,07727.3484,W,1,08,0.94,156.3,M,-34.4,M,,*55
$GPRMC,160910.000,A,4308.4894,N,07727.3519,W,37.09,278.52,140919,,,A*45
$GPGGA,160910.250,4308.4898,N,07727.3553,W,1,08,0.94,156.2,M,-34.4,M,,*5A
$GPRMC,160910.500,A,4308.4901,N,07727.3587,W,36.50,278.57,140919,,,A*42
$GPGGA,160910.750,4308.4905,N,07727.3622,W,1,08,0.94,156.1,M,-34.4,M,,*5C
$GPRMC,160911.000,A,4308.4909,N,07727.3655,W,36.15,278.80,140919,,,A*49
$GPGGA,160911.250,4308.4913,N,07727.3689,W,1,07,1.20,156.0,M,-34.4,M,,*5E
$GPRMC,160911.500,A,4308.4917,N,07727.3722,W,35.93,279.06,140919,,,A*40
$GPGGA,160911.750,4308.4921,N,07727.3755,W,1,08,0.94,155.9,M,-34.4,M,,*51
$GPRMC,160912.000,A,4308.4926,N,07727.3789,W,35.67,279.56,140919,,,A*4B
$GPGGA,160912.250,4308.4929,N,07727.3821,W,1,08,0.94,155.7,M,-34.4,M,,*5D
$GPRMC,160912.500,A,4308.4934,N,07727.3854,W,35.77,280.29,140919,,,A*4D
$GPGGA,160912.750,4308.4938,N,07727.3887,W,1,08,0.94,155.6,M,-34.4,M,,*55
$GPRMC,160913.000,A,4308.4943,N,07727.3921,W,36.34,280.67,140919,,,A*44
$GPGGA,160913.250,4308.4947,N,07727.3956,W,1,08,0.94,155.4,M,-34.4,M,,*56
$GPRMC,160913.500,A,4308.4952,N,07727.3990,W,36.95,280.46,140919,,,A*43
$GPGGA,160913.750,4308.4957,N,07727.4025,W,1,08,0.94,155.3,M,-34.4,M,,*5F
$GPRMC,160914.000,A,4308.4961,N,07727.4060,W,37.25,280.22,140919,,,A*48
$GPGGA,160914.250,4308.4966,N,07727.4096,W,1,08,0.94,155.2,M,-34.4,M,,*56
$GPRMC,160914.500,A,4308.4970,N,07727.4131,W,37.51,280.14,140919,,,A*4E
$GPGGA,160914.750,4308.4974,N,07727.4165,W,1,08,0.94,154.9,M,-34.4,M,,*57
$GPRMC,160915.000,A,4308.4979,N,07727.4200,W,38.40,279.53,140919,,,A*48
$GPGGA,160915.250,4308.4983,N,07727.4236,W,1,08,0.95,154.8,M,-34.4,M,,*5E
$GPRMC,160915.500,A,4308.4987,N,07727.4272,W,38.64,278.94,140919,,,A*45
$GPGGA,160915.750,4308.4990,N,07727.4306,W,1,08,0.94,154.6,M,-34.4,M,,*54
$GPRMC,160916.000,A,4308.4994,N,07727.4343,W,38.68,278.28,140919,,,A*49
$GPGGA,160916.250,4308.4998,N,07727.4379,W,1,08,0.94,154.5,M,-34.4,M,,*51
$GPRMC,160916.500,A,4308.5002,N,07727.4416,W,38.91,278.37,140919,,,A*44
$GPGGA,160916.750,4308.5006,N,07727.4452,W,1,08,0.94,154.4,M,-34.4,M,,*54
