Vers 81
USE_SERIAL_FEEDBACK=true
DEVELOPMENT_MODE=false
USE_RMC_ONLY=false

$GPRMC,134736.250,A,4308.3064,N,07726.2642,W,0.03,140.84,081019,,,A*7C
$GPGGA,134736.500,4308.3064,N,07726.2642,W,1,05,1.83,149.7,M,-34.4,M,,*5D
$GPRMC,134736.750,A,4308.3065,N,07726.2643,W,0.02,351.15,081019,,,A*72
$GPGGA,134737.000,4308.3066,N,07726.2643,W,1,05,2.28,150.0,M,-34.4,M,,*57
$GPRMC,134737.250,A,4308.3067,N,07726.2644,W,0.01,335.21,081019,,,A*75
$GPGGA,134737.500,4308.3068,N,07726.2644,W,1,05,1.83,150.3,M,-34.4,M,,*5A
$GPRMC,134737.750,A,4308.3069,N,07726.2645,W,0.01,124.51,081019,,,A*7A
$GPGGA,134738.000,4308.3070,N,07726.2646,W,1,05,1.83,150.7,M,-34.4,M,,*5F
$GPRMC,134738.250,A,4308.3071,N,07726.2646,W,0.07,185.17,081019,,,A*75
$GPGGA,134738.500,4308.3071,N,07726.2646,W,1,05,1.83,151.3,M,-34.4,M,,*5E
$GPRMC,134738.750,A,4308.3071,N,07726.2646,W,0.08,304.18,081019,,,A*7B
$GPGGA,134739.000,4308.3071,N,07726.2646,W,1,05,1.83,151.4,M,-34.4,M,,*5D
$GPRMC,134739.250,A,4308.3071,N,07726.2646,W,0.09,324.20,081019,,,A*77
$GPGGA,134739.500,4308.3071,N,07726.2646,W,1,05,1.83,151.7,M,-34.4,M,,*5B
$GPRMC,134739.750,A,4308.3071,N,07726.2645,W,0.14,10.56,081019,,,A*48
$GPGGA,134740.000,4308.3071,N,07726.2645,W,1,05,2.28,151.9,M,-34.4,M,,*5F
$GPRMC,134740.250,A,4308.3071,N,07726.2645,W,0.16,10.14,081019,,,A*47
$GPGGA,134740.500,4308.3070,N,07726.2644,W,1,05,2.28,151.9,M,-34.4,M,,*5A
$GPRMC,134740.750,A,4308.3069,N,07726.2643,W,0.16,34.65,081019,,,A*4D
$GPGGA,134741.000,4308.3069,N,07726.2642,W,1,05,1.83,151.8,M,-34.4,M,,*53
$GPRMC,134741.250,A,4308.3068,N,07726.2642,W,0.17,32.66,081019,,,A*4D
$GPGGA,134741.500,4308.3066,N,07726.2641,W,1,05,1.83,151.5,M,-34.4,M,,*57
$GPRMC,134741.750,A,4308.3065,N,07726.2640,W,0.24,17.31,081019,,,A*42
$GPGGA,134742.000,4308.3064,N,07726.2639,W,1,05,1.83,151.1,M,-34.4,M,,*58
$GPRMC,134742.250,A,4308.3063,N,07726.2639,W,0.24,9.71,081019,,,A*77
$GPGGA,134742.500,4308.3062,N,07726.2638,W,1,05,2.28,150.8,M,-34.4,M,,*50
$GPRMC,134742.750,A,4308.3061,N,07726.2638,W,0.19,359.82,081019,,,A*75
$GPGGA,134743.000,4308.3060,N,07726.2637,W,1,05,2.28,150.6,M,-34.4,M,,*57
$GPRMC,134743.250,A,4308.3059,N,07726.2637,W,0.15,12.46,081019,,,A*4D
$GPGGA,134743.500,4308.3059,N,07726.2636,W,1,05,2.28,150.6,M,-34.4,M,,*59
$GPRMC,134743.750,A,4308.3058,N,07726.2636,W,0.11,13.80,081019,,,A*47
$GPGGA,134744.000,4308.3058,N,07726.2636,W,1,05,2.28,150.6,M,-34.4,M,,*5A
$GPRMC,134744.250,A,4308.3058,N,07726.2636,W,0.11,51.73,081019,,,A*4F
$GPGGA,134744.500,4308.3057,N,07726.2636,W,1,05,1.83,150.5,M,-34.4,M,,*51
$GPRMC,134744.750,A,4308.3057,N,07726.2636,W,0.10,65.20,081019,,,A*45
$GPGGA,134745.000,4308.3056,N,07726.2636,W,1,05,1.82,150.3,M,-34.4,M,,*53
$GPRMC,134745.250,A,4308.3055,N,07726.2637,W,0.04,347.87,081019,,,A*79
$GPGGA,134745.500,4308.3055,N,07726.2637,W,1,05,2.28,150.1,M,-34.4,M,,*55
$GPRMC,134745.750,A,4308.3054,N,07726.2637,W,0.12,324.55,081019,,,A*70
$GPGGA,134746.000,4308.3054,N,07726.2637,W,1,05,1.83,150.0,M,-34.4,M,,*51
$GPRMC,134746.250,A,4308.3053,N,07726.2637,W,0.08,340.09,081019,,,A*71
$GPGGA,134746.500,4308.3052,N,07726.2637,W,1,05,1.83,149.8,M,-34.4,M,,*52
$GPRMC,134746.750,A,4308.3051,N,07726.2637,W,0.02,261.99,081019,,,A*77
$GPGGA,134747.000,4308.3050,N,07726.2637,W,1,05,1.83,149.7,M,-34.4,M,,*5B
$GPRMC,134747.250,A,4308.3049,N,07726.2637,W,0.09,233.30,081019,,,A*75
$GPGGA,134747.500,4308.3048,N,07726.2637,W,1,05,1.83,149.6,M,-34.4,M,,*56
$GPRMC,134747.750,A,4308.3047,N,07726.2637,W,0.06,234.46,081019,,,A*77
$GPGGA,134748.000,4308.3046,N,07726.2637,W,1,05,1.83,149.4,M,-34.4,M,,*50
$GPRMC,134748.250,A,4308.3044,N,07726.2637,W,0.20,228.81,081019,,,A*7C
$GPGGA,134748.500,4308.3043,N,07726.2638,W,1,05,1.83,149.2,M,-34.4,M,,*59
$GPRMC,134748.750,A,4308.3042,N,07726.2638,W,0.27,224.43,081019,,,A*75
$GPGGA,134749.000,4308.3040,N,07726.2638,W,1,05,1.83,149.0,M,-34.4,M,,*5C
$GPRMC,134749.250,A,4308.3040,N,07726.2637,W,0.21,212.82,081019,,,A*72
$GPGGA,134749.500,4308.3039,N,07726.2637,W,1,05,1.83,148.8,M,-34.4,M,,*51
$GPRMC,134749.750,A,4308.3038,N,07726.2637,W,0.22,216.97,081019,,,A*7B
$GPGGA,134750.000,4308.3036,N,07726.2637,W,1,05,1.83,148.6,M,-34.4,M,,*5D
$GPRMC,134750.250,A,4308.3036,N,07726.2637,W,0.21,211.60,081019,,,A*74
$GPGGA,134750.500,4308.3035,N,07726.2637,W,1,05,1.83,148.5,M,-34.4,M,,*58
$GPRMC,134750.750,A,4308.3033,N,07726.2637,W,0.23,211.74,081019,,,A*73
$GPGGA,134751.000,4308.3032,N,07726.2636,W,1,05,1.83,148.4,M,-34.4,M,,*5B
$GPRMC,134751.250,A,4308.3031,N,07726.2636,W,0.25,190.62,081019,,,A*7F
$GPGGA,134751.500,4308.3030,N,07726.2635,W,1,05,1.83,148.3,M,-34.4,M,,*58
$GPRMC,134751.750,A,4308.3029,N,07726.2635,W,0.28,186.13,081019,,,A*7C
$GPGGA,134752.000,4308.3028,N,07726.2635,W,1,05,1.82,148.2,M,-34.4,M,,*57
$GPRMC,134752.250,A,4308.3028,N,07726.2634,W,0.23,169.87,081019,,,A*7D
$GPGGA,134752.500,4308.3027,N,07726.2634,W,1,05,1.83,148.1,M,-34.4,M,,*5E
$GPRMC,134752.750,A,4308.3026,N,07726.2634,W,0.25,173.46,081019,,,A*76
$GPGGA,134753.000,4308.3025,N,07726.2633,W,1,05,1.83,148.1,M,-34.4,M,,*5F
$GPRMC,134753.250,A,4308.3024,N,07726.2633,W,0.31,172.70,081019,,,A*76
$GPGGA,134753.500,4308.3023,N,07726.2632,W,1,05,1.83,148.1,M,-34.4,M,,*5D
$GPRMC,134753.750,A,4308.3022,N,07726.2632,W,0.28,163.38,081019,,,A*70
$GPGGA,134754.000,4308.3021,N,07726.2631,W,1,05,1.82,148.0,M,-34.4,M,,*5E
$GPRMC,134754.250,A,4308.3021,N,07726.2631,W,0.27,161.65,081019,,,A*77
$GPGGA,134754.500,4308.3020,N,07726.2630,W,1,05,1.83,148.0,M,-34.4,M,,*5A
$GPRMC,134754.750,A,4308.3020,N,07726.2630,W,0.25,175.12,081019,,,A*75
$GPGGA,134755.000,4308.3019,N,07726.2630,W,1,05,1.83,147.9,M,-34.4,M,,*52
$GPRMC,134755.250,A,4308.3019,N,07726.2631,W,0.28,204.30,081019,,,A*72
$GPGGA,134755.500,4308.3018,N,07726.2631,W,1,05,1.82,147.9,M,-34.4,M,,*56
$GPRMC,134755.750,A,4308.3017,N,07726.2630,W,0.25,199.00,081019,,,A*71
$GPGGA,134756.000,4308.3017,N,07726.2629,W,1,05,1.82,147.8,M,-34.4,M,,*57
$GPRMC,134756.250,A,4308.3017,N,07726.2629,W,0.23,179.79,081019,,,A*79
$GPGGA,134756.500,4308.3017,N,07726.2629,W,1,06,1.28,147.9,M,-34.4,M,,*50
$GPRMC,134756.750,A,4308.3017,N,07726.2629,W,0.18,181.95,081019,,,A*71
$GPGGA,134757.000,4308.3016,N,07726.2629,W,1,06,1.28,147.9,M,-34.4,M,,*55
$GPRMC,134757.250,A,4308.3016,N,07726.2629,W,0.15,174.04,081019,,,A*7B
$GPGGA,134757.500,4308.3016,N,07726.2628,W,1,06,1.28,148.0,M,-34.4,M,,*57
$GPRMC,134757.750,A,4308.3017,N,07726.2629,W,0.04,119.11,081019,,,A*70
$GPGGA,134758.000,4308.3020,N,07726.2630,W,1,06,1.28,148.0,M,-34.4,M,,*51
$GPRMC,134758.250,A,4308.3021,N,07726.2630,W,0.41,355.85,081019,,,A*71
$GPGGA,134758.500,4308.3023,N,07726.2630,W,1,06,1.54,148.0,M,-34.4,M,,*5C
$GPRMC,134758.750,A,4308.3024,N,07726.2630,W,0.71,359.43,081019,,,A*74
$GPGGA,134759.000,4308.3027,N,07726.2631,W,1,06,1.54,148.1,M,-34.4,M,,*5C
$GPRMC,134759.250,A,4308.3029,N,07726.2630,W,1.22,7.25,081019,,,A*72
$GPGGA,134759.500,4308.3030,N,07726.2630,W,1,06,1.54,148.0,M,-34.4,M,,*5F
$GPRMC,134759.750,A,4308.3032,N,07726.2630,W,1.49,7.01,081019,,,A*76
$GPGGA,134800.000,4308.3035,N,07726.2630,W,1,06,1.54,148.0,M,-34.4,M,,*5C
$GPRMC,134800.250,A,4308.3038,N,07726.2629,W,3.42,10.62,081019,,,A*48
$GPGGA,134800.500,4308.3041,N,07726.2629,W,1,06,1.54,147.9,M,-34.4,M,,*54
$GPRMC,134800.750,A,4308.3044,N,07726.2630,W,4.83,358.78,081019,,,A*70
$GPGGA,134801.000,4308.3048,N,07726.2630,W,1,06,1.54,147.8,M,-34.4,M,,*50
$GPRMC,134801.250,A,4308.3052,N,07726.2630,W,5.86,356.80,081019,,,A*7E
$GPGGA,134801.500,4308.3056,N,07726.2630,W,1,06,1.54,147.7,M,-34.4,M,,*55
$GPRMC,134801.750,A,4308.3060,N,07726.2631,W,6.55,356.01,081019,,,A*7F
$GPGGA,134802.000,4308.3065,N,07726.2631,W,1,06,1.54,147.6,M,-34.4,M,,*53
$GPRMC,134802.250,A,4308.3070,N,07726.2631,W,6.92,359.82,081019,,,A*77
$GPGGA,134802.500,4308.3075,N,07726.2631,W,1,07,1.42,147.7,M,-34.4,M,,*50
$GPRMC,134802.750,A,4308.3080,N,07726.2631,W,6.97,5.36,081019,,,A*7D
$GPGGA,134803.000,4308.3084,N,07726.2630,W,1,07,1.42,147.8,M,-34.4,M,,*54
$GPRMC,134803.250,A,4308.3088,N,07726.2629,W,6.41,8.86,081019,,,A*75
$GPGGA,134803.500,4308.3092,N,07726.2629,W,1,07,1.42,147.7,M,-34.4,M,,*51
$GPRMC,134803.750,A,4308.3095,N,07726.2628,W,5.64,9.47,081019,,,A*75
$GPGGA,134804.000,4308.3097,N,07726.2628,W,1,07,1.42,147.7,M,-34.4,M,,*57
$GPRMC,134804.250,A,4308.3099,N,07726.2627,W,3.93,10.79,081019,,,A*4F
$GPGGA,134804.500,4308.3102,N,07726.2627,W,1,07,1.42,147.7,M,-34.4,M,,*50
$GPRMC,134804.750,A,4308.3104,N,07726.2627,W,3.44,8.71,081019,,,A*74
$GPGGA,134805.000,4308.3107,N,07726.2627,W,1,07,1.42,147.8,M,-34.4,M,,*5E
$GPRMC,134805.250,A,4308.3109,N,07726.2626,W,3.50,17.03,081019,,,A*42
$GPGGA,134805.500,4308.3111,N,07726.2625,W,1,07,1.27,147.8,M,-34.4,M,,*5D
$GPRMC,134805.750,A,4308.3114,N,07726.2624,W,3.28,24.86,081019,,,A*4B
$GPGGA,134806.000,4308.3116,N,07726.2623,W,1,07,1.27,147.8,M,-34.4,M,,*5A
$GPRMC,134806.250,A,4308.3118,N,07726.2621,W,3.41,29.01,081019,,,A*49
$GPGGA,134806.500,4308.3119,N,07726.2619,W,1,07,1.27,147.8,M,-34.4,M,,*59
$GPRMC,134806.750,A,4308.3120,N,07726.2617,W,3.06,50.84,081019,,,A*42
$GPGGA,134807.000,4308.3121,N,07726.2615,W,1,07,1.27,147.8,M,-34.4,M,,*5A
$GPRMC,134807.250,A,4308.3123,N,07726.2613,W,3.00,60.11,081019,,,A*48
$GPGGA,134807.500,4308.3124,N,07726.2611,W,1,07,1.27,148.2,M,-34.4,M,,*5B
$GPRMC,134807.750,A,4308.3125,N,07726.2610,W,2.82,70.36,081019,,,A*47
$GPGGA,134808.000,4308.3126,N,07726.2608,W,1,07,1.27,148.7,M,-34.4,M,,*5E
$GPRMC,134808.250,A,4308.3127,N,07726.2606,W,2.51,76.61,081019,,,A*42
$GPGGA,134808.500,4308.3128,N,07726.2605,W,1,07,1.27,149.2,M,-34.4,M,,*5C
$GPRMC,134808.750,A,4308.3129,N,07726.2604,W,1.02,88.97,081019,,,A*46
$GPGGA,134809.000,4308.3129,N,07726.2605,W,1,07,1.27,149.6,M,-34.4,M,,*5D
$GPRMC,134809.250,A,4308.3130,N,07726.2607,W,0.52,261.70,081019,,,A*71
$GPGGA,134809.500,4308.3130,N,07726.2609,W,1,07,1.26,149.8,M,-34.4,M,,*53
$GPRMC,134809.750,A,4308.3131,N,07726.2612,W,1.47,273.00,081019,,,A*70
$GPGGA,134810.000,4308.3133,N,07726.2616,W,1,07,1.27,150.1,M,-34.4,M,,*53
$GPRMC,134810.250,A,4308.3133,N,07726.2621,W,4.65,271.41,081019,,,A*7D
$GPGGA,134810.500,4308.3133,N,07726.2626,W,1,07,1.41,150.3,M,-34.4,M,,*57
$GPRMC,134810.750,A,4308.3134,N,07726.2633,W,7.00,271.24,081019,,,A*7F
$GPGGA,134811.000,4308.3134,N,07726.2641,W,1,07,1.41,150.5,M,-34.4,M,,*53
$GPRMC,134811.250,A,4308.3135,N,07726.2650,W,8.98,274.70,081019,,,A*75
$GPGGA,134811.500,4308.3136,N,07726.2659,W,1,07,1.41,150.7,M,-34.4,M,,*5F
$GPRMC,134811.750,A,4308.3137,N,07726.2670,W,10.96,275.84,081019,,,A*4D
$GPGGA,134812.000,4308.3138,N,07726.2682,W,1,07,1.41,150.7,M,-34.4,M,,*51
$GPRMC,134812.250,A,4308.3141,N,07726.2695,W,13.85,279.97,081019,,,A*4E
$GPGGA,134812.500,4308.3143,N,07726.2708,W,1,07,1.27,150.7,M,-34.4,M,,*5B
$GPRMC,134812.750,A,4308.3145,N,07726.2722,W,15.54,281.21,081019,,,A*42
$GPGGA,134813.000,4308.3147,N,07726.2737,W,1,07,1.41,150.7,M,-34.4,M,,*57
$GPRMC,134813.250,A,4308.3149,N,07726.2752,W,16.09,282.40,081019,,,A*42
$GPGGA,134813.500,4308.3152,N,07726.2767,W,1,07,1.27,150.6,M,-34.4,M,,*52
$GPRMC,134813.750,A,4308.3155,N,07726.2782,W,16.58,284.16,081019,,,A*46
$GPGGA,134814.000,4308.3158,N,07726.2797,W,1,07,1.41,150.4,M,-34.4,M,,*57
$GPRMC,134814.250,A,4308.3160,N,07726.2813,W,16.83,284.12,081019,,,A*47
$GPGGA,134814.500,4308.3164,N,07726.2829,W,1,07,1.26,150.2,M,-34.4,M,,*50
$GPRMC,134814.750,A,4308.3169,N,07726.2848,W,18.79,286.21,081019,,,A*4C
$GPGGA,134815.000,4308.3174,N,07726.2867,W,1,07,1.41,150.1,M,-34.4,M,,*5D
$GPRMC,134815.250,A,4308.3179,N,07726.2886,W,20.55,288.05,081019,,,A*46
$GPGGA,134815.500,4308.3185,N,07726.2906,W,1,07,1.26,150.1,M,-34.4,M,,*51
$GPRMC,134815.750,A,4308.3193,N,07726.2927,W,21.91,290.07,081019,,,A*4F
$GPGGA,134816.000,4308.3201,N,07726.2948,W,1,07,1.26,150.1,M,-34.4,M,,*52
$GPRMC,134816.250,A,4308.3208,N,07726.2969,W,23.18,292.57,081019,,,A*46
$GPGGA,134816.500,4308.3217,N,07726.2990,W,1,07,1.26,150.2,M,-34.4,M,,*56
$GPRMC,134816.750,A,4308.3226,N,07726.3012,W,24.68,294.78,081019,,,A*40
$GPGGA,134817.000,4308.3237,N,07726.3036,W,1,07,1.26,150.3,M,-34.4,M,,*55
$GPRMC,134817.250,A,4308.3246,N,07726.3058,W,26.18,297.03,081019,,,A*46
$GPGGA,134817.500,4308.3256,N,07726.3081,W,1,07,1.26,150.5,M,-34.4,M,,*5D
$GPRMC,134817.750,A,4308.3268,N,07726.3104,W,27.52,300.08,081019,,,A*4C
$GPGGA,134818.000,4308.3279,N,07726.3126,W,1,07,1.41,150.9,M,-34.4,M,,*5B
$GPRMC,134818.250,A,4308.3291,N,07726.3150,W,28.46,301.88,081019,,,A*42
$GPGGA,134818.500,4308.3302,N,07726.3173,W,1,07,1.26,151.3,M,-34.4,M,,*59
$GPRMC,134818.750,A,4308.3314,N,07726.3197,W,28.93,302.70,081019,,,A*4C
$GPGGA,134819.000,4308.3326,N,07726.3221,W,1,07,1.41,151.7,M,-34.4,M,,*5A
$GPRMC,134819.250,A,4308.3338,N,07726.3245,W,29.30,302.62,081019,,,A*41
$GPGGA,134819.500,4308.3350,N,07726.3269,W,1,07,1.26,152.0,M,-34.4,M,,*57
$GPRMC,134819.750,A,4308.3362,N,07726.3293,W,29.53,302.77,081019,,,A*41
$GPGGA,134820.000,4308.3374,N,07726.3318,W,1,07,1.26,152.5,M,-34.4,M,,*5C
$GPRMC,134820.250,A,4308.3385,N,07726.3342,W,29.88,302.66,081019,,,A*4C
$GPGGA,134820.500,4308.3397,N,07726.3366,W,1,07,1.26,153.0,M,-34.4,M,,*59
$GPRMC,134820.750,A,4308.3409,N,07726.3391,W,29.86,302.13,081019,,,A*48
$GPGGA,134821.000,4308.3420,N,07726.3415,W,1,07,1.26,153.5,M,-34.4,M,,*50
$GPRMC,134821.250,A,4308.3431,N,07726.3439,W,29.81,302.54,081019,,,A*46
$GPGGA,134821.500,4308.3443,N,07726.3463,W,1,07,1.26,154.1,M,-34.4,M,,*52
$GPRMC,134821.750,A,4308.3455,N,07726.3486,W,29.24,303.60,081019,,,A*4C
$GPGGA,134822.000,4308.3466,N,07726.3509,W,1,07,1.41,154.8,M,-34.4,M,,*56
$GPRMC,134822.250,A,4308.3478,N,07726.3532,W,29.17,303.78,081019,,,A*42
$GPGGA,134822.500,4308.3490,N,07726.3554,W,1,07,1.26,155.5,M,-34.4,M,,*5F
$GPRMC,134822.750,A,4308.3501,N,07726.3575,W,28.70,304.78,081019,,,A*4C
$GPGGA,134823.000,4308.3513,N,07726.3596,W,1,07,1.26,156.1,M,-34.4,M,,*58
$GPRMC,134823.250,A,4308.3525,N,07726.3616,W,27.33,308.40,081019,,,A*47
$GPGGA,134823.500,4308.3537,N,07726.3636,W,1,07,1.26,156.7,M,-34.4,M,,*54
$GPRMC,134823.750,A,4308.3549,N,07726.3655,W,26.47,311.04,081019,,,A*45
$GPGGA,134824.000,4308.3562,N,07726.3673,W,1,07,1.26,157.1,M,-34.4,M,,*50
$GPRMC,134824.250,A,4308.3575,N,07726.3690,W,25.65,317.48,081019,,,A*4C
$GPGGA,134824.500,4308.3589,N,07726.3706,W,1,07,1.26,157.6,M,-34.4,M,,*54
$GPRMC,134824.750,A,4308.3603,N,07726.3720,W,24.91,321.75,081019,,,A*40
$GPGGA,134825.000,4308.3618,N,07726.3734,W,1,07,1.41,158.0,M,-34.4,M,,*52
$GPRMC,134825.250,A,4308.3633,N,07726.3747,W,24.42,325.84,081019,,,A*42
$GPGGA,134825.500,4308.3647,N,07726.3759,W,1,07,1.26,158.5,M,-34.4,M,,*52
$GPRMC,134825.750,A,4308.3662,N,07726.3770,W,23.82,328.73,081019,,,A*49
$GPGGA,134826.000,4308.3677,N,07726.3780,W,1,07,1.41,158.9,M,-34.4,M,,*5E
$GPRMC,134826.250,A,4308.3693,N,07726.3788,W,23.05,334.53,081019,,,A*46
$GPGGA,134826.500,4308.3708,N,07726.3796,W,1,07,1.26,159.4,M,-34.4,M,,*58
$GPRMC,134826.750,A,4308.3723,N,07726.3803,W,22.53,338.74,081019,,,A*4E
$GPGGA,134827.000,4308.3738,N,07726.3809,W,1,07,1.41,159.8,M,-34.4,M,,*5B
$GPRMC,134827.250,A,4308.3756,N,07726.3814,W,22.64,345.30,081019,,,A*40
$GPGGA,134827.500,4308.3772,N,07726.3819,W,1,07,1.41,160.3,M,-34.4,M,,*50
$GPRMC,134827.750,A,4308.3787,N,07726.3823,W,22.21,348.95,081019,,,A*4E
$GPGGA,134828.000,4308.3802,N,07726.3826,W,1,07,1.41,160.8,M,-34.4,M,,*55
$GPRMC,134828.250,A,4308.3822,N,07726.3826,W,23.00,355.43,081019,,,A*44
$GPGGA,134828.500,4308.3839,N,07726.3827,W,1,07,1.41,161.5,M,-34.4,M,,*55
$GPRMC,134828.750,A,4308.3856,N,07726.3827,W,23.26,358.25,081019,,,A*4A
$GPGGA,134829.000,4308.3874,N,07726.3826,W,1,07,1.41,161.9,M,-34.4,M,,*55
$GPRMC,134829.250,A,4308.3891,N,07726.3825,W,24.29,2.10,081019,,,A*45
$GPGGA,134829.500,4308.3910,N,07726.3823,W,1,07,1.41,162.4,M,-34.4,M,,*58
$GPRMC,134829.750,A,4308.3927,N,07726.3819,W,24.36,5.33,081019,,,A*4B
$GPGGA,134830.000,4308.3945,N,07726.3815,W,1,07,1.41,162.7,M,-34.4,M,,*53
$GPRMC,134830.250,A,4308.3962,N,07726.3811,W,24.28,8.27,081019,,,A*48
$GPGGA,134830.500,4308.3980,N,07726.3807,W,1,07,1.41,163.0,M,-34.4,M,,*5A
$GPRMC,134830.750,A,4308.3998,N,07726.3802,W,24.31,9.64,081019,,,A*44
$GPGGA,134831.000,4308.4016,N,07726.3797,W,1,07,1.41,163.2,M,-34.4,M,,*5B
$GPRMC,134831.250,A,4308.4033,N,07726.3792,W,24.37,10.87,081019,,,A*7A
$GPGGA,134831.500,4308.4051,N,07726.3787,W,1,07,1.41,163.5,M,-34.4,M,,*5B
$GPRMC,134831.750,A,4308.4068,N,07726.3782,W,24.59,11.32,081019,,,A*77
$GPGGA,134832.000,4308.4085,N,07726.3776,W,1,07,1.41,163.7,M,-34.4,M,,*58
$GPRMC,134832.250,A,4308.4103,N,07726.3771,W,24.99,11.62,081019,,,A*78
$GPGGA,134832.500,4308.4121,N,07726.3766,W,1,07,1.41,164.0,M,-34.4,M,,*53
$GPRMC,134832.750,A,4308.4139,N,07726.3761,W,25.19,11.52,081019,,,A*7F
$GPGGA,134833.000,4308.4157,N,07726.3756,W,1,07,1.41,164.2,M,-34.4,M,,*57
$GPRMC,134833.250,A,4308.4175,N,07726.3751,W,25.27,10.49,081019,,,A*76
$GPGGA,134833.500,4308.4192,N,07726.3747,W,1,07,1.26,164.3,M,-34.4,M,,*5B
$GPRMC,134833.750,A,4308.4209,N,07726.3742,W,25.22,10.28,081019,,,A*7B
$GPGGA,134834.000,4308.4226,N,07726.3737,W,1,07,1.41,164.5,M,-34.4,M,,*55
$GPRMC,134834.250,A,4308.4243,N,07726.3733,W,24.92,10.28,081019,,,A*7B
$GPGGA,134834.500,4308.4260,N,07726.3728,W,1,07,1.41,164.6,M,-34.4,M,,*5F
$GPRMC,134834.750,A,4308.4276,N,07726.3724,W,24.36,9.45,081019,,,A*43
$GPGGA,134835.000,4308.4292,N,07726.3720,W,1,07,1.41,164.7,M,-34.4,M,,*5F
$GPRMC,134835.250,A,4308.4307,N,07726.3716,W,23.66,9.21,081019,,,A*41
$GPGGA,134835.500,4308.4323,N,07726.3711,W,1,07,1.41,164.7,M,-34.4,M,,*53
$GPRMC,134835.750,A,4308.4338,N,07726.3707,W,23.13,9.21,081019,,,A*4A
$GPGGA,134836.000,4308.4353,N,07726.3704,W,1,07,1.41,164.7,M,-34.4,M,,*56
$GPRMC,134836.250,A,4308.4368,N,07726.3700,W,22.29,9.03,081019,,,A*46
$GPGGA,134836.500,4308.4383,N,07726.3696,W,1,07,1.41,164.6,M,-34.4,M,,*55
$GPRMC,134836.750,A,4308.4397,N,07726.3692,W,21.80,9.28,081019,,,A*40
$GPGGA,134837.000,4308.4412,N,07726.3689,W,1,07,1.41,164.5,M,-34.4,M,,*53
$GPRMC,134837.500,A,4308.4440,N,07726.3683,W,20.92,8.58,081019,,,A*4F
$GPGGA,134837.750,4308.4453,N,07726.3680,W,1,07,1.41,164.4,M,-34.4,M,,*5C
$GPRMC,134836.250,A,4308.4477,N,07726.3674,W,18.86,7.54,081019,,,A*4D
$GPGGA,134836.500,4308.4489,N,07726.3671,W,1,07,1.41,164.3,M,-34.4,M,,*54
$GPRMC,134836.750,A,4308.4500,N,07726.3670,W,17.32,5.43,081019,,,A*49
$GPGGA,134837.000,4308.4511,N,07726.3669,W,1,07,1.41,164.2,M,-34.4,M,,*58
$GPRMC,134837.250,A,4308.4523,N,07726.3666,W,15.44,3.18,081019,,,A*40
$GPGGA,134837.500,4308.4533,N,07726.3664,W,1,07,1.41,164.0,M,-34.4,M,,*52
$GPRMC,134837.750,A,4308.4539,N,07726.3661,W,12.90,2.51,081019,,,A*4B
$GPGGA,134838.000,4308.4544,N,07726.3659,W,1,07,1.41,163.9,M,-34.4,M,,*58
$GPRMC,134838.250,A,4308.4553,N,07726.3658,W,10.37,2.46,081019,,,A*4E
$GPGGA,134838.500,4308.4557,N,07726.3657,W,1,07,1.41,163.6,M,-34.4,M,,*5E
$GPRMC,134838.750,A,4308.4561,N,07726.3655,W,8.09,10.11,081019,,,A*42
$GPGGA,134839.000,4308.4564,N,07726.3654,W,1,07,1.41,163.4,M,-34.4,M,,*5B
$GPRMC,134839.250,A,4308.4568,N,07726.3654,W,6.99,4.13,081019,,,A*7E
$GPGGA,134839.500,4308.4573,N,07726.3655,W,1,07,1.41,163.3,M,-34.4,M,,*5E
$GPRMC,134839.750,A,4308.4578,N,07726.3656,W,7.11,356.71,081019,,,A*79
$GPGGA,134840.000,4308.4584,N,07726.3658,W,1,07,1.41,163.6,M,-34.4,M,,*55
$GPRMC,134840.250,A,4308.4589,N,07726.3660,W,8.91,342.22,081019,,,A*7D
$GPGGA,134840.500,4308.4594,N,07726.3663,W,1,07,1.26,163.8,M,-34.4,M,,*56
$GPRMC,134840.750,A,4308.4600,N,07726.3667,W,10.12,333.78,081019,,,A*46
$GPGGA,134841.000,4308.4605,N,07726.3672,W,1,07,1.41,164.0,M,-34.4,M,,*57
$GPRMC,134841.250,A,4308.4611,N,07726.3679,W,11.52,325.63,081019,,,A*45
$GPGGA,134841.500,4308.4617,N,07726.3686,W,1,07,1.26,164.2,M,-34.4,M,,*59
$GPRMC,134841.750,A,4308.4622,N,07726.3696,W,12.27,316.67,081019,,,A*44
$GPGGA,134842.000,4308.4625,N,07726.3708,W,1,07,1.26,164.2,M,-34.4,M,,*59
$GPRMC,134842.250,A,4308.4628,N,07726.3722,W,13.86,301.14,081019,,,A*4E
$GPGGA,134842.500,4308.4632,N,07726.3735,W,1,07,1.26,164.1,M,-34.4,M,,*57
$GPRMC,134842.750,A,4308.4635,N,07726.3749,W,15.13,295.33,081019,,,A*49
$GPGGA,134843.000,4308.4637,N,07726.3764,W,1,07,1.26,164.0,M,-34.4,M,,*53
$GPRMC,134843.250,A,4308.4637,N,07726.3780,W,17.01,286.75,081019,,,A*4B
$GPGGA,134843.500,4308.4637,N,07726.3797,W,1,07,1.26,163.9,M,-34.4,M,,*54
$GPRMC,134843.750,A,4308.4637,N,07726.3814,W,18.34,281.53,081019,,,A*46
$GPGGA,134844.000,4308.4634,N,07726.3833,W,1,07,1.40,163.6,M,-34.4,M,,*5B
$GPRMC,134844.250,A,4308.4632,N,07726.3852,W,19.83,276.30,081019,,,A*43
$GPGGA,134844.500,4308.4632,N,07726.3871,W,1,07,1.26,163.2,M,-34.4,M,,*5A
$GPRMC,134844.750,A,4308.4631,N,07726.3889,W,20.37,275.28,081019,,,A*4C
$GPGGA,134845.000,4308.4630,N,07726.3909,W,1,07,1.40,162.8,M,-34.4,M,,*59
$GPRMC,134845.250,A,4308.4628,N,07726.3929,W,21.51,273.58,081019,,,A*4B
$GPGGA,134845.500,4308.4627,N,07726.3949,W,1,07,1.26,162.4,M,-34.4,M,,*52
$GPRMC,134845.750,A,4308.4627,N,07726.3969,W,22.03,273.57,081019,,,A*4E
$GPGGA,134846.000,4308.4626,N,07726.3990,W,1,07,1.40,161.9,M,-34.4,M,,*5F
$GPRMC,134846.250,A,4308.4625,N,07726.4011,W,22.27,273.73,081019,,,A*4B
$GPGGA,134846.500,4308.4625,N,07726.4031,W,1,07,1.26,161.5,M,-34.4,M,,*50
$GPRMC,134846.750,A,4308.4626,N,07726.4053,W,22.55,274.60,081019,,,A*4B
$GPGGA,134847.000,4308.4626,N,07726.4074,W,1,07,1.40,161.2,M,-34.4,M,,*51
$GPRMC,134847.250,A,4308.4629,N,07726.4097,W,23.43,276.66,081019,,,A*4A
$GPGGA,134847.500,4308.4631,N,07726.4119,W,1,07,1.26,160.9,M,-34.4,M,,*52
$GPRMC,134847.750,A,4308.4632,N,07726.4143,W,24.41,276.79,081019,,,A*46
$GPGGA,134848.000,4308.4634,N,07726.4166,W,1,07,1.40,160.7,M,-34.4,M,,*5B
$GPRMC,134848.250,A,4308.4636,N,07726.4191,W,25.48,276.82,081019,,,A*4B
$GPGGA,134848.500,4308.4638,N,07726.4216,W,1,07,1.26,160.5,M,-34.4,M,,*54
$GPRMC,134848.750,A,4308.4640,N,07726.4241,W,26.43,276.87,081019,,,A*4C
$GPGGA,134849.000,4308.4642,N,07726.4267,W,1,07,1.40,160.5,M,-34.4,M,,*5B
$GPRMC,134849.250,A,4308.4645,N,07726.4293,W,26.82,276.74,081019,,,A*43
$GPGGA,134849.500,4308.4647,N,07726.4319,W,1,07,1.26,160.5,M,-34.4,M,,*53
$GPRMC,134849.750,A,4308.4649,N,07726.4346,W,27.14,276.52,081019,,,A*49
$GPGGA,134850.000,4308.4653,N,07726.4372,W,1,07,1.40,160.5,M,-34.4,M,,*56
$GPRMC,134850.250,A,4308.4656,N,07726.4398,W,27.22,279.09,081019,,,A*4D
$GPGGA,134850.500,4308.4660,N,07726.4424,W,1,07,1.26,160.7,M,-34.4,M,,*55
$GPRMC,134850.750,A,4308.4663,N,07726.4449,W,27.22,279.41,081019,,,A*49
$GPGGA,134851.000,4308.4667,N,07726.4475,W,1,07,1.40,160.8,M,-34.4,M,,*5D
$GPRMC,134851.250,A,4308.4671,N,07726.4500,W,27.13,280.20,081019,,,A*41
$GPGGA,134851.500,4308.4675,N,07726.4525,W,1,07,1.26,160.9,M,-34.4,M,,*5E
$GPRMC,134851.750,A,4308.4679,N,07726.4550,W,25.97,280.34,081019,,,A*42
$GPGGA,134852.000,4308.4683,N,07726.4575,W,1,07,1.26,161.0,M,-34.4,M,,*5C
$GPRMC,134852.250,A,4308.4686,N,07726.4599,W,25.19,278.59,081019,,,A*4B
$GPGGA,134852.500,4308.4690,N,07726.4623,W,1,07,1.26,161.2,M,-34.4,M,,*59
$GPRMC,134852.750,A,4308.4693,N,07726.4647,W,25.02,278.37,081019,,,A*48
$GPGGA,134853.000,4308.4697,N,07726.4671,W,1,07,1.40,161.3,M,-34.4,M,,*5C
$GPRMC,134853.250,A,4308.4700,N,07726.4694,W,24.72,277.89,081019,,,A*45
$GPGGA,134853.500,4308.4703,N,07726.4718,W,1,07,1.26,161.4,M,-34.4,M,,*5C
$GPRMC,134853.750,A,4308.4706,N,07726.4741,W,24.27,277.73,081019,,,A*4A
$GPGGA,134854.000,4308.4708,N,07726.4763,W,1,07,1.40,161.5,M,-34.4,M,,*58
$GPRMC,134854.250,A,4308.4711,N,07726.4786,W,23.93,277.46,081019,,,A*4B
$GPGGA,134854.500,4308.4714,N,07726.4809,W,1,07,1.26,161.6,M,-34.4,M,,*50
$GPRMC,134854.750,A,4308.4717,N,07726.4831,W,23.84,277.71,081019,,,A*49
$GPGGA,134855.000,4308.4719,N,07726.4854,W,1,07,1.40,161.7,M,-34.4,M,,*50
$GPRMC,134855.250,A,4308.4722,N,07726.4877,W,24.10,277.64,081019,,,A*47
$GPGGA,134855.500,4308.4725,N,07726.4899,W,1,07,1.26,161.8,M,-34.4,M,,*54
$GPRMC,134855.750,A,4308.4727,N,07726.4922,W,24.20,277.08,081019,,,A*4F
$GPGGA,134856.000,4308.4729,N,07726.4945,W,1,07,1.40,162.0,M,-34.4,M,,*55
$GPRMC,134856.250,A,4308.4732,N,07726.4969,W,24.77,276.37,081019,,,A*4D
$GPGGA,134856.500,4308.4734,N,07726.4992,W,1,07,1.26,162.1,M,-34.4,M,,*57
$GPRMC,134856.750,A,4308.4737,N,07726.5017,W,25.28,275.95,081019,,,A*4C
$GPGGA,134857.000,4308.4739,N,07726.5041,W,1,07,1.40,162.1,M,-34.4,M,,*58
$GPRMC,134857.250,A,4308.4742,N,07726.5065,W,25.80,275.79,081019,,,A*4F
$GPGGA,134857.500,4308.4744,N,07726.5090,W,1,07,1.26,162.2,M,-34.4,M,,*58
$GPRMC,134857.750,A,4308.4746,N,07726.5115,W,26.07,275.54,081019,,,A*4B
$GPGGA,134858.000,4308.4749,N,07726.5140,W,1,07,1.40,162.3,M,-34.4,M,,*52
$GPRMC,134858.250,A,4308.4751,N,07726.5165,W,26.38,275.44,081019,,,A*4D
$GPGGA,134858.500,4308.4753,N,07726.5191,W,1,06,1.49,162.4,M,-34.4,M,,*5F
$GPRMC,134858.750,A,4308.4755,N,07726.5216,W,27.06,275.16,081019,,,A*40
$GPGGA,134859.000,4308.4756,N,07726.5242,W,1,06,1.49,162.4,M,-34.4,M,,*53
$GPRMC,134859.250,A,4308.4758,N,07726.5268,W,27.36,274.42,081019,,,A*43
$GPGGA,134859.500,4308.4759,N,07726.5294,W,1,06,1.49,162.4,M,-34.4,M,,*52
$GPRMC,134859.750,A,4308.4761,N,07726.5320,W,27.79,274.19,081019,,,A*44
$GPGGA,134900.000,4308.4762,N,07726.5347,W,1,06,1.53,162.4,M,-34.4,M,,*56
$GPRMC,134900.250,A,4308.4764,N,07726.5373,W,28.11,273.99,081019,,,A*41
$GPGGA,134900.500,4308.4765,N,07726.5400,W,1,06,1.49,162.3,M,-34.4,M,,*5C
$GPRMC,134900.750,A,4308.4766,N,07726.5427,W,28.56,274.06,081019,,,A*42
$GPGGA,134901.000,4308.4768,N,07726.5454,W,1,06,1.52,162.2,M,-34.4,M,,*5F
$GPRMC,134901.250,A,4308.4769,N,07726.5481,W,28.70,274.02,081019,,,A*45
$GPGGA,134901.500,4308.4770,N,07726.5508,W,1,06,1.49,162.0,M,-34.4,M,,*53
$GPRMC,134901.750,A,4308.4771,N,07726.5535,W,29.14,273.21,081019,,,A*42
$GPGGA,134902.000,4308.4771,N,07726.5563,W,1,06,1.49,161.9,M,-34.4,M,,*53
$GPRMC,134902.250,A,4308.4772,N,07726.5590,W,29.42,272.26,081019,,,A*4D
$GPGGA,134902.500,4308.4773,N,07726.5618,W,1,06,1.49,161.7,M,-34.4,M,,*55
$GPRMC,134902.750,A,4308.4773,N,07726.5646,W,29.52,272.08,081019,,,A*4C
$GPGGA,134903.000,4308.4774,N,07726.5674,W,1,06,1.52,161.5,M,-34.4,M,,*54
$GPRMC,134903.250,A,4308.4774,N,07726.5702,W,29.81,272.51,081019,,,A*4C
$GPGGA,134903.500,4308.4774,N,07726.5730,W,1,06,1.49,161.2,M,-34.4,M,,*5D
$GPRMC,134903.750,A,4308.4775,N,07726.5758,W,30.00,272.80,081019,,,A*4A
$GPGGA,134904.000,4308.4775,N,07726.5786,W,1,06,1.49,161.0,M,-34.4,M,,*51
$GPRMC,134904.250,A,4308.4776,N,07726.5814,W,30.05,273.39,081019,,,A*4A
$GPGGA,134904.500,4308.4777,N,07726.5843,W,1,06,1.49,160.8,M,-34.4,M,,*59
$GPRMC,134904.750,A,4308.4777,N,07726.5871,W,30.53,273.40,081019,,,A*40
$GPGGA,134905.000,4308.4778,N,07726.5900,W,1,06,1.52,160.6,M,-34.4,M,,*50
$GPRMC,134905.250,A,4308.4778,N,07726.5929,W,30.89,273.20,081019,,,A*46
$GPGGA,134905.500,4308.4779,N,07726.5958,W,1,06,1.49,160.4,M,-34.4,M,,*51
$GPRMC,134905.750,A,4308.4779,N,07726.5987,W,31.07,273.14,081019,,,A*46
$GPGGA,134906.000,4308.4780,N,07726.6016,W,1,06,1.49,160.2,M,-34.4,M,,*57
$GPRMC,134906.250,A,4308.4780,N,07726.6046,W,31.31,272.61,081019,,,A*47
$GPGGA,134906.500,4308.4781,N,07726.6075,W,1,06,1.49,160.1,M,-34.4,M,,*55
$GPRMC,134906.750,A,4308.4782,N,07726.6105,W,31.67,271.78,081019,,,A*4E
$GPGGA,134907.000,4308.4782,N,07726.6135,W,1,07,1.40,160.0,M,-34.4,M,,*5E
$GPRMC,134907.250,A,4308.4783,N,07726.6165,W,31.97,271.60,081019,,,A*4B
$GPGGA,134907.500,4308.4784,N,07726.6195,W,1,07,1.26,159.9,M,-34.4,M,,*54
$GPRMC,134907.750,A,4308.4784,N,07726.6225,W,32.29,271.37,081019,,,A*4A
$GPGGA,134908.000,4308.4784,N,07726.6256,W,1,06,1.49,159.9,M,-34.4,M,,*5A
$GPRMC,134908.250,A,4308.4784,N,07726.6287,W,32.82,270.42,081019,,,A*4A
$GPGGA,134908.500,4308.4785,N,07726.6318,W,1,06,1.49,160.0,M,-34.4,M,,*56
$GPRMC,134908.750,A,4308.4785,N,07726.6349,W,32.77,269.85,081019,,,A*44
$GPGGA,134909.000,4308.4785,N,07726.6380,W,1,06,1.49,160.1,M,-34.4,M,,*52
$GPRMC,134909.250,A,4308.4785,N,07726.6411,W,33.44,269.43,081019,,,A*41
$GPGGA,134909.500,4308.4785,N,07726.6443,W,1,07,1.26,160.3,M,-34.4,M,,*55
$GPRMC,134909.750,A,4308.4786,N,07726.6475,W,33.49,269.27,081019,,,A*4A
$GPGGA,134910.000,4308.4785,N,07726.6507,W,1,07,1.40,160.4,M,-34.4,M,,*5E
$GPRMC,134910.250,A,4308.4785,N,07726.6539,W,33.72,268.15,081019,,,A*45
$GPGGA,134910.500,4308.4785,N,07726.6571,W,1,07,1.40,160.5,M,-34.4,M,,*5B
$GPRMC,134910.750,A,4308.4785,N,07726.6603,W,33.81,267.96,081019,,,A*42
$GPGGA,134911.000,4308.4783,N,07726.6635,W,1,06,1.52,160.8,M,-34.4,M,,*55
$GPRMC,134911.250,A,4308.4782,N,07726.6667,W,34.30,267.06,081019,,,A*47
$GPGGA,134911.500,4308.4781,N,07726.6700,W,1,06,1.49,161.2,M,-34.4,M,,*54
$GPRMC,134911.750,A,4308.4780,N,07726.6732,W,34.35,266.30,081019,,,A*40
$GPGGA,134912.000,4308.4779,N,07726.6765,W,1,07,1.40,161.5,M,-34.4,M,,*59
$GPRMC,134912.250,A,4308.4779,N,07726.6798,W,34.55,266.15,081019,,,A*41
$GPGGA,134912.500,4308.4778,N,07726.6830,W,1,07,1.40,161.7,M,-34.4,M,,*50
$GPRMC,134912.750,A,4308.4777,N,07726.6863,W,34.82,265.97,081019,,,A*42
$GPGGA,134913.000,4308.4775,N,07726.6896,W,1,06,1.52,162.1,M,-34.4,M,,*52
$GPRMC,134913.250,A,4308.4774,N,07726.6929,W,34.78,265.22,081019,,,A*41
$GPGGA,134913.500,4308.4773,N,07726.6962,W,1,07,1.40,162.3,M,-34.4,M,,*5B
$GPRMC,134913.750,A,4308.4772,N,07726.6995,W,35.06,265.43,081019,,,A*4A
$GPGGA,134914.000,4308.4770,N,07726.7029,W,1,07,1.40,162.7,M,-34.4,M,,*59
$GPRMC,134914.250,A,4308.4769,N,07726.7062,W,35.11,265.35,081019,,,A*45
$GPGGA,134914.500,4308.4769,N,07726.7095,W,1,07,1.40,162.8,M,-34.4,M,,*5C
$GPRMC,134914.750,A,4308.4767,N,07726.7129,W,35.24,265.66,081019,,,A*40
$GPGGA,134915.000,4308.4766,N,07726.7163,W,1,06,1.52,163.2,M,-34.4,M,,*56
$GPRMC,134915.250,A,4308.4765,N,07726.7196,W,35.44,266.12,081019,,,A*44
$GPGGA,134915.500,4308.4764,N,07726.7230,W,1,06,1.52,163.7,M,-34.4,M,,*51
$GPRMC,134915.750,A,4308.4762,N,07726.7264,W,35.48,265.86,081019,,,A*4A
$GPGGA,134916.000,4308.4762,N,07726.7297,W,1,06,1.52,164.2,M,-34.4,M,,*5E
$GPRMC,134916.250,A,4308.4761,N,07726.7331,W,35.67,265.95,081019,,,A*41
$GPGGA,134916.500,4308.4759,N,07726.7365,W,1,06,1.49,164.6,M,-34.4,M,,*51
$GPRMC,134916.750,A,4308.4758,N,07726.7399,W,35.62,266.05,081019,,,A*43
$GPGGA,134917.000,4308.4757,N,07726.7433,W,1,06,1.52,165.1,M,-34.4,M,,*53
$GPRMC,134917.250,A,4308.4756,N,07726.7466,W,35.69,266.64,081019,,,A*42
$GPGGA,134917.500,4308.4755,N,07726.7500,W,1,06,1.49,165.6,M,-34.4,M,,*58
$GPRMC,134917.750,A,4308.4754,N,07726.7534,W,35.65,266.61,081019,,,A*4A
$GPGGA,134918.000,4308.4753,N,07726.7567,W,1,07,1.25,166.1,M,-34.4,M,,*5A
$GPRMC,134918.250,A,4308.4752,N,07726.7600,W,35.19,266.61,081019,,,A*49
$GPGGA,134918.500,4308.4750,N,07726.7634,W,1,06,1.49,166.5,M,-34.4,M,,*56
$GPRMC,134918.750,A,4308.4749,N,07726.7667,W,34.72,266.24,081019,,,A*4A
$GPGGA,134919.000,4308.4747,N,07726.7699,W,1,06,1.49,167.0,M,-34.4,M,,*57
$GPRMC,134919.250,A,4308.4745,N,07726.7732,W,34.47,264.66,081019,,,A*41
$GPGGA,134919.500,4308.4743,N,07726.7764,W,1,06,1.49,167.4,M,-34.4,M,,*51
$GPRMC,134919.750,A,4308.4741,N,07726.7796,W,33.18,263.82,081019,,,A*4E
$GPGGA,134920.000,4308.4739,N,07726.7827,W,1,06,1.49,167.8,M,-34.4,M,,*57
$GPRMC,134920.250,A,4308.4736,N,07726.7858,W,32.58,262.93,081019,,,A*48
$GPGGA,134920.500,4308.4733,N,07726.7888,W,1,06,1.49,168.2,M,-34.4,M,,*58
$GPRMC,134920.750,A,4308.4731,N,07726.7919,W,32.72,263.25,081019,,,A*4A
$GPGGA,134921.000,4308.4728,N,07726.7950,W,1,06,1.52,168.6,M,-34.4,M,,*5C
$GPRMC,134921.250,A,4308.4725,N,07726.7981,W,33.28,263.64,081019,,,A*41
$GPGGA,134921.500,4308.4723,N,07726.8013,W,1,06,1.49,168.8,M,-34.4,M,,*57
$GPRMC,134921.750,A,4308.4720,N,07726.8044,W,33.30,264.34,081019,,,A*45
$GPGGA,134922.000,4308.4718,N,07726.8076,W,1,06,1.49,168.9,M,-34.4,M,,*5B
$GPRMC,134922.250,A,4308.4715,N,07726.8107,W,34.03,263.61,081019,,,A*43
$GPGGA,134922.500,4308.4713,N,07726.8139,W,1,07,1.25,169.0,M,-34.4,M,,*5C
$GPRMC,134922.750,A,4308.4710,N,07726.8171,W,34.37,263.87,081019,,,A*4D
$GPGGA,134923.000,4308.4708,N,07726.8204,W,1,06,1.49,169.0,M,-34.4,M,,*54
$GPRMC,134923.250,A,4308.4705,N,07726.8236,W,34.71,264.19,081019,,,A*4F
$GPGGA,134923.500,4308.4703,N,07726.8269,W,1,07,1.25,169.0,M,-34.4,M,,*5A
$GPRMC,134923.750,A,4308.4700,N,07726.8301,W,34.92,264.32,081019,,,A*4E
$GPGGA,134924.000,4308.4697,N,07726.8334,W,1,07,1.39,168.9,M,-34.4,M,,*58
$GPRMC,134924.250,A,4308.4694,N,07726.8366,W,34.88,264.15,081019,,,A*4F
$GPGGA,134924.500,4308.4692,N,07726.8398,W,1,07,1.25,168.8,M,-34.4,M,,*52
$GPRMC,134924.750,A,4308.4689,N,07726.8431,W,34.64,264.14,081019,,,A*40
$GPGGA,134925.000,4308.4686,N,07726.8463,W,1,07,1.39,168.6,M,-34.4,M,,*53
$GPRMC,134925.250,A,4308.4684,N,07726.8495,W,34.32,263.59,081019,,,A*4A
$GPGGA,134925.500,4308.4681,N,07726.8527,W,1,07,1.25,168.2,M,-34.4,M,,*59
$GPRMC,134925.750,A,4308.4679,N,07726.8559,W,34.11,264.07,081019,,,A*41
$GPGGA,134926.000,4308.4676,N,07726.8591,W,1,07,1.39,167.9,M,-34.4,M,,*53
$GPRMC,134926.250,A,4308.4674,N,07726.8622,W,33.78,264.30,081019,,,A*49
$GPGGA,134926.500,4308.4672,N,07726.8654,W,1,07,1.25,167.4,M,-34.4,M,,*58
$GPRMC,134926.750,A,4308.4670,N,07726.8685,W,33.52,264.57,081019,,,A*4C
$GPGGA,134927.000,4308.4668,N,07726.8716,W,1,07,1.39,166.9,M,-34.4,M,,*51
$GPRMC,134927.250,A,4308.4665,N,07726.8747,W,33.25,264.37,081019,,,A*45
$GPGGA,134927.500,4308.4664,N,07726.8777,W,1,07,1.25,166.3,M,-34.4,M,,*58
$GPRMC,134927.750,A,4308.4662,N,07726.8808,W,33.05,264.58,081019,,,A*48
$GPGGA,134928.000,4308.4660,N,07726.8839,W,1,07,1.39,165.7,M,-34.4,M,,*59
$GPRMC,134928.250,A,4308.4658,N,07726.8870,W,32.84,263.96,081019,,,A*49
$GPGGA,134928.500,4308.4656,N,07726.8901,W,1,07,1.39,165.2,M,-34.4,M,,*56
$GPRMC,134928.750,A,4308.4653,N,07726.8933,W,33.30,264.14,081019,,,A*42
$GPGGA,134929.000,4308.4650,N,07726.8964,W,1,06,1.49,165.0,M,-34.4,M,,*53
$GPRMC,134929.250,A,4308.4648,N,07726.8995,W,33.28,263.82,081019,,,A*41
$GPGGA,134929.500,4308.4645,N,07726.9027,W,1,06,1.49,164.9,M,-34.4,M,,*55
$GPRMC,134929.750,A,4308.4642,N,07726.9058,W,33.29,264.04,081019,,,A*4F
$GPGGA,134930.000,4308.4640,N,07726.9089,W,1,07,1.25,164.8,M,-34.4,M,,*53
$GPRMC,134930.250,A,4308.4638,N,07726.9120,W,33.10,263.96,081019,,,A*47
$GPGGA,134930.500,4308.4636,N,07726.9152,W,1,07,1.25,164.7,M,-34.4,M,,*5F
$GPRMC,134930.750,A,4308.4633,N,07726.9183,W,32.86,263.02,081019,,,A*43
$GPGGA,134931.000,4308.4631,N,07726.9214,W,1,07,1.39,164.5,M,-34.4,M,,*52
$GPRMC,134931.250,A,4308.4630,N,07726.9245,W,32.80,264.01,081019,,,A*4F
$GPGGA,134931.500,4308.4629,N,07726.9276,W,1,07,1.25,164.3,M,-34.4,M,,*51
$GPRMC,134931.750,A,4308.4627,N,07726.9307,W,32.57,264.03,081019,,,A*43
$GPGGA,134932.000,4308.4625,N,07726.9338,W,1,06,1.49,164.5,M,-34.4,M,,*5D
$GPRMC,134932.250,A,4308.4624,N,07726.9368,W,32.51,264.50,081019,,,A*4F
$GPGGA,134932.500,4308.4623,N,07726.9399,W,1,07,1.25,164.4,M,-34.4,M,,*5F
$GPRMC,134932.750,A,4308.4622,N,07726.9430,W,32.27,264.75,081019,,,A*40
$GPGGA,134933.000,4308.4621,N,07726.9460,W,1,07,1.39,164.3,M,-34.4,M,,*52
$GPRMC,134933.250,A,4308.4619,N,07726.9491,W,32.49,264.59,081019,,,A*41
$GPGGA,134933.500,4308.4618,N,07726.9522,W,1,06,1.49,164.5,M,-34.4,M,,*5A
$GPRMC,134933.750,A,4308.4616,N,07726.9553,W,32.60,264.51,081019,,,A*47
$GPGGA,134934.000,4308.4614,N,07726.9584,W,1,07,1.39,164.6,M,-34.4,M,,*5D
$GPRMC,134934.250,A,4308.4613,N,07726.9615,W,32.71,264.83,081019,,,A*4E
$GPGGA,134934.500,4308.4612,N,07726.9647,W,1,06,1.49,164.8,M,-34.4,M,,*5A
$GPRMC,134934.750,A,4308.4610,N,07726.9679,W,32.84,265.02,081019,,,A*40
$GPGGA,134935.000,4308.4609,N,07726.9711,W,1,07,1.25,164.9,M,-34.4,M,,*5C
$GPRMC,134935.250,A,4308.4607,N,07726.9743,W,34.01,265.14,081019,,,A*46
$GPGGA,134935.500,4308.4605,N,07726.9775,W,1,06,1.49,165.1,M,-34.4,M,,*55
$GPRMC,134935.750,A,4308.4603,N,07726.9808,W,34.24,264.96,081019,,,A*4B
$GPGGA,134936.000,4308.4602,N,07726.9840,W,1,07,1.39,165.3,M,-34.4,M,,*59
$GPRMC,134936.250,A,4308.4600,N,07726.9873,W,34.32,264.88,081019,,,A*4A
$GPGGA,134936.500,4308.4598,N,07726.9905,W,1,07,1.25,165.4,M,-34.4,M,,*56
$GPRMC,134936.750,A,4308.4597,N,07726.9939,W,34.55,265.54,081019,,,A*4C
$GPGGA,134937.000,4308.4595,N,07726.9971,W,1,07,1.39,165.4,M,-34.4,M,,*51
$GPRMC,134937.250,A,4308.4594,N,07727.0004,W,34.67,265.25,081019,,,A*43
$GPGGA,134937.500,4308.4593,N,07727.0037,W,1,07,1.25,165.3,M,-34.4,M,,*5B
$GPRMC,134937.750,A,4308.4592,N,07727.0070,W,34.89,265.65,081019,,,A*47
$GPGGA,134938.000,4308.4591,N,07727.0104,W,1,07,1.39,165.3,M,-34.4,M,,*5F
$GPRMC,134938.250,A,4308.4589,N,07727.0137,W,35.19,265.47,081019,,,A*4D
$GPGGA,134938.500,4308.4588,N,07727.0171,W,1,07,1.25,165.2,M,-34.4,M,,*5C
$GPRMC,134938.750,A,4308.4587,N,07727.0204,W,35.29,265.46,081019,,,A*47
$GPGGA,134939.000,4308.4585,N,07727.0238,W,1,07,1.39,165.2,M,-34.4,M,,*56
$GPRMC,134939.250,A,4308.4583,N,07727.0272,W,35.53,265.35,081019,,,A*4F
$GPGGA,134939.500,4308.4582,N,07727.0305,W,1,07,1.25,165.1,M,-34.4,M,,*55
$GPRMC,134939.750,A,4308.4582,N,07727.0340,W,35.57,266.77,081019,,,A*4A
$GPGGA,134940.000,4308.4581,N,07727.0374,W,1,07,1.39,164.8,M,-34.4,M,,*5E
$GPRMC,134940.250,A,4308.4580,N,07727.0407,W,35.65,266.88,081019,,,A*46
$GPGGA,134940.500,4308.4579,N,07727.0441,W,1,06,1.48,164.7,M,-34.4,M,,*55
$GPRMC,134940.750,A,4308.4578,N,07727.0475,W,35.55,267.92,081019,,,A*48
$GPGGA,134941.000,4308.4577,N,07727.0509,W,1,06,1.51,164.7,M,-34.4,M,,*5A
$GPRMC,134941.250,A,4308.4577,N,07727.0543,W,34.88,269.37,081019,,,A*47
$GPGGA,134941.500,4308.4577,N,07727.0576,W,1,06,1.48,164.6,M,-34.4,M,,*5E
$GPRMC,134941.750,A,4308.4577,N,07727.0609,W,34.60,270.44,081019,,,A*45
$GPGGA,134942.000,4308.4578,N,07727.0642,W,1,07,1.39,164.4,M,-34.4,M,,*56
$GPRMC,134942.250,A,4308.4579,N,07727.0675,W,34.52,271.99,081019,,,A*46
$GPGGA,134942.500,4308.4580,N,07727.0708,W,1,06,1.48,164.3,M,-34.4,M,,*5B
$GPRMC,134942.750,A,4308.4581,N,07727.0741,W,34.40,272.95,081019,,,A*4E
$GPGGA,134943.000,4308.4583,N,07727.0773,W,1,07,1.39,164.1,M,-34.4,M,,*55
$GPRMC,134943.250,A,4308.4584,N,07727.0806,W,34.13,274.37,081019,,,A*4B
$GPGGA,134943.500,4308.4586,N,07727.0839,W,1,07,1.25,163.9,M,-34.4,M,,*56
$GPRMC,134943.750,A,4308.4588,N,07727.0872,W,34.35,275.62,081019,,,A*44
$GPGGA,134944.000,4308.4590,N,07727.0904,W,1,07,1.39,163.6,M,-34.4,M,,*5E
$GPRMC,134944.250,A,4308.4592,N,07727.0937,W,34.50,276.67,081019,,,A*48
$GPGGA,134944.500,4308.4595,N,07727.0970,W,1,07,1.39,163.4,M,-34.4,M,,*5F
$GPRMC,134944.750,A,4308.4597,N,07727.1003,W,34.72,277.25,081019,,,A*40
$GPGGA,134945.000,4308.4600,N,07727.1035,W,1,07,1.39,163.3,M,-34.4,M,,*5A
$GPRMC,134945.250,A,4308.4603,N,07727.1069,W,34.94,278.22,081019,,,A*46
$GPGGA,134945.500,4308.4607,N,07727.1101,W,1,07,1.25,163.0,M,-34.4,M,,*50
$GPRMC,134945.750,A,4308.4610,N,07727.1134,W,34.74,278.83,081019,,,A*4D
$GPGGA,134946.000,4308.4614,N,07727.1167,W,1,07,1.39,162.7,M,-34.4,M,,*5F
$GPRMC,134946.250,A,4308.4618,N,07727.1199,W,34.51,279.20,081019,,,A*4B
$GPGGA,134946.500,4308.4621,N,07727.1231,W,1,07,1.25,162.5,M,-34.4,M,,*53
$GPRMC,134946.750,A,4308.4624,N,07727.1263,W,34.33,279.41,081019,,,A*44
$GPGGA,134947.000,4308.4628,N,07727.1295,W,1,07,1.39,162.3,M,-34.4,M,,*5B
$GPRMC,134947.250,A,4308.4631,N,07727.1327,W,34.16,279.72,081019,,,A*42
$GPGGA,134947.500,4308.4635,N,07727.1358,W,1,07,1.25,162.2,M,-34.4,M,,*5E
$GPRMC,134947.750,A,4308.4638,N,07727.1390,W,34.03,279.68,081019,,,A*4D
$GPGGA,134948.000,4308.4642,N,07727.1422,W,1,07,1.39,162.2,M,-34.4,M,,*53
$GPRMC,134948.250,A,4308.4646,N,07727.1454,W,33.95,279.81,081019,,,A*4E
$GPGGA,134948.500,4308.4650,N,07727.1486,W,1,07,1.39,162.1,M,-34.4,M,,*58
$GPRMC,134948.750,A,4308.4654,N,07727.1518,W,34.14,279.69,081019,,,A*49
$GPGGA,134949.000,4308.4658,N,07727.1551,W,1,07,1.39,162.2,M,-34.4,M,,*5C
$GPRMC,134949.250,A,4308.4661,N,07727.1583,W,34.33,279.46,081019,,,A*41
$GPGGA,134949.500,4308.4665,N,07727.1616,W,1,07,1.25,162.3,M,-34.4,M,,*5B
$GPRMC,134949.750,A,4308.4669,N,07727.1649,W,34.63,279.21,081019,,,A*4D
$GPGGA,134950.000,4308.4673,N,07727.1682,W,1,07,1.25,162.4,M,-34.4,M,,*5B
$GPRMC,134950.250,A,4308.4677,N,07727.1715,W,34.58,279.30,081019,,,A*4F
$GPGGA,134950.500,4308.4680,N,07727.1748,W,1,07,1.25,162.6,M,-34.4,M,,*57
$GPRMC,134950.750,A,4308.4684,N,07727.1780,W,34.46,279.28,081019,,,A*4C
$GPGGA,134951.000,4308.4688,N,07727.1813,W,1,07,1.25,162.9,M,-34.4,M,,*55
$GPRMC,134951.250,A,4308.4692,N,07727.1845,W,34.03,279.57,081019,,,A*40
$GPGGA,134951.500,4308.4695,N,07727.1878,W,1,07,1.25,163.1,M,-34.4,M,,*58
$GPRMC,134951.750,A,4308.4699,N,07727.1910,W,34.01,279.50,081019,,,A*4A
$GPGGA,134952.000,4308.4703,N,07727.1942,W,1,07,1.25,163.4,M,-34.4,M,,*5D
$GPRMC,134952.250,A,4308.4706,N,07727.1973,W,33.79,279.17,081019,,,A*45
$GPGGA,134952.500,4308.4710,N,07727.2005,W,1,07,1.25,163.8,M,-34.4,M,,*5F
$GPRMC,134952.750,A,4308.4713,N,07727.2036,W,32.73,279.05,081019,,,A*47
$GPGGA,134953.000,4308.4717,N,07727.2067,W,1,07,1.25,164.1,M,-34.4,M,,*56
$GPRMC,134953.250,A,4308.4721,N,07727.2098,W,32.40,279.23,081019,,,A*42
$GPGGA,134953.500,4308.4724,N,07727.2129,W,1,07,1.25,164.5,M,-34.4,M,,*5C
$GPRMC,134953.750,A,4308.4728,N,07727.2160,W,32.68,279.09,081019,,,A*4A
$GPGGA,134954.000,4308.4732,N,07727.2192,W,1,07,1.25,164.9,M,-34.4,M,,*55
$GPRMC,134954.250,A,4308.4736,N,07727.2223,W,32.91,279.53,081019,,,A*4A
$GPGGA,134954.500,4308.4741,N,07727.2255,W,1,07,1.25,165.4,M,-34.4,M,,*50
$GPRMC,134954.750,A,4308.4744,N,07727.2286,W,32.99,279.46,081019,,,A*49
$GPGGA,134955.000,4308.4748,N,07727.2318,W,1,07,1.25,165.8,M,-34.4,M,,*59
$GPRMC,134955.250,A,4308.4752,N,07727.2350,W,33.27,279.32,081019,,,A*47
$GPGGA,134955.500,4308.4755,N,07727.2382,W,1,07,1.25,166.3,M,-34.4,M,,*5B
$GPRMC,134955.750,A,4308.4759,N,07727.2414,W,33.28,279.19,081019,,,A*48
$GPGGA,134956.000,4308.4763,N,07727.2445,W,1,07,1.25,166.7,M,-34.4,M,,*50
$GPRMC,134956.250,A,4308.4766,N,07727.2477,W,32.98,278.96,081019,,,A*4B
$GPGGA,134956.500,4308.4770,N,07727.2508,W,1,07,1.25,167.1,M,-34.4,M,,*58
$GPRMC,134956.750,A,4308.4774,N,07727.2540,W,32.91,279.01,081019,,,A*4E
$GPGGA,134957.000,4308.4778,N,07727.2571,W,1,07,1.25,167.5,M,-34.4,M,,*5E
$GPRMC,134957.250,A,4308.4782,N,07727.2602,W,32.59,279.37,081019,,,A*47
$GPGGA,134957.500,4308.4786,N,07727.2633,W,1,07,1.25,167.9,M,-34.4,M,,*53
$GPRMC,134957.750,A,4308.4789,N,07727.2664,W,32.33,279.56,081019,,,A*42
$GPGGA,134958.000,4308.4793,N,07727.2694,W,1,07,1.25,168.3,M,-34.4,M,,*55
$GPRMC,134958.250,A,4308.4796,N,07727.2725,W,32.05,279.75,081019,,,A*46
$GPGGA,134958.500,4308.4800,N,07727.2755,W,1,07,1.25,168.7,M,-34.4,M,,*5D
$GPRMC,134958.750,A,4308.4803,N,07727.2785,W,31.79,279.86,081019,,,A*4E
$GPGGA,134959.000,4308.4807,N,07727.2815,W,1,07,1.25,169.0,M,-34.4,M,,*53
$GPRMC,134959.250,A,4308.4811,N,07727.2845,W,31.45,280.02,081019,,,A*4F
$GPGGA,134959.500,4308.4815,N,07727.2875,W,1,07,1.25,169.3,M,-34.4,M,,*50
$GPRMC,134959.750,A,4308.4819,N,07727.2904,W,31.19,280.40,081019,,,A*49
$GPGGA,135000.000,4308.4825,N,07727.2933,W,1,07,1.38,169.3,M,-34.4,M,,*5D
$GPRMC,135000.250,A,4308.4831,N,07727.2962,W,30.98,280.44,081019,,,A*4E
$GPGGA,135000.500,4308.4835,N,07727.2991,W,1,07,1.25,169.3,M,-34.4,M,,*5D
$GPRMC,135000.750,A,4308.4841,N,07727.3020,W,30.53,280.62,081019,,,A*41
$GPGGA,135001.000,4308.4846,N,07727.3048,W,1,07,1.38,169.0,M,-34.4,M,,*5E
$GPRMC,135001.250,A,4308.4851,N,07727.3077,W,30.40,280.19,081019,,,A*48
$GPGGA,135001.500,4308.4855,N,07727.3106,W,1,07,1.25,168.9,M,-34.4,M,,*56
$GPRMC,135001.750,A,4308.4858,N,07727.3134,W,30.36,279.58,081019,,,A*40
$GPGGA,135002.000,4308.4861,N,07727.3163,W,1,07,1.38,169.1,M,-34.4,M,,*51
$GPRMC,135002.250,A,4308.4863,N,07727.3192,W,30.42,279.16,081019,,,A*4B
$GPGGA,135002.500,4308.4867,N,07727.3221,W,1,07,1.25,169.2,M,-34.4,M,,*58
$GPRMC,135002.750,A,4308.4870,N,07727.3250,W,30.67,279.40,081019,,,A*45
$GPGGA,135003.000,4308.4873,N,07727.3279,W,1,07,1.38,169.3,M,-34.4,M,,*59
$GPRMC,135003.250,A,4308.4878,N,07727.3308,W,30.90,279.65,081019,,,A*4A
$GPGGA,135003.500,4308.4881,N,07727.3337,W,1,07,1.25,169.1,M,-34.4,M,,*54
$GPRMC,135003.750,A,4308.4884,N,07727.3366,W,30.99,279.37,081019,,,A*4A
$GPGGA,135004.000,4308.4889,N,07727.3395,W,1,07,1.38,168.8,M,-34.4,M,,*52
$GPRMC,135004.250,A,4308.4892,N,07727.3425,W,31.20,279.27,081019,,,A*4D
$GPGGA,135004.500,4308.4895,N,07727.3454,W,1,07,1.25,168.8,M,-34.4,M,,*5C
$GPRMC,135004.750,A,4308.4900,N,07727.3484,W,31.59,279.60,081019,,,A*44
$GPGGA,135005.000,4308.4904,N,07727.3514,W,1,07,1.38,168.4,M,-34.4,M,,*54
$GPRMC,135005.250,A,4308.4907,N,07727.3543,W,31.67,279.35,081019,,,A*40
$GPGGA,135005.500,4308.4910,N,07727.3573,W,1,07,1.25,168.3,M,-34.4,M,,*5E
$GPRMC,135005.750,A,4308.4912,N,07727.3604,W,32.87,278.81,081019,,,A*42
$GPGGA,135006.000,4308.4914,N,07727.3635,W,1,07,1.25,168.3,M,-34.4,M,,*5D
$GPRMC,135006.250,A,4308.4917,N,07727.3666,W,33.22,279.31,081019,,,A*41
$GPGGA,135006.500,4308.4920,N,07727.3697,W,1,07,1.25,168.2,M,-34.4,M,,*56
$GPRMC,135006.750,A,4308.4922,N,07727.3729,W,33.66,279.17,081019,,,A*4C
$GPGGA,135007.000,4308.4924,N,07727.3761,W,1,07,1.25,168.1,M,-34.4,M,,*5D
$GPRMC,135007.250,A,4308.4927,N,07727.3792,W,33.80,279.43,081019,,,A*44
$GPGGA,135007.500,4308.4930,N,07727.3824,W,1,07,1.25,168.0,M,-34.4,M,,*52
$GPRMC,135007.750,A,4308.4933,N,07727.3857,W,34.00,279.47,081019,,,A*49
$GPGGA,135008.000,4308.4936,N,07727.3889,W,1,07,1.25,167.8,M,-34.4,M,,*5E
$GPRMC,135008.250,A,4308.4939,N,07727.3921,W,34.32,279.41,081019,,,A*4E
$GPGGA,135008.500,4308.4942,N,07727.3953,W,1,07,1.25,167.7,M,-34.4,M,,*51
$GPRMC,135008.750,A,4308.4945,N,07727.3985,W,34.30,279.48,081019,,,A*45
$GPGGA,135009.000,4308.4948,N,07727.4017,W,1,07,1.25,167.6,M,-34.4,M,,*50
$GPRMC,135009.250,A,4308.4951,N,07727.4048,W,33.78,280.22,081019,,,A*4A
$GPGGA,135009.500,4308.4955,N,07727.4080,W,1,07,1.25,167.6,M,-34.4,M,,*57
$GPRMC,135009.750,A,4308.4958,N,07727.4111,W,33.32,280.32,081019,,,A*44
$GPGGA,135010.000,4308.4961,N,07727.4142,W,1,07,1.25,167.7,M,-34.4,M,,*53
$GPRMC,135010.250,A,4308.4964,N,07727.4173,W,33.09,280.38,081019,,,A*40
$GPGGA,135010.500,4308.4968,N,07727.4204,W,1,07,1.25,167.8,M,-34.4,M,,*51
$GPRMC,135010.750,A,4308.4971,N,07727.4234,W,32.78,280.52,081019,,,A*4A
$GPGGA,135011.000,4308.4975,N,07727.4264,W,1,07,1.38,168.0,M,-34.4,M,,*54
$GPRMC,135011.250,A,4308.4978,N,07727.4294,W,32.54,280.40,081019,,,A*40
$GPGGA,135011.500,4308.4982,N,07727.4325,W,1,07,1.25,168.1,M,-34.4,M,,*50
$GPRMC,135011.750,A,4308.4986,N,07727.4355,W,32.33,279.85,081019,,,A*46
$GPGGA,135012.000,4308.4989,N,07727.4385,W,1,07,1.25,168.3,M,-34.4,M,,*55
$GPRMC,135012.250,A,4308.4992,N,07727.4416,W,32.34,279.47,081019,,,A*4C
$GPGGA,135012.500,4308.4996,N,07727.4447,W,1,07,1.25,168.6,M,-34.4,M,,*52
$GPRMC,135012.750,A,4308.4999,N,07727.4478,W,32.63,279.33,081019,,,A*4B
$GPGGA,135013.000,4308.5003,N,07727.4509,W,1,07,1.38,169.0,M,-34.4,M,,*52
$GPRMC,135013.250,A,4308.5006,N,07727.4540,W,32.98,279.63,081019,,,A*4A
$GPGGA,135013.500,4308.5010,N,07727.4572,W,1,07,1.25,169.3,M,-34.4,M,,*56
$GPRMC,135013.750,A,4308.5014,N,07727.4604,W,33.33,279.56,081019,,,A*49
$GPGGA,135014.000,4308.5017,N,07727.4636,W,1,07,1.25,169.6,M,-34.4,M,,*55
$GPRMC,135014.250,A,4308.5020,N,07727.4667,W,33.44,279.15,081019,,,A*4E
$GPGGA,135014.500,4308.5023,N,07727.4699,W,1,07,1.25,170.1,M,-34.4,M,,*5D
$GPRMC,135014.750,A,4308.5026,N,07727.4731,W,33.51,278.65,081019,,,A*4D
$GPGGA,135015.000,4308.5029,N,07727.4764,W,1,07,1.25,170.5,M,-34.4,M,,*54
$GPRMC,135015.250,A,4308.5033,N,07727.4796,W,33.58,278.48,081019,,,A*46
$GPGGA,135015.500,4308.5036,N,07727.4828,W,1,07,1.25,170.9,M,-34.4,M,,*54
$GPRMC,135015.750,A,4308.5040,N,07727.4860,W,33.30,278.52,081019,,,A*44
$GPGGA,135016.000,4308.5043,N,07727.4891,W,1,07,1.25,171.3,M,-34.4,M,,*59
$GPRMC,135016.250,A,4308.5047,N,07727.4923,W,32.92,278.92,081019,,,A*46
$GPGGA,135016.500,4308.5051,N,07727.4954,W,1,07,1.25,171.7,M,-34.4,M,,*53
$GPRMC,135016.750,A,4308.5054,N,07727.4985,W,32.44,278.86,081019,,,A*43
$GPGGA,135017.000,4308.5058,N,07727.5016,W,1,07,1.25,172.1,M,-34.4,M,,*55
$GPRMC,135017.250,A,4308.5061,N,07727.5047,W,32.02,279.01,081019,,,A*4B
$GPGGA,135017.500,4308.5065,N,07727.5078,W,1,07,1.25,172.5,M,-34.4,M,,*52
$GPRMC,135017.750,A,4308.5069,N,07727.5108,W,31.81,279.35,081019,,,A*43
$GPGGA,135018.000,4308.5072,N,07727.5139,W,1,07,1.25,172.9,M,-34.4,M,,*56
$GPRMC,135018.250,A,4308.5076,N,07727.5169,W,31.55,279.72,081019,,,A*4A
$GPGGA,135018.500,4308.5080,N,07727.5199,W,1,07,1.25,173.2,M,-34.4,M,,*5E
$GPRMC,135018.750,A,4308.5084,N,07727.5228,W,31.39,279.89,081019,,,A*4A
$GPGGA,135019.000,4308.5087,N,07727.5257,W,1,07,1.25,173.5,M,-34.4,M,,*5B
$GPRMC,135019.250,A,4308.5090,N,07727.5286,W,30.72,279.52,081019,,,A*47
$GPGGA,135019.500,4308.5093,N,07727.5315,W,1,07,1.25,173.8,M,-34.4,M,,*51
$GPRMC,135019.750,A,4308.5096,N,07727.5343,W,30.53,279.01,081019,,,A*49
$GPGGA,135020.000,4308.5099,N,07727.5371,W,1,07,1.25,173.9,M,-34.4,M,,*57
$GPRMC,135020.250,A,4308.5102,N,07727.5400,W,30.29,279.03,081019,,,A*45
$GPGGA,135020.500,4308.5104,N,07727.5428,W,1,07,1.25,174.2,M,-34.4,M,,*50
$GPRMC,135020.750,A,4308.5107,N,07727.5455,W,29.65,278.76,081019,,,A*46
$GPGGA,135021.000,4308.5110,N,07727.5483,W,1,07,1.25,174.4,M,-34.4,M,,*56
$GPRMC,135021.250,A,4308.5112,N,07727.5510,W,29.56,279.29,081019,,,A*4D
$GPGGA,135021.500,4308.5115,N,07727.5537,W,1,07,1.25,174.7,M,-34.4,M,,*5B
$GPRMC,135021.750,A,4308.5118,N,07727.5563,W,27.89,279.50,081019,,,A*44
$GPGGA,135022.000,4308.5121,N,07727.5589,W,1,07,1.25,174.9,M,-34.4,M,,*51
$GPRMC,135022.250,A,4308.5124,N,07727.5614,W,26.56,279.67,081019,,,A*49
$GPGGA,135022.500,4308.5127,N,07727.5638,W,1,07,1.25,175.1,M,-34.4,M,,*52
$GPRMC,135022.750,A,4308.5130,N,07727.5662,W,25.12,280.27,081019,,,A*49
$GPGGA,135023.000,4308.5132,N,07727.5684,W,1,07,1.25,175.2,M,-34.4,M,,*56
$GPRMC,135023.250,A,4308.5134,N,07727.5706,W,23.59,279.98,081019,,,A*41
$GPGGA,135023.500,4308.5136,N,07727.5727,W,1,07,1.25,175.4,M,-34.4,M,,*59
$GPRMC,135023.750,A,4308.5139,N,07727.5748,W,22.88,280.43,081019,,,A*4E
$GPGGA,135024.000,4308.5141,N,07727.5769,W,1,07,1.25,175.3,M,-34.4,M,,*56
$GPRMC,135024.250,A,4308.5142,N,07727.5790,W,22.34,280.41,081019,,,A*40
$GPGGA,135024.500,4308.5144,N,07727.5811,W,1,07,1.25,175.3,M,-34.4,M,,*56
$GPRMC,135024.750,A,4308.5146,N,07727.5831,W,21.98,279.85,081019,,,A*4E
$GPGGA,135025.000,4308.5147,N,07727.5851,W,1,07,1.25,175.3,M,-34.4,M,,*55
$GPRMC,135025.250,A,4308.5149,N,07727.5871,W,21.65,280.03,081019,,,A*4B
$GPGGA,135025.500,4308.5150,N,07727.5890,W,1,07,1.25,175.3,M,-34.4,M,,*5B
$GPRMC,135025.750,A,4308.5151,N,07727.5909,W,20.92,280.55,081019,,,A*43
$GPGGA,135026.000,4308.5152,N,07727.5928,W,1,07,1.38,175.2,M,-34.4,M,,*50
$GPRMC,135026.250,A,4308.5153,N,07727.5946,W,19.73,280.17,081019,,,A*4F
$GPGGA,135026.500,4308.5154,N,07727.5963,W,1,07,1.24,175.2,M,-34.4,M,,*51
$GPRMC,135026.750,A,4308.5155,N,07727.5980,W,18.48,280.82,081019,,,A*43
$GPGGA,135027.000,4308.5156,N,07727.5996,W,1,07,1.24,175.2,M,-34.4,M,,*5D
$GPRMC,135027.250,A,4308.5157,N,07727.6012,W,17.40,278.85,081019,,,A*43
$GPGGA,135027.500,4308.5159,N,07727.6028,W,1,07,1.25,175.4,M,-34.4,M,,*5F
$GPRMC,135027.750,A,4308.5158,N,07727.6044,W,16.64,279.48,081019,,,A*4D
$GPGGA,135028.000,4308.5159,N,07727.6060,W,1,07,1.24,175.6,M,-34.4,M,,*5A
$GPRMC,135028.250,A,4308.5162,N,07727.6074,W,15.12,280.63,081019,,,A*40
$GPGGA,135028.500,4308.5165,N,07727.6088,W,1,07,1.24,175.8,M,-34.4,M,,*58
$GPRMC,135028.750,A,4308.5168,N,07727.6103,W,14.12,279.57,081019,,,A*4E
$GPGGA,135029.000,4308.5171,N,07727.6116,W,1,07,1.24,176.0,M,-34.4,M,,*54
$GPRMC,135029.250,A,4308.5174,N,07727.6129,W,12.92,278.36,081019,,,A*47
$GPGGA,135029.500,4308.5178,N,07727.6142,W,1,07,1.24,176.3,M,-34.4,M,,*5A
$GPRMC,135029.750,A,4308.5181,N,07727.6153,W,11.21,283.14,081019,,,A*4A
$GPGGA,135030.000,4308.5183,N,07727.6164,W,1,07,1.24,176.6,M,-34.4,M,,*52
$GPRMC,135030.250,A,4308.5186,N,07727.6174,W,10.07,283.79,081019,,,A*4B
$GPGGA,135030.500,4308.5189,N,07727.6185,W,1,07,1.24,176.6,M,-34.4,M,,*52
$GPRMC,135030.750,A,4308.5191,N,07727.6194,W,9.38,283.09,081019,,,A*75
$GPGGA,135031.000,4308.5192,N,07727.6204,W,1,07,1.24,176.8,M,-34.4,M,,*58
$GPRMC,135031.250,A,4308.5194,N,07727.6212,W,8.71,281.76,081019,,,A*7F
$GPGGA,135031.500,4308.5196,N,07727.6221,W,1,07,1.24,177.0,M,-34.4,M,,*57
$GPRMC,135031.750,A,4308.5198,N,07727.6229,W,8.19,281.26,081019,,,A*75
$GPGGA,135032.000,4308.5200,N,07727.6237,W,1,07,1.24,177.2,M,-34.4,M,,*58
$GPRMC,135032.250,A,4308.5202,N,07727.6245,W,7.58,281.61,081019,,,A*70
$GPGGA,135032.500,4308.5204,N,07727.6252,W,1,07,1.24,177.2,M,-34.4,M,,*5A
$GPRMC,135032.750,A,4308.5205,N,07727.6259,W,7.13,283.66,081019,,,A*75
$GPGGA,135033.000,4308.5208,N,07727.6265,W,1,07,1.24,177.3,M,-34.4,M,,*57
$GPRMC,135033.250,A,4308.5209,N,07727.6271,W,6.48,284.49,081019,,,A*72
$GPGGA,135033.500,4308.5210,N,07727.6276,W,1,07,1.24,177.3,M,-34.4,M,,*59
$GPRMC,135033.750,A,4308.5211,N,07727.6280,W,5.63,289.26,081019,,,A*7E
$GPGGA,135034.000,4308.5211,N,07727.6284,W,1,07,1.38,177.3,M,-34.4,M,,*5A
$GPRMC,135034.250,A,4308.5211,N,07727.6288,W,5.20,289.37,081019,,,A*73
$GPGGA,135034.500,4308.5212,N,07727.6292,W,1,07,1.24,177.4,M,-34.4,M,,*51
$GPRMC,135034.750,A,4308.5212,N,07727.6296,W,5.19,288.15,081019,,,A*71
$GPGGA,135035.000,4308.5212,N,07727.6300,W,1,07,1.24,177.4,M,-34.4,M,,*5F
$GPRMC,135035.250,A,4308.5212,N,07727.6304,W,5.15,284.50,081019,,,A*7E
$GPGGA,135035.500,4308.5204,N,07727.6304,W,1,07,1.24,177.3,M,-34.4,M,,*5E
$GPRMC,135035.750,A,4308.5198,N,07727.6305,W,4.93,282.75,081019,,,A*75
$GPGGA,135036.000,4308.5198,N,07727.6307,W,1,07,1.38,177.1,M,-34.4,M,,*52
$GPRMC,135036.250,A,4308.5198,N,07727.6309,W,4.40,278.18,081019,,,A*7F
$GPGGA,135036.500,4308.5197,N,07727.6312,W,1,07,1.24,177.2,M,-34.4,M,,*52
$GPRMC,135036.750,A,4308.5199,N,07727.6315,W,3.91,279.79,081019,,,A*7B
$GPGGA,135037.000,4308.5201,N,07727.6319,W,1,07,1.38,177.2,M,-34.4,M,,*5C
$GPRMC,135037.250,A,4308.5203,N,07727.6323,W,3.51,285.47,081019,,,A*78
$GPGGA,135037.500,4308.5204,N,07727.6326,W,1,07,1.24,177.3,M,-34.4,M,,*5C
$GPRMC,135037.750,A,4308.5206,N,07727.6329,W,3.18,288.71,081019,,,A*77
$GPGGA,135038.000,4308.5207,N,07727.6332,W,1,07,1.24,177.4,M,-34.4,M,,*57
$GPRMC,135038.250,A,4308.5210,N,07727.6335,W,2.94,287.90,081019,,,A*72
$GPGGA,135038.500,4308.5212,N,07727.6339,W,1,07,1.24,177.6,M,-34.4,M,,*5F
$GPRMC,135038.750,A,4308.5213,N,07727.6341,W,2.35,287.90,081019,,,A*7C
$GPGGA,135039.000,4308.5213,N,07727.6342,W,1,07,1.24,177.7,M,-34.4,M,,*57
$GPRMC,135039.250,A,4308.5214,N,07727.6343,W,1.81,287.90,081019,,,A*71
$GPGGA,135039.500,4308.5215,N,07727.6345,W,1,07,1.24,177.9,M,-34.4,M,,*5D
$GPRMC,135039.750,A,4308.5216,N,07727.6346,W,1.30,287.90,081019,,,A*79
$GPGGA,135040.000,4308.5216,N,07727.6347,W,1,07,1.24,178.1,M,-34.4,M,,*50
$GPRMC,135040.250,A,4308.5217,N,07727.6347,W,0.87,287.90,081019,,,A*7F
$GPGGA,135040.500,4308.5219,N,07727.6348,W,1,07,1.24,177.6,M,-34.4,M,,*5D
$GPRMC,135040.750,A,4308.5221,N,07727.6348,W,0.86,287.90,081019,,,A*71
$GPGGA,135041.000,4308.5222,N,07727.6348,W,1,07,1.24,177.3,M,-34.4,M,,*54
$GPRMC,135041.250,A,4308.5223,N,07727.6347,W,0.77,287.90,081019,,,A*76
$GPGGA,135041.500,4308.5224,N,07727.6346,W,1,07,1.37,177.4,M,-34.4,M,,*5C
$GPRMC,135041.750,A,4308.5225,N,07727.6345,W,0.71,287.90,081019,,,A*71
$GPGGA,135042.000,4308.5226,N,07727.6344,W,1,07,1.37,177.3,M,-34.4,M,,*5D
$GPRMC,135042.250,A,4308.5226,N,07727.6342,W,0.66,287.90,081019,,,A*75
$GPGGA,135042.500,4308.5227,N,07727.6341,W,1,07,1.37,177.2,M,-34.4,M,,*5D
$GPRMC,135042.750,A,4308.5227,N,07727.6341,W,0.57,287.90,081019,,,A*70
$GPGGA,135043.000,4308.5227,N,07727.6341,W,1,07,1.37,177.3,M,-34.4,M,,*58
$GPRMC,135043.250,A,4308.5228,N,07727.6341,W,0.52,287.90,081019,,,A*7E
$GPGGA,135043.500,4308.5228,N,07727.6341,W,1,07,1.37,177.4,M,-34.4,M,,*55
$GPRMC,135043.750,A,4308.5229,N,07727.6341,W,0.50,287.90,081019,,,A*78
$GPGGA,135044.000,4308.5229,N,07727.6341,W,1,07,1.37,177.5,M,-34.4,M,,*57
$GPRMC,135044.250,A,4308.5229,N,07727.6341,W,0.47,287.90,081019,,,A*7C
$GPGGA,135044.500,4308.5229,N,07727.6341,W,1,07,1.37,177.6,M,-34.4,M,,*51
$GPRMC,135044.750,A,4308.5230,N,07727.6341,W,0.51,329.89,081019,,,A*7B
$GPGGA,135045.000,4308.5230,N,07727.6341,W,1,07,1.24,177.7,M,-34.4,M,,*5E
$GPRMC,135045.250,A,4308.5230,N,07727.6341,W,0.72,315.35,081019,,,A*76
$GPGGA,135045.500,4308.5231,N,07727.6342,W,1,07,1.24,177.8,M,-34.4,M,,*56
$GPRMC,135045.750,A,4308.5231,N,07727.6342,W,0.80,310.40,081019,,,A*7B
$GPGGA,135046.000,4308.5231,N,07727.6343,W,1,07,1.24,177.9,M,-34.4,M,,*50
$GPRMC,135046.250,A,4308.5232,N,07727.6344,W,1.11,310.40,081019,,,A*71
$GPGGA,135046.500,4308.5232,N,07727.6345,W,1,07,1.24,178.0,M,-34.4,M,,*56
$GPRMC,135046.750,A,4308.5232,N,07727.6346,W,1.37,310.40,081019,,,A*72
$GPGGA,135047.000,4308.5232,N,07727.6347,W,1,07,1.24,178.1,M,-34.4,M,,*51
$GPRMC,135047.250,A,4308.5232,N,07727.6349,W,1.96,310.40,081019,,,A*72
$GPGGA,135047.500,4308.5232,N,07727.6351,W,1,07,1.24,178.2,M,-34.4,M,,*50
$GPRMC,135047.750,A,4308.5231,N,07727.6354,W,2.22,279.55,081019,,,A*7E
$GPGGA,135048.000,4308.5231,N,07727.6356,W,1,07,1.24,178.4,M,-34.4,M,,*58
$GPRMC,135048.250,A,4308.5230,N,07727.6358,W,1.86,279.68,081019,,,A*7A
$GPGGA,135048.500,4308.5230,N,07727.6360,W,1,07,1.24,178.5,M,-34.4,M,,*58
$GPRMC,135048.750,A,4308.5228,N,07727.6362,W,1.65,281.36,081019,,,A*7E
$GPGGA,135049.000,4308.5226,N,07727.6363,W,1,07,1.24,178.6,M,-34.4,M,,*5B
$GPRMC,135049.250,A,4308.5225,N,07727.6365,W,1.58,282.35,081019,,,A*7E
$GPGGA,135049.500,4308.5223,N,07727.6366,W,1,07,1.24,178.7,M,-34.4,M,,*5F
$GPRMC,135049.750,A,4308.5221,N,07727.6367,W,2.28,276.64,081019,,,A*76
$GPGGA,135050.000,4308.5219,N,07727.6369,W,1,07,1.24,178.7,M,-34.4,M,,*54
$GPRMC,135050.250,A,4308.5217,N,07727.6372,W,3.97,273.90,081019,,,A*71
$GPGGA,135050.500,4308.5215,N,07727.6376,W,1,07,1.24,178.8,M,-34.4,M,,*5C
$GPRMC,135050.750,A,4308.5214,N,07727.6380,W,5.73,274.39,081019,,,A*72
$GPGGA,135051.000,4308.5213,N,07727.6385,W,1,07,1.37,178.8,M,-34.4,M,,*50
$GPRMC,135051.250,A,4308.5212,N,07727.6390,W,7.78,271.99,081019,,,A*77
$GPGGA,135051.500,4308.5211,N,07727.6396,W,1,07,1.24,178.6,M,-34.4,M,,*59
$GPRMC,135051.750,A,4308.5210,N,07727.6403,W,8.78,272.89,081019,,,A*70
$GPGGA,135052.000,4308.5210,N,07727.6410,W,1,07,1.37,178.3,M,-34.4,M,,*50
$GPRMC,135052.250,A,4308.5210,N,07727.6418,W,9.64,268.71,081019,,,A*7C
$GPGGA,135052.500,4308.5210,N,07727.6425,W,1,07,1.24,178.0,M,-34.4,M,,*52
$GPRMC,135052.750,A,4308.5209,N,07727.6433,W,9.51,265.90,081019,,,A*7C
$GPGGA,135053.000,4308.5207,N,07727.6439,W,1,07,1.37,177.9,M,-34.4,M,,*59
$GPRMC,135053.250,A,4308.5207,N,07727.6448,W,9.30,261.12,081019,,,A*73
$GPGGA,135053.500,4308.5207,N,07727.6457,W,1,07,1.37,177.8,M,-34.4,M,,*55
$GPRMC,135053.750,A,4308.5207,N,07727.6465,W,9.24,260.04,081019,,,A*7A
$GPGGA,135054.000,4308.5206,N,07727.6473,W,1,07,1.37,177.7,M,-34.4,M,,*5F
$GPRMC,135054.250,A,4308.5206,N,07727.6481,W,9.20,258.89,081019,,,A*79
$GPGGA,135054.500,4308.5205,N,07727.6489,W,1,07,1.24,177.6,M,-34.4,M,,*5F
$GPRMC,135054.750,A,4308.5205,N,07727.6498,W,9.46,260.65,081019,,,A*7E
$GPGGA,135055.000,4308.5205,N,07727.6508,W,1,07,1.37,177.7,M,-34.4,M,,*50
$GPRMC,135055.250,A,4308.5205,N,07727.6517,W,9.93,264.51,081019,,,A*77
$GPGGA,135055.500,4308.5209,N,07727.6529,W,1,07,1.37,177.8,M,-34.4,M,,*55
$GPRMC,135055.750,A,4308.5212,N,07727.6541,W,10.59,268.84,081019,,,A*4D
$GPGGA,135056.000,4308.5214,N,07727.6553,W,1,07,1.37,177.8,M,-34.4,M,,*52
$GPRMC,135056.250,A,4308.5215,N,07727.6565,W,11.28,272.12,081019,,,A*49
$GPGGA,135056.500,4308.5216,N,07727.6577,W,1,07,1.24,177.9,M,-34.4,M,,*50
$GPRMC,135056.750,A,4308.5216,N,07727.6589,W,11.84,273.42,081019,,,A*4F
$GPGGA,135057.000,4308.5216,N,07727.6602,W,1,07,1.37,177.9,M,-34.4,M,,*57
$GPRMC,135057.250,A,4308.5216,N,07727.6614,W,12.42,275.54,081019,,,A*44
$GPGGA,135057.500,4308.5217,N,07727.6626,W,1,07,1.37,178.1,M,-34.4,M,,*52
$GPRMC,135057.750,A,4308.5216,N,07727.6637,W,12.42,275.50,081019,,,A*44
$GPGGA,135058.000,4308.5216,N,07727.6648,W,1,07,1.37,178.1,M,-34.4,M,,*51
$GPRMC,135058.250,A,4308.5216,N,07727.6660,W,12.41,275.34,081019,,,A*4D
$GPGGA,135058.500,4308.5215,N,07727.6672,W,1,07,1.24,178.1,M,-34.4,M,,*5C
$GPRMC,135058.750,A,4308.5215,N,07727.6682,W,12.12,275.28,081019,,,A*4C
$GPGGA,135059.000,4308.5215,N,07727.6693,W,1,07,1.37,178.0,M,-34.4,M,,*54
$GPRMC,135059.250,A,4308.5215,N,07727.6705,W,11.88,274.55,081019,,,A*4D
$GPGGA,135059.500,4308.5214,N,07727.6717,W,1,07,1.24,177.9,M,-34.4,M,,*59
$GPRMC,135059.750,A,4308.5213,N,07727.6728,W,11.50,274.15,081019,,,A*40
$GPGGA,135100.000,4308.5212,N,07727.6739,W,1,07,1.37,177.8,M,-34.4,M,,*58
$GPRMC,135100.250,A,4308.5211,N,07727.6750,W,11.38,274.45,081019,,,A*4E
