Vers 57
USE_SERIAL_FEEDBACK=false
DEVELOPMENT_MODE=false
USE_RMC_ONLY=false

$GPRMC,143248.800,A,4308.3033,N,07726.2665,W,0.35,284.47,100419,,,A*75
$GPGGA,143249.000,4308.3036,N,07726.2666,W,1,06,1.41,152.9,M,-34.4,M,,*5D
lng=-77.437774, lat=43.138385, altitude=150.40, speed=0.35, satellites=6, angle=284.4700, fixquality=1
$GPRMC,143249.200,A,4308.3033,N,07726.2663,W,0.23,294.87,100419,,,A*72
$GPGGA,143249.400,4308.3030,N,07726.2661,W,1,06,1.41,152.2,M,-34.4,M,,*53
lng=-77.437767, lat=43.138385, altitude=152.90, speed=0.23, satellites=6, angle=294.8700, fixquality=1
$GPRMC,143249.600,A,4308.3029,N,07726.2661,W,0.30,292.48,100419,,,A*78
$GPGGA,143249.800,4308.3027,N,07726.2661,W,1,06,1.41,151.1,M,-34.4,M,,*59
lng=-77.437767, lat=43.138378, altitude=152.20, speed=0.30, satellites=6, angle=292.4800, fixquality=1
$GPRMC,143250.000,A,4308.3026,N,07726.2661,W,0.31,299.56,100419,,,A*7C
$GPGGA,143250.200,4308.3025,N,07726.2660,W,1,06,1.41,150.6,M,-34.4,M,,*5E
lng=-77.437767, lat=43.138378, altitude=151.10, speed=0.31, satellites=6, angle=299.5600, fixquality=1
$GPRMC,143250.400,A,4308.3025,N,07726.2661,W,0.22,301.01,100419,,,A*7B
$GPGGA,143250.600,4308.3026,N,07726.2661,W,1,06,1.41,150.6,M,-34.4,M,,*58
lng=-77.437767, lat=43.138378, altitude=150.60, speed=0.22, satellites=6, angle=301.0100, fixquality=1
$GPRMC,143250.800,A,4308.3025,N,07726.2661,W,0.21,301.56,100419,,,A*76
$GPGGA,143251.000,4308.3025,N,07726.2661,W,1,06,1.41,150.1,M,-34.4,M,,*5B
lng=-77.437767, lat=43.138378, altitude=150.60, speed=0.21, satellites=6, angle=301.5600, fixquality=1
$GPRMC,143251.200,A,4308.3024,N,07726.2660,W,0.23,324.60,100419,,,A*7D
$GPGGA,143251.400,4308.3024,N,07726.2660,W,1,06,1.41,150.0,M,-34.4,M,,*5E
lng=-77.437767, lat=43.138370, altitude=150.10, speed=0.23, satellites=6, angle=324.6000, fixquality=1
$GPRMC,143251.600,A,4308.3025,N,07726.2661,W,0.34,354.79,100419,,,A*70
$GPGGA,143251.800,4308.3026,N,07726.2662,W,1,06,1.46,150.0,M,-34.4,M,,*55
lng=-77.437767, lat=43.138378, altitude=150.00, speed=0.34, satellites=6, angle=354.7900, fixquality=1
$GPRMC,143252.000,A,4308.3027,N,07726.2662,W,0.34,354.21,100419,,,A*79
$GPGGA,143252.200,4308.3027,N,07726.2663,W,1,06,1.46,149.8,M,-34.4,M,,*5C
lng=-77.437767, lat=43.138378, altitude=150.00, speed=0.34, satellites=6, angle=354.2100, fixquality=1
$GPRMC,143252.400,A,4308.3028,N,07726.2663,W,0.35,347.17,100419,,,A*75
$GPGGA,143252.600,4308.3028,N,07726.2663,W,1,06,1.46,149.8,M,-34.4,M,,*57
lng=-77.437767, lat=43.138378, altitude=149.80, speed=0.35, satellites=6, angle=347.1700, fixquality=1
$GPRMC,143252.800,A,4308.3028,N,07726.2664,W,0.29,336.81,100419,,,A*7A
$GPGGA,143253.000,4308.3028,N,07726.2664,W,1,06,1.41,149.7,M,-34.4,M,,*5F
lng=-77.437774, lat=43.138378, altitude=149.80, speed=0.29, satellites=6, angle=336.8100, fixquality=1
$GPRMC,143253.200,A,4308.3026,N,07726.2664,W,0.31,328.29,100419,,,A*7B
$GPGGA,143253.400,4308.3027,N,07726.2665,W,1,06,1.41,149.2,M,-34.4,M,,*50
lng=-77.437774, lat=43.138378, altitude=149.70, speed=0.31, satellites=6, angle=328.2900, fixquality=1
$GPRMC,143253.600,A,4308.3027,N,07726.2665,W,0.37,331.32,100419,,,A*7B
$GPGGA,143253.800,4308.3026,N,07726.2665,W,1,06,1.41,148.9,M,-34.4,M,,*57
lng=-77.437774, lat=43.138378, altitude=149.20, speed=0.37, satellites=6, angle=331.3200, fixquality=1
$GPRMC,143254.000,A,4308.3025,N,07726.2666,W,0.34,326.31,100419,,,A*7D
$GPGGA,143254.200,4308.3023,N,07726.2665,W,1,07,1.17,148.3,M,-34.4,M,,*57
lng=-77.437774, lat=43.138378, altitude=148.90, speed=0.34, satellites=6, angle=326.3100, fixquality=1
$GPRMC,143254.400,A,4308.3022,N,07726.2665,W,0.19,331.90,100419,,,A*7F
$GPGGA,143254.600,4308.3023,N,07726.2665,W,1,07,1.17,147.9,M,-34.4,M,,*56
lng=-77.437774, lat=43.138370, altitude=148.30, speed=0.19, satellites=7, angle=331.9000, fixquality=1
$GPRMC,143254.800,A,4308.3022,N,07726.2665,W,0.21,342.54,100419,,,A*74
$GPGGA,143255.000,4308.3022,N,07726.2666,W,1,07,1.17,147.7,M,-34.4,M,,*5D
lng=-77.437774, lat=43.138370, altitude=147.90, speed=0.21, satellites=7, angle=342.5400, fixquality=1
$GPRMC,143255.200,A,4308.3023,N,07726.2666,W,0.23,338.11,100419,,,A*73
$GPGGA,143255.400,4308.3023,N,07726.2667,W,1,07,1.17,147.7,M,-34.4,M,,*59
lng=-77.437774, lat=43.138370, altitude=147.70, speed=0.23, satellites=7, angle=338.1100, fixquality=1
$GPRMC,143255.600,A,4308.3024,N,07726.2667,W,0.30,324.31,100419,,,A*7C
$GPGGA,143255.800,4308.3025,N,07726.2667,W,1,07,1.17,147.8,M,-34.4,M,,*5C
lng=-77.437774, lat=43.138370, altitude=147.70, speed=0.30, satellites=7, angle=324.3100, fixquality=1
$GPRMC,143256.000,A,4308.3025,N,07726.2668,W,0.28,311.40,100419,,,A*7E
$GPGGA,143256.200,4308.3026,N,07726.2668,W,1,07,1.17,147.9,M,-34.4,M,,*58
lng=-77.437774, lat=43.138378, altitude=147.80, speed=0.28, satellites=7, angle=311.4000, fixquality=1
$GPRMC,143256.400,A,4308.3026,N,07726.2669,W,0.24,284.71,100419,,,A*7B
$GPGGA,143256.600,4308.3026,N,07726.2669,W,1,07,1.17,148.1,M,-34.4,M,,*5A
lng=-77.437782, lat=43.138378, altitude=147.90, speed=0.24, satellites=7, angle=284.7100, fixquality=1
$GPRMC,143256.800,A,4308.3027,N,07726.2669,W,0.24,272.75,100419,,,A*7B
$GPGGA,143257.000,4308.3027,N,07726.2670,W,1,07,1.17,148.1,M,-34.4,M,,*54
lng=-77.437782, lat=43.138378, altitude=148.10, speed=0.24, satellites=7, angle=272.7500, fixquality=1
$GPRMC,143257.200,A,4308.3028,N,07726.2670,W,0.22,287.52,100419,,,A*7E
$GPGGA,143257.400,4308.3028,N,07726.2671,W,1,07,1.17,148.0,M,-34.4,M,,*5F
lng=-77.437782, lat=43.138378, altitude=148.10, speed=0.22, satellites=7, angle=287.5200, fixquality=1
$GPRMC,143257.600,A,4308.3028,N,07726.2671,W,0.20,285.84,100419,,,A*70
$GPGGA,143257.800,4308.3028,N,07726.2671,W,1,07,1.17,148.0,M,-34.4,M,,*53
lng=-77.437782, lat=43.138378, altitude=148.00, speed=0.20, satellites=7, angle=285.8400, fixquality=1
$GPRMC,143258.000,A,4308.3029,N,07726.2672,W,0.20,291.52,100419,,,A*75
$GPGGA,143258.200,4308.3029,N,07726.2672,W,1,07,1.17,147.9,M,-34.4,M,,*52
lng=-77.437782, lat=43.138378, altitude=148.00, speed=0.20, satellites=7, angle=291.5200, fixquality=1
$GPRMC,143258.400,A,4308.3030,N,07726.2673,W,0.19,305.58,100419,,,A*74
$GPGGA,143258.600,4308.3030,N,07726.2673,W,1,07,1.17,147.9,M,-34.4,M,,*5F
lng=-77.437782, lat=43.138385, altitude=147.90, speed=0.19, satellites=7, angle=305.5800, fixquality=1
$GPRMC,143258.800,A,4308.3030,N,07726.2673,W,0.21,304.51,100419,,,A*7B
$GPGGA,143259.000,4308.3030,N,07726.2673,W,1,07,1.17,147.9,M,-34.4,M,,*58
lng=-77.437782, lat=43.138385, altitude=147.90, speed=0.21, satellites=7, angle=304.5100, fixquality=1
$GPRMC,143259.200,A,4308.3030,N,07726.2673,W,0.15,295.84,100419,,,A*76
$GPGGA,143259.400,4308.3030,N,07726.2673,W,1,07,1.17,147.9,M,-34.4,M,,*5C
lng=-77.437782, lat=43.138385, altitude=147.90, speed=0.15, satellites=7, angle=295.8400, fixquality=1
$GPRMC,143259.600,A,4308.3030,N,07726.2673,W,0.09,258.61,100419,,,A*75
$GPGGA,143259.800,4308.3030,N,07726.2673,W,1,07,1.17,147.8,M,-34.4,M,,*51
lng=-77.437782, lat=43.138385, altitude=147.90, speed=0.09, satellites=7, angle=258.6100, fixquality=1
$GPRMC,143300.000,A,4308.3030,N,07726.2673,W,0.11,235.86,100419,,,A*75
$GPGGA,143300.200,4308.3030,N,07726.2673,W,1,07,1.17,147.8,M,-34.4,M,,*56
lng=-77.437782, lat=43.138385, altitude=147.80, speed=0.11, satellites=7, angle=235.8600, fixquality=1
$GPRMC,143300.400,A,4308.3030,N,07726.2674,W,0.13,234.46,100419,,,A*79
$GPGGA,143300.600,4308.3029,N,07726.2674,W,1,07,1.17,147.8,M,-34.4,M,,*5D
lng=-77.437789, lat=43.138385, altitude=147.80, speed=0.13, satellites=7, angle=234.4600, fixquality=1
$GPRMC,143300.800,A,4308.3029,N,07726.2674,W,0.10,236.73,100419,,,A*7A
$GPGGA,143301.000,4308.3030,N,07726.2673,W,1,07,1.17,147.7,M,-34.4,M,,*5A
lng=-77.437789, lat=43.138378, altitude=147.80, speed=0.10, satellites=7, angle=236.7300, fixquality=1
$GPRMC,143301.200,A,4308.3029,N,07726.2673,W,0.03,132.29,100419,,,A*7C
$GPGGA,143301.400,4308.3029,N,07726.2673,W,1,07,1.17,147.6,M,-34.4,M,,*57
lng=-77.437782, lat=43.138378, altitude=147.70, speed=0.03, satellites=7, angle=132.2900, fixquality=1
$GPRMC,143301.600,A,4308.3029,N,07726.2673,W,0.05,87.80,100419,,,A*42
$GPGGA,143301.800,4308.3030,N,07726.2673,W,1,07,1.17,147.6,M,-34.4,M,,*53
lng=-77.437782, lat=43.138378, altitude=147.60, speed=0.05, satellites=7, angle=87.8000, fixquality=1
$GPRMC,143302.000,A,4308.3030,N,07726.2673,W,0.05,40.89,100419,,,A*4D
$GPGGA,143302.200,4308.3030,N,07726.2673,W,1,07,1.17,147.6,M,-34.4,M,,*5A
lng=-77.437782, lat=43.138385, altitude=147.60, speed=0.05, satellites=7, angle=40.8900, fixquality=1
$GPRMC,143302.400,A,4308.3029,N,07726.2673,W,0.04,291.33,100419,,,A*7F
$GPGGA,143302.600,4308.3029,N,07726.2673,W,1,07,1.17,147.6,M,-34.4,M,,*56
lng=-77.437782, lat=43.138378, altitude=147.60, speed=0.04, satellites=7, angle=291.3300, fixquality=1
$GPRMC,143302.800,A,4308.3029,N,07726.2673,W,0.08,320.78,100419,,,A*7B
$GPGGA,143303.000,4308.3029,N,07726.2673,W,1,07,1.17,147.6,M,-34.4,M,,*51
lng=-77.437782, lat=43.138378, altitude=147.60, speed=0.08, satellites=7, angle=320.7800, fixquality=1
$GPRMC,143303.200,A,4308.3029,N,07726.2673,W,0.10,313.93,100419,,,A*7C
$GPGGA,143303.400,4308.3029,N,07726.2673,W,1,07,1.17,147.5,M,-34.4,M,,*56
lng=-77.437782, lat=43.138378, altitude=147.60, speed=0.10, satellites=7, angle=313.9300, fixquality=1
$GPRMC,143303.600,A,4308.3029,N,07726.2672,W,0.12,320.54,100419,,,A*70
$GPGGA,143303.800,4308.3029,N,07726.2672,W,1,07,1.17,147.5,M,-34.4,M,,*5B
lng=-77.437782, lat=43.138378, altitude=147.50, speed=0.12, satellites=7, angle=320.5400, fixquality=1
$GPRMC,143304.000,A,4308.3028,N,07726.2672,W,0.07,288.30,100419,,,A*75
$GPGGA,143304.200,4308.3028,N,07726.2671,W,1,07,1.17,147.5,M,-34.4,M,,*54
lng=-77.437782, lat=43.138378, altitude=147.50, speed=0.07, satellites=7, angle=288.3000, fixquality=1
$GPRMC,143304.400,A,4308.3028,N,07726.2671,W,0.07,194.44,100419,,,A*7F
$GPGGA,143304.600,4308.3027,N,07726.2670,W,1,07,1.17,147.4,M,-34.4,M,,*5F
lng=-77.437782, lat=43.138378, altitude=147.50, speed=0.07, satellites=7, angle=194.4400, fixquality=1
$GPRMC,143304.800,A,4308.3027,N,07726.2669,W,0.11,152.84,100419,,,A*74
$GPGGA,143305.000,4308.3027,N,07726.2669,W,1,07,1.17,147.4,M,-34.4,M,,*50
lng=-77.437782, lat=43.138378, altitude=147.40, speed=0.11, satellites=7, angle=152.8400, fixquality=1
$GPRMC,143305.200,A,4308.3026,N,07726.2668,W,0.14,130.26,100419,,,A*76
$GPGGA,143305.400,4308.3026,N,07726.2668,W,1,07,1.17,147.4,M,-34.4,M,,*54
lng=-77.437774, lat=43.138378, altitude=147.40, speed=0.14, satellites=7, angle=130.2600, fixquality=1
$GPRMC,143305.600,A,4308.3026,N,07726.2669,W,0.17,201.47,100419,,,A*76
$GPGGA,143305.800,4308.3025,N,07726.2668,W,1,07,1.17,147.4,M,-34.4,M,,*5B
lng=-77.437782, lat=43.138378, altitude=147.40, speed=0.17, satellites=7, angle=201.4700, fixquality=1
$GPRMC,143306.000,A,4308.3025,N,07726.2668,W,0.21,204.04,100419,,,A*76
$GPGGA,143306.200,4308.3025,N,07726.2668,W,1,07,1.17,147.4,M,-34.4,M,,*52
lng=-77.437774, lat=43.138378, altitude=147.40, speed=0.21, satellites=7, angle=204.0400, fixquality=1
$GPRMC,143306.400,A,4308.3025,N,07726.2667,W,0.10,177.84,100419,,,A*70
$GPGGA,143306.600,4308.3024,N,07726.2666,W,1,07,1.17,147.5,M,-34.4,M,,*58
lng=-77.437774, lat=43.138378, altitude=147.40, speed=0.10, satellites=7, angle=177.8400, fixquality=1
$GPRMC,143306.800,A,4308.3024,N,07726.2665,W,0.08,153.74,100419,,,A*7F
$GPGGA,143307.000,4308.3023,N,07726.2665,W,1,07,1.17,147.5,M,-34.4,M,,*5B
lng=-77.437774, lat=43.138370, altitude=147.50, speed=0.08, satellites=7, angle=153.7400, fixquality=1
$GPRMC,143307.200,A,4308.3023,N,07726.2664,W,0.10,111.09,100419,,,A*77
$GPGGA,143307.400,4308.3022,N,07726.2663,W,1,07,1.17,147.5,M,-34.4,M,,*58
lng=-77.437774, lat=43.138370, altitude=147.50, speed=0.10, satellites=7, angle=111.0900, fixquality=1
$GPRMC,143307.600,A,4308.3022,N,07726.2662,W,0.12,124.63,100419,,,A*7C
$GPGGA,143307.800,4308.3021,N,07726.2661,W,1,07,1.17,147.6,M,-34.4,M,,*56
lng=-77.437767, lat=43.138370, altitude=147.50, speed=0.12, satellites=7, angle=124.6300, fixquality=1
$GPRMC,143308.000,A,4308.3020,N,07726.2660,W,0.15,125.73,100419,,,A*72
$GPGGA,143308.200,4308.3020,N,07726.2659,W,1,07,1.17,147.7,M,-34.4,M,,*58
lng=-77.437767, lat=43.138362, altitude=147.60, speed=0.15, satellites=7, angle=125.7300, fixquality=1
$GPRMC,143308.400,A,4308.3020,N,07726.2659,W,0.10,116.24,100419,,,A*7B
$GPGGA,143308.600,4308.3019,N,07726.2658,W,1,07,1.17,147.7,M,-34.4,M,,*57
lng=-77.437767, lat=43.138362, altitude=147.70, speed=0.10, satellites=7, angle=116.2400, fixquality=1
$GPRMC,143308.800,A,4308.3018,N,07726.2657,W,0.12,181.51,100419,,,A*7C
$GPGGA,143309.000,4308.3018,N,07726.2657,W,1,07,1.17,147.8,M,-34.4,M,,*51
lng=-77.437759, lat=43.138362, altitude=147.70, speed=0.12, satellites=7, angle=181.5100, fixquality=1
$GPRMC,143309.200,A,4308.3017,N,07726.2656,W,0.19,190.14,100419,,,A*73
$GPGGA,143309.400,4308.3016,N,07726.2655,W,1,07,1.17,147.9,M,-34.4,M,,*58
lng=-77.437759, lat=43.138362, altitude=147.80, speed=0.19, satellites=7, angle=190.1400, fixquality=1
$GPRMC,143309.600,A,4308.3016,N,07726.2655,W,0.19,198.11,100419,,,A*78
$GPGGA,143309.800,4308.3015,N,07726.2655,W,1,07,1.17,147.9,M,-34.4,M,,*57
lng=-77.437759, lat=43.138362, altitude=147.90, speed=0.19, satellites=7, angle=198.1100, fixquality=1
$GPRMC,143310.000,A,4308.3015,N,07726.2654,W,0.17,195.45,100419,,,A*76
$GPGGA,143310.200,4308.3015,N,07726.2653,W,1,07,1.17,148.0,M,-34.4,M,,*55
lng=-77.437759, lat=43.138355, altitude=147.90, speed=0.17, satellites=7, angle=195.4500, fixquality=1
$GPRMC,143310.400,A,4308.3014,N,07726.2653,W,0.10,191.44,100419,,,A*76
$GPGGA,143310.600,4308.3014,N,07726.2652,W,1,07,1.17,148.1,M,-34.4,M,,*50
lng=-77.437751, lat=43.138355, altitude=148.00, speed=0.10, satellites=7, angle=191.4400, fixquality=1
$GPRMC,143310.800,A,4308.3014,N,07726.2651,W,0.08,162.12,100419,,,A*7E
$GPGGA,143311.000,4308.3013,N,07726.2651,W,1,07,1.17,148.2,M,-34.4,M,,*50
lng=-77.437751, lat=43.138355, altitude=148.10, speed=0.08, satellites=7, angle=162.1200, fixquality=1
$GPRMC,143311.200,A,4308.3013,N,07726.2650,W,0.04,102.54,100419,,,A*7B
$GPGGA,143311.400,4308.3013,N,07726.2650,W,1,07,1.17,148.3,M,-34.4,M,,*54
lng=-77.437751, lat=43.138355, altitude=148.20, speed=0.04, satellites=7, angle=102.5400, fixquality=1
$GPRMC,143311.600,A,4308.3013,N,07726.2649,W,0.10,199.78,100419,,,A*7E
$GPGGA,143311.800,4308.3012,N,07726.2649,W,1,07,1.17,148.4,M,-34.4,M,,*56
lng=-77.437751, lat=43.138355, altitude=148.30, speed=0.10, satellites=7, angle=199.7800, fixquality=1
$GPRMC,143312.000,A,4308.3012,N,07726.2648,W,0.07,181.35,100419,,,A*7D
$GPGGA,143312.200,4308.3012,N,07726.2647,W,1,07,1.17,148.5,M,-34.4,M,,*50
lng=-77.437744, lat=43.138355, altitude=148.40, speed=0.07, satellites=7, angle=181.3500, fixquality=1
$GPRMC,143312.400,A,4308.3012,N,07726.2647,W,0.11,137.61,100419,,,A*7D
$GPGGA,143312.600,4308.3011,N,07726.2647,W,1,07,1.17,148.6,M,-34.4,M,,*54
lng=-77.437744, lat=43.138355, altitude=148.50, speed=0.11, satellites=7, angle=137.6100, fixquality=1
$GPRMC,143312.800,A,4308.3011,N,07726.2647,W,0.12,162.18,100419,,,A*7F
$GPGGA,143313.000,4308.3011,N,07726.2647,W,1,07,1.17,148.6,M,-34.4,M,,*53
lng=-77.437744, lat=43.138355, altitude=148.60, speed=0.12, satellites=7, angle=162.1800, fixquality=1
$GPRMC,143313.200,A,4308.3010,N,07726.2646,W,0.17,179.61,100419,,,A*75
$GPGGA,143313.400,4308.3010,N,07726.2646,W,1,07,1.17,148.6,M,-34.4,M,,*57
lng=-77.437744, lat=43.138347, altitude=148.60, speed=0.17, satellites=7, angle=179.6100, fixquality=1
$GPRMC,143313.600,A,4308.3009,N,07726.2646,W,0.22,205.54,100419,,,A*71
$GPGGA,143313.800,4308.3009,N,07726.2645,W,1,07,1.17,148.7,M,-34.4,M,,*51
lng=-77.437744, lat=43.138347, altitude=148.60, speed=0.22, satellites=7, angle=205.5400, fixquality=1
$GPRMC,143314.000,A,4308.3009,N,07726.2644,W,0.10,190.12,100419,,,A*7E
$GPGGA,143314.200,4308.3009,N,07726.2644,W,1,07,1.17,148.8,M,-34.4,M,,*52
lng=-77.437736, lat=43.138347, altitude=148.70, speed=0.10, satellites=7, angle=190.1200, fixquality=1
$GPRMC,143314.400,A,4308.3008,N,07726.2643,W,0.07,148.55,100419,,,A*7C
$GPGGA,143314.600,4308.3008,N,07726.2642,W,1,07,1.17,148.8,M,-34.4,M,,*51
lng=-77.437736, lat=43.138347, altitude=148.80, speed=0.07, satellites=7, angle=148.5500, fixquality=1
$GPRMC,143314.800,A,4308.3007,N,07726.2642,W,0.12,151.26,100419,,,A*76
$GPGGA,143315.000,4308.3007,N,07726.2641,W,1,07,1.17,148.7,M,-34.4,M,,*55
lng=-77.437736, lat=43.138347, altitude=148.80, speed=0.12, satellites=7, angle=151.2600, fixquality=1
$GPRMC,143315.200,A,4308.3007,N,07726.2641,W,0.17,155.37,100419,,,A*7F
$GPGGA,143315.400,4308.3006,N,07726.2641,W,1,07,1.17,148.7,M,-34.4,M,,*50
lng=-77.437736, lat=43.138347, altitude=148.70, speed=0.17, satellites=7, angle=155.3700, fixquality=1
$GPRMC,143315.600,A,4308.3007,N,07726.2641,W,0.02,202.32,100419,,,A*7B
$GPGGA,143315.800,4308.3007,N,07726.2641,W,1,07,1.17,148.7,M,-34.4,M,,*5D
lng=-77.437736, lat=43.138347, altitude=148.70, speed=0.02, satellites=7, angle=202.3200, fixquality=1
$GPRMC,143316.000,A,4308.3006,N,07726.2641,W,0.05,314.91,100419,,,A*77
$GPGGA,143316.200,4308.3006,N,07726.2640,W,1,07,1.17,148.6,M,-34.4,M,,*55
lng=-77.437736, lat=43.138347, altitude=148.70, speed=0.05, satellites=7, angle=314.9100, fixquality=1
$GPRMC,143316.400,A,4308.3006,N,07726.2640,W,0.12,9.05,100419,,,A*76
$GPGGA,143316.600,4308.3006,N,07726.2639,W,1,07,1.22,148.6,M,-34.4,M,,*59
lng=-77.437736, lat=43.138347, altitude=148.60, speed=0.12, satellites=7, angle=9.0500, fixquality=1
$GPRMC,143316.800,A,4308.3006,N,07726.2638,W,0.17,28.64,100419,,,A*44
$GPGGA,143317.000,4308.3006,N,07726.2638,W,1,07,1.17,148.7,M,-34.4,M,,*58
lng=-77.437728, lat=43.138347, altitude=148.60, speed=0.17, satellites=7, angle=28.6400, fixquality=1
$GPRMC,143317.200,A,4308.3006,N,07726.2637,W,0.25,27.00,100419,,,A*4C
$GPGGA,143317.400,4308.3006,N,07726.2637,W,1,07,1.17,148.7,M,-34.4,M,,*53
lng=-77.437728, lat=43.138347, altitude=148.70, speed=0.25, satellites=7, angle=27.0000, fixquality=1
$GPRMC,143317.600,A,4308.3006,N,07726.2637,W,0.21,6.78,100419,,,A*70
$GPGGA,143317.800,4308.3006,N,07726.2637,W,1,07,1.22,148.7,M,-34.4,M,,*59
lng=-77.437728, lat=43.138347, altitude=148.70, speed=0.21, satellites=7, angle=6.7800, fixquality=1
$GPRMC,143318.000,A,4308.3005,N,07726.2636,W,0.14,26.43,100419,,,A*47
$GPGGA,143318.200,4308.3005,N,07726.2635,W,1,07,1.17,148.7,M,-34.4,M,,*5B
lng=-77.437728, lat=43.138339, altitude=148.70, speed=0.14, satellites=7, angle=26.4300, fixquality=1
$GPRMC,143318.400,A,4308.3005,N,07726.2634,W,0.14,68.25,100419,,,A*4B
$GPGGA,143318.600,4308.3004,N,07726.2634,W,1,07,1.17,148.8,M,-34.4,M,,*50
lng=-77.437721, lat=43.138339, altitude=148.70, speed=0.14, satellites=7, angle=68.2500, fixquality=1
$GPRMC,143318.800,A,4308.3004,N,07726.2634,W,0.07,32.86,100419,,,A*42
$GPGGA,143319.000,4308.3004,N,07726.2634,W,1,07,1.17,148.8,M,-34.4,M,,*57
lng=-77.437721, lat=43.138339, altitude=148.80, speed=0.07, satellites=7, angle=32.8600, fixquality=1
$GPRMC,143319.200,A,4308.3004,N,07726.2634,W,0.07,18.69,100419,,,A*40
$GPGGA,143319.400,4308.3005,N,07726.2634,W,1,07,1.17,148.8,M,-34.4,M,,*52
lng=-77.437721, lat=43.138339, altitude=148.80, speed=0.07, satellites=7, angle=18.6900, fixquality=1
$GPRMC,143319.600,A,4308.3005,N,07726.2634,W,0.14,17.51,100419,,,A*43
$GPGGA,143319.800,4308.3005,N,07726.2634,W,1,07,1.17,148.8,M,-34.4,M,,*5E
lng=-77.437721, lat=43.138339, altitude=148.80, speed=0.14, satellites=7, angle=17.5100, fixquality=1
$GPRMC,143320.000,A,4308.3005,N,07726.2634,W,0.11,6.39,100419,,,A*74
$GPGGA,143320.200,4308.3005,N,07726.2634,W,1,07,1.22,148.8,M,-34.4,M,,*58
lng=-77.437721, lat=43.138339, altitude=148.80, speed=0.11, satellites=7, angle=6.3900, fixquality=1
$GPRMC,143320.400,A,4308.3005,N,07726.2635,W,0.11,331.51,100419,,,A*78
$GPGGA,143320.600,4308.3005,N,07726.2635,W,1,07,1.17,148.7,M,-34.4,M,,*54
lng=-77.437728, lat=43.138339, altitude=148.80, speed=0.11, satellites=7, angle=331.5100, fixquality=1
$GPRMC,143320.800,A,4308.3005,N,07726.2635,W,0.14,341.52,100419,,,A*75
$GPGGA,143321.000,4308.3005,N,07726.2635,W,1,07,1.17,148.7,M,-34.4,M,,*53
lng=-77.437728, lat=43.138339, altitude=148.70, speed=0.14, satellites=7, angle=341.5200, fixquality=1
$GPRMC,143321.200,A,4308.3005,N,07726.2635,W,0.16,346.36,100419,,,A*79
$GPGGA,143321.400,4308.3005,N,07726.2636,W,1,07,1.22,148.7,M,-34.4,M,,*52
lng=-77.437728, lat=43.138339, altitude=148.70, speed=0.16, satellites=7, angle=346.3600, fixquality=1
$GPRMC,143321.600,A,4308.3005,N,07726.2636,W,0.12,325.30,100419,,,A*79
$GPGGA,143321.800,4308.3005,N,07726.2636,W,1,07,1.17,148.7,M,-34.4,M,,*58
lng=-77.437728, lat=43.138339, altitude=148.70, speed=0.12, satellites=7, angle=325.3000, fixquality=1
$GPRMC,143322.000,A,4308.3005,N,07726.2636,W,0.20,352.30,100419,,,A*7D
$GPGGA,143322.200,4308.3005,N,07726.2636,W,1,07,1.22,148.7,M,-34.4,M,,*57
lng=-77.437728, lat=43.138339, altitude=148.70, speed=0.20, satellites=7, angle=352.3000, fixquality=1
$GPRMC,143322.400,A,4308.3005,N,07726.2636,W,0.27,0.74,100419,,,A*7A
$GPGGA,143322.600,4308.3005,N,07726.2636,W,1,07,1.22,148.7,M,-34.4,M,,*53
lng=-77.437728, lat=43.138339, altitude=148.70, speed=0.27, satellites=7, angle=0.7400, fixquality=1
$GPRMC,143322.800,A,4308.3006,N,07726.2636,W,0.36,10.36,100419,,,A*42
$GPGGA,143323.000,4308.3006,N,07726.2636,W,1,07,1.22,148.7,M,-34.4,M,,*57
lng=-77.437728, lat=43.138347, altitude=148.70, speed=0.36, satellites=7, angle=10.3600, fixquality=1
$GPRMC,143323.200,A,4308.3007,N,07726.2635,W,0.77,26.36,100419,,,A*4B
$GPGGA,143323.400,4308.3008,N,07726.2634,W,1,07,1.17,148.6,M,-34.4,M,,*58
lng=-77.437728, lat=43.138347, altitude=148.70, speed=0.77, satellites=7, angle=26.3600, fixquality=1
$GPRMC,143323.600,A,4308.3009,N,07726.2633,W,1.07,27.85,100419,,,A*48
$GPGGA,143323.800,4308.3010,N,07726.2633,W,1,07,1.17,148.6,M,-34.4,M,,*5A
lng=-77.437721, lat=43.138347, altitude=148.60, speed=1.07, satellites=7, angle=27.8500, fixquality=1
$GPRMC,143324.000,A,4308.3011,N,07726.2634,W,1.15,19.19,100419,,,A*4C
$GPGGA,143324.200,4308.3013,N,07726.2634,W,1,07,1.17,148.5,M,-34.4,M,,*50
lng=-77.437721, lat=43.138355, altitude=148.60, speed=1.15, satellites=7, angle=19.1900, fixquality=1
$GPRMC,143324.400,A,4308.3015,N,07726.2634,W,1.45,14.87,100419,,,A*43
$GPGGA,143324.600,4308.3017,N,07726.2634,W,1,07,1.22,148.4,M,-34.4,M,,*57
lng=-77.437721, lat=43.138355, altitude=148.50, speed=1.45, satellites=7, angle=14.8700, fixquality=1
$GPRMC,143324.800,A,4308.3018,N,07726.2633,W,1.79,15.33,100419,,,A*44
$GPGGA,143325.000,4308.3020,N,07726.2633,W,1,07,1.17,148.4,M,-34.4,M,,*55
lng=-77.437721, lat=43.138362, altitude=148.40, speed=1.79, satellites=7, angle=15.3300, fixquality=1
$GPRMC,143325.200,A,4308.3021,N,07726.2631,W,2.46,16.15,100419,,,A*4F
$GPGGA,143325.400,4308.3022,N,07726.2630,W,1,07,1.17,148.4,M,-34.4,M,,*50
lng=-77.437721, lat=43.138370, altitude=148.40, speed=2.46, satellites=7, angle=16.1500, fixquality=1
$GPRMC,143325.600,A,4308.3024,N,07726.2629,W,2.69,15.76,100419,,,A*4C
$GPGGA,143325.800,4308.3026,N,07726.2628,W,1,07,1.17,148.4,M,-34.4,M,,*51
lng=-77.437713, lat=43.138370, altitude=148.40, speed=2.69, satellites=7, angle=15.7600, fixquality=1
$GPRMC,143326.000,A,4308.3027,N,07726.2628,W,2.69,9.16,100419,,,A*70
$GPGGA,143326.200,4308.3029,N,07726.2627,W,1,07,1.22,148.5,M,-34.4,M,,*5F
lng=-77.437713, lat=43.138378, altitude=148.40, speed=2.69, satellites=7, angle=9.1600, fixquality=1
$GPRMC,143326.400,A,4308.3030,N,07726.2627,W,2.56,3.48,100419,,,A*70
$GPGGA,143326.600,4308.3032,N,07726.2626,W,1,07,1.22,148.5,M,-34.4,M,,*50
lng=-77.437713, lat=43.138385, altitude=148.50, speed=2.56, satellites=7, angle=3.4800, fixquality=1
$GPRMC,143326.800,A,4308.3033,N,07726.2625,W,2.89,4.38,100419,,,A*7F
$GPGGA,143327.000,4308.3035,N,07726.2625,W,1,07,1.22,148.5,M,-34.4,M,,*53
lng=-77.437713, lat=43.138385, altitude=148.50, speed=2.89, satellites=7, angle=4.3800, fixquality=1
$GPRMC,143327.200,A,4308.3037,N,07726.2624,W,3.28,10.45,100419,,,A*44
$GPGGA,143327.400,4308.3038,N,07726.2623,W,1,07,1.22,148.6,M,-34.4,M,,*5F
lng=-77.437705, lat=43.138393, altitude=148.50, speed=3.28, satellites=7, angle=10.4500, fixquality=1
$GPRMC,143327.600,A,4308.3040,N,07726.2621,W,3.22,14.24,100419,,,A*4C
$GPGGA,143327.800,4308.3042,N,07726.2620,W,1,07,1.22,148.6,M,-34.4,M,,*5D
lng=-77.437705, lat=43.138404, altitude=148.60, speed=3.22, satellites=7, angle=14.2400, fixquality=1
$GPRMC,143328.000,A,4308.3043,N,07726.2619,W,3.33,12.19,100419,,,A*45
$GPGGA,143328.200,4308.3045,N,07726.2618,W,1,07,1.22,148.7,M,-34.4,M,,*55
lng=-77.437698, lat=43.138404, altitude=148.60, speed=3.33, satellites=7, angle=12.1900, fixquality=1
$GPRMC,143328.400,A,4308.3047,N,07726.2618,W,3.33,8.34,100419,,,A*70
$GPGGA,143328.600,4308.3049,N,07726.2617,W,1,07,1.22,148.7,M,-34.4,M,,*52
lng=-77.437698, lat=43.138412, altitude=148.70, speed=3.33, satellites=7, angle=8.3400, fixquality=1
$GPRMC,143328.800,A,4308.3051,N,07726.2616,W,3.60,7.91,100419,,,A*73
$GPGGA,143329.000,4308.3053,N,07726.2615,W,1,07,1.22,148.7,M,-34.4,M,,*5C
lng=-77.437698, lat=43.138420, altitude=148.70, speed=3.60, satellites=7, angle=7.9100, fixquality=1
$GPRMC,143329.200,A,4308.3055,N,07726.2615,W,3.62,1.56,100419,,,A*70
$GPGGA,143329.400,4308.3057,N,07726.2614,W,1,07,1.22,148.7,M,-34.4,M,,*5D
lng=-77.437698, lat=43.138427, altitude=148.70, speed=3.62, satellites=7, angle=1.5600, fixquality=1
$GPRMC,143329.600,A,4308.3059,N,07726.2614,W,3.76,5.19,100419,,,A*73
$GPGGA,143329.800,4308.3061,N,07726.2613,W,1,07,1.22,148.7,M,-34.4,M,,*53
lng=-77.437690, lat=43.138427, altitude=148.70, speed=3.76, satellites=7, angle=5.1900, fixquality=1
$GPRMC,143330.000,A,4308.3064,N,07726.2613,W,3.93,2.44,100419,,,A*70
$GPGGA,143330.200,4308.3066,N,07726.2612,W,1,07,1.22,148.7,M,-34.4,M,,*57
lng=-77.437690, lat=43.138442, altitude=148.70, speed=3.93, satellites=7, angle=2.4400, fixquality=1
$GPRMC,143330.400,A,4308.3068,N,07726.2612,W,3.79,1.53,100419,,,A*78
$GPGGA,143330.600,4308.3070,N,07726.2611,W,1,07,1.22,148.8,M,-34.4,M,,*58
lng=-77.437690, lat=43.138442, altitude=148.70, speed=3.79, satellites=7, angle=1.5300, fixquality=1
$GPRMC,143330.800,A,4308.3072,N,07726.2611,W,3.95,2.92,100419,,,A*70
$GPGGA,143331.000,4308.3074,N,07726.2610,W,1,07,1.22,148.8,M,-34.4,M,,*5A
lng=-77.437690, lat=43.138450, altitude=148.80, speed=3.95, satellites=7, angle=2.9200, fixquality=1
$GPRMC,143331.200,A,4308.3077,N,07726.2610,W,4.18,5.22,100419,,,A*71
$GPGGA,143331.400,4308.3080,N,07726.2609,W,1,07,1.22,148.8,M,-34.4,M,,*5D
lng=-77.437690, lat=43.138462, altitude=148.80, speed=4.18, satellites=7, angle=5.2200, fixquality=1
$GPRMC,143331.600,A,4308.3082,N,07726.2609,W,4.68,5.65,100419,,,A*73
$GPGGA,143331.800,4308.3085,N,07726.2608,W,1,07,1.22,148.8,M,-34.4,M,,*55
lng=-77.437675, lat=43.138469, altitude=148.80, speed=4.68, satellites=7, angle=5.6500, fixquality=1
$GPRMC,143332.000,A,4308.3088,N,07726.2608,W,5.13,6.61,100419,,,A*77
$GPGGA,143332.200,4308.3092,N,07726.2608,W,1,07,1.22,148.7,M,-34.4,M,,*55
lng=-77.437675, lat=43.138477, altitude=148.80, speed=5.13, satellites=7, angle=6.6100, fixquality=1
$GPRMC,143332.400,A,4308.3095,N,07726.2608,W,5.93,1.61,100419,,,A*70
$GPGGA,143332.600,4308.3098,N,07726.2607,W,1,07,1.22,148.7,M,-34.4,M,,*54
lng=-77.437675, lat=43.138492, altitude=148.70, speed=5.93, satellites=7, angle=1.6100, fixquality=1
$GPRMC,143332.800,A,4308.3102,N,07726.2606,W,6.37,2.66,100419,,,A*74
$GPGGA,143333.000,4308.3106,N,07726.2606,W,1,07,1.22,148.6,M,-34.4,M,,*55
lng=-77.437675, lat=43.138500, altitude=148.70, speed=6.37, satellites=7, angle=2.6600, fixquality=1
$GPRMC,143333.200,A,4308.3110,N,07726.2606,W,6.43,1.12,100419,,,A*7F
$GPGGA,143333.400,4308.3114,N,07726.2606,W,1,07,1.22,148.5,M,-34.4,M,,*51
lng=-77.437675, lat=43.138515, altitude=148.60, speed=6.43, satellites=7, angle=1.1200, fixquality=1
$GPRMC,143333.600,A,4308.3117,N,07726.2606,W,6.32,2.56,100419,,,A*79
$GPGGA,143333.800,4308.3121,N,07726.2605,W,1,07,1.22,148.5,M,-34.4,M,,*58
lng=-77.437675, lat=43.138526, altitude=148.50, speed=6.32, satellites=7, angle=2.5600, fixquality=1
$GPRMC,143334.000,A,4308.3125,N,07726.2605,W,5.73,1.51,100419,,,A*78
$GPGGA,143334.200,4308.3128,N,07726.2605,W,1,07,1.22,148.4,M,-34.4,M,,*5D
lng=-77.437675, lat=43.138542, altitude=148.50, speed=5.73, satellites=7, angle=1.5100, fixquality=1
$GPRMC,143334.400,A,4308.3131,N,07726.2604,W,5.13,0.06,100419,,,A*7D
$GPGGA,143334.600,4308.3133,N,07726.2604,W,1,07,1.22,148.4,M,-34.4,M,,*52
lng=-77.437667, lat=43.138549, altitude=148.40, speed=5.13, satellites=7, angle=0.0600, fixquality=1
$GPRMC,143334.800,A,4308.3136,N,07726.2604,W,4.32,355.06,100419,,,A*77
$GPGGA,143335.000,4308.3138,N,07726.2604,W,1,07,1.22,148.4,M,-34.4,M,,*5E
lng=-77.437667, lat=43.138557, altitude=148.40, speed=4.32, satellites=7, angle=355.0600, fixquality=1
$GPRMC,143335.200,A,4308.3140,N,07726.2604,W,4.01,355.34,100419,,,A*7C
$GPGGA,143335.400,4308.3143,N,07726.2604,W,1,07,1.22,148.4,M,-34.4,M,,*56
lng=-77.437667, lat=43.138565, altitude=148.40, speed=4.01, satellites=7, angle=355.3400, fixquality=1
$GPRMC,143335.600,A,4308.3145,N,07726.2604,W,3.55,346.38,100419,,,A*75
$GPGGA,143335.800,4308.3146,N,07726.2605,W,1,07,1.22,148.4,M,-34.4,M,,*5E
lng=-77.437667, lat=43.138572, altitude=148.40, speed=3.55, satellites=7, angle=346.3800, fixquality=1
$GPRMC,143336.000,A,4308.3148,N,07726.2606,W,3.34,338.68,100419,,,A*74
$GPGGA,143336.200,4308.3150,N,07726.2607,W,1,07,1.17,148.4,M,-34.4,M,,*54
lng=-77.437675, lat=43.138584, altitude=148.40, speed=3.34, satellites=7, angle=338.6800, fixquality=1
$GPRMC,143336.400,A,4308.3152,N,07726.2608,W,3.41,328.63,100419,,,A*7D
$GPGGA,143336.600,4308.3154,N,07726.2609,W,1,07,1.17,148.4,M,-34.4,M,,*5A
lng=-77.437675, lat=43.138591, altitude=148.40, speed=3.41, satellites=7, angle=328.6300, fixquality=1
$GPRMC,143336.800,A,4308.3155,N,07726.2610,W,3.40,324.84,100419,,,A*7B
$GPGGA,143337.000,4308.3157,N,07726.2611,W,1,07,1.17,148.4,M,-34.4,M,,*57
lng=-77.437690, lat=43.138591, altitude=148.40, speed=3.40, satellites=7, angle=324.8400, fixquality=1
$GPRMC,143337.200,A,4308.3158,N,07726.2613,W,3.51,306.95,100419,,,A*7E
$GPGGA,143337.400,4308.3160,N,07726.2615,W,1,07,1.17,148.4,M,-34.4,M,,*53
lng=-77.437690, lat=43.138599, altitude=148.40, speed=3.51, satellites=7, angle=306.9500, fixquality=1
$GPRMC,143337.600,A,4308.3161,N,07726.2616,W,2.85,310.83,100419,,,A*7D
$GPGGA,143337.800,4308.3162,N,07726.2618,W,1,07,1.17,148.5,M,-34.4,M,,*51
lng=-77.437698, lat=43.138599, altitude=148.40, speed=2.85, satellites=7, angle=310.8300, fixquality=1
$GPRMC,143338.000,A,4308.3162,N,07726.2619,W,2.34,304.23,100419,,,A*7D
$GPGGA,143338.200,4308.3163,N,07726.2621,W,1,07,1.17,148.5,M,-34.4,M,,*5F
lng=-77.437698, lat=43.138607, altitude=148.50, speed=2.34, satellites=7, angle=304.2300, fixquality=1
$GPRMC,143338.400,A,4308.3164,N,07726.2622,W,2.30,300.88,100419,,,A*76
$GPGGA,143338.600,4308.3165,N,07726.2623,W,1,07,1.17,148.5,M,-34.4,M,,*5F
lng=-77.437705, lat=43.138607, altitude=148.50, speed=2.30, satellites=7, angle=300.8800, fixquality=1
$GPRMC,143338.800,A,4308.3165,N,07726.2625,W,1.75,307.04,100419,,,A*7D
$GPGGA,143339.000,4308.3166,N,07726.2625,W,1,07,1.22,148.6,M,-34.4,M,,*58
lng=-77.437713, lat=43.138607, altitude=148.50, speed=1.75, satellites=7, angle=307.0400, fixquality=1
$GPRMC,143339.200,A,4308.3165,N,07726.2624,W,0.23,345.19,100419,,,A*7F
$GPGGA,143339.400,4308.3165,N,07726.2623,W,1,07,1.22,148.6,M,-34.4,M,,*59
lng=-77.437705, lat=43.138607, altitude=148.60, speed=0.23, satellites=7, angle=345.1900, fixquality=1
$GPRMC,143339.600,A,4308.3165,N,07726.2622,W,0.81,91.75,100419,,,A*45
$GPGGA,143339.800,4308.3165,N,07726.2621,W,1,07,1.17,148.6,M,-34.4,M,,*51
lng=-77.437705, lat=43.138607, altitude=148.60, speed=0.81, satellites=7, angle=91.7500, fixquality=1
$GPRMC,143340.000,A,4308.3164,N,07726.2619,W,1.39,81.97,100419,,,A*4B
$GPGGA,143340.200,4308.3163,N,07726.2616,W,1,07,1.61,148.6,M,-34.4,M,,*56
lng=-77.437698, lat=43.138607, altitude=148.60, speed=1.39, satellites=7, angle=81.9700, fixquality=1
$GPRMC,143340.400,A,4308.3162,N,07726.2612,W,4.14,95.82,100419,,,A*49
$GPGGA,143340.600,4308.3161,N,07726.2608,W,1,07,1.22,148.6,M,-34.4,M,,*58
lng=-77.437690, lat=43.138607, altitude=148.60, speed=4.14, satellites=7, angle=95.8200, fixquality=1
$GPRMC,143340.800,A,4308.3161,N,07726.2603,W,5.99,86.81,100419,,,A*43
$GPGGA,143341.000,4308.3161,N,07726.2597,W,1,07,1.22,148.6,M,-34.4,M,,*5A
lng=-77.437667, lat=43.138599, altitude=148.60, speed=5.99, satellites=7, angle=86.8100, fixquality=1
$GPRMC,143341.200,A,4308.3160,N,07726.2590,W,7.97,90.63,100419,,,A*47
$GPGGA,143341.400,4308.3160,N,07726.2583,W,1,07,1.22,148.6,M,-34.4,M,,*5A
lng=-77.437644, lat=43.138599, altitude=148.60, speed=7.97, satellites=7, angle=90.6300, fixquality=1
$GPRMC,143341.600,A,4308.3160,N,07726.2575,W,9.61,87.41,100419,,,A*49
$GPGGA,143341.800,4308.3160,N,07726.2567,W,1,07,1.22,148.5,M,-34.4,M,,*5F
lng=-77.437622, lat=43.138599, altitude=148.60, speed=9.61, satellites=7, angle=87.4100, fixquality=1
$GPRMC,143342.000,A,4308.3161,N,07726.2559,W,10.53,84.40,100419,,,A*78
$GPGGA,143342.200,4308.3161,N,07726.2549,W,1,07,1.17,148.6,M,-34.4,M,,*5E
lng=-77.437599, lat=43.138599, altitude=148.50, speed=10.53, satellites=7, angle=84.4000, fixquality=1
$GPRMC,143342.400,A,4308.3161,N,07726.2538,W,11.87,83.70,100419,,,A*77
$GPGGA,143342.600,4308.3161,N,07726.2526,W,1,07,1.17,148.6,M,-34.4,M,,*53
lng=-77.437568, lat=43.138599, altitude=148.60, speed=11.87, satellites=7, angle=83.7000, fixquality=1
$GPRMC,143342.800,A,4308.3162,N,07726.2515,W,12.57,82.82,100419,,,A*75
$GPGGA,143343.000,4308.3164,N,07726.2503,W,1,06,1.41,148.6,M,-34.4,M,,*54
lng=-77.437522, lat=43.138607, altitude=148.60, speed=12.57, satellites=7, angle=82.8200, fixquality=1
$GPRMC,143343.200,A,4308.3166,N,07726.2490,W,14.00,79.89,100419,,,A*7D
$GPGGA,143343.400,4308.3168,N,07726.2477,W,1,06,1.41,148.6,M,-34.4,M,,*5E
lng=-77.437484, lat=43.138607, altitude=148.60, speed=14.00, satellites=6, angle=79.8900, fixquality=1
$GPRMC,143343.600,A,4308.3170,N,07726.2464,W,15.17,78.89,100419,,,A*73
$GPGGA,143343.800,4308.3172,N,07726.2450,W,1,07,1.17,148.7,M,-34.4,M,,*5F
lng=-77.437446, lat=43.138614, altitude=148.60, speed=15.17, satellites=6, angle=78.8900, fixquality=1
$GPRMC,143344.000,A,4308.3174,N,07726.2436,W,16.18,78.74,100419,,,A*7F
$GPGGA,143344.200,4308.3175,N,07726.2420,W,1,07,1.17,148.7,M,-34.4,M,,*52
lng=-77.437393, lat=43.138622, altitude=148.70, speed=16.18, satellites=7, angle=78.7400, fixquality=1
$GPRMC,143344.400,A,4308.3174,N,07726.2400,W,18.31,81.77,100419,,,A*7E
$GPGGA,143344.600,4308.3174,N,07726.2384,W,1,07,1.17,148.7,M,-34.4,M,,*5E
lng=-77.437339, lat=43.138622, altitude=148.70, speed=18.31, satellites=7, angle=81.7700, fixquality=1
$GPRMC,143344.800,A,4308.3174,N,07726.2366,W,19.38,83.67,100419,,,A*7E
$GPGGA,143345.000,4308.3170,N,07726.2342,W,1,07,1.17,148.8,M,-34.4,M,,*58
lng=-77.437278, lat=43.138622, altitude=148.70, speed=19.38, satellites=7, angle=83.6700, fixquality=1
$GPRMC,143345.200,A,4308.3169,N,07726.2323,W,21.96,87.49,100419,,,A*7F
$GPGGA,143345.400,4308.3169,N,07726.2304,W,1,07,1.17,148.8,M,-34.4,M,,*56
lng=-77.437210, lat=43.138614, altitude=148.80, speed=21.96, satellites=7, angle=87.4900, fixquality=1
$GPRMC,143345.600,A,4308.3168,N,07726.2285,W,23.06,89.08,100419,,,A*77
$GPGGA,143345.800,4308.3168,N,07726.2266,W,1,07,1.17,148.8,M,-34.4,M,,*5E
lng=-77.437141, lat=43.138614, altitude=148.80, speed=23.06, satellites=7, angle=89.0800, fixquality=1
$GPRMC,143346.000,A,4308.3167,N,07726.2247,W,23.85,90.72,100419,,,A*7D
$GPGGA,143346.200,4308.3166,N,07726.2229,W,1,07,1.17,148.8,M,-34.4,M,,*52
lng=-77.437080, lat=43.138614, altitude=148.80, speed=23.85, satellites=7, angle=90.7200, fixquality=1
$GPRMC,143346.400,A,4308.3166,N,07726.2209,W,24.29,91.32,100419,,,A*76
$GPGGA,143346.600,4308.3165,N,07726.2191,W,1,07,1.22,148.8,M,-34.4,M,,*53
lng=-77.437011, lat=43.138607, altitude=148.80, speed=24.29, satellites=7, angle=91.3200, fixquality=1
$GPRMC,143346.800,A,4308.3164,N,07726.2172,W,24.64,91.48,100419,,,A*73
$GPGGA,143347.000,4308.3163,N,07726.2153,W,1,07,1.22,148.9,M,-34.4,M,,*5D
lng=-77.436958, lat=43.138607, altitude=148.80, speed=24.64, satellites=7, angle=91.4800, fixquality=1
$GPRMC,143347.200,A,4308.3162,N,07726.2134,W,24.86,91.59,100419,,,A*70
$GPGGA,143347.400,4308.3162,N,07726.2115,W,1,07,1.22,148.9,M,-34.4,M,,*5A
lng=-77.436889, lat=43.138607, altitude=148.90, speed=24.86, satellites=7, angle=91.5900, fixquality=1
$GPRMC,143347.600,A,4308.3161,N,07726.2096,W,25.23,91.44,100419,,,A*7C
$GPGGA,143347.800,4308.3161,N,07726.2076,W,1,07,1.17,148.9,M,-34.4,M,,*57
lng=-77.436820, lat=43.138599, altitude=148.90, speed=25.23, satellites=7, angle=91.4400, fixquality=1
$GPRMC,143348.000,A,4308.3161,N,07726.2057,W,25.52,90.83,100419,,,A*74
$GPGGA,143348.200,4308.3161,N,07726.2037,W,1,07,1.17,148.9,M,-34.4,M,,*57
lng=-77.436759, lat=43.138599, altitude=148.90, speed=25.52, satellites=7, angle=90.8300, fixquality=1
$GPRMC,143348.400,A,4308.3161,N,07726.2018,W,25.40,90.84,100419,,,A*7F
$GPGGA,143348.600,4308.3161,N,07726.1999,W,1,07,1.17,149.0,M,-34.4,M,,*55
lng=-77.436691, lat=43.138599, altitude=148.90, speed=25.40, satellites=7, angle=90.8400, fixquality=1
$GPRMC,143348.800,A,4308.3161,N,07726.1979,W,25.34,90.29,100419,,,A*7A
$GPGGA,143349.000,4308.3161,N,07726.1960,W,1,07,1.17,149.0,M,-34.4,M,,*54
lng=-77.436630, lat=43.138599, altitude=149.00, speed=25.34, satellites=7, angle=90.2900, fixquality=1
$GPRMC,143349.200,A,4308.3161,N,07726.1941,W,25.51,89.82,100419,,,A*70
$GPGGA,143349.400,4308.3161,N,07726.1921,W,1,07,1.17,149.0,M,-34.4,M,,*55
lng=-77.436569, lat=43.138599, altitude=149.00, speed=25.51, satellites=7, angle=89.8200, fixquality=1
$GPRMC,143349.600,A,4308.3161,N,07726.1901,W,25.61,89.90,100419,,,A*70
$GPGGA,143349.800,4308.3160,N,07726.1882,W,1,07,1.17,149.0,M,-34.4,M,,*50
lng=-77.436500, lat=43.138599, altitude=149.00, speed=25.61, satellites=7, angle=89.9000, fixquality=1
$GPRMC,143350.000,A,4308.3160,N,07726.1862,W,25.68,90.41,100419,,,A*76
$GPGGA,143350.200,4308.3160,N,07726.1842,W,1,07,1.17,149.1,M,-34.4,M,,*5F
lng=-77.436431, lat=43.138599, altitude=149.00, speed=25.68, satellites=7, angle=90.4100, fixquality=1
$GPRMC,143350.400,A,4308.3159,N,07726.1823,W,25.70,90.67,100419,,,A*70
$GPGGA,143350.600,4308.3159,N,07726.1803,W,1,07,1.17,149.1,M,-34.4,M,,*54
lng=-77.436370, lat=43.138599, altitude=149.10, speed=25.70, satellites=7, angle=90.6700, fixquality=1
$GPRMC,143350.800,A,4308.3159,N,07726.1784,W,25.63,90.69,100419,,,A*72
$GPGGA,143351.000,4308.3158,N,07726.1764,W,1,06,1.41,149.2,M,-34.4,M,,*5D
lng=-77.436302, lat=43.138599, altitude=149.10, speed=25.63, satellites=7, angle=90.6900, fixquality=1
$GPRMC,143351.200,A,4308.3158,N,07726.1745,W,25.33,90.57,100419,,,A*7D
$GPGGA,143351.400,4308.3158,N,07726.1726,W,1,07,1.17,149.2,M,-34.4,M,,*5D
lng=-77.436241, lat=43.138599, altitude=149.20, speed=25.33, satellites=6, angle=90.5700, fixquality=1
$GPRMC,143351.600,A,4308.3158,N,07726.1707,W,25.06,90.19,100419,,,A*73
$GPGGA,143351.800,4308.3158,N,07726.1688,W,1,07,1.17,149.3,M,-34.4,M,,*55
lng=-77.436180, lat=43.138599, altitude=149.20, speed=25.06, satellites=7, angle=90.1900, fixquality=1
$GPRMC,143352.000,A,4308.3158,N,07726.1669,W,24.70,90.47,100419,,,A*74
$GPGGA,143352.200,4308.3157,N,07726.1651,W,1,07,1.17,149.3,M,-34.4,M,,*57
lng=-77.436119, lat=43.138599, altitude=149.30, speed=24.70, satellites=7, angle=90.4700, fixquality=1
$GPRMC,143352.400,A,4308.3157,N,07726.1632,W,24.62,90.74,100419,,,A*72
$GPGGA,143352.600,4308.3156,N,07726.1613,W,1,07,1.17,149.4,M,-34.4,M,,*53
lng=-77.436050, lat=43.138599, altitude=149.30, speed=24.62, satellites=7, angle=90.7400, fixquality=1
$GPRMC,143352.800,A,4308.3156,N,07726.1594,W,24.70,90.50,100419,,,A*75
$GPGGA,143353.000,4308.3157,N,07726.1575,W,1,07,1.17,149.5,M,-34.4,M,,*57
lng=-77.435989, lat=43.138591, altitude=149.40, speed=24.70, satellites=7, angle=90.5000, fixquality=1
$GPRMC,143353.200,A,4308.3157,N,07726.1556,W,24.72,89.90,100419,,,A*77
$GPGGA,143353.400,4308.3158,N,07726.1537,W,1,07,1.17,149.5,M,-34.4,M,,*5A
lng=-77.435928, lat=43.138599, altitude=149.50, speed=24.72, satellites=7, angle=89.9000, fixquality=1
$GPRMC,143353.600,A,4308.3159,N,07726.1518,W,24.73,88.44,100419,,,A*7E
$GPGGA,143353.800,4308.3161,N,07726.1499,W,1,07,1.17,149.5,M,-34.4,M,,*59
lng=-77.435867, lat=43.138599, altitude=149.50, speed=24.73, satellites=7, angle=88.4400, fixquality=1
$GPRMC,143354.000,A,4308.3164,N,07726.1481,W,24.96,85.97,100419,,,A*78
$GPGGA,143354.200,4308.3167,N,07726.1462,W,1,07,1.17,149.5,M,-34.4,M,,*56
lng=-77.435798, lat=43.138607, altitude=149.50, speed=24.96, satellites=7, angle=85.9700, fixquality=1
$GPRMC,143354.400,A,4308.3170,N,07726.1444,W,25.15,82.62,100419,,,A*77
$GPGGA,143354.600,4308.3173,N,07726.1425,W,1,07,1.17,149.5,M,-34.4,M,,*54
lng=-77.435745, lat=43.138614, altitude=149.50, speed=25.15, satellites=7, angle=82.6200, fixquality=1
$GPRMC,143354.800,A,4308.3178,N,07726.1409,W,24.77,78.13,100419,,,A*7C
$GPGGA,143355.000,4308.3185,N,07726.1393,W,1,07,1.17,149.6,M,-34.4,M,,*53
lng=-77.435684, lat=43.138629, altitude=149.50, speed=24.77, satellites=7, angle=78.1300, fixquality=1
$GPRMC,143355.200,A,4308.3190,N,07726.1376,W,24.55,71.98,100419,,,A*74
$GPGGA,143355.400,4308.3195,N,07726.1358,W,1,07,1.17,149.6,M,-34.4,M,,*51
lng=-77.435630, lat=43.138648, altitude=149.60, speed=24.55, satellites=7, angle=71.9800, fixquality=1
$GPRMC,143355.600,A,4308.3200,N,07726.1341,W,24.86,69.31,100419,,,A*7A
$GPGGA,143355.800,4308.3205,N,07726.1325,W,1,07,1.17,149.6,M,-34.4,M,,*5D
lng=-77.435569, lat=43.138664, altitude=149.60, speed=24.86, satellites=7, angle=69.3100, fixquality=1
$GPRMC,143356.000,A,4308.3212,N,07726.1312,W,23.85,65.07,100419,,,A*77
$GPGGA,143356.200,4308.3220,N,07726.1298,W,1,07,1.17,149.5,M,-34.4,M,,*57
lng=-77.435523, lat=43.138687, altitude=149.60, speed=23.85, satellites=7, angle=65.0700, fixquality=1
$GPRMC,143356.400,A,4308.3227,N,07726.1283,W,23.39,60.99,100419,,,A*79
$GPGGA,143356.600,4308.3235,N,07726.1270,W,1,07,1.17,149.5,M,-34.4,M,,*51
lng=-77.435470, lat=43.138713, altitude=149.50, speed=23.39, satellites=7, angle=60.9900, fixquality=1
$GPRMC,143356.800,A,4308.3242,N,07726.1256,W,22.99,57.54,100419,,,A*70
$GPGGA,143357.000,4308.3250,N,07726.1242,W,1,07,1.17,149.5,M,-34.4,M,,*54
lng=-77.435424, lat=43.138736, altitude=149.50, speed=22.99, satellites=7, angle=57.5400, fixquality=1
$GPRMC,143357.200,A,4308.3258,N,07726.1229,W,22.99,54.54,100419,,,A*7B
$GPGGA,143357.400,4308.3267,N,07726.1215,W,1,07,1.17,149.5,M,-34.4,M,,*56
lng=-77.435386, lat=43.138759, altitude=149.50, speed=22.99, satellites=7, angle=54.5400, fixquality=1
$GPRMC,143357.600,A,4308.3276,N,07726.1202,W,23.30,52.49,100419,,,A*72
$GPGGA,143357.800,4308.3285,N,07726.1190,W,1,07,1.17,149.4,M,-34.4,M,,*59
lng=-77.435333, lat=43.138793, altitude=149.50, speed=23.30, satellites=7, angle=52.4900, fixquality=1
$GPRMC,143358.000,A,4308.3296,N,07726.1180,W,22.98,47.75,100419,,,A*74
$GPGGA,143358.200,4308.3307,N,07726.1170,W,1,07,1.17,149.3,M,-34.4,M,,*5E
lng=-77.435302, lat=43.138828, altitude=149.40, speed=22.98, satellites=7, angle=47.7500, fixquality=1
$GPRMC,143358.400,A,4308.3318,N,07726.1160,W,23.36,43.10,100419,,,A*7B
$GPGGA,143358.600,4308.3330,N,07726.1152,W,1,07,1.17,149.3,M,-34.4,M,,*5E
lng=-77.435272, lat=43.138866, altitude=149.30, speed=23.36, satellites=7, angle=43.1000, fixquality=1
$GPRMC,143358.800,A,4308.3341,N,07726.1142,W,23.61,38.48,100419,,,A*78
$GPGGA,143359.000,4308.3353,N,07726.1133,W,1,07,1.17,149.3,M,-34.4,M,,*5B
lng=-77.435234, lat=43.138900, altitude=149.30, speed=23.61, satellites=7, angle=38.4800, fixquality=1
$GPRMC,143359.200,A,4308.3365,N,07726.1124,W,23.62,35.79,100419,,,A*79
$GPGGA,143359.400,4308.3377,N,07726.1116,W,1,07,1.17,149.2,M,-34.4,M,,*5F
lng=-77.435203, lat=43.138938, altitude=149.30, speed=23.62, satellites=7, angle=35.7900, fixquality=1
$GPRMC,143359.600,A,4308.3388,N,07726.1108,W,23.45,32.80,100419,,,A*74
$GPGGA,143359.800,4308.3400,N,07726.1101,W,1,07,1.17,149.2,M,-34.4,M,,*52
lng=-77.435180, lat=43.138980, altitude=149.20, speed=23.45, satellites=7, angle=32.8000, fixquality=1
$GPRMC,143400.000,A,4308.3414,N,07726.1098,W,23.18,27.66,100419,,,A*77
$GPGGA,143400.200,4308.3428,N,07726.1095,W,1,07,1.17,149.2,M,-34.4,M,,*55
lng=-77.435165, lat=43.139022, altitude=149.20, speed=23.18, satellites=7, angle=27.6600, fixquality=1
$GPRMC,143400.400,A,4308.3441,N,07726.1090,W,23.17,23.19,100419,,,A*78
$GPGGA,143400.600,4308.3453,N,07726.1085,W,1,07,1.17,149.1,M,-34.4,M,,*5F
lng=-77.435150, lat=43.139072, altitude=149.20, speed=23.17, satellites=7, angle=23.1900, fixquality=1
$GPRMC,143400.800,A,4308.3468,N,07726.1084,W,23.16,18.47,100419,,,A*78
$GPGGA,143401.000,4308.3484,N,07726.1085,W,1,07,1.17,149.0,M,-34.4,M,,*53
lng=-77.435142, lat=43.139110, altitude=149.10, speed=23.16, satellites=7, angle=18.4700, fixquality=1
$GPRMC,143401.200,A,4308.3500,N,07726.1086,W,24.02,11.37,100419,,,A*72
$GPGGA,143401.400,4308.3516,N,07726.1088,W,1,07,1.22,149.0,M,-34.4,M,,*56
lng=-77.435142, lat=43.139167, altitude=149.00, speed=24.02, satellites=7, angle=11.3700, fixquality=1
$GPRMC,143401.600,A,4308.3531,N,07726.1088,W,24.77,6.74,100419,,,A*49
$GPGGA,143401.800,4308.3545,N,07726.1088,W,1,07,1.22,148.9,M,-34.4,M,,*54
lng=-77.435150, lat=43.139217, altitude=149.00, speed=24.77, satellites=7, angle=6.7400, fixquality=1
$GPRMC,143402.000,A,4308.3559,N,07726.1088,W,25.11,4.24,100419,,,A*44
$GPGGA,143402.200,4308.3574,N,07726.1089,W,1,07,1.22,148.8,M,-34.4,M,,*5F
lng=-77.435150, lat=43.139266, altitude=148.90, speed=25.11, satellites=7, angle=4.2400, fixquality=1
$GPRMC,143402.400,A,4308.3589,N,07726.1090,W,25.88,2.87,100419,,,A*4B
$GPGGA,143402.600,4308.3605,N,07726.1091,W,1,07,1.17,148.8,M,-34.4,M,,*51
lng=-77.435150, lat=43.139316, altitude=148.80, speed=25.88, satellites=7, angle=2.8700, fixquality=1
$GPRMC,143402.800,A,4308.3620,N,07726.1092,W,26.38,1.55,100419,,,A*41
$GPGGA,143403.000,4308.3635,N,07726.1093,W,1,07,1.17,148.7,M,-34.4,M,,*58
lng=-77.435157, lat=43.139362, altitude=148.80, speed=26.38, satellites=7, angle=1.5500, fixquality=1
$GPRMC,143403.200,A,4308.3651,N,07726.1093,W,26.71,1.05,100419,,,A*45
$GPGGA,143403.400,4308.3666,N,07726.1094,W,1,07,1.17,148.6,M,-34.4,M,,*5C
lng=-77.435157, lat=43.139419, altitude=148.70, speed=26.71, satellites=7, angle=1.0500, fixquality=1
$GPRMC,143403.600,A,4308.3681,N,07726.1094,W,27.16,0.72,100419,,,A*4A
$GPGGA,143403.800,4308.3697,N,07726.1095,W,1,07,1.17,148.6,M,-34.4,M,,*5F
lng=-77.435157, lat=43.139469, altitude=148.60, speed=27.16, satellites=7, angle=0.7200, fixquality=1
$GPRMC,143404.000,A,4308.3712,N,07726.1095,W,27.28,0.67,100419,,,A*48
$GPGGA,143404.200,4308.3728,N,07726.1096,W,1,07,1.17,148.6,M,-34.4,M,,*54
lng=-77.435157, lat=43.139518, altitude=148.60, speed=27.28, satellites=7, angle=0.6700, fixquality=1
$GPRMC,143404.400,A,4308.3744,N,07726.1096,W,27.62,0.73,100419,,,A*47
$GPGGA,143404.600,4308.3760,N,07726.1096,W,1,07,1.17,148.5,M,-34.4,M,,*5F
lng=-77.435157, lat=43.139575, altitude=148.60, speed=27.62, satellites=7, angle=0.7300, fixquality=1
$GPRMC,143404.800,A,4308.3775,N,07726.1096,W,27.82,0.77,100419,,,A*43
$GPGGA,143405.000,4308.3791,N,07726.1097,W,1,07,1.17,148.5,M,-34.4,M,,*57
lng=-77.435157, lat=43.139625, altitude=148.50, speed=27.82, satellites=7, angle=0.7700, fixquality=1
$GPRMC,143405.200,A,4308.3806,N,07726.1097,W,27.76,0.56,100419,,,A*4A
$GPGGA,143405.400,4308.3822,N,07726.1097,W,1,07,1.17,148.4,M,-34.4,M,,*55
lng=-77.435165, lat=43.139671, altitude=148.50, speed=27.76, satellites=7, angle=0.5600, fixquality=1
$GPRMC,143405.600,A,4308.3837,N,07726.1098,W,27.70,0.44,100419,,,A*46
$GPGGA,143405.800,4308.3854,N,07726.1099,W,1,07,1.17,148.4,M,-34.4,M,,*56
lng=-77.435165, lat=43.139728, altitude=148.40, speed=27.70, satellites=7, angle=0.4400, fixquality=1
$GPRMC,143406.000,A,4308.3870,N,07726.1100,W,27.62,359.98,100419,,,A*4D
$GPGGA,143406.200,4308.3886,N,07726.1102,W,1,07,1.17,148.5,M,-34.4,M,,*52
lng=-77.435165, lat=43.139785, altitude=148.40, speed=27.62, satellites=7, angle=359.9800, fixquality=1
$GPRMC,143406.400,A,4308.3902,N,07726.1103,W,27.55,359.67,100419,,,A*4A
$GPGGA,143406.600,4308.3917,N,07726.1104,W,1,07,1.22,148.6,M,-34.4,M,,*5C
lng=-77.435173, lat=43.139835, altitude=148.50, speed=27.55, satellites=7, angle=359.6700, fixquality=1
$GPRMC,143406.800,A,4308.3932,N,07726.1105,W,27.39,359.69,100419,,,A*47
$GPGGA,143407.000,4308.3947,N,07726.1105,W,1,07,1.17,148.5,M,-34.4,M,,*5A
lng=-77.435173, lat=43.139884, altitude=148.60, speed=27.39, satellites=7, angle=359.6900, fixquality=1
$GPRMC,143407.200,A,4308.3962,N,07726.1106,W,25.92,359.18,100419,,,A*4F
$GPGGA,143407.400,4308.3976,N,07726.1107,W,1,07,1.17,148.5,M,-34.4,M,,*5E
lng=-77.435180, lat=43.139934, altitude=148.50, speed=25.92, satellites=7, angle=359.1800, fixquality=1
$GPRMC,143407.600,A,4308.3990,N,07726.1108,W,25.21,359.76,100419,,,A*48
$GPGGA,143407.800,4308.4005,N,07726.1109,W,1,07,1.22,148.6,M,-34.4,M,,*53
lng=-77.435180, lat=43.139980, altitude=148.50, speed=25.21, satellites=7, angle=359.7600, fixquality=1
$GPRMC,143408.000,A,4308.4019,N,07726.1110,W,24.90,359.82,100419,,,A*47
$GPGGA,143408.200,4308.4033,N,07726.1110,W,1,07,1.22,148.6,M,-34.4,M,,*5B
lng=-77.435180, lat=43.140029, altitude=148.60, speed=24.90, satellites=7, angle=359.8200, fixquality=1
$GPRMC,143408.400,A,4308.4047,N,07726.1111,W,24.30,359.83,100419,,,A*42
$GPGGA,143408.600,4308.4060,N,07726.1111,W,1,07,1.22,148.6,M,-34.4,M,,*58
lng=-77.435188, lat=43.140079, altitude=148.60, speed=24.30, satellites=7, angle=359.8300, fixquality=1
$GPRMC,143408.800,A,4308.4073,N,07726.1112,W,23.92,0.22,100419,,,A*41
$GPGGA,143409.000,4308.4087,N,07726.1112,W,1,07,1.22,148.6,M,-34.4,M,,*55
lng=-77.435188, lat=43.140121, altitude=148.60, speed=23.92, satellites=7, angle=0.2200, fixquality=1
$GPRMC,143409.200,A,4308.4100,N,07726.1113,W,23.34,0.54,100419,,,A*43
$GPGGA,143409.400,4308.4113,N,07726.1114,W,1,07,1.22,148.7,M,-34.4,M,,*5A
lng=-77.435188, lat=43.140171, altitude=148.60, speed=23.34, satellites=7, angle=0.5400, fixquality=1
$GPRMC,143409.600,A,4308.4127,N,07726.1114,W,22.78,1.07,100419,,,A*4B
$GPGGA,143409.800,4308.4140,N,07726.1114,W,1,07,1.22,148.7,M,-34.4,M,,*50
lng=-77.435188, lat=43.140209, altitude=148.70, speed=22.78, satellites=7, angle=1.0700, fixquality=1
$GPRMC,143410.000,A,4308.4152,N,07726.1114,W,22.46,1.63,100419,,,A*48
$GPGGA,143410.200,4308.4165,N,07726.1114,W,1,07,1.22,148.8,M,-34.4,M,,*5A
lng=-77.435188, lat=43.140251, altitude=148.70, speed=22.46, satellites=7, angle=1.6300, fixquality=1
$GPRMC,143410.400,A,4308.4177,N,07726.1114,W,21.82,1.79,100419,,,A*4B
$GPGGA,143410.600,4308.4190,N,07726.1115,W,1,07,1.22,148.9,M,-34.4,M,,*54
lng=-77.435188, lat=43.140293, altitude=148.80, speed=21.82, satellites=7, angle=1.7900, fixquality=1
$GPRMC,143410.800,A,4308.4202,N,07726.1115,W,21.47,1.33,100419,,,A*40
$GPGGA,143411.000,4308.4214,N,07726.1115,W,1,07,1.22,149.1,M,-34.4,M,,*55
lng=-77.435188, lat=43.140338, altitude=148.90, speed=21.47, satellites=7, angle=1.3300, fixquality=1
$GPRMC,143411.200,A,4308.4225,N,07726.1115,W,20.66,1.64,100419,,,A*4E
$GPGGA,143411.400,4308.4236,N,07726.1115,W,1,07,1.22,149.2,M,-34.4,M,,*52
lng=-77.435188, lat=43.140373, altitude=149.10, speed=20.66, satellites=7, angle=1.6400, fixquality=1
$GPRMC,143411.600,A,4308.4247,N,07726.1115,W,19.51,1.69,100419,,,A*4D
$GPGGA,143411.800,4308.4258,N,07726.1115,W,1,07,1.22,149.3,M,-34.4,M,,*57
lng=-77.435188, lat=43.140415, altitude=149.20, speed=19.51, satellites=7, angle=1.6900, fixquality=1
$GPRMC,143412.000,A,4308.4269,N,07726.1114,W,19.26,2.35,100419,,,A*4F
$GPGGA,143412.200,4308.4276,N,07726.1114,W,1,07,1.22,149.3,M,-34.4,M,,*53
lng=-77.435188, lat=43.140445, altitude=149.30, speed=19.26, satellites=7, angle=2.3500, fixquality=1
$GPRMC,143412.400,A,4308.4284,N,07726.1114,W,16.08,1.79,100419,,,A*40
$GPGGA,143412.600,4308.4291,N,07726.1114,W,1,07,1.22,149.4,M,-34.4,M,,*59
lng=-77.435188, lat=43.140468, altitude=149.30, speed=16.08, satellites=7, angle=1.7900, fixquality=1
$GPRMC,143412.800,A,4308.4299,N,07726.1115,W,14.74,2.29,100419,,,A*4E
$GPGGA,143413.000,4308.4306,N,07726.1116,W,1,07,1.22,149.4,M,-34.4,M,,*53
lng=-77.435188, lat=43.140495, altitude=149.40, speed=14.74, satellites=7, angle=2.2900, fixquality=1
$GPRMC,143413.200,A,4308.4312,N,07726.1117,W,12.80,2.04,100419,,,A*47
$GPGGA,143413.400,4308.4318,N,07726.1118,W,1,07,1.22,149.3,M,-34.4,M,,*51
lng=-77.435195, lat=43.140518, altitude=149.40, speed=12.80, satellites=7, angle=2.0400, fixquality=1
$GPRMC,143413.600,A,4308.4322,N,07726.1119,W,10.76,359.86,100419,,,A*42
$GPGGA,143413.800,4308.4327,N,07726.1120,W,1,07,1.22,149.3,M,-34.4,M,,*5A
lng=-77.435195, lat=43.140537, altitude=149.30, speed=10.76, satellites=7, angle=359.8600, fixquality=1
$GPRMC,143414.000,A,4308.4331,N,07726.1121,W,9.21,356.67,100419,,,A*70
$GPGGA,143414.200,4308.4333,N,07726.1123,W,1,07,1.22,149.3,M,-34.4,M,,*51
lng=-77.435203, lat=43.140552, altitude=149.30, speed=9.21, satellites=7, angle=356.6700, fixquality=1
$GPRMC,143414.400,A,4308.4335,N,07726.1125,W,6.92,347.30,100419,,,A*71
$GPGGA,143414.600,4308.4337,N,07726.1127,W,1,07,1.22,149.2,M,-34.4,M,,*54
lng=-77.435203, lat=43.140560, altitude=149.30, speed=6.92, satellites=7, angle=347.3000, fixquality=1
$GPRMC,143414.800,A,4308.4339,N,07726.1129,W,6.02,343.49,100419,,,A*7E
$GPGGA,143415.000,4308.4341,N,07726.1130,W,1,07,1.17,149.1,M,-34.4,M,,*51
lng=-77.435211, lat=43.140567, altitude=149.20, speed=6.02, satellites=7, angle=343.4900, fixquality=1
$GPRMC,143415.200,A,4308.4343,N,07726.1132,W,5.35,339.86,100419,,,A*7B
$GPGGA,143415.400,4308.4345,N,07726.1134,W,1,07,1.22,149.0,M,-34.4,M,,*52
lng=-77.435218, lat=43.140567, altitude=149.10, speed=5.35, satellites=7, angle=339.8600, fixquality=1
$GPRMC,143415.600,A,4308.4348,N,07726.1137,W,5.35,340.12,100419,,,A*72
$GPGGA,143415.800,4308.4350,N,07726.1138,W,1,07,1.17,148.9,M,-34.4,M,,*58
lng=-77.435226, lat=43.140575, altitude=149.00, speed=5.35, satellites=7, angle=340.1200, fixquality=1
$GPRMC,143416.000,A,4308.4352,N,07726.1140,W,5.36,340.81,100419,,,A*75
$GPGGA,143416.200,4308.4355,N,07726.1141,W,1,07,1.22,148.7,M,-34.4,M,,*52
lng=-77.435226, lat=43.140583, altitude=148.90, speed=5.36, satellites=7, angle=340.8100, fixquality=1
$GPRMC,143416.400,A,4308.4357,N,07726.1141,W,5.57,342.54,100419,,,A*78
$GPGGA,143416.600,4308.4360,N,07726.1143,W,1,07,1.17,148.6,M,-34.4,M,,*55
lng=-77.435234, lat=43.140590, altitude=148.70, speed=5.57, satellites=7, angle=342.5400, fixquality=1
$GPRMC,143416.800,A,4308.4364,N,07726.1145,W,5.87,341.30,100419,,,A*7C
$GPGGA,143417.000,4308.4371,N,07726.1154,W,1,07,1.17,148.4,M,-34.4,M,,*56
lng=-77.435234, lat=43.140609, altitude=148.60, speed=5.87, satellites=7, angle=341.3000, fixquality=1
$GPRMC,143417.200,A,4308.4375,N,07726.1159,W,8.11,327.65,100419,,,A*78
$GPGGA,143417.400,4308.4380,N,07726.1164,W,1,07,1.22,148.2,M,-34.4,M,,*5F
lng=-77.435264, lat=43.140625, altitude=148.40, speed=8.11, satellites=7, angle=327.6500, fixquality=1
$GPRMC,143417.600,A,4308.4385,N,07726.1169,W,9.45,320.90,100419,,,A*7D
$GPGGA,143417.800,4308.4389,N,07726.1174,W,1,07,1.17,148.1,M,-34.4,M,,*5E
lng=-77.435279, lat=43.140640, altitude=148.20, speed=9.45, satellites=7, angle=320.9000, fixquality=1
$GPRMC,143418.000,A,4308.4393,N,07726.1180,W,10.78,314.08,100419,,,A*44
$GPGGA,143418.200,4308.4397,N,07726.1187,W,1,07,1.22,147.9,M,-34.4,M,,*59
lng=-77.435302, lat=43.140659, altitude=148.10, speed=10.78, satellites=7, angle=314.0800, fixquality=1
$GPRMC,143418.400,A,4308.4400,N,07726.1195,W,12.49,302.83,100419,,,A*4D
$GPGGA,143418.600,4308.4403,N,07726.1203,W,1,07,1.22,147.8,M,-34.4,M,,*59
lng=-77.435325, lat=43.140666, altitude=147.90, speed=12.49, satellites=7, angle=302.8300, fixquality=1
$GPRMC,143418.800,A,4308.4406,N,07726.1211,W,13.25,299.30,100419,,,A*48
$GPGGA,143419.000,4308.4409,N,07726.1221,W,1,07,1.22,147.6,M,-34.4,M,,*5A
lng=-77.435348, lat=43.140674, altitude=147.80, speed=13.25, satellites=7, angle=299.3000, fixquality=1
$GPRMC,143419.200,A,4308.4412,N,07726.1232,W,15.12,290.94,100419,,,A*42
$GPGGA,143419.400,4308.4413,N,07726.1244,W,1,07,1.17,147.5,M,-34.4,M,,*53
lng=-77.435386, lat=43.140689, altitude=147.60, speed=15.12, satellites=7, angle=290.9400, fixquality=1
$GPRMC,143419.600,A,4308.4413,N,07726.1256,W,16.35,280.46,100419,,,A*4D
$GPGGA,143419.800,4308.4414,N,07726.1269,W,1,07,1.17,147.4,M,-34.4,M,,*56
lng=-77.435424, lat=43.140689, altitude=147.50, speed=16.35, satellites=7, angle=280.4600, fixquality=1
$GPRMC,143420.000,A,4308.4415,N,07726.1283,W,17.49,277.27,100419,,,A*4A
$GPGGA,143420.200,4308.4416,N,07726.1297,W,1,07,1.17,147.4,M,-34.4,M,,*55
lng=-77.435470, lat=43.140689, altitude=147.40, speed=17.49, satellites=7, angle=277.2700, fixquality=1
$GPRMC,143420.400,A,4308.4417,N,07726.1311,W,18.82,274.61,100419,,,A*4F
$GPGGA,143420.600,4308.4419,N,07726.1325,W,1,07,1.22,147.3,M,-34.4,M,,*57
lng=-77.435516, lat=43.140697, altitude=147.40, speed=18.82, satellites=7, angle=274.6100, fixquality=1
$GPRMC,143420.800,A,4308.4420,N,07726.1340,W,19.23,274.70,100419,,,A*49
$GPGGA,143421.000,4308.4420,N,07726.1354,W,1,07,1.17,147.3,M,-34.4,M,,*5A
lng=-77.435562, lat=43.140697, altitude=147.30, speed=19.23, satellites=7, angle=274.7000, fixquality=1
$GPRMC,143421.200,A,4308.4421,N,07726.1370,W,20.33,273.89,100419,,,A*4A
$GPGGA,143421.400,4308.4421,N,07726.1385,W,1,07,1.22,147.2,M,-34.4,M,,*54
lng=-77.435623, lat=43.140697, altitude=147.30, speed=20.33, satellites=7, angle=273.8900, fixquality=1
$GPRMC,143421.600,A,4308.4422,N,07726.1402,W,21.30,273.65,100419,,,A*4F
$GPGGA,143421.800,4308.4422,N,07726.1418,W,1,07,1.17,147.1,M,-34.4,M,,*5D
lng=-77.435668, lat=43.140705, altitude=147.20, speed=21.30, satellites=7, angle=273.6500, fixquality=1
$GPRMC,143422.000,A,4308.4424,N,07726.1436,W,22.56,274.33,100419,,,A*4C
$GPGGA,143422.200,4308.4424,N,07726.1453,W,1,07,1.17,147.3,M,-34.4,M,,*5F
lng=-77.435722, lat=43.140705, altitude=147.10, speed=22.56, satellites=7, angle=274.3300, fixquality=1
$GPRMC,143422.400,A,4308.4424,N,07726.1470,W,23.11,274.14,100419,,,A*4D
$GPGGA,143422.600,4308.4425,N,07726.1488,W,1,07,1.17,147.4,M,-34.4,M,,*5B
lng=-77.435783, lat=43.140705, altitude=147.30, speed=23.11, satellites=7, angle=274.1400, fixquality=1
$GPRMC,143422.800,A,4308.4426,N,07726.1507,W,24.10,274.97,100419,,,A*4F
$GPGGA,143423.000,4308.4427,N,07726.1525,W,1,07,1.17,147.5,M,-34.4,M,,*59
lng=-77.435844, lat=43.140705, altitude=147.40, speed=24.10, satellites=7, angle=274.9700, fixquality=1
$GPRMC,143423.200,A,4308.4429,N,07726.1544,W,24.81,276.71,100419,,,A*4E
$GPGGA,143423.400,4308.4430,N,07726.1563,W,1,07,1.22,147.5,M,-34.4,M,,*5F
lng=-77.435905, lat=43.140712, altitude=147.50, speed=24.81, satellites=7, angle=276.7100, fixquality=1
$GPRMC,143423.600,A,4308.4432,N,07726.1582,W,25.28,276.26,100419,,,A*4A
$GPGGA,143423.800,4308.4434,N,07726.1601,W,1,07,1.17,147.6,M,-34.4,M,,*55
lng=-77.435966, lat=43.140724, altitude=147.50, speed=25.28, satellites=7, angle=276.2600, fixquality=1
$GPRMC,143424.000,A,4308.4435,N,07726.1621,W,25.93,276.94,100419,,,A*4F
$GPGGA,143424.200,4308.4437,N,07726.1641,W,1,07,1.22,147.7,M,-34.4,M,,*58
lng=-77.436035, lat=43.140724, altitude=147.60, speed=25.93, satellites=7, angle=276.9400, fixquality=1
$GPRMC,143424.400,A,4308.4439,N,07726.1661,W,26.31,277.20,100419,,,A*46
$GPGGA,143424.600,4308.4441,N,07726.1681,W,1,07,1.22,147.9,M,-34.4,M,,*5F
lng=-77.436103, lat=43.140731, altitude=147.70, speed=26.31, satellites=7, angle=277.2000, fixquality=1
$GPRMC,143424.800,A,4308.4443,N,07726.1702,W,26.62,277.21,100419,,,A*44
$GPGGA,143425.000,4308.4444,N,07726.1722,W,1,07,1.22,148.0,M,-34.4,M,,*53
lng=-77.436172, lat=43.140739, altitude=147.90, speed=26.62, satellites=7, angle=277.2100, fixquality=1
$GPRMC,143425.200,A,4308.4446,N,07726.1743,W,27.15,277.56,100419,,,A*4E
$GPGGA,143425.400,4308.4448,N,07726.1764,W,1,07,1.22,148.1,M,-34.4,M,,*58
lng=-77.436241, lat=43.140747, altitude=148.00, speed=27.15, satellites=7, angle=277.5600, fixquality=1
