Vers 81
USE_SERIAL_FEEDBACK=true
DEVELOPMENT_MODE=false
USE_RMC_ONLY=false

$GPRMC,164816.250,A,4308.3092,N,07726.2625,W,0.01,305.23,210919,,,D*76
$GPGGA,164816.500,4308.3092,N,07726.2625,W,2,08,0.92,159.2,M,-34.4,M,0000,0000*56
$GPRMC,164816.750,A,4308.3092,N,07726.2625,W,0.01,305.23,210919,,,D*73
$GPGGA,164817.000,4308.3092,N,07726.2625,W,2,08,0.92,159.2,M,-34.4,M,0000,0000*52
$GPRMC,164817.250,A,4308.3092,N,07726.2625,W,0.02,305.23,210919,,,D*74
$GPGGA,164817.500,4308.3092,N,07726.2625,W,2,08,0.92,159.2,M,-34.4,M,0000,0000*57
$GPRMC,164817.750,A,4308.3092,N,07726.2625,W,0.02,305.23,210919,,,D*71
$GPGGA,164818.000,4308.3092,N,07726.2625,W,2,08,0.92,159.2,M,-34.4,M,0000,0000*5D
$GPRMC,164818.250,A,4308.3092,N,07726.2625,W,0.01,305.23,210919,,,D*78
$GPGGA,164818.500,4308.3092,N,07726.2625,W,2,08,0.92,159.2,M,-34.4,M,0000,0000*58
$GPRMC,164818.750,A,4308.3093,N,07726.2625,W,0.01,305.23,210919,,,D*7C
$GPGGA,164819.000,4308.3093,N,07726.2625,W,2,08,0.92,159.2,M,-34.4,M,0000,0000*5D
$GPRMC,164819.250,A,4308.3093,N,07726.2625,W,0.02,305.23,210919,,,D*7B
$GPGGA,164819.500,4308.3093,N,07726.2625,W,2,08,0.92,159.2,M,-34.4,M,0000,0000*58
$GPRMC,164819.750,A,4308.3093,N,07726.2625,W,0.01,305.23,210919,,,D*7D
$GPGGA,164820.000,4308.3093,N,07726.2625,W,2,08,0.92,159.2,M,-34.4,M,0000,0000*57
$GPRMC,164820.250,A,4308.3093,N,07726.2625,W,0.01,305.23,210919,,,D*72
$GPGGA,164820.500,4308.3093,N,07726.2625,W,2,08,0.92,159.2,M,-34.4,M,0000,0000*52
$GPRMC,164820.750,A,4308.3093,N,07726.2625,W,0.01,305.23,210919,,,D*77
$GPGGA,164821.000,4308.3093,N,07726.2625,W,2,08,0.92,159.2,M,-34.4,M,0000,0000*56
$GPRMC,164821.250,A,4308.3093,N,07726.2625,W,0.01,305.23,210919,,,D*73
$GPGGA,164821.500,4308.3093,N,07726.2625,W,2,08,0.92,159.2,M,-34.4,M,0000,0000*53
$GPRMC,164821.750,A,4308.3093,N,07726.2625,W,0.01,305.23,210919,,,D*76
$GPGGA,164822.000,4308.3093,N,07726.2625,W,2,08,0.92,159.2,M,-34.4,M,0000,0000*55
$GPRMC,164822.250,A,4308.3093,N,07726.2625,W,0.01,305.23,210919,,,D*70
$GPGGA,164822.500,4308.3093,N,07726.2625,W,2,08,0.92,159.2,M,-34.4,M,0000,0000*50
$GPRMC,164822.750,A,4308.3093,N,07726.2625,W,0.01,305.23,210919,,,D*75
$GPGGA,164823.000,4308.3093,N,07726.2625,W,2,08,0.92,159.2,M,-34.4,M,0000,0000*54
$GPRMC,164823.250,A,4308.3093,N,07726.2625,W,0.01,305.23,210919,,,D*71
$GPGGA,164823.500,4308.3093,N,07726.2625,W,2,08,0.92,159.2,M,-34.4,M,0000,0000*51
$GPRMC,164823.750,A,4308.3093,N,07726.2625,W,0.00,305.23,210919,,,D*75
$GPGGA,164824.000,4308.3093,N,07726.2625,W,2,08,0.92,159.2,M,-34.4,M,0000,0000*53
$GPRMC,164824.250,A,4308.3093,N,07726.2625,W,0.01,305.23,210919,,,D*76
$GPGGA,164824.500,4308.3093,N,07726.2625,W,2,08,0.92,159.2,M,-34.4,M,0000,0000*56
$GPRMC,164824.750,A,4308.3093,N,07726.2625,W,0.01,305.23,210919,,,D*73
$GPGGA,164825.000,4308.3093,N,07726.2625,W,2,08,0.92,159.2,M,-34.4,M,0000,0000*52
$GPRMC,164825.250,A,4308.3093,N,07726.2625,W,0.01,305.23,210919,,,D*77
$GPGGA,164825.500,4308.3093,N,07726.2625,W,2,08,0.92,159.2,M,-34.4,M,0000,0000*57
$GPRMC,164825.750,A,4308.3093,N,07726.2625,W,0.01,305.23,210919,,,D*72
$GPGGA,164826.000,4308.3093,N,07726.2625,W,2,08,0.92,159.2,M,-34.4,M,0000,0000*51
$GPRMC,164826.250,A,4308.3093,N,07726.2625,W,0.01,305.23,210919,,,D*74
$GPGGA,164826.500,4308.3093,N,07726.2625,W,2,08,0.92,159.2,M,-34.4,M,0000,0000*54
$GPRMC,164826.750,A,4308.3093,N,07726.2625,W,0.00,305.23,210919,,,D*70
$GPGGA,164827.000,4308.3093,N,07726.2625,W,2,08,0.92,159.2,M,-34.4,M,0000,0000*50
$GPRMC,164827.250,A,4308.3093,N,07726.2625,W,0.01,305.23,210919,,,D*75
$GPGGA,164827.500,4308.3093,N,07726.2625,W,2,08,0.92,159.2,M,-34.4,M,0000,0000*55
$GPRMC,164827.750,A,4308.3093,N,07726.2625,W,0.01,305.23,210919,,,D*70
$GPGGA,164828.000,4308.3093,N,07726.2625,W,2,08,0.92,159.2,M,-34.4,M,0000,0000*5F
$GPRMC,164828.250,A,4308.3093,N,07726.2625,W,0.01,305.23,210919,,,D*7A
$GPGGA,164828.500,4308.3093,N,07726.2625,W,2,08,0.92,159.2,M,-34.4,M,0000,0000*5A
$GPRMC,164828.750,A,4308.3093,N,07726.2625,W,0.00,305.23,210919,,,D*7E
$GPGGA,164829.000,4308.3093,N,07726.2625,W,2,08,0.92,159.2,M,-34.4,M,0000,0000*5E
$GPRMC,164829.250,A,4308.3093,N,07726.2625,W,0.01,305.23,210919,,,D*7B
$GPGGA,164829.500,4308.3093,N,07726.2625,W,2,08,0.92,159.2,M,-34.4,M,0000,0000*5B
$GPRMC,164829.750,A,4308.3093,N,07726.2625,W,0.00,305.23,210919,,,D*7F
$GPGGA,164830.000,4308.3093,N,07726.2625,W,2,08,0.92,159.2,M,-34.4,M,0000,0000*56
$GPRMC,164830.250,A,4308.3093,N,07726.2625,W,0.01,305.23,210919,,,D*73
$GPGGA,164830.500,4308.3093,N,07726.2625,W,2,08,0.92,159.2,M,-34.4,M,0000,0000*53
$GPRMC,164830.750,A,4308.3093,N,07726.2625,W,0.00,305.23,210919,,,D*77
$GPGGA,164831.000,4308.3093,N,07726.2625,W,2,08,0.92,159.2,M,-34.4,M,0000,0000*57
$GPRMC,164831.250,A,4308.3093,N,07726.2625,W,0.00,305.23,210919,,,D*73
$GPGGA,164831.500,4308.3093,N,07726.2625,W,2,08,0.92,159.2,M,-34.4,M,0000,0000*52
$GPRMC,164831.750,A,4308.3093,N,07726.2625,W,0.01,305.23,210919,,,D*77
$GPGGA,164832.000,4308.3093,N,07726.2625,W,2,08,0.92,159.2,M,-34.4,M,0000,0000*54
$GPRMC,164832.250,A,4308.3093,N,07726.2625,W,0.01,305.23,210919,,,D*71
$GPGGA,164832.500,4308.3093,N,07726.2625,W,2,08,0.92,159.2,M,-34.4,M,0000,0000*51
$GPRMC,164832.750,A,4308.3093,N,07726.2625,W,0.00,305.23,210919,,,D*75
$GPGGA,164833.000,4308.3093,N,07726.2625,W,2,08,0.92,159.2,M,-34.4,M,0000,0000*55
$GPRMC,164833.250,A,4308.3093,N,07726.2625,W,0.00,305.23,210919,,,D*71
$GPGGA,164833.500,4308.3093,N,07726.2625,W,2,08,0.92,159.2,M,-34.4,M,0000,0000*50
$GPRMC,164833.750,A,4308.3093,N,07726.2625,W,0.00,305.23,210919,,,D*74
$GPGGA,164834.000,4308.3093,N,07726.2625,W,2,08,0.92,159.2,M,-34.4,M,0000,0000*52
$GPRMC,164834.250,A,4308.3093,N,07726.2625,W,0.01,305.23,210919,,,D*77
$GPGGA,164834.500,4308.3093,N,07726.2625,W,2,08,0.92,159.2,M,-34.4,M,0000,0000*57
$GPRMC,164834.750,A,4308.3093,N,07726.2625,W,0.00,305.23,210919,,,D*73
$GPGGA,164835.000,4308.3093,N,07726.2625,W,2,08,0.92,159.2,M,-34.4,M,0000,0000*53
$GPRMC,164835.250,A,4308.3093,N,07726.2625,W,0.01,305.23,210919,,,D*76
$GPGGA,164835.500,4308.3093,N,07726.2625,W,2,08,0.92,159.1,M,-34.4,M,0000,0000*55
$GPRMC,164835.750,A,4308.3093,N,07726.2625,W,0.01,305.23,210919,,,D*73
$GPGGA,164836.000,4308.3093,N,07726.2625,W,2,08,0.92,159.1,M,-34.4,M,0000,0000*53
$GPRMC,164836.250,A,4308.3093,N,07726.2625,W,0.01,305.23,210919,,,D*75
$GPGGA,164836.500,4308.3093,N,07726.2625,W,2,08,0.92,159.1,M,-34.4,M,0000,0000*56
$GPRMC,164836.750,A,4308.3093,N,07726.2625,W,0.01,305.23,210919,,,D*70
$GPGGA,164837.000,4308.3093,N,07726.2625,W,2,08,0.92,159.1,M,-34.4,M,0000,0000*52
$GPRMC,164837.250,A,4308.3093,N,07726.2625,W,0.01,305.23,210919,,,D*74
$GPGGA,164837.500,4308.3093,N,07726.2625,W,2,08,0.92,159.1,M,-34.4,M,0000,0000*57
$GPRMC,164837.750,A,4308.3093,N,07726.2625,W,0.01,305.23,210919,,,D*71
$GPGGA,164838.000,4308.3093,N,07726.2625,W,2,08,0.92,159.1,M,-34.4,M,0000,0000*5D
$GPRMC,164838.250,A,4308.3093,N,07726.2625,W,0.01,305.23,210919,,,D*7B
$GPGGA,164838.500,4308.3093,N,07726.2625,W,2,08,0.92,159.1,M,-34.4,M,0000,0000*58
$GPRMC,164838.750,A,4308.3093,N,07726.2625,W,0.01,305.23,210919,,,D*7E
$GPGGA,164839.000,4308.3093,N,07726.2625,W,2,08,0.92,159.1,M,-34.4,M,0000,0000*5C
$GPRMC,164839.250,A,4308.3093,N,07726.2625,W,0.01,305.23,210919,,,D*7A
$GPGGA,164839.500,4308.3093,N,07726.2625,W,2,08,0.92,159.1,M,-34.4,M,0000,0000*59
$GPRMC,164839.750,A,4308.3093,N,07726.2625,W,0.01,305.23,210919,,,D*7F
$GPGGA,164840.000,4308.3093,N,07726.2625,W,2,08,0.92,159.1,M,-34.4,M,0000,0000*52
$GPRMC,164840.250,A,4308.3093,N,07726.2625,W,0.01,305.23,210919,,,D*74
$GPGGA,164840.500,4308.3093,N,07726.2625,W,2,08,0.92,159.1,M,-34.4,M,0000,0000*57
$GPRMC,164840.750,A,4308.3093,N,07726.2625,W,0.00,305.23,210919,,,D*70
$GPGGA,164841.000,4308.3093,N,07726.2625,W,2,08,0.92,159.1,M,-34.4,M,0000,0000*53
$GPRMC,164841.250,A,4308.3093,N,07726.2625,W,0.00,305.23,210919,,,D*74
$GPGGA,164841.500,4308.3093,N,07726.2625,W,2,08,0.92,159.1,M,-34.4,M,0000,0000*56
$GPRMC,164841.750,A,4308.3093,N,07726.2625,W,0.00,305.23,210919,,,D*71
$GPGGA,164842.000,4308.3093,N,07726.2625,W,2,08,0.92,159.1,M,-34.4,M,0000,0000*50
$GPRMC,164842.250,A,4308.3093,N,07726.2625,W,0.01,305.23,210919,,,D*76
$GPGGA,164842.500,4308.3093,N,07726.2625,W,2,08,0.92,159.1,M,-34.4,M,0000,0000*55
$GPRMC,164842.750,A,4308.3093,N,07726.2625,W,0.00,305.23,210919,,,D*72
$GPGGA,164843.000,4308.3093,N,07726.2625,W,2,08,0.92,159.1,M,-34.4,M,0000,0000*51
$GPRMC,164843.250,A,4308.3093,N,07726.2625,W,0.00,305.23,210919,,,D*76
$GPGGA,164843.500,4308.3093,N,07726.2625,W,2,08,0.92,159.1,M,-34.4,M,0000,0000*54
$GPRMC,164843.750,A,4308.3093,N,07726.2625,W,0.01,305.23,210919,,,D*72
$GPGGA,164844.000,4308.3093,N,07726.2625,W,2,08,0.92,159.1,M,-34.4,M,0000,0000*56
$GPRMC,164844.250,A,4308.3093,N,07726.2625,W,0.00,305.23,210919,,,D*71
$GPGGA,164844.500,4308.3093,N,07726.2625,W,2,08,0.92,159.1,M,-34.4,M,0000,0000*53
$GPRMC,164844.750,A,4308.3093,N,07726.2625,W,0.00,305.23,210919,,,D*74
$GPGGA,164845.000,4308.3093,N,07726.2625,W,2,08,0.92,159.1,M,-34.4,M,0000,0000*57
$GPRMC,164845.250,A,4308.3093,N,07726.2625,W,0.00,305.23,210919,,,D*70
$GPGGA,164845.500,4308.3093,N,07726.2625,W,2,08,0.92,159.1,M,-34.4,M,0000,0000*52
$GPRMC,164845.750,A,4308.3093,N,07726.2625,W,0.00,305.23,210919,,,D*75
$GPGGA,164846.000,4308.3093,N,07726.2625,W,2,08,0.92,159.1,M,-34.4,M,0000,0000*54
$GPRMC,164846.250,A,4308.3093,N,07726.2625,W,0.00,305.23,210919,,,D*73
$GPGGA,164846.500,4308.3093,N,07726.2625,W,2,08,0.92,159.1,M,-34.4,M,0000,0000*51
$GPRMC,164846.750,A,4308.3093,N,07726.2625,W,0.00,305.23,210919,,,D*76
$GPGGA,164847.000,4308.3093,N,07726.2625,W,2,08,0.92,159.1,M,-34.4,M,0000,0000*55
$GPRMC,164847.250,A,4308.3093,N,07726.2625,W,0.01,305.23,210919,,,D*73
$GPGGA,164847.500,4308.3093,N,07726.2625,W,2,08,0.92,159.1,M,-34.4,M,0000,0000*50
$GPRMC,164847.750,A,4308.3093,N,07726.2625,W,0.00,305.23,210919,,,D*77
$GPGGA,164848.000,4308.3093,N,07726.2625,W,2,08,0.92,159.1,M,-34.4,M,0000,0000*5A
$GPRMC,164848.250,A,4308.3093,N,07726.2625,W,0.01,305.23,210919,,,D*7C
$GPGGA,164848.500,4308.3093,N,07726.2625,W,2,08,0.92,159.1,M,-34.4,M,0000,0000*5F
$GPRMC,164848.750,A,4308.3093,N,07726.2625,W,0.00,305.23,210919,,,D*78
$GPGGA,164849.000,4308.3093,N,07726.2625,W,2,08,0.92,159.1,M,-34.4,M,0000,0000*5B
$GPRMC,164849.250,A,4308.3093,N,07726.2625,W,0.01,305.23,210919,,,D*7D
$GPGGA,164849.500,4308.3093,N,07726.2625,W,2,08,0.92,159.1,M,-34.4,M,0000,0000*5E
$GPRMC,164849.750,A,4308.3093,N,07726.2625,W,0.00,305.23,210919,,,D*79
$GPGGA,164850.000,4308.3093,N,07726.2625,W,2,08,0.92,159.1,M,-34.4,M,0000,0000*53
$GPRMC,164850.250,A,4308.3093,N,07726.2625,W,0.00,305.23,210919,,,D*74
$GPGGA,164850.500,4308.3093,N,07726.2625,W,2,08,0.92,159.1,M,-34.4,M,0000,0000*56
$GPRMC,164850.750,A,4308.3093,N,07726.2625,W,0.00,305.23,210919,,,D*71
$GPGGA,164851.000,4308.3093,N,07726.2625,W,2,08,0.92,159.1,M,-34.4,M,0000,0000*52
$GPRMC,164851.250,A,4308.3093,N,07726.2625,W,0.01,305.23,210919,,,D*74
$GPGGA,164851.500,4308.3093,N,07726.2625,W,2,08,0.92,159.1,M,-34.4,M,0000,0000*57
$GPRMC,164851.750,A,4308.3093,N,07726.2625,W,0.01,305.23,210919,,,D*71
$GPGGA,164852.000,4308.3093,N,07726.2625,W,2,08,0.92,159.1,M,-34.4,M,0000,0000*51
$GPRMC,164852.250,A,4308.3093,N,07726.2625,W,0.01,305.23,210919,,,D*77
$GPGGA,164852.500,4308.3093,N,07726.2625,W,2,08,0.92,159.1,M,-34.4,M,0000,0000*54
$GPRMC,164852.750,A,4308.3093,N,07726.2625,W,0.00,305.23,210919,,,D*73
$GPGGA,164853.000,4308.3093,N,07726.2625,W,2,08,0.92,159.1,M,-34.4,M,0000,0000*50
$GPRMC,164853.250,A,4308.3093,N,07726.2625,W,0.01,305.23,210919,,,D*76
$GPGGA,164853.500,4308.3093,N,07726.2625,W,2,08,0.92,159.1,M,-34.4,M,0000,0000*55
$GPRMC,164853.750,A,4308.3093,N,07726.2625,W,0.01,305.23,210919,,,D*73
$GPGGA,164854.000,4308.3093,N,07726.2625,W,2,08,0.92,159.1,M,-34.4,M,0000,0000*57
$GPRMC,164854.250,A,4308.3093,N,07726.2625,W,0.01,305.23,210919,,,D*71
$GPGGA,164854.500,4308.3093,N,07726.2625,W,2,08,0.92,159.1,M,-34.4,M,0000,0000*52
$GPRMC,164854.750,A,4308.3093,N,07726.2625,W,0.00,305.23,210919,,,D*75
$GPGGA,164855.000,4308.3093,N,07726.2625,W,2,08,0.92,159.1,M,-34.4,M,0000,0000*56
$GPRMC,164855.250,A,4308.3093,N,07726.2625,W,0.01,305.23,210919,,,D*70
$GPGGA,164855.500,4308.3093,N,07726.2625,W,2,08,0.92,159.1,M,-34.4,M,0000,0000*53
$GPRMC,164855.750,A,4308.3093,N,07726.2625,W,0.01,305.23,210919,,,D*75
$GPGGA,164856.000,4308.3093,N,07726.2625,W,2,08,0.92,159.1,M,-34.4,M,0000,0000*55
$GPRMC,164856.250,A,4308.3093,N,07726.2625,W,0.01,305.23,210919,,,D*73
$GPGGA,164856.500,4308.3093,N,07726.2625,W,2,08,0.92,159.1,M,-34.4,M,0000,0000*50
$GPRMC,164856.750,A,4308.3093,N,07726.2625,W,0.01,305.23,210919,,,D*76
$GPGGA,164857.000,4308.3093,N,07726.2625,W,2,08,0.92,159.1,M,-34.4,M,0000,0000*54
$GPRMC,164857.250,A,4308.3093,N,07726.2625,W,0.01,305.23,210919,,,D*72
$GPGGA,164857.500,4308.3093,N,07726.2625,W,2,08,0.92,159.1,M,-34.4,M,0000,0000*51
$GPRMC,164857.750,A,4308.3093,N,07726.2625,W,0.00,305.23,210919,,,D*76
$GPGGA,164858.000,4308.3093,N,07726.2625,W,2,08,0.92,159.1,M,-34.4,M,0000,0000*5B
$GPRMC,164858.250,A,4308.3093,N,07726.2625,W,0.01,305.23,210919,,,D*7D
$GPGGA,164858.500,4308.3093,N,07726.2625,W,2,08,0.92,159.1,M,-34.4,M,0000,0000*5E
$GPRMC,164858.750,A,4308.3093,N,07726.2625,W,0.01,305.23,210919,,,D*78
$GPGGA,164859.000,4308.3093,N,07726.2625,W,2,08,0.92,159.1,M,-34.4,M,0000,0000*5A
$GPRMC,164859.250,A,4308.3093,N,07726.2625,W,0.00,305.23,210919,,,D*7D
$GPGGA,164859.500,4308.3093,N,07726.2625,W,2,08,0.92,159.1,M,-34.4,M,0000,0000*5F
$GPRMC,164859.750,A,4308.3093,N,07726.2625,W,0.00,305.23,210919,,,D*78
$GPGGA,164900.000,4308.3093,N,07726.2625,W,2,08,0.92,159.1,M,-34.4,M,0000,0000*57
$GPRMC,164900.250,A,4308.3093,N,07726.2625,W,0.00,305.23,210919,,,D*70
$GPGGA,164900.500,4308.3093,N,07726.2626,W,2,08,0.92,159.1,M,-34.4,M,0000,0000*51
$GPRMC,164900.750,A,4308.3093,N,07726.2626,W,0.00,305.23,210919,,,D*76
$GPGGA,164901.000,4308.3093,N,07726.2626,W,2,08,0.92,159.1,M,-34.4,M,0000,0000*55
$GPRMC,164901.250,A,4308.3093,N,07726.2626,W,0.00,305.23,210919,,,D*72
$GPGGA,164901.500,4308.3093,N,07726.2626,W,2,08,0.92,159.1,M,-34.4,M,0000,0000*50
$GPRMC,164901.750,A,4308.3093,N,07726.2626,W,0.00,305.23,210919,,,D*77
$GPGGA,164902.000,4308.3093,N,07726.2626,W,2,08,0.92,159.1,M,-34.4,M,0000,0000*56
$GPRMC,164902.250,A,4308.3093,N,07726.2626,W,0.00,305.23,210919,,,D*71
$GPGGA,164902.500,4308.3093,N,07726.2626,W,2,08,0.92,159.1,M,-34.4,M,0000,0000*53
$GPRMC,164902.750,A,4308.3093,N,07726.2626,W,0.00,305.23,210919,,,D*74
$GPGGA,164903.000,4308.3093,N,07726.2626,W,2,08,0.92,159.1,M,-34.4,M,0000,0000*57
$GPRMC,164903.250,A,4308.3093,N,07726.2626,W,0.01,305.23,210919,,,D*71
$GPGGA,164903.500,4308.3093,N,07726.2626,W,2,08,0.92,159.1,M,-34.4,M,0000,0000*52
$GPRMC,164903.750,A,4308.3093,N,07726.2626,W,0.01,305.23,210919,,,D*74
$GPGGA,164904.000,4308.3093,N,07726.2626,W,2,08,0.92,159.1,M,-34.4,M,0000,0000*50
$GPRMC,164904.250,A,4308.3093,N,07726.2626,W,0.01,305.23,210919,,,D*76
$GPGGA,164904.500,4308.3093,N,07726.2626,W,2,08,0.92,159.1,M,-34.4,M,0000,0000*55
$GPRMC,164904.750,A,4308.3093,N,07726.2626,W,0.01,305.23,210919,,,D*73
$GPGGA,164905.000,4308.3093,N,07726.2626,W,2,08,0.92,159.1,M,-34.4,M,0000,0000*51
$GPRMC,164905.250,A,4308.3093,N,07726.2626,W,0.01,305.23,210919,,,D*77
$GPGGA,164905.500,4308.3093,N,07726.2626,W,2,08,0.92,159.1,M,-34.4,M,0000,0000*54
$GPRMC,164905.750,A,4308.3093,N,07726.2626,W,0.01,305.23,210919,,,D*72
$GPGGA,164906.000,4308.3093,N,07726.2626,W,2,08,0.92,159.1,M,-34.4,M,0000,0000*52
$GPRMC,164906.250,A,4308.3093,N,07726.2626,W,0.01,305.23,210919,,,D*74
$GPGGA,164906.500,4308.3093,N,07726.2626,W,2,08,0.92,159.1,M,-34.4,M,0000,0000*57
$GPRMC,164906.750,A,4308.3093,N,07726.2626,W,0.01,305.23,210919,,,D*71
$GPGGA,164907.000,4308.3093,N,07726.2626,W,2,08,0.92,159.1,M,-34.4,M,0000,0000*53
$GPRMC,164907.250,A,4308.3093,N,07726.2626,W,0.01,305.23,210919,,,D*75
$GPGGA,164907.500,4308.3093,N,07726.2626,W,2,08,0.92,159.1,M,-34.4,M,0000,0000*56
$GPRMC,164907.750,A,4308.3093,N,07726.2626,W,0.00,305.23,210919,,,D*71
$GPGGA,164908.000,4308.3093,N,07726.2626,W,2,08,0.92,159.1,M,-34.4,M,0000,0000*5C
$GPRMC,164908.250,A,4308.3093,N,07726.2626,W,0.01,305.23,210919,,,D*7A
$GPGGA,164908.500,4308.3093,N,07726.2626,W,2,08,0.92,159.1,M,-34.4,M,0000,0000*59
$GPRMC,164908.750,A,4308.3093,N,07726.2626,W,0.02,305.23,210919,,,D*7C
$GPGGA,164909.000,4308.3093,N,07726.2626,W,2,08,0.92,159.1,M,-34.4,M,0000,0000*5D
$GPRMC,164909.250,A,4308.3093,N,07726.2626,W,0.03,305.23,210919,,,D*79
$GPGGA,164909.500,4308.3093,N,07726.2626,W,2,08,0.91,159.1,M,-34.4,M,0000,0000*5B
$GPRMC,164909.750,A,4308.3093,N,07726.2626,W,0.22,305.23,210919,,,D*7F
$GPGGA,164910.000,4308.3093,N,07726.2626,W,2,08,0.91,159.1,M,-34.4,M,0000,0000*56
$GPRMC,164910.250,A,4308.3094,N,07726.2626,W,0.62,305.23,210919,,,D*71
$GPGGA,164910.500,4308.3095,N,07726.2628,W,2,08,0.91,159.0,M,-34.4,M,0000,0000*5A
$GPRMC,164910.750,A,4308.3096,N,07726.2629,W,0.93,342.98,210919,,,D*74
$GPGGA,164911.000,4308.3098,N,07726.2629,W,2,08,0.92,159.0,M,-34.4,M,0000,0000*51
$GPRMC,164911.250,A,4308.3100,N,07726.2629,W,2.20,354.92,210919,,,D*79
$GPGGA,164911.500,4308.3102,N,07726.2629,W,2,08,0.92,159.0,M,-34.4,M,0000,0000*56
$GPRMC,164911.750,A,4308.3104,N,07726.2630,W,2.88,354.17,210919,,,D*7F
$GPGGA,164912.000,4308.3107,N,07726.2630,W,2,08,0.92,158.9,M,-34.4,M,0000,0000*55
$GPRMC,164912.250,A,4308.3109,N,07726.2629,W,3.05,358.69,210919,,,D*7D
$GPGGA,164912.500,4308.3111,N,07726.2628,W,2,08,0.92,158.9,M,-34.4,M,0000,0000*5E
$GPRMC,164912.750,A,4308.3112,N,07726.2627,W,2.45,13.62,210919,,,D*4E
$GPGGA,164913.000,4308.3114,N,07726.2626,W,2,08,0.92,158.9,M,-34.4,M,0000,0000*51
$GPRMC,164913.250,A,4308.3116,N,07726.2625,W,2.56,32.26,210919,,,D*4D
$GPGGA,164913.500,4308.3118,N,07726.2623,W,2,08,0.91,159.0,M,-34.4,M,0000,0000*56
$GPRMC,164913.750,A,4308.3120,N,07726.2621,W,2.66,40.93,210919,,,D*41
$GPGGA,164914.000,4308.3122,N,07726.2619,W,2,08,0.91,159.0,M,-34.4,M,0000,0000*54
$GPRMC,164914.250,A,4308.3123,N,07726.2617,W,2.36,40.23,210919,,,D*4B
$GPGGA,164914.500,4308.3125,N,07726.2615,W,2,08,0.91,159.1,M,-34.4,M,0000,0000*5B
$GPRMC,164914.750,A,4308.3127,N,07726.2613,W,2.68,44.42,210919,,,D*46
$GPGGA,164915.000,4308.3127,N,07726.2612,W,2,08,0.91,159.2,M,-34.4,M,0000,0000*59
$GPRMC,164915.250,A,4308.3128,N,07726.2610,W,1.88,52.63,210919,,,D*47
$GPGGA,164915.500,4308.3128,N,07726.2609,W,2,08,0.91,159.3,M,-34.4,M,0000,0000*58
$GPRMC,164915.750,A,4308.3129,N,07726.2608,W,1.12,51.43,210919,,,D*48
$GPGGA,164916.000,4308.3129,N,07726.2607,W,2,08,0.91,159.5,M,-34.4,M,0000,0000*57
$GPRMC,164916.250,A,4308.3129,N,07726.2606,W,0.43,48.74,210919,,,D*49
$GPGGA,164916.500,4308.3129,N,07726.2606,W,2,08,0.91,159.6,M,-34.4,M,0000,0000*50
$GPRMC,164916.750,A,4308.3128,N,07726.2606,W,0.14,48.74,210919,,,D*4F
$GPGGA,164917.000,4308.3128,N,07726.2607,W,2,08,0.91,159.6,M,-34.4,M,0000,0000*54
$GPRMC,164917.250,A,4308.3127,N,07726.2607,W,0.80,252.16,210919,,,D*75
$GPGGA,164917.500,4308.3127,N,07726.2609,W,2,08,0.91,159.7,M,-34.4,M,0000,0000*51
$GPRMC,164917.750,A,4308.3126,N,07726.2610,W,1.38,254.17,210919,,,D*72
$GPGGA,164918.000,4308.3125,N,07726.2614,W,2,08,0.91,159.9,M,-34.4,M,0000,0000*5B
$GPRMC,164918.250,A,4308.3125,N,07726.2617,W,3.30,264.63,210919,,,D*76
$GPGGA,164918.500,4308.3125,N,07726.2620,W,2,08,0.91,160.0,M,-34.4,M,0000,0000*5A
$GPRMC,164918.750,A,4308.3125,N,07726.2624,W,4.67,270.23,210919,,,D*77
$GPGGA,164919.000,4308.3126,N,07726.2629,W,2,08,0.92,160.0,M,-34.4,M,0000,0000*57
$GPRMC,164919.250,A,4308.3126,N,07726.2635,W,6.03,271.47,210919,,,D*73
$GPGGA,164919.500,4308.3127,N,07726.2641,W,2,08,0.92,160.1,M,-34.4,M,0000,0000*5C
$GPRMC,164919.750,A,4308.3129,N,07726.2648,W,7.32,274.07,210919,,,D*71
$GPGGA,164920.000,4308.3131,N,07726.2655,W,2,08,0.92,160.2,M,-34.4,M,0000,0000*52
$GPRMC,164920.250,A,4308.3133,N,07726.2663,W,8.99,277.89,210919,,,D*77
$GPGGA,164920.500,4308.3135,N,07726.2672,W,2,08,0.92,160.4,M,-34.4,M,0000,0000*50
$GPRMC,164920.750,A,4308.3138,N,07726.2681,W,10.67,280.62,210919,,,D*40
$GPGGA,164921.000,4308.3140,N,07726.2692,W,2,08,0.92,160.5,M,-34.4,M,0000,0000*59
$GPRMC,164921.250,A,4308.3143,N,07726.2703,W,12.07,281.51,210919,,,D*46
$GPGGA,164921.500,4308.3146,N,07726.2715,W,2,08,0.92,160.6,M,-34.4,M,0000,0000*57
$GPRMC,164921.750,A,4308.3149,N,07726.2727,W,13.13,282.54,210919,,,D*4D
$GPGGA,164922.000,4308.3152,N,07726.2739,W,2,08,0.92,160.7,M,-34.4,M,0000,0000*5B
$GPRMC,164922.250,A,4308.3155,N,07726.2752,W,14.30,283.27,210919,,,D*47
$GPGGA,164922.500,4308.3158,N,07726.2766,W,2,08,0.92,160.8,M,-34.4,M,0000,0000*51
$GPRMC,164922.750,A,4308.3162,N,07726.2780,W,15.66,284.91,210919,,,D*41
$GPGGA,164923.000,4308.3165,N,07726.2794,W,2,08,0.92,161.0,M,-34.4,M,0000,0000*5F
$GPRMC,164923.250,A,4308.3170,N,07726.2809,W,16.80,287.01,210919,,,D*49
$GPGGA,164923.500,4308.3177,N,07726.2822,W,2,08,0.92,161.3,M,-34.4,M,0000,0000*58
$GPRMC,164923.750,A,4308.3184,N,07726.2836,W,17.57,289.86,210919,,,D*41
$GPGGA,164924.000,4308.3188,N,07726.2852,W,2,08,0.92,161.5,M,-34.4,M,0000,0000*5B
$GPRMC,164924.250,A,4308.3194,N,07726.2869,W,18.27,291.43,210919,,,D*40
$GPGGA,164924.500,4308.3200,N,07726.2886,W,2,08,0.92,161.7,M,-34.4,M,0000,0000*56
$GPRMC,164924.750,A,4308.3206,N,07726.2903,W,19.03,293.74,210919,,,D*41
$GPGGA,164925.000,4308.3214,N,07726.2921,W,2,08,0.92,162.0,M,-34.4,M,0000,0000*5F
$GPRMC,164925.250,A,4308.3222,N,07726.2938,W,19.75,297.92,210919,,,D*46
$GPGGA,164925.500,4308.3230,N,07726.2955,W,2,08,0.92,162.3,M,-34.4,M,0000,0000*5C
$GPRMC,164925.750,A,4308.3237,N,07726.2972,W,20.44,299.67,210919,,,D*45
$GPGGA,164926.000,4308.3245,N,07726.2990,W,2,08,0.92,162.7,M,-34.4,M,0000,0000*55
$GPRMC,164926.250,A,4308.3254,N,07726.3008,W,21.30,301.19,210919,,,D*48
$GPGGA,164926.500,4308.3263,N,07726.3025,W,2,08,0.92,162.9,M,-34.4,M,0000,0000*5C
$GPRMC,164926.750,A,4308.3272,N,07726.3043,W,22.09,301.89,210919,,,D*46
$GPGGA,164927.000,4308.3281,N,07726.3062,W,2,08,0.92,163.2,M,-34.4,M,0000,0000*5D
$GPRMC,164927.250,A,4308.3290,N,07726.3081,W,23.01,302.22,210919,,,D*4B
$GPGGA,164927.500,4308.3299,N,07726.3100,W,2,08,0.92,163.5,M,-34.4,M,0000,0000*53
$GPRMC,164927.750,A,4308.3308,N,07726.3119,W,23.45,302.34,210919,,,D*49
$GPGGA,164928.000,4308.3318,N,07726.3138,W,2,08,0.92,163.7,M,-34.4,M,0000,0000*58
$GPRMC,164928.250,A,4308.3328,N,07726.3157,W,23.74,303.22,210919,,,D*4F
$GPGGA,164928.500,4308.3338,N,07726.3176,W,2,08,0.92,163.9,M,-34.4,M,0000,0000*5B
$GPRMC,164928.750,A,4308.3348,N,07726.3195,W,23.65,303.45,210919,,,D*43
$GPGGA,164929.000,4308.3357,N,07726.3214,W,2,08,0.92,164.1,M,-34.4,M,0000,0000*5E
$GPRMC,164929.250,A,4308.3366,N,07726.3233,W,23.24,303.27,210919,,,D*45
$GPGGA,164929.500,4308.3375,N,07726.3252,W,2,08,0.92,164.2,M,-34.4,M,0000,0000*5A
$GPRMC,164929.750,A,4308.3384,N,07726.3271,W,23.11,302.88,210919,,,D*48
$GPGGA,164930.000,4308.3393,N,07726.3289,W,2,08,0.92,164.4,M,-34.4,M,0000,0000*5F
$GPRMC,164930.250,A,4308.3402,N,07726.3308,W,22.62,302.21,210919,,,D*45
$GPGGA,164930.500,4308.3411,N,07726.3326,W,2,08,0.92,164.5,M,-34.4,M,0000,0000*52
$GPRMC,164930.750,A,4308.3420,N,07726.3344,W,22.29,302.54,210919,,,D*45
$GPGGA,164931.000,4308.3429,N,07726.3362,W,2,08,0.92,164.6,M,-34.4,M,0000,0000*5E
$GPRMC,164931.250,A,4308.3437,N,07726.3380,W,21.99,302.19,210919,,,D*4E
$GPGGA,164931.500,4308.3445,N,07726.3398,W,2,08,0.92,164.6,M,-34.4,M,0000,0000*54
$GPRMC,164931.750,A,4308.3454,N,07726.3415,W,21.89,302.07,210919,,,D*4B
$GPGGA,164932.000,4308.3462,N,07726.3433,W,2,08,0.92,164.7,M,-34.4,M,0000,0000*50
$GPRMC,164932.250,A,4308.3471,N,07726.3451,W,21.72,302.58,210919,,,D*44
$GPGGA,164932.500,4308.3479,N,07726.3468,W,2,08,0.92,164.8,M,-34.4,M,0000,0000*5E
$GPRMC,164932.750,A,4308.3488,N,07726.3486,W,21.71,302.52,210919,,,D*44
$GPGGA,164933.000,4308.3495,N,07726.3504,W,2,08,0.92,164.9,M,-34.4,M,0000,0000*52
$GPRMC,164933.250,A,4308.3504,N,07726.3521,W,21.65,302.97,210919,,,D*45
$GPGGA,164933.500,4308.3513,N,07726.3538,W,2,08,0.92,165.0,M,-34.4,M,0000,0000*5F
$GPRMC,164933.750,A,4308.3522,N,07726.3555,W,21.61,305.24,210919,,,D*4C
$GPGGA,164934.000,4308.3532,N,07726.3571,W,2,08,0.92,165.3,M,-34.4,M,0000,0000*50
$GPRMC,164934.250,A,4308.3542,N,07726.3586,W,21.52,309.49,210919,,,D*41
$GPGGA,164934.500,4308.3553,N,07726.3602,W,2,08,0.92,165.4,M,-34.4,M,0000,0000*52
$GPRMC,164934.750,A,4308.3565,N,07726.3617,W,21.83,312.86,210919,,,D*4F
$GPGGA,164935.000,4308.3577,N,07726.3631,W,2,08,0.92,165.5,M,-34.4,M,0000,0000*51
$GPRMC,164935.250,A,4308.3590,N,07726.3645,W,21.92,317.96,210919,,,D*42
$GPGGA,164935.500,4308.3603,N,07726.3657,W,2,08,0.92,165.5,M,-34.4,M,0000,0000*54
$GPRMC,164935.750,A,4308.3615,N,07726.3670,W,22.39,322.78,210919,,,D*4B
$GPGGA,164936.000,4308.3628,N,07726.3683,W,2,08,0.92,165.6,M,-34.4,M,0000,0000*51
$GPRMC,164936.250,A,4308.3641,N,07726.3695,W,22.71,326.74,210919,,,D*43
$GPGGA,164936.500,4308.3655,N,07726.3706,W,2,08,0.92,165.5,M,-34.4,M,0000,0000*51
$GPRMC,164936.750,A,4308.3669,N,07726.3716,W,22.75,330.98,210919,,,D*47
$GPGGA,164937.000,4308.3684,N,07726.3725,W,2,08,0.92,165.5,M,-34.4,M,0000,0000*58
$GPRMC,164937.250,A,4308.3698,N,07726.3735,W,23.03,334.80,210919,,,D*41
$GPGGA,164937.500,4308.3714,N,07726.3743,W,2,08,0.92,165.4,M,-34.4,M,0000,0000*54
$GPRMC,164937.750,A,4308.3729,N,07726.3751,W,23.64,338.95,210919,,,D*44
$GPGGA,164938.000,4308.3745,N,07726.3758,W,2,08,0.92,165.3,M,-34.4,M,0000,0000*57
$GPRMC,164938.250,A,4308.3760,N,07726.3764,W,23.17,342.60,210919,,,D*46
$GPGGA,164938.500,4308.3776,N,07726.3770,W,2,08,0.92,165.3,M,-34.4,M,0000,0000*58
$GPRMC,164938.750,A,4308.3792,N,07726.3774,W,23.47,345.70,210919,,,D*4C
$GPGGA,164939.000,4308.3809,N,07726.3778,W,2,08,0.92,165.3,M,-34.4,M,0000,0000*53
$GPRMC,164939.250,A,4308.3825,N,07726.3780,W,23.66,351.11,210919,,,D*41
$GPGGA,164939.500,4308.3844,N,07726.3779,W,2,08,0.92,165.4,M,-34.4,M,0000,0000*59
$GPRMC,164939.750,A,4308.3861,N,07726.3778,W,24.37,358.20,210919,,,D*4B
$GPGGA,164940.000,4308.3879,N,07726.3776,W,2,08,0.92,165.4,M,-34.4,M,0000,0000*53
$GPRMC,164940.250,A,4308.3896,N,07726.3774,W,24.59,3.53,210919,,,D*45
$GPGGA,164940.500,4308.3914,N,07726.3770,W,2,08,0.92,165.2,M,-34.4,M,0000,0000*5C
$GPRMC,164940.750,A,4308.3932,N,07726.3767,W,25.29,6.29,210919,,,D*43
$GPGGA,164941.000,4308.3951,N,07726.3763,W,2,08,0.92,165.1,M,-34.4,M,0000,0000*58
$GPRMC,164941.250,A,4308.3970,N,07726.3758,W,26.87,9.22,210919,,,D*4E
$GPGGA,164941.500,4308.3990,N,07726.3752,W,2,08,0.92,164.9,M,-34.4,M,0000,0000*5B
$GPRMC,164941.750,A,4308.4009,N,07726.3747,W,27.85,10.29,210919,,,D*75
$GPGGA,164942.000,4308.4029,N,07726.3742,W,2,07,1.35,164.7,M,-34.4,M,0000,0000*5D
$GPRMC,164942.250,A,4308.4048,N,07726.3737,W,27.98,10.21,210919,,,D*75
$GPGGA,164942.500,4308.4068,N,07726.3732,W,2,08,0.92,164.2,M,-34.4,M,0000,0000*5C
$GPRMC,164942.750,A,4308.4087,N,07726.3727,W,27.92,9.98,210919,,,D*42
$GPGGA,164943.000,4308.4107,N,07726.3722,W,2,08,0.92,164.0,M,-34.4,M,0000,0000*53
$GPRMC,164943.250,A,4308.4126,N,07726.3717,W,27.69,10.19,210919,,,D*7A
$GPGGA,164943.500,4308.4145,N,07726.3711,W,2,07,1.35,163.7,M,-34.4,M,0000,0000*53
$GPRMC,164943.750,A,4308.4164,N,07726.3706,W,27.40,10.39,210919,,,D*70
$GPGGA,164944.000,4308.4183,N,07726.3701,W,2,08,0.92,163.4,M,-34.4,M,0000,0000*5A
$GPRMC,164944.250,A,4308.4202,N,07726.3697,W,26.92,10.08,210919,,,D*74
$GPGGA,164944.500,4308.4220,N,07726.3692,W,2,07,1.35,163.3,M,-34.4,M,0000,0000*5A
$GPRMC,164944.750,A,4308.4239,N,07726.3687,W,26.59,9.76,210919,,,D*4E
$GPGGA,164945.000,4308.4257,N,07726.3683,W,2,07,1.35,163.2,M,-34.4,M,0000,0000*5F
$GPRMC,164945.250,A,4308.4275,N,07726.3679,W,25.84,8.42,210919,,,D*46
$GPGGA,164945.500,4308.4292,N,07726.3676,W,2,07,1.35,163.4,M,-34.4,M,0000,0000*5F
$GPRMC,164945.750,A,4308.4310,N,07726.3672,W,25.41,8.24,210919,,,D*43
$GPGGA,164946.000,4308.4327,N,07726.3668,W,2,08,0.92,163.4,M,-34.4,M,0000,0000*5A
$GPRMC,164946.250,A,4308.4344,N,07726.3665,W,24.90,8.71,210919,,,D*4F
$GPGGA,164946.500,4308.4361,N,07726.3661,W,2,07,1.35,163.4,M,-34.4,M,0000,0000*57
$GPRMC,164946.750,A,4308.4379,N,07726.3656,W,24.53,8.96,210919,,,D*42
$GPGGA,164947.000,4308.4395,N,07726.3652,W,2,08,0.92,163.3,M,-34.4,M,0000,0000*5C
$GPRMC,164947.250,A,4308.4412,N,07726.3648,W,23.78,9.01,210919,,,D*42
$GPGGA,164947.500,4308.4428,N,07726.3644,W,2,08,0.92,163.3,M,-34.4,M,0000,0000*5F
$GPRMC,164947.750,A,4308.4443,N,07726.3640,W,22.52,8.56,210919,,,D*41
$GPGGA,164948.000,4308.4457,N,07726.3636,W,2,08,0.92,163.3,M,-34.4,M,0000,0000*58
$GPRMC,164948.250,A,4308.4472,N,07726.3632,W,20.55,8.89,210919,,,D*4B
$GPGGA,164948.500,4308.4485,N,07726.3628,W,2,08,0.92,163.1,M,-34.4,M,0000,0000*5F
$GPRMC,164948.750,A,4308.4497,N,07726.3624,W,17.72,8.84,210919,,,D*4E
$GPGGA,164949.000,4308.4508,N,07726.3620,W,2,08,0.92,163.2,M,-34.4,M,0000,0000*54
$GPRMC,164949.250,A,4308.4518,N,07726.3617,W,16.10,11.32,210919,,,D*7C
$GPGGA,164949.500,4308.4527,N,07726.3613,W,2,07,1.03,163.5,M,-34.4,M,0000,0000*5D
$GPRMC,164949.750,A,4308.4536,N,07726.3609,W,14.11,12.39,210919,,,D*71
$GPGGA,164950.000,4308.4542,N,07726.3605,W,2,07,1.03,163.6,M,-34.4,M,0000,0000*57
$GPRMC,164950.250,A,4308.4546,N,07726.3602,W,10.23,20.77,210919,,,D*7E
$GPGGA,164950.500,4308.4546,N,07726.3604,W,2,07,1.35,164.4,M,-34.4,M,0000,0000*57
$GPRMC,164950.750,A,4308.4550,N,07726.3603,W,5.16,7.88,210919,,,D*7A
$GPGGA,164951.000,4308.4553,N,07726.3603,W,2,07,1.03,164.6,M,-34.4,M,0000,0000*57
$GPRMC,164951.250,A,4308.4557,N,07726.3603,W,5.07,1.80,210919,,,D*77
$GPGGA,164951.500,4308.4560,N,07726.3604,W,2,08,0.92,165.2,M,-34.4,M,0000,0000*56
$GPRMC,164951.750,A,4308.4565,N,07726.3604,W,6.02,353.42,210919,,,D*78
$GPGGA,164952.000,4308.4569,N,07726.3606,W,2,07,1.03,165.2,M,-34.4,M,0000,0000*5D
$GPRMC,164952.250,A,4308.4574,N,07726.3608,W,7.77,342.22,210919,,,D*77
$GPGGA,164952.500,4308.4579,N,07726.3612,W,2,08,0.92,165.2,M,-34.4,M,0000,0000*5A
$GPRMC,164952.750,A,4308.4585,N,07726.3614,W,7.93,338.70,210919,,,D*71
$GPGGA,164953.000,4308.4590,N,07726.3616,W,2,08,0.92,165.0,M,-34.4,M,0000,0000*5F
$GPRMC,164953.250,A,4308.4595,N,07726.3620,W,8.52,331.98,210919,,,D*7E
$GPGGA,164953.500,4308.4600,N,07726.3625,W,2,08,0.92,164.8,M,-34.4,M,0000,0000*59
$GPRMC,164953.750,A,4308.4605,N,07726.3630,W,9.39,323.25,210919,,,D*79
$GPGGA,164954.000,4308.4611,N,07726.3636,W,2,08,0.92,164.7,M,-34.4,M,0000,0000*56
$GPRMC,164954.250,A,4308.4616,N,07726.3644,W,10.71,312.81,210919,,,D*42
$GPGGA,164954.500,4308.4620,N,07726.3653,W,2,08,0.92,164.7,M,-34.4,M,0000,0000*52
$GPRMC,164954.750,A,4308.4624,N,07726.3663,W,11.60,304.48,210919,,,D*40
$GPGGA,164955.000,4308.4628,N,07726.3674,W,2,08,0.92,164.6,M,-34.4,M,0000,0000*5A
$GPRMC,164955.250,A,4308.4631,N,07726.3684,W,12.23,297.44,210919,,,D*4A
$GPGGA,164955.500,4308.4634,N,07726.3695,W,2,08,0.92,164.5,M,-34.4,M,0000,0000*5E
$GPRMC,164955.750,A,4308.4637,N,07726.3707,W,12.61,291.82,210919,,,D*49
$GPGGA,164956.000,4308.4639,N,07726.3719,W,2,08,0.92,164.4,M,-34.4,M,0000,0000*51
$GPRMC,164956.250,A,4308.4641,N,07726.3731,W,13.07,287.03,210919,,,D*44
$GPGGA,164956.500,4308.4642,N,07726.3743,W,2,08,0.92,164.3,M,-34.4,M,0000,0000*50
$GPRMC,164956.750,A,4308.4643,N,07726.3755,W,13.12,281.93,210919,,,D*4A
$GPGGA,164957.000,4308.4644,N,07726.3767,W,2,08,0.92,164.1,M,-34.4,M,0000,0000*56
$GPRMC,164957.250,A,4308.4641,N,07726.3780,W,13.13,278.95,210919,,,D*45
$GPGGA,164957.500,4308.4641,N,07726.3793,W,2,08,0.92,164.0,M,-34.4,M,0000,0000*5C
$GPRMC,164957.750,A,4308.4641,N,07726.3806,W,13.13,276.64,210919,,,D*41
$GPGGA,164958.000,4308.4641,N,07726.3819,W,2,08,0.92,163.9,M,-34.4,M,0000,0000*55
$GPRMC,164958.250,A,4308.4641,N,07726.3833,W,13.12,274.87,210919,,,D*43
$GPGGA,164958.500,4308.4641,N,07726.3846,W,2,08,0.92,163.7,M,-34.4,M,0000,0000*54
$GPRMC,164958.750,A,4308.4641,N,07726.3860,W,13.08,273.70,210919,,,D*44
$GPGGA,164959.000,4308.4640,N,07726.3874,W,2,08,0.92,163.6,M,-34.4,M,0000,0000*51
$GPRMC,164959.250,A,4308.4640,N,07726.3887,W,13.09,273.71,210919,,,D*48
$GPGGA,164959.500,4308.4640,N,07726.3900,W,2,08,0.92,163.4,M,-34.4,M,0000,0000*54
$GPRMC,164959.750,A,4308.4640,N,07726.3913,W,13.10,273.84,210919,,,D*43
$GPGGA,165000.000,4308.4640,N,07726.3926,W,2,08,0.92,163.3,M,-34.4,M,0000,0000*56
$GPRMC,165000.250,A,4308.4640,N,07726.3938,W,12.50,274.94,210919,,,D*48
$GPGGA,165000.500,4308.4641,N,07726.3950,W,2,08,0.92,163.2,M,-34.4,M,0000,0000*52
$GPRMC,165000.750,A,4308.4641,N,07726.3961,W,11.62,275.65,210919,,,D*4D
$GPGGA,165001.000,4308.4642,N,07726.3971,W,2,08,0.92,163.2,M,-34.4,M,0000,0000*56
$GPRMC,165001.250,A,4308.4642,N,07726.3981,W,10.09,276.61,210919,,,D*4F
$GPGGA,165001.500,4308.4643,N,07726.3989,W,2,08,0.92,163.2,M,-34.4,M,0000,0000*55
$GPRMC,165001.750,A,4308.4644,N,07726.3997,W,8.61,277.34,210919,,,D*7D
$GPGGA,165002.000,4308.4645,N,07726.4004,W,2,08,0.92,163.2,M,-34.4,M,0000,0000*5E
$GPRMC,165002.250,A,4308.4646,N,07726.4011,W,7.20,276.05,210919,,,D*70
$GPGGA,165002.500,4308.4646,N,07726.4017,W,2,08,0.92,163.2,M,-34.4,M,0000,0000*5A
$GPRMC,165002.750,A,4308.4647,N,07726.4023,W,6.46,273.73,210919,,,D*70
$GPGGA,165003.000,4308.4648,N,07726.4028,W,2,08,0.92,163.1,M,-34.4,M,0000,0000*5F
$GPRMC,165003.250,A,4308.4648,N,07726.4034,W,5.93,272.82,210919,,,D*79
$GPGGA,165003.500,4308.4649,N,07726.4039,W,2,08,0.92,163.0,M,-34.4,M,0000,0000*5A
$GPRMC,165003.750,A,4308.4649,N,07726.4044,W,5.72,273.09,210919,,,D*77
$GPGGA,165004.000,4308.4650,N,07726.4049,W,2,08,0.92,163.0,M,-34.4,M,0000,0000*57
$GPRMC,165004.250,A,4308.4651,N,07726.4054,W,5.20,274.29,210919,,,D*7F
$GPGGA,165004.500,4308.4651,N,07726.4058,W,2,08,0.92,163.0,M,-34.4,M,0000,0000*53
$GPRMC,165004.750,A,4308.4652,N,07726.4062,W,4.77,274.41,210919,,,D*71
$GPGGA,165005.000,4308.4654,N,07726.4066,W,2,08,0.92,163.0,M,-34.4,M,0000,0000*5F
$GPRMC,165005.250,A,4308.4655,N,07726.4070,W,4.08,277.27,210919,,,D*7A
$GPGGA,165005.500,4308.4656,N,07726.4073,W,2,08,0.92,162.9,M,-34.4,M,0000,0000*54
$GPRMC,165005.750,A,4308.4657,N,07726.4076,W,3.57,277.34,210919,,,D*74
$GPGGA,165006.000,4308.4657,N,07726.4080,W,2,08,0.91,162.8,M,-34.4,M,0000,0000*5D
$GPRMC,165006.250,A,4308.4657,N,07726.4084,W,3.44,276.65,210919,,,D*78
$GPGGA,165006.500,4308.4658,N,07726.4087,W,2,08,0.91,162.7,M,-34.4,M,0000,0000*5F
$GPRMC,165006.750,A,4308.4658,N,07726.4090,W,3.42,277.06,210919,,,D*75
$GPGGA,165007.000,4308.4659,N,07726.4093,W,2,08,0.91,162.6,M,-34.4,M,0000,0000*5E
$GPRMC,165007.250,A,4308.4659,N,07726.4097,W,3.88,280.24,210919,,,D*79
$GPGGA,165007.500,4308.4659,N,07726.4101,W,2,08,0.91,162.4,M,-34.4,M,0000,0000*53
$GPRMC,165007.750,A,4308.4659,N,07726.4105,W,4.50,276.80,210919,,,D*73
$GPGGA,165008.000,4308.4659,N,07726.4111,W,2,08,0.92,162.3,M,-34.4,M,0000,0000*5C
$GPRMC,165008.250,A,4308.4658,N,07726.4116,W,5.99,277.36,210919,,,D*72
$GPGGA,165008.500,4308.4659,N,07726.4122,W,2,08,0.92,162.2,M,-34.4,M,0000,0000*58
$GPRMC,165008.750,A,4308.4660,N,07726.4129,W,7.59,278.48,210919,,,D*78
$GPGGA,165009.000,4308.4661,N,07726.4136,W,2,08,0.92,162.0,M,-34.4,M,0000,0000*50
$GPRMC,165009.250,A,4308.4662,N,07726.4146,W,9.85,278.44,210919,,,D*74
$GPGGA,165009.500,4308.4662,N,07726.4156,W,2,08,0.92,161.8,M,-34.4,M,0000,0000*5B
$GPRMC,165009.750,A,4308.4662,N,07726.4166,W,11.64,278.99,210919,,,D*45
$GPGGA,165010.000,4308.4663,N,07726.4179,W,2,08,0.92,161.5,M,-34.4,M,0000,0000*57
$GPRMC,165010.250,A,4308.4664,N,07726.4192,W,13.62,279.85,210919,,,D*4D
$GPGGA,165010.500,4308.4665,N,07726.4205,W,2,08,0.92,161.4,M,-34.4,M,0000,0000*5D
$GPRMC,165010.750,A,4308.4667,N,07726.4220,W,15.06,281.36,210919,,,D*4A
$GPGGA,165011.000,4308.4668,N,07726.4234,W,2,08,0.92,161.3,M,-34.4,M,0000,0000*51
$GPRMC,165011.250,A,4308.4670,N,07726.4250,W,16.71,280.79,210919,,,D*46
$GPGGA,165011.500,4308.4672,N,07726.4266,W,2,08,0.92,161.0,M,-34.4,M,0000,0000*5B
$GPRMC,165011.750,A,4308.4675,N,07726.4283,W,17.91,281.13,210919,,,D*4A
$GPGGA,165012.000,4308.4677,N,07726.4300,W,2,08,0.92,160.8,M,-34.4,M,0000,0000*50
$GPRMC,165012.250,A,4308.4680,N,07726.4318,W,18.99,281.87,210919,,,D*4F
$GPGGA,165012.500,4308.4683,N,07726.4335,W,2,08,0.92,160.7,M,-34.4,M,0000,0000*57
$GPRMC,165012.750,A,4308.4685,N,07726.4354,W,19.51,281.90,210919,,,D*44
$GPGGA,165013.000,4308.4688,N,07726.4372,W,2,08,0.92,160.5,M,-34.4,M,0000,0000*59
$GPRMC,165013.250,A,4308.4691,N,07726.4391,W,19.58,282.85,210919,,,D*42
$GPGGA,165013.500,4308.4693,N,07726.4409,W,2,08,0.92,160.4,M,-34.4,M,0000,0000*5C
$GPRMC,165013.750,A,4308.4695,N,07726.4428,W,19.23,280.95,210919,,,D*49
$GPGGA,165014.000,4308.4697,N,07726.4447,W,2,08,0.92,160.2,M,-34.4,M,0000,0000*56
$GPRMC,165014.250,A,4308.4700,N,07726.4467,W,19.03,278.63,210919,,,D*41
$GPGGA,165014.500,4308.4701,N,07726.4486,W,2,08,0.92,160.4,M,-34.4,M,0000,0000*56
$GPRMC,165014.750,A,4308.4703,N,07726.4504,W,19.35,277.27,210919,,,D*49
$GPGGA,165015.000,4308.4704,N,07726.4524,W,2,08,0.92,160.5,M,-34.4,M,0000,0000*5F
$GPRMC,165015.250,A,4308.4706,N,07726.4544,W,20.81,275.04,210919,,,D*4A
$GPGGA,165015.500,4308.4707,N,07726.4565,W,2,08,0.92,160.5,M,-34.4,M,0000,0000*5C
$GPRMC,165015.750,A,4308.4709,N,07726.4587,W,22.70,275.05,210919,,,D*42
$GPGGA,165016.000,4308.4711,N,07726.4611,W,2,08,0.92,160.5,M,-34.4,M,0000,0000*5D
$GPRMC,165016.250,A,4308.4712,N,07726.4635,W,25.15,274.92,210919,,,D*4F
$GPGGA,165016.500,4308.4714,N,07726.4660,W,2,08,0.92,160.7,M,-34.4,M,0000,0000*59
$GPRMC,165016.750,A,4308.4716,N,07726.4687,W,27.04,275.22,210919,,,D*4F
$GPGGA,165017.000,4308.4718,N,07726.4713,W,2,08,0.92,160.9,M,-34.4,M,0000,0000*5A
$GPRMC,165017.250,A,4308.4720,N,07726.4741,W,28.83,275.60,210919,,,D*43
$GPGGA,165017.500,4308.4722,N,07726.4769,W,2,08,0.92,161.3,M,-34.4,M,0000,0000*50
$GPRMC,165017.750,A,4308.4724,N,07726.4797,W,30.24,276.24,210919,,,D*4E
$GPGGA,165018.000,4308.4726,N,07726.4827,W,2,08,0.92,161.6,M,-34.4,M,0000,0000*5E
$GPRMC,165018.250,A,4308.4728,N,07726.4857,W,31.68,276.39,210919,,,D*4E
$GPGGA,165018.500,4308.4731,N,07726.4887,W,2,08,0.92,161.9,M,-34.4,M,0000,0000*58
$GPRMC,165018.750,A,4308.4733,N,07726.4919,W,32.84,276.46,210919,,,D*43
$GPGGA,165019.000,4308.4736,N,07726.4950,W,2,08,0.92,162.1,M,-34.4,M,0000,0000*5B
$GPRMC,165019.250,A,4308.4739,N,07726.4983,W,33.94,277.27,210919,,,D*48
$GPGGA,165019.500,4308.4741,N,07726.5015,W,2,08,0.92,162.3,M,-34.4,M,0000,0000*55
$GPRMC,165019.750,A,4308.4744,N,07726.5049,W,34.93,276.28,210919,,,D*47
$GPGGA,165020.000,4308.4747,N,07726.5082,W,2,08,0.92,162.6,M,-34.4,M,0000,0000*57
$GPRMC,165020.250,A,4308.4748,N,07726.5117,W,35.95,276.07,210919,,,D*44
$GPGGA,165020.500,4308.4748,N,07726.5151,W,2,08,0.92,162.9,M,-34.4,M,0000,0000*5D
$GPRMC,165020.750,A,4308.4749,N,07726.5187,W,36.88,273.65,210919,,,D*47
$GPGGA,165021.000,4308.4750,N,07726.5222,W,2,08,0.92,163.2,M,-34.4,M,0000,0000*5D
$GPRMC,165021.250,A,4308.4752,N,07726.5258,W,37.70,273.65,210919,,,D*4E
$GPGGA,165021.500,4308.4753,N,07726.5295,W,2,08,0.92,163.4,M,-34.4,M,0000,0000*51
$GPRMC,165021.750,A,4308.4755,N,07726.5332,W,38.72,273.46,210919,,,D*4D
$GPGGA,165022.000,4308.4756,N,07726.5369,W,2,08,0.92,163.6,M,-34.4,M,0000,0000*52
$GPRMC,165022.250,A,4308.4758,N,07726.5407,W,39.64,274.27,210919,,,D*41
$GPGGA,165022.500,4308.4760,N,07726.5444,W,2,08,0.92,163.7,M,-34.4,M,0000,0000*5B
$GPRMC,165022.750,A,4308.4762,N,07726.5482,W,40.52,274.37,210919,,,D*4A
$GPGGA,165023.000,4308.4763,N,07726.5521,W,2,08,0.92,163.9,M,-34.4,M,0000,0000*50
$GPRMC,165023.250,A,4308.4764,N,07726.5560,W,41.38,274.00,210919,,,D*4C
$GPGGA,165023.500,4308.4766,N,07726.5600,W,2,08,0.92,163.8,M,-34.4,M,0000,0000*51
$GPRMC,165023.750,A,4308.4767,N,07726.5640,W,41.80,273.54,210919,,,D*4E
$GPGGA,165024.000,4308.4768,N,07726.5680,W,2,08,0.92,163.9,M,-34.4,M,0000,0000*54
$GPRMC,165024.250,A,4308.4769,N,07726.5721,W,42.16,272.56,210919,,,D*4B
$GPGGA,165024.500,4308.4770,N,07726.5761,W,2,08,0.92,164.0,M,-34.4,M,0000,0000*58
$GPRMC,165024.750,A,4308.4770,N,07726.5802,W,42.53,272.11,210919,,,D*4A
$GPGGA,165025.000,4308.4771,N,07726.5843,W,2,08,0.92,164.0,M,-34.4,M,0000,0000*52
$GPRMC,165025.250,A,4308.4772,N,07726.5884,W,42.60,272.24,210919,,,D*44
$GPGGA,165025.500,4308.4773,N,07726.5925,W,2,08,0.92,164.2,M,-34.4,M,0000,0000*56
$GPRMC,165025.750,A,4308.4774,N,07726.5966,W,42.59,272.18,210919,,,D*4F
$GPGGA,165026.000,4308.4775,N,07726.6006,W,2,08,0.92,164.3,M,-34.4,M,0000,0000*5C
$GPRMC,165026.250,A,4308.4776,N,07726.6047,W,42.18,271.58,210919,,,D*40
$GPGGA,165026.500,4308.4776,N,07726.6087,W,2,08,0.92,164.5,M,-34.4,M,0000,0000*55
$GPRMC,165026.750,A,4308.4776,N,07726.6127,W,41.92,270.85,210919,,,D*42
$GPGGA,165027.000,4308.4775,N,07726.6167,W,2,08,0.92,164.6,M,-34.4,M,0000,0000*5E
$GPRMC,165027.250,A,4308.4775,N,07726.6207,W,41.65,270.10,210919,,,D*40
$GPGGA,165027.500,4308.4775,N,07726.6247,W,2,08,0.92,164.7,M,-34.4,M,0000,0000*5B
$GPRMC,165027.750,A,4308.4775,N,07726.6287,W,41.25,270.56,210919,,,D*4B
$GPGGA,165028.000,4308.4775,N,07726.6326,W,2,08,0.92,164.8,M,-34.4,M,0000,0000*58
$GPRMC,165028.250,A,4308.4775,N,07726.6365,W,40.78,270.32,210919,,,D*47
$GPGGA,165028.500,4308.4775,N,07726.6403,W,2,08,0.92,165.1,M,-34.4,M,0000,0000*55
$GPRMC,165028.750,A,4308.4775,N,07726.6441,W,40.25,269.71,210919,,,D*44
$GPGGA,165029.000,4308.4775,N,07726.6480,W,2,08,0.92,165.3,M,-34.4,M,0000,0000*58
$GPRMC,165029.250,A,4308.4774,N,07726.6518,W,40.20,268.87,210919,,,D*41
$GPGGA,165029.500,4308.4774,N,07726.6556,W,2,08,0.92,165.4,M,-34.4,M,0000,0000*51
$GPRMC,165029.750,A,4308.4774,N,07726.6594,W,39.89,268.24,210919,,,D*44
$GPGGA,165030.000,4308.4774,N,07726.6632,W,2,08,0.92,165.5,M,-34.4,M,0000,0000*5C
$GPRMC,165030.250,A,4308.4773,N,07726.6670,W,39.96,267.93,210919,,,D*4A
$GPGGA,165030.500,4308.4773,N,07726.6708,W,2,08,0.92,165.7,M,-34.4,M,0000,0000*54
$GPRMC,165030.750,A,4308.4773,N,07726.6746,W,40.09,267.21,210919,,,D*4A
$GPGGA,165031.000,4308.4772,N,07726.6784,W,2,08,0.92,165.9,M,-34.4,M,0000,0000*5B
$GPRMC,165031.250,A,4308.4771,N,07726.6823,W,40.20,266.61,210919,,,D*4E
$GPGGA,165031.500,4308.4770,N,07726.6861,W,2,08,0.92,166.2,M,-34.4,M,0000,0000*50
$GPRMC,165031.750,A,4308.4769,N,07726.6899,W,40.52,266.18,210919,,,D*48
$GPGGA,165032.000,4308.4768,N,07726.6938,W,2,08,0.92,166.5,M,-34.4,M,0000,0000*55
$GPRMC,165032.250,A,4308.4766,N,07726.6977,W,40.76,265.99,210919,,,D*4C
$GPGGA,165032.500,4308.4764,N,07726.7016,W,2,08,0.92,166.9,M,-34.4,M,0000,0000*54
$GPRMC,165032.750,A,4308.4763,N,07726.7055,W,41.10,265.98,210919,,,D*44
$GPGGA,165033.000,4308.4761,N,07726.7094,W,2,08,0.92,167.2,M,-34.4,M,0000,0000*55
$GPRMC,165033.250,A,4308.4760,N,07726.7133,W,41.17,266.19,210919,,,D*4F
$GPGGA,165033.500,4308.4759,N,07726.7172,W,2,08,0.92,167.5,M,-34.4,M,0000,0000*55
$GPRMC,165033.750,A,4308.4758,N,07726.7211,W,41.11,266.35,210919,,,D*4A
$GPGGA,165034.000,4308.4756,N,07726.7250,W,2,08,0.92,167.8,M,-34.4,M,0000,0000*56
$GPRMC,165034.250,A,4308.4755,N,07726.7288,W,41.10,266.38,210919,,,D*49
$GPGGA,165034.500,4308.4753,N,07726.7328,W,2,08,0.92,168.1,M,-34.4,M,0000,0000*5E
$GPRMC,165034.750,A,4308.4752,N,07726.7367,W,41.04,265.85,210919,,,D*4B
$GPGGA,165035.000,4308.4750,N,07726.7406,W,2,08,0.92,168.5,M,-34.4,M,0000,0000*56
$GPRMC,165035.250,A,4308.4748,N,07726.7444,W,40.83,265.46,210919,,,D*43
$GPGGA,165035.500,4308.4746,N,07726.7483,W,2,08,0.92,168.9,M,-34.4,M,0000,0000*55
$GPRMC,165035.750,A,4308.4745,N,07726.7522,W,40.60,265.48,210919,,,D*49
$GPGGA,165036.000,4308.4743,N,07726.7560,W,2,08,0.92,169.2,M,-34.4,M,0000,0000*50
$GPRMC,165036.250,A,4308.4742,N,07726.7599,W,40.61,265.53,210919,,,D*43
$GPGGA,165036.500,4308.4740,N,07726.7637,W,2,08,0.92,169.4,M,-34.4,M,0000,0000*51
$GPRMC,165036.750,A,4308.4740,N,07726.7675,W,40.26,265.71,210919,,,D*46
$GPGGA,165037.000,4308.4739,N,07726.7714,W,2,08,0.92,169.6,M,-34.4,M,0000,0000*59
$GPRMC,165037.250,A,4308.4738,N,07726.7751,W,39.99,266.23,210919,,,D*44
$GPGGA,165037.500,4308.4737,N,07726.7789,W,2,08,0.92,169.6,M,-34.4,M,0000,0000*56
$GPRMC,165037.750,A,4308.4735,N,07726.7826,W,39.74,265.40,210919,,,D*46
$GPGGA,165038.000,4308.4733,N,07726.7864,W,2,08,0.92,169.7,M,-34.4,M,0000,0000*55
$GPRMC,165038.250,A,4308.4732,N,07726.7901,W,39.67,265.04,210919,,,D*4D
$GPGGA,165038.500,4308.4730,N,07726.7938,W,2,08,0.92,169.8,M,-34.4,M,0000,0000*54
$GPRMC,165038.750,A,4308.4727,N,07726.7975,W,39.53,264.52,210919,,,D*4A
$GPGGA,165039.000,4308.4724,N,07726.8012,W,2,08,0.92,169.8,M,-34.4,M,0000,0000*5B
$GPRMC,165039.250,A,4308.4722,N,07726.8050,W,39.47,263.93,210919,,,D*45
$GPGGA,165039.500,4308.4719,N,07726.8087,W,2,08,0.92,169.7,M,-34.4,M,0000,0000*53
$GPRMC,165039.750,A,4308.4717,N,07726.8124,W,39.46,264.66,210919,,,D*48
$GPGGA,165040.000,4308.4715,N,07726.8162,W,2,08,0.92,169.5,M,-34.4,M,0000,0000*5C
$GPRMC,165040.250,A,4308.4713,N,07726.8199,W,39.52,265.68,210919,,,D*4B
$GPGGA,165040.500,4308.4710,N,07726.8236,W,2,08,0.92,169.3,M,-34.4,M,0000,0000*58
$GPRMC,165040.750,A,4308.4708,N,07726.8273,W,39.47,265.51,210919,,,D*4D
$GPGGA,165041.000,4308.4706,N,07726.8310,W,2,08,0.92,169.0,M,-34.4,M,0000,0000*5D
$GPRMC,165041.250,A,4308.4704,N,07726.8347,W,39.12,265.85,210919,,,D*4A
$GPGGA,165041.500,4308.4703,N,07726.8384,W,2,08,0.92,168.7,M,-34.4,M,0000,0000*56
$GPRMC,165041.750,A,4308.4701,N,07726.8421,W,38.89,265.69,210919,,,D*4C
$GPGGA,165042.000,4308.4699,N,07726.8458,W,2,08,0.92,168.3,M,-34.4,M,0000,0000*50
$GPRMC,165042.250,A,4308.4698,N,07726.8495,W,38.96,265.54,210919,,,D*44
$GPGGA,165042.500,4308.4696,N,07726.8532,W,2,08,0.92,167.9,M,-34.4,M,0000,0000*52
$GPRMC,165042.750,A,4308.4694,N,07726.8569,W,39.16,265.37,210919,,,D*43
$GPGGA,165043.000,4308.4692,N,07726.8606,W,2,08,0.92,167.6,M,-34.4,M,0000,0000*59
$GPRMC,165043.250,A,4308.4690,N,07726.8643,W,39.34,265.42,210919,,,D*4A
$GPGGA,165043.500,4308.4688,N,07726.8680,W,2,08,0.92,167.2,M,-34.4,M,0000,0000*5D
$GPRMC,165043.750,A,4308.4687,N,07726.8717,W,39.32,265.50,210919,,,D*4C
$GPGGA,165044.000,4308.4685,N,07726.8755,W,2,08,0.92,166.8,M,-34.4,M,0000,0000*50
$GPRMC,165044.250,A,4308.4683,N,07726.8792,W,39.31,265.67,210919,,,D*40
$GPGGA,165044.500,4308.4681,N,07726.8829,W,2,08,0.92,166.5,M,-34.4,M,0000,0000*58
$GPRMC,165044.750,A,4308.4679,N,07726.8866,W,39.35,265.73,210919,,,D*45
$GPGGA,165045.000,4308.4677,N,07726.8903,W,2,08,0.92,166.2,M,-34.4,M,0000,0000*5B
$GPRMC,165045.250,A,4308.4675,N,07726.8941,W,39.50,265.70,210919,,,D*49
$GPGGA,165045.500,4308.4673,N,07726.8978,W,2,08,0.92,165.9,M,-34.4,M,0000,0000*5E
$GPRMC,165045.750,A,4308.4672,N,07726.9015,W,39.37,265.69,210919,,,D*4B
$GPGGA,165046.000,4308.4669,N,07726.9052,W,2,08,0.92,165.6,M,-34.4,M,0000,0000*5C
$GPRMC,165046.250,A,4308.4667,N,07726.9089,W,38.84,265.65,210919,,,D*49
$GPGGA,165046.500,4308.4665,N,07726.9125,W,2,08,0.92,165.4,M,-34.4,M,0000,0000*56
$GPRMC,165046.750,A,4308.4663,N,07726.9162,W,38.90,265.15,210919,,,D*4E
$GPGGA,165047.000,4308.4660,N,07726.9199,W,2,08,0.92,165.3,M,-34.4,M,0000,0000*57
$GPRMC,165047.250,A,4308.4657,N,07726.9236,W,38.85,265.04,210919,,,D*4B
$GPGGA,165047.500,4308.4655,N,07726.9272,W,2,08,0.92,165.2,M,-34.4,M,0000,0000*53
$GPRMC,165047.750,A,4308.4652,N,07726.9308,W,38.30,264.93,210919,,,D*46
$GPGGA,165048.000,4308.4649,N,07726.9344,W,2,08,0.92,165.1,M,-34.4,M,0000,0000*53
$GPRMC,165048.250,A,4308.4647,N,07726.9379,W,38.27,264.39,210919,,,D*48
$GPGGA,165048.500,4308.4644,N,07726.9414,W,2,08,0.92,165.1,M,-34.4,M,0000,0000*59
$GPRMC,165048.750,A,4308.4641,N,07726.9448,W,36.30,263.82,210919,,,D*41
$GPGGA,165049.000,4308.4638,N,07726.9482,W,2,08,0.92,165.0,M,-34.4,M,0000,0000*58
$GPRMC,165049.250,A,4308.4635,N,07726.9515,W,34.69,263.52,210919,,,D*4C
$GPGGA,165049.500,4308.4633,N,07726.9547,W,2,08,0.92,164.8,M,-34.4,M,0000,0000*57
$GPRMC,165049.750,A,4308.4630,N,07726.9578,W,33.23,263.69,210919,,,D*46
$GPGGA,165050.000,4308.4627,N,07726.9609,W,2,08,0.92,164.9,M,-34.4,M,0000,0000*57
$GPRMC,165050.250,A,4308.4625,N,07726.9639,W,32.19,264.08,210919,,,D*41
$GPGGA,165050.500,4308.4622,N,07726.9669,W,2,08,0.92,165.0,M,-34.4,M,0000,0000*59
$GPRMC,165050.750,A,4308.4620,N,07726.9699,W,31.70,264.72,210919,,,D*4A
$GPGGA,165051.000,4308.4618,N,07726.9730,W,2,08,0.92,165.1,M,-34.4,M,0000,0000*58
$GPRMC,165051.250,A,4308.4616,N,07726.9760,W,32.22,265.63,210919,,,D*49
$GPGGA,165051.500,4308.4614,N,07726.9790,W,2,08,0.92,165.2,M,-34.4,M,0000,0000*58
$GPRMC,165051.750,A,4308.4612,N,07726.9821,W,31.91,265.01,210919,,,D*4D
$GPGGA,165052.000,4308.4610,N,07726.9851,W,2,08,0.92,165.2,M,-34.4,M,0000,0000*58
$GPRMC,165052.250,A,4308.4608,N,07726.9881,W,31.84,265.02,210919,,,D*4D
$GPGGA,165052.500,4308.4605,N,07726.9911,W,2,08,0.92,165.3,M,-34.4,M,0000,0000*5D
$GPRMC,165052.750,A,4308.4604,N,07726.9941,W,32.08,265.23,210919,,,D*4D
$GPGGA,165053.000,4308.4602,N,07726.9971,W,2,08,0.92,165.3,M,-34.4,M,0000,0000*58
$GPRMC,165053.250,A,4308.4600,N,07727.0001,W,31.87,264.48,210919,,,D*40
$GPGGA,165053.500,4308.4596,N,07727.0031,W,2,08,0.92,165.7,M,-34.4,M,0000,0000*52
$GPRMC,165053.750,A,4308.4595,N,07727.0061,W,32.18,264.23,210919,,,D*44
$GPGGA,165054.000,4308.4593,N,07727.0092,W,2,08,0.92,165.4,M,-34.4,M,0000,0000*5F
$GPRMC,165054.250,A,4308.4591,N,07727.0122,W,31.96,265.66,210919,,,D*41
$GPGGA,165054.500,4308.4589,N,07727.0152,W,2,08,0.92,165.2,M,-34.4,M,0000,0000*5A
$GPRMC,165054.750,A,4308.4588,N,07727.0182,W,32.01,266.32,210919,,,D*49
$GPGGA,165055.000,4308.4587,N,07727.0213,W,2,08,0.92,165.1,M,-34.4,M,0000,0000*55
$GPRMC,165055.250,A,4308.4585,N,07727.0243,W,32.27,266.67,210919,,,D*4A
$GPGGA,165055.500,4308.4584,N,07727.0274,W,2,08,0.92,164.9,M,-34.4,M,0000,0000*5B
$GPRMC,165055.750,A,4308.4583,N,07727.0305,W,32.68,266.87,210919,,,D*4F
$GPGGA,165056.000,4308.4582,N,07727.0337,W,2,08,0.92,164.7,M,-34.4,M,0000,0000*53
$GPRMC,165056.250,A,4308.4581,N,07727.0368,W,33.05,267.39,210919,,,D*4E
$GPGGA,165056.500,4308.4580,N,07727.0399,W,2,08,0.92,164.5,M,-34.4,M,0000,0000*52
$GPRMC,165056.750,A,4308.4580,N,07727.0430,W,33.07,268.36,210919,,,D*42
$GPGGA,165057.000,4308.4580,N,07727.0462,W,2,08,0.92,164.2,M,-34.4,M,0000,0000*52
$GPRMC,165057.250,A,4308.4580,N,07727.0493,W,33.48,269.21,210919,,,D*43
$GPGGA,165057.500,4308.4579,N,07727.0525,W,2,08,0.92,163.9,M,-34.4,M,0000,0000*5F
$GPRMC,165057.750,A,4308.4580,N,07727.0557,W,33.67,269.95,210919,,,D*4D
$GPGGA,165058.000,4308.4580,N,07727.0589,W,2,08,0.92,163.7,M,-34.4,M,0000,0000*5B
$GPRMC,165058.250,A,4308.4581,N,07727.0621,W,33.94,270.89,210919,,,D*4D
$GPGGA,165058.500,4308.4582,N,07727.0653,W,2,08,0.92,163.5,M,-34.4,M,0000,0000*5A
$GPRMC,165058.750,A,4308.4583,N,07727.0685,W,33.93,271.89,210919,,,D*42
$GPGGA,165059.000,4308.4584,N,07727.0717,W,2,08,0.92,163.4,M,-34.4,M,0000,0000*58
$GPRMC,165059.250,A,4308.4585,N,07727.0749,W,34.03,272.84,210919,,,D*41
$GPGGA,165059.500,4308.4587,N,07727.0781,W,2,08,0.92,163.2,M,-34.4,M,0000,0000*57
$GPRMC,165059.750,A,4308.4589,N,07727.0814,W,34.39,274.13,210919,,,D*4E
$GPGGA,165100.000,4308.4592,N,07727.0846,W,2,08,0.92,163.1,M,-34.4,M,0000,0000*5C
$GPRMC,165100.250,A,4308.4594,N,07727.0879,W,34.87,275.51,210919,,,D*43
$GPGGA,165100.500,4308.4597,N,07727.0912,W,2,08,0.92,162.8,M,-34.4,M,0000,0000*54
$GPRMC,165100.750,A,4308.4600,N,07727.0945,W,35.19,276.86,210919,,,D*49
$GPGGA,165101.000,4308.4603,N,07727.0979,W,2,08,0.92,162.7,M,-34.4,M,0000,0000*5C
$GPRMC,165101.250,A,4308.4606,N,07727.1012,W,35.26,277.59,210919,,,D*4E
$GPGGA,165101.500,4308.4610,N,07727.1045,W,2,08,0.92,162.6,M,-34.4,M,0000,0000*5D
$GPRMC,165101.750,A,4308.4613,N,07727.1078,W,35.35,278.08,210919,,,D*4A
$GPGGA,165102.000,4308.4617,N,07727.1112,W,2,08,0.92,162.6,M,-34.4,M,0000,0000*5F
$GPRMC,165102.250,A,4308.4620,N,07727.1145,W,35.60,278.29,210919,,,D*40
$GPGGA,165102.500,4308.4624,N,07727.1179,W,2,08,0.92,162.8,M,-34.4,M,0000,0000*59
$GPRMC,165102.750,A,4308.4627,N,07727.1213,W,35.74,278.64,210919,,,D*4E
$GPGGA,165103.000,4308.4631,N,07727.1247,W,2,08,0.92,162.9,M,-34.4,M,0000,0000*56
$GPRMC,165103.250,A,4308.4634,N,07727.1281,W,37.08,278.93,210919,,,D*42
$GPGGA,165103.500,4308.4638,N,07727.1316,W,2,08,0.92,163.1,M,-34.4,M,0000,0000*56
$GPRMC,165103.750,A,4308.4641,N,07727.1351,W,37.28,278.51,210919,,,D*45
$GPGGA,165104.000,4308.4645,N,07727.1386,W,2,08,0.92,163.2,M,-34.4,M,0000,0000*54
$GPRMC,165104.250,A,4308.4648,N,07727.1421,W,37.40,278.14,210919,,,D*41
$GPGGA,165104.500,4308.4652,N,07727.1456,W,2,08,0.92,163.2,M,-34.4,M,0000,0000*5D
$GPRMC,165104.750,A,4308.4655,N,07727.1491,W,37.41,278.15,210919,,,D*43
$GPGGA,165105.000,4308.4659,N,07727.1526,W,2,08,0.92,163.2,M,-34.4,M,0000,0000*54
$GPRMC,165105.250,A,4308.4663,N,07727.1561,W,37.60,278.71,210919,,,D*4D
$GPGGA,165105.500,4308.4667,N,07727.1596,W,2,08,0.92,163.2,M,-34.4,M,0000,0000*57
$GPRMC,165105.750,A,4308.4671,N,07727.1632,W,38.04,278.59,210919,,,D*49
$GPGGA,165106.000,4308.4676,N,07727.1667,W,2,08,0.92,163.1,M,-34.4,M,0000,0000*5F
$GPRMC,165106.250,A,4308.4680,N,07727.1703,W,38.13,279.49,210919,,,D*44
$GPGGA,165106.500,4308.4684,N,07727.1738,W,2,08,0.92,163.0,M,-34.4,M,0000,0000*5D
$GPRMC,165106.750,A,4308.4689,N,07727.1775,W,38.37,279.28,210919,,,D*48
$GPGGA,165107.000,4308.4693,N,07727.1811,W,2,08,0.92,162.9,M,-34.4,M,0000,0000*53
$GPRMC,165107.250,A,4308.4697,N,07727.1847,W,38.58,279.42,210919,,,D*48
$GPGGA,165107.500,4308.4702,N,07727.1884,W,2,08,0.92,162.7,M,-34.4,M,0000,0000*5D
$GPRMC,165107.750,A,4308.4706,N,07727.1921,W,39.61,279.95,210919,,,D*44
$GPGGA,165108.000,4308.4711,N,07727.1958,W,2,08,0.92,162.5,M,-34.4,M,0000,0000*57
$GPRMC,165108.250,A,4308.4715,N,07727.1994,W,39.62,280.29,210919,,,D*40
$GPGGA,165108.500,4308.4719,N,07727.2031,W,2,08,0.92,162.3,M,-34.4,M,0000,0000*59
$GPRMC,165108.750,A,4308.4723,N,07727.2067,W,39.15,279.51,210919,,,D*4F
$GPGGA,165109.000,4308.4727,N,07727.2104,W,2,08,0.92,162.1,M,-34.4,M,0000,0000*55
$GPRMC,165109.250,A,4308.4731,N,07727.2140,W,39.11,279.23,210919,,,D*4D
$GPGGA,165109.500,4308.4736,N,07727.2176,W,2,08,0.92,161.9,M,-34.4,M,0000,0000*5E
$GPRMC,165109.750,A,4308.4740,N,07727.2213,W,39.08,279.67,210919,,,D*43
$GPGGA,165110.000,4308.4745,N,07727.2250,W,2,08,0.92,161.6,M,-34.4,M,0000,0000*5F
$GPRMC,165110.250,A,4308.4749,N,07727.2286,W,39.15,279.67,210919,,,D*47
$GPGGA,165110.500,4308.4753,N,07727.2323,W,2,08,0.92,161.4,M,-34.4,M,0000,0000*5A
$GPRMC,165110.750,A,4308.4758,N,07727.2360,W,39.24,279.59,210919,,,D*44
$GPGGA,165111.000,4308.4762,N,07727.2397,W,2,08,0.92,161.2,M,-34.4,M,0000,0000*55
$GPRMC,165111.250,A,4308.4767,N,07727.2433,W,39.08,279.69,210919,,,D*40
$GPGGA,165111.500,4308.4771,N,07727.2470,W,2,08,0.92,161.0,M,-34.4,M,0000,0000*5E
$GPRMC,165111.750,A,4308.4775,N,07727.2506,W,38.72,279.71,210919,,,D*44
$GPGGA,165112.000,4308.4779,N,07727.2542,W,2,08,0.92,160.9,M,-34.4,M,0000,0000*58
$GPRMC,165112.250,A,4308.4784,N,07727.2578,W,38.56,279.78,210919,,,D*4A
$GPGGA,165112.500,4308.4788,N,07727.2614,W,2,08,0.92,160.9,M,-34.4,M,0000,0000*53
$GPRMC,165112.750,A,4308.4792,N,07727.2650,W,38.66,279.84,210919,,,D*41
$GPGGA,165113.000,4308.4796,N,07727.2686,W,2,08,0.92,160.9,M,-34.4,M,0000,0000*53
$GPRMC,165113.250,A,4308.4801,N,07727.2722,W,38.93,280.06,210919,,,D*42
$GPGGA,165113.500,4308.4806,N,07727.2759,W,2,08,0.92,160.9,M,-34.4,M,0000,0000*53
$GPRMC,165113.750,A,4308.4810,N,07727.2795,W,39.15,280.15,210919,,,D*46
$GPGGA,165114.000,4308.4815,N,07727.2831,W,2,08,0.92,161.0,M,-34.4,M,0000,0000*5A
$GPRMC,165114.250,A,4308.4819,N,07727.2868,W,39.14,279.80,210919,,,D*4B
$GPGGA,165114.500,4308.4824,N,07727.2904,W,2,08,0.92,160.9,M,-34.4,M,0000,0000*52
$GPRMC,165114.750,A,4308.4828,N,07727.2940,W,39.15,279.54,210919,,,D*4F
$GPGGA,165115.000,4308.4832,N,07727.2977,W,2,08,0.92,160.9,M,-34.4,M,0000,0000*55
$GPRMC,165115.250,A,4308.4836,N,07727.3012,W,39.14,279.19,210919,,,D*43
$GPGGA,165115.500,4308.4841,N,07727.3048,W,2,08,0.92,160.7,M,-34.4,M,0000,0000*5E
$GPRMC,165115.750,A,4308.4845,N,07727.3085,W,39.11,279.12,210919,,,D*42
$GPGGA,165116.000,4308.4849,N,07727.3121,W,2,08,0.92,160.7,M,-34.4,M,0000,0000*5E
$GPRMC,165116.250,A,4308.4854,N,07727.3157,W,39.14,279.35,210919,,,D*4A
$GPGGA,165116.500,4308.4858,N,07727.3193,W,2,08,0.92,160.5,M,-34.4,M,0000,0000*50
$GPRMC,165116.750,A,4308.4862,N,07727.3229,W,39.17,279.59,210919,,,D*49
$GPGGA,165117.000,4308.4867,N,07727.3264,W,2,08,0.92,160.5,M,-34.4,M,0000,0000*53
$GPRMC,165117.250,A,4308.4872,N,07727.3300,W,39.19,280.29,210919,,,D*49
$GPGGA,165117.500,4308.4876,N,07727.3335,W,2,08,0.92,160.4,M,-34.4,M,0000,0000*52
$GPRMC,165117.750,A,4308.4881,N,07727.3371,W,39.44,280.45,210919,,,D*44
$GPGGA,165118.000,4308.4884,N,07727.3406,W,2,08,0.92,160.5,M,-34.4,M,0000,0000*53
$GPRMC,165118.250,A,4308.4887,N,07727.3442,W,39.40,279.61,210919,,,D*4B
$GPGGA,165118.500,4308.4891,N,07727.3477,W,2,08,0.92,160.6,M,-34.4,M,0000,0000*57
$GPRMC,165118.750,A,4308.4896,N,07727.3513,W,39.22,279.52,210919,,,D*4F
$GPGGA,165119.000,4308.4900,N,07727.3549,W,2,08,0.92,160.3,M,-34.4,M,0000,0000*53
$GPRMC,165119.250,A,4308.4904,N,07727.3585,W,39.00,279.34,210919,,,D*4E
$GPGGA,165119.500,4308.4908,N,07727.3621,W,2,08,0.92,160.1,M,-34.4,M,0000,0000*51
$GPRMC,165119.750,A,4308.4913,N,07727.3657,W,38.92,279.39,210919,,,D*46
$GPGGA,165120.000,4308.4917,N,07727.3693,W,2,08,0.92,160.0,M,-34.4,M,0000,0000*58
$GPRMC,165120.250,A,4308.4922,N,07727.3729,W,38.83,280.34,210919,,,D*48
$GPGGA,165120.500,4308.4927,N,07727.3765,W,2,08,0.92,159.7,M,-34.4,M,0000,0000*5B
$GPRMC,165120.750,A,4308.4932,N,07727.3802,W,39.13,280.09,210919,,,D*4C
$GPGGA,165121.000,4308.4936,N,07727.3838,W,2,08,0.92,159.4,M,-34.4,M,0000,0000*5B
$GPRMC,165121.250,A,4308.4941,N,07727.3875,W,39.57,279.85,210919,,,D*4E
$GPGGA,165121.500,4308.4946,N,07727.3912,W,2,08,0.92,159.1,M,-34.4,M,0000,0000*55
$GPRMC,165121.750,A,4308.4951,N,07727.3949,W,39.99,279.80,210919,,,D*43
$GPGGA,165122.000,4308.4956,N,07727.3987,W,2,08,0.92,158.8,M,-34.4,M,0000,0000*56
$GPRMC,165122.250,A,4308.4961,N,07727.4025,W,40.44,280.03,210919,,,D*41
$GPGGA,165122.500,4308.4966,N,07727.4063,W,2,08,0.92,158.7,M,-34.4,M,0000,0000*5B
$GPRMC,165122.750,A,4308.4971,N,07727.4101,W,40.66,280.03,210919,,,D*42
$GPGGA,165123.000,4308.4975,N,07727.4139,W,2,08,0.92,158.5,M,-34.4,M,0000,0000*51
$GPRMC,165123.250,A,4308.4980,N,07727.4176,W,40.62,280.04,210919,,,D*4B
$GPGGA,165123.500,4308.4984,N,07727.4214,W,2,08,0.92,158.6,M,-34.4,M,0000,0000*55
$GPRMC,165123.750,A,4308.4989,N,07727.4252,W,40.60,279.88,210919,,,D*42
$GPGGA,165124.000,4308.4994,N,07727.4290,W,2,08,0.92,158.6,M,-34.4,M,0000,0000*5A
$GPRMC,165124.250,A,4308.4999,N,07727.4328,W,40.82,280.55,210919,,,D*47
$GPGGA,165124.500,4308.5003,N,07727.4366,W,2,08,0.92,158.7,M,-34.4,M,0000,0000*50
$GPRMC,165124.750,A,4308.5008,N,07727.4404,W,40.91,280.03,210919,,,D*4A
$GPGGA,165125.000,4308.5013,N,07727.4443,W,2,08,0.92,158.6,M,-34.4,M,0000,0000*54
$GPRMC,165125.250,A,4308.5018,N,07727.4481,W,40.94,279.99,210919,,,D*42
$GPGGA,165125.500,4308.5022,N,07727.4519,W,2,08,0.92,158.6,M,-34.4,M,0000,0000*5D
$GPRMC,165125.750,A,4308.5027,N,07727.4557,W,40.97,280.18,210919,,,D*4D
$GPGGA,165126.000,4308.5032,N,07727.4595,W,2,08,0.92,158.6,M,-34.4,M,0000,0000*5E
$GPRMC,165126.250,A,4308.5036,N,07727.4633,W,40.48,279.65,210919,,,D*44
$GPGGA,165126.500,4308.5041,N,07727.4671,W,2,08,0.92,158.6,M,-34.4,M,0000,0000*56
$GPRMC,165126.750,A,4308.5045,N,07727.4708,W,39.97,279.66,210919,,,D*43
$GPGGA,165127.000,4308.5050,N,07727.4745,W,2,08,0.92,158.6,M,-34.4,M,0000,0000*54
$GPRMC,165127.250,A,4308.5053,N,07727.4782,W,39.55,278.80,210919,,,D*45
$GPGGA,165127.500,4308.5058,N,07727.4819,W,2,08,0.92,158.6,M,-34.4,M,0000,0000*5F
$GPRMC,165127.750,A,4308.5062,N,07727.4856,W,39.53,279.12,210919,,,D*48
$GPGGA,165128.000,4308.5067,N,07727.4892,W,2,08,0.92,158.5,M,-34.4,M,0000,0000*59
$GPRMC,165128.250,A,4308.5071,N,07727.4928,W,39.16,280.04,210919,,,D*48
$GPGGA,165128.500,4308.5076,N,07727.4964,W,2,08,0.92,158.5,M,-34.4,M,0000,0000*54
$GPRMC,165128.750,A,4308.5081,N,07727.5000,W,39.06,280.27,210919,,,D*40
$GPGGA,165129.000,4308.5086,N,07727.5036,W,2,08,0.92,158.3,M,-34.4,M,0000,0000*56
$GPRMC,165129.250,A,4308.5090,N,07727.5072,W,38.80,280.09,210919,,,D*42
$GPGGA,165129.500,4308.5095,N,07727.5107,W,2,08,0.92,158.1,M,-34.4,M,0000,0000*50
$GPRMC,165129.750,A,4308.5099,N,07727.5143,W,38.67,279.80,210919,,,D*43
$GPGGA,165130.000,4308.5103,N,07727.5179,W,2,08,0.92,157.9,M,-34.4,M,0000,0000*5D
$GPRMC,165130.250,A,4308.5107,N,07727.5215,W,38.57,279.13,210919,,,D*41
$GPGGA,165130.500,4308.5111,N,07727.5250,W,2,08,0.92,157.7,M,-34.4,M,0000,0000*5D
$GPRMC,165130.750,A,4308.5116,N,07727.5286,W,38.48,279.74,210919,,,D*41
$GPGGA,165131.000,4308.5121,N,07727.5322,W,2,08,0.92,157.6,M,-34.4,M,0000,0000*5F
