Vers 81
USE_SERIAL_FEEDBACK=true
DEVELOPMENT_MODE=false
USE_RMC_ONLY=false

$GPRMC,150258.500,A,4308.3044,N,07726.2687,W,0.03,159.30,180719,,,A*7A
$GPGGA,150258.750,4308.3044,N,07726.2687,W,1,04,1.57,144.9,M,-34.4,M,,*55
$GPGGA,150259.250,4308.3044,N,07726.2687,W,1,04,1.57,145.2,M,-34.4,M,,*5B
$GPRMC,150259.250,A,4308.3044,N,07726.2687,W,0.03,337.23,180719,,A*71
$GPRMC,150259.750,A,4308.3043,N,07726.2687,W,0.02,82.54,180719,,,A*4F
$GPGGA,150300.000,4308.3043,N,07726.2687,W,1,04,1.57,145.5,M,-34.4,M,,*51
$GPGGA,150300.500,4308.3042,N,07726.2686,W,1,04,1.57,145.9,M,-34.4,M,,*58
$GPRMC,150300.500,A,4308.3042,N,07726.2686,W,0.02,171.30,180719.0,M,-34.4,M,,*55
$GPRMC,150300.750,A,4308.3042,N,07726.2686,W,0.03,142.29,180719C
$GPGGA,150301.250,4308.3042,N,07726.2686,W,1,04,1.57,146.0,M,-34.4,M,,*51
$GPGGA,150301.750,4308.3042,N,07726.2686,W,1,04,1.57,145.9,M,-34.4,M,,*5E
$GPRMC,150301.750,A,4308.3042,N,07726.2686,W,0.01,277.44,180719,,A*79
$GPRMC,150302.250,A,4308.3043,N,07726.2688,W,0.01,5.04,180719,,,A*73
$GPGGA,150302.500,4308.3043,N,07726.2690,W,1,06,1.53,143.8,M,-34.4,M,,*5D
$GPRMC,150303.000,A,4308.3044,N,07726.2690,W,0.02,335.75,180719,,,A*7E
$GPGGA,150303.250,4308.3044,N,07726.2689,W,1,06,1.42,143.6,M,-34.4,M,,*5F
$GPGGA,150303.750,4308.3045,N,07726.2688,W,1,06,1.42,143.6,M,-34.4,M,,*5A
$GPRMC,150303.750,A,4308.3045,N,07726.2688,W,0.03,341.34,180719,,A*73
$GPRMC,150304.250,A,4308.3045,N,07726.2687,W,0.00,0.00,180719,,,A*7C
$GPGGA,150304.500,4308.3045,N,07726.2687,W,1,06,1.53,143.9,M,-34.4,M,,*5A
$GPRMC,150304.500,A,4308.3045,N,07726.2687,W,0.02,348.57,1807197A
$GPGGA,150305.000,4308.3046,N,07726.2687,W,1,06,1.42,143.9,M,-3.4,M,,*5D
$GPRMC,150305.500,A,4308.3047,N,07726.2686,W,0.01,122.61,180719,,,A*7B
$GPGGA,150305.750,4308.3047,N,07726.2686,W,1,06,1.42,144.2,M,-34.4,M,,*53
$GPGGA,150306.250,4308.3048,N,07726.2686,W,1,06,1.42,144.4,M,-34.4,M,,*5C
$GPRMC,150306.250,A,4308.3048,N,07726.2686,W,0.06,17.98,180719,,A*43
$GPRMC,150306.750,A,4308.3048,N,07726.2686,W,0.06,0.47,180719,,,A*72
$GPGGA,150307.000,4308.3048,N,07726.2685,W,1,06,1.53,144.8,M,-34.4,M,,*55
$GPRMC,150307.500,A,4308.3049,N,07726.2685,W,0.04,60.58,180719,,,A*4C
$GPGGA,150307.750,4308.3049,N,07726.2685,W,1,06,1.43,145.5,M,-34.4,M,,*5B
$GPGGA,150308.250,4308.3050,N,07726.2684,W,1,06,1.42,145.9,M,-34.4,M,,*55
$GPRMC,150308.250,A,4308.3050,N,07726.2684,W,0.05,207.03,180719,,A*74
$GPRMC,150308.750,A,4308.3050,N,07726.2684,W,0.03,351.42,180719,,,A*70
$GPGGA,150309.000,4308.3051,N,07726.2684,W,1,06,1.53,146.6,M,-34.4,M,,*5E
$GPGGA,150309.500,4308.3052,N,07726.2684,W,1,06,1.42,146.9,M,-34.4,M,,*57
$GPRMC,150309.500,A,4308.3052,N,07726.2684,W,0.02,225.99,1807190,M,-34.4,M,,*59
$GPRMC,150310.250,A,4308.3052,N,07726.2684,W,0.01,2.49,180719,,,A*72
$GPGGA,150310.500,4308.3053,N,07726.2684,W,1,06,1.53,147.4,M,-34.4,M,,*52
$GPRMC,150310.500,A,4308.3053,N,07726.2684,W,0.00,48.84,180719,
$GPGGA,150311.000,4308.3053,N,07726.2684,W,1,06,1.53,147.6,M,-34.4,M,,*54
$GPGGA,150311.500,4308.3054,N,07726.2684,W,1,06,1.42,147.9,M,-34.4,M,,*59
$GPRMC,150311.500,A,4308.3054,N,07726.2684,W,0.02,117.55,180719,,A*7C
$GPRMC,150312.000,A,4308.3054,N,07726.2684,W,0.01,107.77,180719,,,A*78
$GPGGA,150312.250,4308.3054,N,07726.2684,W,1,06,1.43,148.3,M,-34.4,M,,*5C
$GPGGA,150312.750,4308.3054,N,07726.2684,W,1,06,1.42,148.5,M,-34.4,M,,*5E
$GPRMC,150312.750,A,4308.3054,N,07726.2684,W,0.02,236.50,180719,,A*7D
$GPRMC,150313.250,A,4308.3054,N,07726.2684,W,0.02,217.14,180719,,,A*7A
$GPGGA,150313.500,4308.3054,N,07726.2684,W,1,06,1.42,148.7,M,-34.4,M,,*5A
$GPGGA,150314.000,4308.3053,N,07726.2684,W,1,06,1.42,148.8,M,-34.4,M,,*50
$GPRMC,150314.000,A,4308.3053,N,07726.2684,W,0.03,333.44,1807198.9,M,-34.4,M,,*57
$GPRMC,150314.750,A,4308.3053,N,07726.2685,W,0.01,133.48,180719,,,A*71
$GPGGA,150315.000,4308.3053,N,07726.2685,W,1,06,1.42,149.1,M,-34.4,M,,*58
$GPRMC,150315.500,A,4308.3053,N,07726.2685,W,0.02,282.57,180719,,,A*73
$GPGGA,150315.750,4308.3053,N,07726.2685,W,1,06,1.43,149.3,M,-34.4,M,,*59
$GPGGA,150316.250,4308.3052,N,07726.2685,W,1,06,1.42,149.4,M,-34.4,M,,*58
$GPRMC,150316.250,A,4308.3052,N,07726.2685,W,0.00,346.26,180719,,A*7E
$GPRMC,150316.750,A,4308.3052,N,07726.2685,W,0.02,54.66,180719,,,A*4D
$GPGGA,150317.000,4308.3052,N,07726.2685,W,1,06,1.43,149.5,M,-34.4,M,,*5E
$GPRMC,150317.000,A,4308.3052,N,07726.2685,W,0.02,213.87,1807196
$GPGGA,150317.500,4308.3052,N,07726.2686,W,1,06,1.42,149.4,M,-34.4,M,,*58
$GPGGA,150318.000,4308.3052,N,07726.2686,W,1,06,1.43,149.4,M,-34.4,M,,*53
$GPRMC,150318.000,A,4308.3052,N,07726.2686,W,0.01,57.75,180719,,,A*40
$GPRMC,150318.500,A,4308.3052,N,07726.2686,W,0.03,19.21,180719,,,A*4C
$GPGGA,150318.750,4308.3051,N,07726.2686,W,1,06,1.43,149.3,M,-34.4,M,,*55
$GPRMC,150319.250,A,4308.3051,N,07726.2687,W,0.01,92.49,180719,,,A*42
$GPGGA,150319.500,4308.3051,N,07726.2687,W,1,06,1.43,149.2,M,-34.4,M,,*53
$GPGGA,150320.000,4308.3050,N,07726.2687,W,1,06,1.42,149.1,M,-34.4,M,,*5F
$GPRMC,150320.000,A,4308.3050,N,07726.2687,W,0.02,191.89,180719,,A*73
$GPRMC,150320.500,A,4308.3050,N,07726.2687,W,0.03,200.43,180719,,,A*7A
$GPGGA,150320.750,4308.3050,N,07726.2687,W,1,06,1.42,149.0,M,-34.4,M,,*5C
$GPRMC,150321.250,A,4308.3050,N,07726.2687,W,0.02,169.99,180719,,,A*73
$GPGGA,150321.500,4308.3049,N,07726.2688,W,1,06,1.43,148.9,M,-34.4,M,,*54
$GPRMC,150321.500,A,4308.3049,N,07726.2688,W,0.02,156.01,180719,A*7B
$GPGGA,150322.000,4308.3049,N,07726.2688,W,1,06,1.42,148.9,M,-34.4,M,,*53
$GPGGA,150322.500,4308.3049,N,07726.2688,W,1,06,1.42,148.9,M,-34.4,M,,*56
$GPRMC,150322.500,A,4308.3049,N,07726.2688,W,0.04,69.43,180719,,A*45
$GPRMC,150323.000,A,4308.3048,N,07726.2688,W,0.02,164.25,180719,,,A*7A
$GPGGA,150323.250,4308.3048,N,07726.2688,W,1,06,1.42,148.8,M,-3PRMC,150323.250,A,4308.3048,N,07726.2688,W,0.09,163.22,180719,,,A*76
$GPRMC,150323.750,A,4308.3047,N,07726.2687,W,0.17,130.15,180719,,,A*7E
$GPGGA,150324.000,4308.3047,N,07726.2687,W,1,06,1.43,148.7,M,-34.4,M,,*5B
$GPGGA,150324.500,4308.3047,N,07726.2687,W,1,06,1.43,148.7,M,-34.4,M,,*5E
$GPRMC,150324.500,A,4308.3047,N,07726.2687,W,0.10,173.03,180719,,A*79
$GPRMC,150325.000,A,4308.3046,N,07726.2687,W,0.10,159.11,180719,,,A*77
$GPGGA,150325.250,4308.3046,N,07726.2687,W,1,06,1.43,148.7,M,-34.4,M,,*5C
$GPRMC,150325.750,A,4308.3046,N,07726.2687,W,0.10,154.91,180719,,,A*70
$GPGGA,150326.000,4308.3046,N,07726.2687,W,1,06,1.43,148.7,M,-34.4,M,,*58
$GPGGA,150326.500,4308.3046,N,07726.2686,W,1,06,1.43,148.8,M,-34.4,M,,*53
$GPRMC,150326.500,A,4308.3046,N,07726.2686,W,0.11,106.82,180719,,A*71
$GPRMC,150327.000,A,4308.3046,N,07726.2685,W,0.18,86.27,180719,,,A*49
$GPGGA,150327.250,4308.3046,N,07726.2685,W,1,06,1.43,149.0,M,-34.4,M,,*5A
$GPGGA,150327.750,4308.3046,N,07726.2685,W,1,06,1.42,149.1,M,-34.4,M,,*5F
$GPRMC,150327.750,A,4308.3046,N,07726.2685,W,0.03,116.26,1807199.2,M,-34.4,M,,*50
$GPRMC,150328.500,A,4308.3046,N,07726.2684,W,0.11,90.70,180719,,,A*4E
$GPGGA,150328.750,4308.3045,N,07726.2684,W,1,06,1.43,149.4,M,-34.4,M,,*56
$GPGGA,150329.250,4308.3046,N,07726.2684,W,1,06,1.43,149.4,M,-34.4,M,,*51
$GPRMC,150329.250,A,4308.3046,N,07726.2684,W,0.04,97.52,180719,,A*4E
$GPRMC,150329.750,A,4308.3046,N,07726.2684,W,0.04,253.92,180719,,,A*7D
$GPGGA,150330.000,4308.3046,N,07726.2684,W,1,06,1.43,149.4,M,-34.4,M,,*5E
$GPRMC,150330.500,A,4308.3046,N,07726.2684,W,0.02,152.37,180719,,,A*79
$GPGGA,150330.750,4308.3046,N,07726.2684,W,1,06,1.43,149.4,M,-34.4,M,,*5C
$GPGGA,150331.250,4308.3045,N,07726.2684,W,1,06,1.43,149.4,M,-34.4,M,,*5B
$GPRMC,150331.250,A,4308.3045,N,07726.2684,W,0.09,234.89,180719,,A*74
$GPRMC,150331.750,A,4308.3045,N,07726.2684,W,0.08,207.88,180719,,,A*71
$GPGGA,150332.000,4308.3045,N,07726.2684,W,1,06,1.43,149.5,M,-34.4,M,,*5E
$GPGGA,150332.500,4308.3045,N,07726.2684,W,1,07,1.35,149.5,M,-34.4,M,,*5B
$GPRMC,150332.500,A,4308.3045,N,07726.2684,W,0.09,32.21,180719,.5,M,-34.4,M,,*5C
$GPRMC,150332.750,A,4308.3045,N,07726.2684,W,0.15,330.80,18071
$GPGGA,150333.250,4308.3046,N,07726.2684,W,1,07,1.35,149.5,M,-34.4,M,,*5B
$GPRMC,150333.250,A,4308.3046,N,07726.2684,W,0.16,313.14,180719,A*7B
$GPGGA,150333.750,4308.3046,N,07726.2684,W,1,07,1.44,149.5,M,-34.4,M,,*58
$GPGGA,150334.250,4308.3046,N,07726.2684,W,1,07,1.35,149.5,M,-34.4,M,,*5C
$GPRMC,150334.250,A,4308.3046,N,07726.2684,W,0.06,59.70,180719,,A*42
$GPRMC,150334.750,A,4308.3046,N,07726.2684,W,0.04,38.07,180719,,,A*42
$GPGGA,150335.000,4308.3046,N,07726.2684,W,1,07,1.35,149.5,M,-34.4,M,,*5A
$GPGGA,150335.500,4308.3046,N,07726.2684,W,1,07,1.35,149.5,M,-34.4,M,,*5F
$GPRMC,150335.500,A,4308.3046,N,07726.2684,W,0.03,144.99,180719,,A*7E
$GPRMC,150336.000,A,4308.3046,N,07726.2684,W,0.06,86.74,180719,,,A*41
$GPGGA,150336.250,4308.3046,N,07726.2684,W,1,07,1.35,149.5,M,-34.4,M,,*5E
$GPGGA,150336.750,4308.3046,N,07726.2684,W,1,07,1.35,149.5,M,-34.4,M,,*5B
$GPRMC,150336.750,A,4308.3046,N,07726.2684,W,0.07,82.44,180719,,149.5,M,-34.4,M,,*58
$GPRMC,150337.500,A,4308.3046,N,07726.2684,W,0.03,175.37,180719,,,A*7A
$GPGGA,150337.750,4308.3046,N,07726.2684,W,1,07,1.35,149.5,M,-34.4,M,,*5A
$GPGGA,150338.250,4308.3046,N,07726.2684,W,1,07,1.35,149.4,M,-34.4,M,,*51
$GPRMC,150338.250,A,4308.3046,N,07726.2684,W,0.15,235.88,180719,,A*73
$GPRMC,150338.750,A,4308.3045,N,07726.2684,W,0.17,238.91,180719,,,A*72
$GPGGA,150339.000,4308.3045,N,07726.2684,W,1,07,1.35,149.4,M,-34.4,M,,*54
$GPRMC,150339.500,A,4308.3045,N,07726.2684,W,0.13,179.04,180719,,,A*7A
$GPGGA,150339.750,4308.3045,N,07726.2684,W,1,07,1.35,149.4,M,-34.4,M,,*56
$GPGGA,150340.250,4308.3045,N,07726.2684,W,1,07,1.35,149.4,M,-34.4,M,,*5D
$GPRMC,150340.250,A,4308.3045,N,07726.2684,W,0.09,116.02,180719,,A*72
$GPRMC,150340.750,A,4308.3045,N,07726.2684,W,0.08,176.25,180719,,,A*75
$GPGGA,150341.000,4308.3045,N,07726.2684,W,1,07,1.35,149.4,M,-34.4,M,,*5B
$GPGGA,150341.500,4308.3045,N,07726.2684,W,1,07,1.35,149.4,M,-34.4,M,,*5E
$GPRMC,150341.500,A,4308.3045,N,07726.2684,W,0.07,216.75,180719,-34.4,M,,*59
$GPRMC,150341.750,A,4308.3045,N,07726.2684,W,0.07,206.67,180719E
$GPGGA,150342.250,4308.3045,N,07726.2684,W,1,07,1.35,149.4,M,-34.4,M,,*5F
$GPGGA,150342.750,4308.3044,N,07726.2684,W,1,07,1.35,149.4,M,-34.4,M,,*5B
$GPRMC,150342.750,A,4308.3044,N,07726.2684,W,0.12,196.89,180719,,A*75
$GPRMC,150343.250,A,4308.3044,N,07726.2684,W,0.09,161.72,180719,,,A*77
$GPGGA,150343.500,4308.3044,N,07726.2684,W,1,07,1.35,149.4,M,-34.4,M,,*5D
$GPRMC,150344.000,A,4308.3044,N,07726.2684,W,0.13,138.24,180719,,,A*73
$GPGGA,150344.250,4308.3044,N,07726.2684,W,1,07,1.35,149.4,M,-34.4,M,,*58
$GPRMC,150344.250,A,4308.3044,N,07726.2684,W,0.10,151.09,1807199
$GPGGA,150344.750,4308.3044,N,07726.2684,W,1,07,1.36,149.4,M,-34.4,M,,*5E
$GPGGA,150345.250,4308.3044,N,07726.2684,W,1,07,1.36,149.4,M,-34.4,M,,*5A
$GPRMC,150345.250,A,4308.3044,N,07726.2684,W,0.13,150.69,180719,,A*72
$GPRMC,150345.750,A,4308.3044,N,07726.2684,W,0.15,166.19,180719,,,A*73
$GPGGA,150346.000,4308.3044,N,07726.2684,W,1,07,1.35,149.4,M,-34.4,M,,*5D
$GPRMC,150346.500,A,4308.3043,N,07726.2684,W,0.10,135.17,180719,,,A*7D
$GPGGA,150346.750,4308.3043,N,07726.2683,W,1,07,1.35,149.4,M,-34.4,M,,*5F
$GPGGA,150347.250,4308.3043,N,07726.2683,W,1,07,1.35,149.4,M,-34.4,M,,*5B
$GPRMC,150347.250,A,4308.3043,N,07726.2683,W,0.47,55.88,180719,,A*4A
$GPRMC,150347.750,A,4308.3046,N,07726.2682,W,0.98,39.27,180719,,,A*46
$GPGGA,150348.000,4308.3047,N,07726.2681,W,1,07,1.35,149.3,M,-34.4,M,,*52
$GPRMC,150348.500,A,4308.3053,N,07726.2679,W,1.65,32.46,180719,,,A*41
$GPGGA,150348.750,4308.3055,N,07726.2678,W,1,07,1.36,149.2,M,-34.4,M,,*57
$GPGGA,150349.250,4308.3060,N,07726.2675,W,1,07,1.36,149.2,M,-34.4,M,,*58
$GPRMC,150349.250,A,4308.3060,N,07726.2675,W,2.80,26.68,180719,,A*4F
$GPRMC,150349.750,A,4308.3067,N,07726.2673,W,4.56,14.18,180719,,,A*40
$GPGGA,150350.000,4308.3071,N,07726.2671,W,1,07,1.44,149.1,M,-34.4,M,,*55
$GPGGA,150350.500,4308.3079,N,07726.2668,W,1,08,1.15,149.1,M,-34.4,M,,*5B
$GPRMC,150350.500,A,4308.3079,N,07726.2668,W,5.65,16.39,180719,1.15,149.1,M,-34.4,M,,*57
$GPRMC,150351.250,A,4308.3090,N,07726.2663,W,5.42,15.07,180719,,,A*4E
$GPGGA,150351.500,4308.3094,N,07726.2661,W,1,08,1.15,149.2,M,-34.4,M,,*53
$GPGGA,150352.000,4308.3100,N,07726.2658,W,1,08,1.15,149.1,M,-34.4,M,,*50
$GPRMC,150352.000,A,4308.3100,N,07726.2658,W,4.60,12.14,180719,,A*4E
$GPRMC,150352.500,A,4308.3105,N,07726.2657,W,3.98,11.10,180719,,,A*46
$GPGGA,150352.750,4308.3108,N,07726.2656,W,1,08,1.15,149.0,M,-34.4,M,,*55
$GPRMC,150353.250,A,4308.3114,N,07726.2654,W,3.39,12.85,180719,,,A*42
$GPGGA,150353.500,4308.3118,N,07726.2653,W,1,08,1.15,148.8,M,-34.4,M,,*5E
$GPGGA,150354.000,4308.3123,N,07726.2651,W,1,08,1.07,148.7,M,-34.4,M,,*5A
$GPRMC,150354.000,A,4308.3123,N,07726.2651,W,3.21,21.11,180719,,A*47
$GPRMC,150354.500,A,4308.3127,N,07726.2649,W,3.01,24.67,180719,,,A*49
$GPGGA,150354.750,4308.3130,N,07726.2648,W,1,08,1.07,148.6,M,-34.4,M,,*53
$GPRMC,150354.750,A,4308.3130,N,07726.2648,W,3.20,25.22,180719,4F
$GPGGA,150355.250,4308.3137,N,07726.2644,W,1,08,1.07,148.5,M,-34.4,M,,*5F
$GPRMC,150355.750,A,4308.3144,N,07726.2641,W,4.56,26.84,180719,,,A*48
$GPGGA,150356.000,4308.3148,N,07726.2639,W,1,08,1.15,148.4,M,-34.4,M,,*5B
$GPGGA,150356.500,4308.3155,N,07726.2634,W,1,08,1.15,148.4,M,-34.4,M,,*5F
$GPRMC,150356.500,A,4308.3155,N,07726.2634,W,4.83,31.36,180719,,A*49
$GPRMC,150357.000,A,4308.3160,N,07726.2629,W,4.54,44.22,180719,,,A*4A
$GPGGA,150357.250,4308.3162,N,07726.2625,W,1,08,1.15,148.3,M,-34.4,M,,*5F
$GPGGA,150357.750,4308.3166,N,07726.2618,W,1,08,1.15,148.2,M,-34.4,M,,*51
$GPRMC,150357.750,A,4308.3166,N,07726.2618,W,4.67,60.91,180719,.15,148.2,M,-34.4,M,,*5E
$GPRMC,150358.000,A,4308.3168,N,07726.2614,W,4.56,61.75,180719,4E
$GPGGA,150358.500,4308.3170,N,07726.2607,W,1,08,1.15,148.2,M,-34.4,M,,*50
$GPGGA,150359.000,4308.3171,N,07726.2600,W,1,08,1.07,148.3,M,-34.4,M,,*50
$GPRMC,150359.000,A,4308.3171,N,07726.2600,W,3.19,82.56,180719,,A*48
$GPRMC,150359.500,A,4308.3171,N,07726.2596,W,2.05,84.65,180719,,,A*4B
$GPGGA,150359.750,4308.3171,N,07726.2595,W,1,08,1.07,148.3,M,-34.4,M,,*5D
$GPRMC,150400.250,A,4308.3171,N,07726.2596,W,0.49,82.05,180719,,,A*48
$GPGGA,150400.500,4308.3171,N,07726.2597,W,1,08,1.07,148.4,M,-34.4,M,,*54
$GPGGA,150401.000,4308.3170,N,07726.2601,W,1,08,1.07,148.5,M,-34.4,M,,*5C
$GPRMC,150401.000,A,4308.3170,N,07726.2601,W,0.92,262.87,180719,,,A*72
$GPRMC,150401.500,A,4308.3170,N,07726.2609,W,2.09,265.71,180719,,,A*71
$GPGGA,150401.750,4308.3171,N,07726.2615,W,1,08,1.07,148.4,M,-34.4,M,,*5B
$GPGGA,150402.250,4308.3170,N,07726.2629,W,1,08,1.15,148.3,M,-34.4,M,,*57
$GPRMC,150402.250,A,4308.3170,N,07726.2629,W,7.76,267.65,180719,M,-34.4,M,,*56
$GPRMC,150402.500,A,4308.3172,N,07726.2638,W,9.10,273.01,180719
$GPGGA,150403.000,4308.3173,N,07726.2658,W,1,08,1.07,148.1,M,-34.4,M,,*55
$GPGGA,150403.500,4308.3176,N,07726.2684,W,1,08,1.15,148.0,M,-34.4,M,,*56
$GPRMC,150403.500,A,4308.3176,N,07726.2684,W,13.54,277.44,18071,,,A*4D
$GPRMC,150404.000,A,4308.3180,N,07726.2711,W,14.86,278.42,180719,,,A*4A
$GPGGA,150404.250,4308.3182,N,07726.2726,W,1,08,1.15,147.9,M,-34.4,M,,*57
$GPRMC,150404.750,A,4308.3185,N,07726.2756,W,16.54,278.00,180719,,,A*45
$GPGGA,150405.000,4308.3188,N,07726.2772,W,1,08,1.07,147.6,M,-34.4,M,,*56
$GPGGA,150405.500,4308.3194,N,07726.2806,W,1,08,1.15,147.4,M,-34.4,M,,*53
$GPRMC,150405.500,A,4308.3194,N,07726.2806,W,18.23,282.05,18071,,,A*47
$GPRMC,150406.000,A,4308.3202,N,07726.2842,W,19.11,284.46,180719,,,A*4C
$GPGGA,150406.250,4308.3206,N,07726.2860,W,1,08,1.15,147.2,M,-34.4,M,,*5C
$GPGGA,150406.750,4308.3215,N,07726.2897,W,1,08,1.15,147.1,M,-34.4,M,,*50
$GPRMC,150406.750,A,4308.3215,N,07726.2897,W,20.26,288.13,180711.07,147.1,M,-34.4,M,,*5E
$GPRMC,150407.000,A,4308.3220,N,07726.2916,W,20.45,289.06,180714D
$GPGGA,150407.500,4308.3231,N,07726.2954,W,1,08,1.15,147.0,M,-34.4,M,,*5F
$GPGGA,150408.000,4308.3244,N,07726.2991,W,1,08,1.07,147.0,M,-34.4,M,,*5D
$GPRMC,150408.000,A,4308.3244,N,07726.2991,W,21.31,293.21,180719,,,A*41
$GPRMC,150408.500,A,4308.3258,N,07726.3029,W,21.91,296.00,180719,,,A*4E
$GPGGA,150408.750,4308.3266,N,07726.3048,W,1,08,1.15,146.9,M,-34.4,M,,*58
$GPRMC,150409.250,A,4308.3282,N,07726.3086,W,22.55,299.61,180719,,,A*4C
$GPGGA,150409.500,4308.3290,N,07726.3105,W,1,08,1.15,146.8,M,-34.4,M,,*5E
$GPGGA,150410.000,4308.3308,N,07726.3143,W,1,08,1.07,146.7,M,-34.4,M,,*5D
$GPRMC,150410.000,A,4308.3308,N,07726.3143,W,23.45,300.76,18071,,,A*4F
$GPRMC,150410.500,A,4308.3324,N,07726.3182,W,23.94,300.98,180719,,,A*45
$GPGGA,150410.750,4308.3333,N,07726.3202,W,1,08,1.15,146.6,M,-34.4,M,,*53
$GPGGA,150411.250,4308.3351,N,07726.3241,W,1,08,1.15,146.6,M,-34.4,M,,*54
$GPRMC,150411.250,A,4308.3351,N,07726.3241,W,24.86,301.92,180715,M,-34.4,M,,*54
$GPRMC,150412.000,A,4308.3379,N,07726.3301,W,25.33,302.67,180719,,,A*4A
$GPGGA,150412.250,4308.3389,N,07726.3322,W,1,08,1.15,146.4,M,-34.4,M,,*54
$GPGGA,150412.750,4308.3409,N,07726.3363,W,1,08,1.15,146.4,M,-34.4,M,,*5B
$GPRMC,150412.750,A,4308.3409,N,07726.3363,W,25.66,303.49,18071,,,A*41
$GPRMC,150413.250,A,4308.3428,N,07726.3403,W,25.38,304.32,180719,,,A*47
$GPGGA,150413.500,4308.3439,N,07726.3423,W,1,08,1.15,146.2,M,-34.4,M,,*5B
$GPRMC,150414.000,A,4308.3460,N,07726.3462,W,24.68,305.48,180719,,,A*44
$GPGGA,150414.250,4308.3469,N,07726.3480,W,1,08,1.15,146.1,M,-34.4,M,,*51
$GPGGA,150414.750,4308.3489,N,07726.3516,W,1,08,1.15,146.0,M,-34.4,M,,*55
$GPRMC,150414.750,A,4308.3489,N,07726.3516,W,23.13,306.38,18071,,,A*4C
$GPRMC,150415.250,A,4308.3510,N,07726.3550,W,22.68,308.35,180719,,,A*45
$GPGGA,150415.500,4308.3520,N,07726.3567,W,1,08,1.15,145.9,M,-34.4,M,,*5D
$GPRMC,150415.500,A,4308.3520,N,07726.3567,W,22.46,309.25,1807
$GPGGA,150416.000,4308.3540,N,07726.3597,W,1,08,1.15,146.0,M,-3.4,M,,*58
$GPRMC,150416.500,A,4308.3560,N,07726.3625,W,20.72,314.31,180719,,,A*42
$GPGGA,150416.750,4308.3570,N,07726.3639,W,1,08,1.15,146.2,M,-34.4,M,,*5C
$GPGGA,150417.250,4308.3591,N,07726.3665,W,1,08,1.15,146.2,M,-34.4,M,,*5E
$GPRMC,150417.250,A,4308.3591,N,07726.3665,W,20.44,318.71,18071,,,A*46
$GPRMC,150417.750,A,4308.3614,N,07726.3690,W,20.19,321.19,180719,,,A*4B
$GPGGA,150418.000,4308.3626,N,07726.3702,W,1,08,1.15,146.5,M,-34.4,M,,*5E
$GPRMC,150418.500,A,4308.3650,N,07726.3725,W,20.70,326.84,180719,,,A*40
$GPGGA,150418.750,4308.3664,N,07726.3735,W,1,08,1.15,146.7,M,-34.4,M,,*5C
$GPGGA,150419.250,4308.3693,N,07726.3754,W,1,08,1.15,146.6,M,-34.4,M,,*56
$GPRMC,150419.250,A,4308.3693,N,07726.3754,W,21.96,335.55,18071,,,A*4D
$GPRMC,150419.750,A,4308.3722,N,07726.3770,W,22.06,338.31,180719,,,A*40
$GPGGA,150420.000,4308.3737,N,07726.3778,W,1,08,1.07,146.7,M,-34.4,M,,*58
$GPGGA,150420.500,4308.3767,N,07726.3792,W,1,08,1.07,146.7,M,-34.4,M,,*5C
$GPRMC,150420.500,A,4308.3767,N,07726.3792,W,22.23,340.79,1807155
$GPRMC,150421.250,A,4308.3811,N,07726.3806,W,21.63,345.83,180719,,,A*4C
$GPGGA,150421.500,4308.3826,N,07726.3808,W,1,08,1.15,146.8,M,-34.4,M,,*57
$GPGGA,150422.000,4308.3863,N,07726.3810,W,1,08,1.15,146.9,M,-34.4,M,,*58
$GPRMC,150422.000,A,4308.3863,N,07726.3810,W,23.14,354.32,180719,,,A*42
$GPRMC,150422.500,A,4308.3903,N,07726.3809,W,24.88,358.82,180719,,,A*4D
$GPGGA,150422.750,4308.3921,N,07726.3806,W,1,08,1.15,147.0,M,-34.4,M,,*52
$GPRMC,150423.250,A,4308.3958,N,07726.3802,W,25.45,4.21,180719,,,A*48
$GPGGA,150423.500,4308.3976,N,07726.3799,W,1,08,1.15,147.1,M,-34.4,M,,*5E
$GPRMC,150423.500,A,4308.3976,N,07726.3799,W,25.70,6.41,180719,42
$GPGGA,150424.000,4308.4014,N,07726.3790,W,1,08,1.07,147.2,M,-34.4,M,,*5F
$GPGGA,150424.500,4308.4051,N,07726.3781,W,1,08,1.15,147.3,M,-34.4,M,,*59
$GPRMC,150424.500,A,4308.4051,N,07726.3781,W,25.79,10.08,180719,,A*7F
$GPRMC,150425.000,A,4308.4088,N,07726.3772,W,25.51,10.11,180719,,,A*71
$GPGGA,150425.250,4308.4106,N,07726.3767,W,1,08,1.07,147.5,M,-34.4,M,,*54
$GPRMC,150425.750,A,4308.4142,N,07726.3758,W,24.94,9.26,180719,,,A*48
$GPGGA,150426.000,4308.4160,N,07726.3754,W,1,08,1.15,147.6,M,-34.4,M,,*50
$GPGGA,150426.500,4308.4196,N,07726.3745,W,1,09,1.14,147.7,M,-34.4,M,,*5D
$GPRMC,150426.500,A,4308.4196,N,07726.3745,W,24.39,9.32,180719,,A*4B
$GPRMC,150427.000,A,4308.4231,N,07726.3737,W,24.13,9.03,180719,,,A*4E
$GPGGA,150427.250,4308.4248,N,07726.3733,W,1,09,1.14,147.8,M,-34.4,M,,*50
$GPRMC,150427.750,A,4308.4282,N,07726.3724,W,23.39,8.78,180719,,,A*44
$GPGGA,150428.000,4308.4298,N,07726.3720,W,1,09,1.14,147.8,M,-34.4,M,,*57
$GPGGA,150428.500,4308.4331,N,07726.3713,W,1,09,1.14,147.9,M,-34.4,M,,*51
$GPRMC,150428.500,A,4308.4331,N,07726.3713,W,22.55,8.68,180719,,A*4B
$GPRMC,150429.000,A,4308.4363,N,07726.3705,W,22.15,8.93,180719,,,A*4F
$GPGGA,150429.250,4308.4378,N,07726.3702,W,1,09,1.14,147.9,M,-34.4,M,,*5F
$GPRMC,150429.250,A,4308.4378,N,07726.3702,W,22.07,8.66,180719,,,A*4C
$GPGGA,150429.750,4308.4410,N,07726.3694,W,1,09,1.14,148.0,M,-34.4,M,,*5B
$GPRMC,150430.250,A,4308.4440,N,07726.3686,W,21.05,8.90,180719,,,A*4D
$GPGGA,150430.500,4308.4455,N,07726.3682,W,1,09,1.14,148.2,M,-34.4,M,,*50
$GPGGA,150431.000,4308.4482,N,07726.3675,W,1,09,1.14,148.5,M,-34.4,M,,*51
$GPRMC,150431.000,A,4308.4482,N,07726.3675,W,19.03,9.93,180719,,A*46
$GPRMC,150431.500,A,4308.4506,N,07726.3669,W,16.58,10.25,180719,,,A*77
$GPGGA,150431.750,4308.4517,N,07726.3666,W,1,09,1.14,149.1,M,-34.4,M,,*59
$GPRMC,150432.250,A,4308.4536,N,07726.3660,W,13.20,10.63,180719,,,A*74
$GPGGA,150432.500,4308.4544,N,07726.3657,W,1,09,1.14,149.6,M,-34.4,M,,*5E
$GPGGA,150433.000,4308.4558,N,07726.3654,W,1,09,1.14,150.0,M,-34.4,M,,*5A
$GPRMC,150433.000,A,4308.4558,N,07726.3654,W,9.80,10.53,180719,,A*4F
$GPRMC,150433.500,A,4308.4568,N,07726.3651,W,6.84,11.50,180719,,,A*45
$GPGGA,150433.750,4308.4572,N,07726.3649,W,1,09,1.14,150.5,M,-34.4,M,,*59
$GPGGA,150434.250,4308.4578,N,07726.3647,W,1,09,1.14,150.7,M,-34.4,M,,*5D
$GPRMC,150434.250,A,4308.4578,N,07726.3647,W,3.86,12.10,180719,50.8,M,-34.4,M,,*50
$GPRMC,150435.000,A,4308.4584,N,07726.3645,W,2.83,11.07,180719,,,A*40
$GPGGA,150435.250,4308.4586,N,07726.3644,W,1,09,1.14,151.0,M,-34.4,M,,*58
$GPRMC,150435.250,A,4308.4586,N,07726.3644,W,2.86,11.07,180719
$GPGGA,150435.750,4308.4590,N,07726.3643,W,1,09,1.14,151.2,M,-34.4,M,,*5F
$GPGGA,150436.250,4308.4596,N,07726.3643,W,1,09,1.14,151.3,M,-34.4,M,,*5E
$GPRMC,150436.250,A,4308.4596,N,07726.3643,W,3.96,356.86,180719,,A*7D
$GPGGA,150437.000,4308.4612,N,07726.3649,W,1,09,1.06,151.7,M,-34.4,M,,*5A
$GPRMC,150437.000,A,4308.4612,N,07726.3649,W,6.98,340.30,180719,,A*7F
$GPRMC,150437.500,A,4308.4621,N,07726.3656,W,7.97,329.52,180719,,,A*71
$GPGGA,150437.750,4308.4627,N,07726.3662,W,1,09,1.14,151.9,M,-34.4,M,,*5A
$GPGGA,150438.250,4308.4636,N,07726.3679,W,1,09,1.14,151.5,M,-34.4,M,,*56
$GPRMC,150438.250,A,4308.4636,N,07726.3679,W,10.93,303.55,18071,,,A*4A
$GPRMC,150438.750,A,4308.4645,N,07726.3698,W,12.63,296.53,180719,,,A*42
$GPGGA,150439.000,4308.4648,N,07726.3710,W,1,09,1.14,151.1,M,-34.4,M,,*53
$GPRMC,150439.500,A,4308.4654,N,07726.3736,W,14.81,286.78,180719,,,A*43
$GPGGA,150439.750,4308.4656,N,07726.3751,W,1,09,1.14,150.7,M,-34.4,M,,*5C
$GPGGA,150440.250,4308.4660,N,07726.3781,W,1,09,1.14,150.6,M,-34.4,M,,*5E
$GPRMC,150440.250,A,4308.4660,N,07726.3781,W,16.68,280.57,18071,,,A*4A
$GPGGA,150440.750,4308.4663,N,07726.3814,W,1,09,1.14,150.8,M,-34.4,M,,*55
$GPRMC,150440.750,A,4308.4663,N,07726.3814,W,17.64,277.82,18071,,,A*42
$GPRMC,150441.250,A,4308.4665,N,07726.3848,W,18.37,276.95,180719,,,A*47
$GPGGA,150441.500,4308.4667,N,07726.3865,W,1,09,1.14,150.8,M,-34.4,M,,*51
$GPRMC,150442.000,A,4308.4669,N,07726.3901,W,18.98,275.57,180719,,,A*4B
$GPGGA,150442.250,4308.4671,N,07726.3919,W,1,09,1.13,150.8,M,-34.4,M,,*5A
$GPGGA,150442.750,4308.4672,N,07726.3955,W,1,09,1.14,150.8,M,-34.4,M,,*53
$GPRMC,150442.750,A,4308.4672,N,07726.3955,W,19.02,274.78,180719,,,A*4C
$GPRMC,150443.250,A,4308.4675,N,07726.3990,W,18.74,274.53,180719,,,A*4F
$GPGGA,150443.500,4308.4676,N,07726.4008,W,1,09,1.14,150.7,M,-34.4,M,,*58
$GPRMC,150444.000,A,4308.4678,N,07726.4043,W,18.59,274.41,180719,,,A*4E
$GPGGA,150444.250,4308.4680,N,07726.4060,W,1,09,1.14,150.9,M,-34.4,M,,*54
$GPGGA,150444.750,4308.4683,N,07726.4094,W,1,09,1.14,151.0,M,-34.4,M,,*51
$GPRMC,150444.750,A,4308.4683,N,07726.4094,W,18.26,276.13,18071,,,A*4F
$GPRMC,150445.250,A,4308.4686,N,07726.4128,W,18.09,276.30,180719,,,A*44
$GPGGA,150445.500,4308.4688,N,07726.4145,W,1,09,1.14,151.1,M,-34.4,M,,*50
$GPGGA,150446.000,4308.4690,N,07726.4179,W,1,09,1.14,151.1,M,-34.4,M,,*50
$GPRMC,150446.000,A,4308.4690,N,07726.4179,W,17.96,275.09,18071.4,M,,*50
$GPGGA,150446.750,4308.4694,N,07726.4228,W,1,09,1.14,151.1,M,-34.4,M,,*51
$GPRMC,150446.750,A,4308.4694,N,07726.4228,W,17.30,274.95,18071,,,A*4A
$GPRMC,150447.250,A,4308.4696,N,07726.4259,W,16.38,275.85,180719,,,A*43
$GPGGA,150447.500,4308.4698,N,07726.4274,W,1,09,1.14,151.1,M,-34.4,M,,*52
$GPGGA,150448.000,4308.4700,N,07726.4300,W,1,09,1.14,151.1,M,-34.4,M,,*5A
$GPRMC,150448.000,A,4308.4700,N,07726.4300,W,13.60,277.75,18071,,,A*4D
$GPRMC,150448.500,A,4308.4703,N,07726.4322,W,11.29,278.84,180719,,,A*45
$GPGGA,150448.750,4308.4704,N,07726.4332,W,1,09,1.14,151.1,M,-34.4,M,,*5D
$GPGGA,150449.250,4308.4706,N,07726.4349,W,1,09,1.14,151.3,M,-34.4,M,,*55
$GPRMC,150449.250,A,4308.4706,N,07726.4349,W,9.03,282.73,180719,,,A*72
$GPRMC,150449.750,A,4308.4709,N,07726.4364,W,7.99,286.76,180719,,,A*7B
$GPGGA,150450.000,4308.4710,N,07726.4371,W,1,09,1.14,151.4,M,-34.4,M,,*51
$GPGGA,150450.500,4308.4713,N,07726.4385,W,1,09,1.14,151.4,M,-34.4,M,,*5C
$GPRMC,150450.500,A,4308.4713,N,07726.4385,W,7.56,290.24,180719.4,M,-34.4,M,,*58
$GPRMC,150450.750,A,4308.4715,N,07726.4391,W,7.59,291.95,1807198
$GPGGA,150451.250,4308.4719,N,07726.4405,W,1,09,1.14,151.4,M,-34.4,M,,*5A
$GPGGA,150451.750,4308.4721,N,07726.4419,W,1,09,1.14,151.4,M,-34.4,M,,*59
$GPRMC,150451.750,A,4308.4721,N,07726.4419,W,8.02,288.51,180719,,A*73
$GPRMC,150452.250,A,4308.4723,N,07726.4433,W,8.01,285.15,180719,,,A*71
$GPGGA,150452.500,4308.4723,N,07726.4440,W,1,09,1.13,151.7,M,-34.4,M,,*57
$GPRMC,150453.000,A,4308.4723,N,07726.4454,W,7.76,280.68,180719,,,A*76
$GPGGA,150453.250,4308.4723,N,07726.4460,W,1,09,1.14,151.9,M,-34.4,M,,*5F
$GPRMC,150453.750,A,4308.4724,N,07726.4474,W,7.41,277.20,180719,,,A*71
$GPGGA,150454.000,4308.4724,N,07726.4481,W,1,09,1.13,151.8,M,-34.4,M,,*51
$GPGGA,150454.500,4308.4726,N,07726.4494,W,1,09,1.13,151.8,M,-34.4,M,,*52
$GPRMC,150454.500,A,4308.4726,N,07726.4494,W,7.10,277.91,180719,,,A*73
$GPRMC,150455.000,A,4308.4728,N,07726.4506,W,6.78,275.64,180719,,,A*74
$GPGGA,150455.250,4308.4727,N,07726.4513,W,1,09,1.14,151.7,M,-34.4,M,,*56
$GPGGA,150455.750,4308.4727,N,07726.4527,W,1,09,1.13,152.0,M,-34.4,M,,*57
$GPRMC,150455.750,A,4308.4727,N,07726.4527,W,7.68,265.83,180719,,A*72
$GPRMC,150456.250,A,4308.4724,N,07726.4542,W,7.96,261.45,180719,,,A*7B
$GPGGA,150456.500,4308.4722,N,07726.4550,W,1,09,1.14,152.4,M,-34.4,M,,*55
$GPGGA,150457.000,4308.4716,N,07726.4565,W,1,09,1.14,152.6,M,-34.4,M,,*52
$GPRMC,150457.000,A,4308.4716,N,07726.4565,W,9.18,249.77,180719,,,A*7A
$GPRMC,150457.500,A,4308.4704,N,07726.4581,W,10.37,234.95,180719,,,A*45
$GPGGA,150457.750,4308.4697,N,07726.4588,W,1,09,1.14,153.0,M,-34.4,M,,*5C
$GPGGA,150458.250,4308.4683,N,07726.4604,W,1,09,1.14,153.2,M,-34.4,M,,*56
$GPRMC,150458.250,A,4308.4683,N,07726.4604,W,11.86,223.11,18071,,,A*49
$GPRMC,150458.750,A,4308.4667,N,07726.4616,W,12.40,214.28,180719,,,A*42
$GPGGA,150459.000,4308.4658,N,07726.4621,W,1,09,1.14,153.7,M,-34.4,M,,*54
$GPGGA,150459.500,4308.4640,N,07726.4631,W,1,09,1.14,153.9,M,-34.4,M,,*57
$GPRMC,150459.500,A,4308.4640,N,07726.4631,W,13.74,205.05,180714.0,M,-34.4,M,,*59
$GPRMC,150459.750,A,4308.4630,N,07726.4636,W,14.40,202.45,18071
$GPGGA,150500.250,4308.4609,N,07726.4646,W,1,09,1.13,154.4,M,-34.4,M,,*58
$GPGGA,150500.750,4308.4587,N,07726.4656,W,1,09,1.14,154.7,M,-34.4,M,,*5D
$GPRMC,150500.750,A,4308.4587,N,07726.4656,W,17.43,199.83,18071,,,A*46
$GPRMC,150501.250,A,4308.4562,N,07726.4667,W,18.64,199.58,180719,,,A*47
$GPGGA,150501.500,4308.4549,N,07726.4673,W,1,09,1.14,155.2,M,-34.4,M,,*5A
$GPRMC,150502.000,A,4308.4522,N,07726.4685,W,20.25,199.53,180719,,,A*4E
$GPGGA,150502.250,4308.4508,N,07726.4692,W,1,09,1.14,155.9,M,-34.4,M,,*5A
$GPGGA,150502.750,4308.4479,N,07726.4705,W,1,09,1.14,156.3,M,-34.4,M,,*5E
$GPRMC,150502.750,A,4308.4479,N,07726.4705,W,21.91,199.93,18071,,,A*48
$GPRMC,150503.250,A,4308.4448,N,07726.4720,W,22.87,199.65,180719,,,A*44
$GPGGA,150503.500,4308.4432,N,07726.4727,W,1,09,1.14,157.0,M,-34.4,M,,*55
$GPRMC,150503.500,A,4308.4432,N,07726.4727,W,23.62,199.28,1807
$GPGGA,150504.000,4308.4400,N,07726.4742,W,1,09,1.14,157.2,M,-3.4,M,,*57
$GPRMC,150504.500,A,4308.4367,N,07726.4758,W,25.24,199.65,180719,,,A*4A
$GPGGA,150504.750,4308.4349,N,07726.4766,W,1,09,1.14,157.5,M,-34.4,M,,*5E
$GPGGA,150505.250,4308.4314,N,07726.4782,W,1,09,1.13,157.5,M,-34.4,M,,*5F
$GPRMC,150505.250,A,4308.4314,N,07726.4782,W,26.74,199.09,180719,,,A*46
$GPRMC,150505.750,A,4308.4276,N,07726.4799,W,28.05,198.60,180719,,,A*4A
$GPGGA,150506.000,4308.4257,N,07726.4807,W,1,09,1.06,157.5,M,-34.4,M,,*5B
$GPRMC,150506.500,A,4308.4217,N,07726.4824,W,29.64,198.55,180719,,,A*40
$GPGGA,150506.750,4308.4197,N,07726.4833,W,1,09,1.13,157.3,M,-34.4,M,,*53
$GPGGA,150507.250,4308.4156,N,07726.4851,W,1,09,1.13,157.2,M,-34.4,M,,*5F
$GPRMC,150507.250,A,4308.4156,N,07726.4851,W,30.92,199.02,18071,,,A*45
$GPRMC,150507.750,A,4308.4114,N,07726.4870,W,31.77,199.29,180719,,,A*46
$GPGGA,150508.000,4308.4092,N,07726.4880,W,1,09,1.06,157.0,M,-34.4,M,,*54
$GPGGA,150508.500,4308.4048,N,07726.4900,W,1,09,1.14,156.8,M,-34.4,M,,*55
$GPRMC,150508.500,A,4308.4048,N,07726.4900,W,32.55,199.65,18071-34.4,M,,*54
$GPRMC,150509.250,A,4308.3981,N,07726.4929,W,33.16,198.47,180719,,,A*4F
$GPGGA,150509.500,4308.3958,N,07726.4939,W,1,09,1.14,156.5,M,-34.4,M,,*5C
$GPGGA,150510.000,4308.3912,N,07726.4957,W,1,09,1.06,156.3,M,-34.4,M,,*52
$GPRMC,150510.000,A,4308.3912,N,07726.4957,W,33.97,197.90,18071,,,A*4F
$GPRMC,150510.500,A,4308.3865,N,07726.4977,W,34.46,197.17,180719,,,A*4D
$GPGGA,150510.750,4308.3841,N,07726.4986,W,1,09,1.13,155.9,M,-34.4,M,,*56
$GPRMC,150511.250,A,4308.3791,N,07726.5004,W,35.12,195.82,180719,,,A*48
$GPGGA,150511.500,4308.3766,N,07726.5013,W,1,09,1.14,155.3,M,-34.4,M,,*53
$GPGGA,150512.000,4308.3715,N,07726.5029,W,1,09,1.06,154.8,M,-34.4,M,,*51
$GPRMC,150512.000,A,4308.3715,N,07726.5029,W,36.49,193.06,180719,,,A*48
$GPRMC,150512.500,A,4308.3663,N,07726.5044,W,37.66,191.46,180719,,,A*4C
$GPGGA,150512.750,4308.3636,N,07726.5051,W,1,09,1.13,154.0,M,-34.4,M,,*50
$GPGGA,150513.250,4308.3583,N,07726.5063,W,1,08,1.21,153.7,M,-34.4,M,,*58
$GPRMC,150513.250,A,4308.3583,N,07726.5063,W,38.64,189.26,180713.6,M,-34.4,M,,*5A
$GPRMC,150514.000,A,4308.3500,N,07726.5078,W,39.21,187.12,180719,,,A*4D
$GPGGA,150514.250,4308.3472,N,07726.5082,W,1,08,1.21,153.4,M,-34.4,M,,*5C
$GPGGA,150514.750,4308.3416,N,07726.5088,W,1,08,1.21,153.3,M,-34.4,M,,*56
$GPRMC,150514.750,A,4308.3416,N,07726.5088,W,39.66,185.04,18071,,,A*40
$GPRMC,150515.250,A,4308.3360,N,07726.5094,W,39.87,184.15,180719,,,A*41
$GPGGA,150515.500,4308.3332,N,07726.5097,W,1,09,1.13,153.2,M,-34.4,M,,*5E
$GPRMC,150516.000,A,4308.3275,N,07726.5102,W,39.99,183.45,180719,,,A*43
$GPGGA,150516.250,4308.3247,N,07726.5104,W,1,09,1.14,153.0,M,-34.4,M,,*52
$GPGGA,150516.750,4308.3190,N,07726.5109,W,1,09,1.13,153.0,M,-34.4,M,,*54
$GPRMC,150516.750,A,4308.3190,N,07726.5109,W,40.07,182.83,18071,,,A*40
$GPRMC,150517.250,A,4308.3133,N,07726.5113,W,40.18,182.47,180719,,,A*40
$GPGGA,150517.500,4308.3104,N,07726.5114,W,1,09,1.13,153.2,M,-34.4,M,,*51
$GPRMC,150518.000,A,4308.3047,N,07726.5118,W,40.70,181.99,180719,,,A*4F
$GPGGA,150518.250,4308.3018,N,07726.5120,W,1,09,1.13,153.6,M,-34.4,M,,*53
$GPRMC,150518.750,A,4308.2961,N,07726.5123,W,40.95,182.08,180719,,,A*49
$GPGGA,150519.000,4308.2932,N,07726.5125,W,1,09,1.06,153.9,M,-34.4,M,,*5B
$GPGGA,150519.500,4308.2874,N,07726.5128,W,1,09,1.14,153.9,M,-34.4,M,,*53
$GPRMC,150519.500,A,4308.2874,N,07726.5128,W,41.25,181.53,18071,,,A*46
$GPRMC,150520.000,A,4308.2818,N,07726.5130,W,41.05,181.67,180719,,,A*4F
$GPGGA,150520.250,4308.2789,N,07726.5132,W,1,09,1.14,154.1,M,-34.4,M,,*52
$GPRMC,150520.750,A,4308.2732,N,07726.5134,W,41.17,181.53,180719,,,A*4A
$GPGGA,150521.000,4308.2704,N,07726.5136,W,1,09,1.06,153.9,M,-34.4,M,,*59
$GPRMC,150521.500,A,4308.2648,N,07726.5139,W,40.62,181.85,180719,,,A*45
$GPGGA,150521.750,4308.2620,N,07726.5140,W,1,09,1.13,153.7,M,-34.4,M,,*57
$GPGGA,150522.250,4308.2562,N,07726.5143,W,1,09,1.13,153.6,M,-34.4,M,,*56
$GPRMC,150522.250,A,4308.2562,N,07726.5143,W,40.88,181.93,18071,,,A*41
$GPGGA,150522.500,4308.2534,N,07726.5145,W,1,09,1.13,153.6,M,-
$GPGGA,150522.750,4308.2505,N,07726.5146,W,1,09,1.14,153.5,M,-
$GPRMC,150523.250,A,4308.2448,N,07726.5150,W,40.31,182.25,180719,,,A*47
$GPGGA,150523.500,4308.2420,N,07726.5152,W,1,09,1.14,153.3,M,-34.4,M,,*50
$GPRMC,150523.500,A,4308.2420,N,07726.5152,W,40.24,182.29,1807146
$GPGGA,150524.000,4308.2363,N,07726.5155,W,1,09,1.06,153.2,M,-34.4,M,,*57
$GPGGA,150524.500,4308.2306,N,07726.5156,W,1,09,1.14,153.1,M,-34.4,M,,*52
$GPRMC,150524.500,A,4308.2306,N,07726.5156,W,40.45,181.88,18071,,,A*4E
$GPRMC,150525.500,A,4308.2191,N,07726.5161,W,40.64,181.72,180719,,,A*41
$GPGGA,150525.750,4308.2162,N,07726.5162,W,1,09,1.13,152.8,M,-34.4,M,,*5C
$GPGGA,150526.250,4308.2104,N,07726.5163,W,1,09,1.14,153.1,M,-34.4,M,,*54
$GPRMC,150526.250,A,4308.2104,N,07726.5163,W,41.69,181.20,180719,,,A*45
$GPRMC,150526.750,A,4308.2047,N,07726.5166,W,41.46,181.69,180719,,,A*43
$GPGGA,150527.000,4308.2017,N,07726.5167,W,1,09,1.14,152.9,M,-34.4,M,,*5C
$GPGGA,150527.500,4308.1959,N,07726.5169,W,1,09,1.13,152.8,M,-34.4,M,,*51
$GPRMC,150527.500,A,4308.1959,N,07726.5169,W,41.67,181.63,18071,152.8,M,-34.4,M,,*5E
$GPRMC,150527.750,A,4308.1929,N,07726.5170,W,41.88,181.73,18071
$GPGGA,150528.250,4308.1870,N,07726.5172,W,1,09,1.14,152.6,M,-34.4,M,,*55
$GPRMC,150528.750,A,4308.1810,N,07726.5174,W,42.58,181.51,180719,,,A*40
$GPGGA,150529.000,4308.1781,N,07726.5174,W,1,09,1.14,152.5,M,-34.4,M,,*57
$GPGGA,150529.500,4308.1720,N,07726.5175,W,1,09,1.13,152.7,M,-34.4,M,,*5D
$GPRMC,150529.500,A,4308.1720,N,07726.5175,W,43.03,181.14,18071,,,A*45
$GPRMC,150530.000,A,4308.1660,N,07726.5177,W,43.11,181.09,180719,,,A*40
$GPGGA,150530.250,4308.1630,N,07726.5177,W,1,09,1.13,152.8,M,-34.4,M,,*5A
$GPGGA,150530.750,4308.1571,N,07726.5179,W,1,09,1.14,153.2,M,-34.4,M,,*5B
$GPRMC,150530.750,A,4308.1571,N,07726.5179,W,43.08,181.14,18071,,,A*4B
$GPRMC,150531.250,A,4308.1511,N,07726.5181,W,43.10,181.16,180719,,,A*45
$GPGGA,150531.500,4308.1480,N,07726.5181,W,1,09,1.13,153.4,M,-34.4,M,,*54
$GPGGA,150532.000,4308.1419,N,07726.5182,W,1,09,1.14,153.3,M,-34.4,M,,*51
$GPRMC,150532.000,A,4308.1419,N,07726.5182,W,43.14,181.15,18071,M,-34.4,M,,*5F
$GPRMC,150532.250,A,4308.1388,N,07726.5183,W,43.31,181.13,1807
$GPGGA,150532.750,4308.1328,N,07726.5184,W,1,09,1.13,153.3,M,-34.4,M,,*57
$GPGGA,150533.250,4308.1267,N,07726.5185,W,1,09,1.13,153.3,M,-34.4,M,,*58
$GPRMC,150533.250,A,4308.1267,N,07726.5185,W,42.78,181.16,18071,,,A*4A
$GPRMC,150533.750,A,4308.1208,N,07726.5187,W,42.76,180.99,180719,,,A*4C
$GPGGA,150534.000,4308.1178,N,07726.5187,W,1,09,1.06,153.2,M,-34.4,M,,*52
$GPRMC,150534.500,A,4308.1120,N,07726.5189,W,42.35,180.98,180719,,,A*4D
$GPGGA,150534.750,4308.1092,N,07726.5190,W,1,09,1.14,153.0,M,-34.4,M,,*52
$GPRMC,150535.000,A,4308.1062,N,07726.5191,W,42.37,180.68,180719,,,A*4A
$GPGGA,150535.250,4308.1033,N,07726.5191,W,1,09,1.14,152.9,M,-34.4,M,,*54
$GPGGA,150535.750,4308.0975,N,07726.5191,W,1,09,1.14,152.8,M,-34.4,M,,*5A
$GPRMC,150535.750,A,4308.0975,N,07726.5191,W,42.54,179.97,18071,,,A*45
$GPRMC,150536.250,A,4308.0916,N,07726.5190,W,42.64,179.35,180719,,,A*4C
$GPGGA,150536.500,4308.0886,N,07726.5189,W,1,09,1.13,152.7,M,-34.4,M,,*52
$GPRMC,150537.000,A,4308.0827,N,07726.5187,W,42.30,178.39,180719,,,A*43
$GPGGA,150537.250,4308.0798,N,07726.5186,W,1,09,1.13,152.6,M,-34.4,M,,*5F
$GPGGA,150537.750,4308.0740,N,07726.5182,W,1,09,1.14,152.6,M,-34.4,M,,*5C
$GPRMC,150537.750,A,4308.0740,N,07726.5182,W,41.73,177.17,18071,,,A*4D
$GPRMC,150538.250,A,4308.0683,N,07726.5178,W,41.63,176.56,180719,,,A*49
$GPGGA,150538.500,4308.0654,N,07726.5175,W,1,09,1.13,152.6,M,-34.4,M,,*5F
$GPGGA,150539.000,4308.0597,N,07726.5169,W,1,09,1.14,152.4,M,-34.4,M,,*5F
$GPRMC,150539.000,A,4308.0597,N,07726.5169,W,41.04,175.71,18071.4,M,-34.4,M,,*50
$GPRMC,150539.250,A,4308.0568,N,07726.5166,W,40.78,175.12,18071
$GPGGA,150539.750,4308.0512,N,07726.5158,W,1,09,1.14,152.4,M,-34.4,M,,*52
$GPGGA,150540.250,4308.0456,N,07726.5149,W,1,09,1.13,152.3,M,-34.4,M,,*58
$GPRMC,150540.250,A,4308.0456,N,07726.5149,W,40.43,173.46,18071,,,A*49
$GPRMC,150540.750,A,4308.0401,N,07726.5140,W,40.29,173.03,180719,,,A*4A
$GPGGA,150541.000,4308.0373,N,07726.5135,W,1,09,1.13,152.3,M,-34.4,M,,*55
$GPRMC,150541.500,A,4308.0319,N,07726.5124,W,40.06,171.71,180719,,,A*4A
$GPGGA,150541.750,4308.0293,N,07726.5119,W,1,09,1.14,152.4,M,-34.3,M,,*51
$GPGGA,150542.250,4308.0241,N,07726.5108,W,1,09,1.14,152.6,M,-34.3,M,,*5A
$GPRMC,150542.250,A,4308.0241,N,07726.5108,W,37.85,171.17,18071,,,A*42
$GPRMC,150542.750,A,4308.0191,N,07726.5097,W,36.38,171.36,180719,,,A*4A
$GPGGA,150543.000,4308.0167,N,07726.5092,W,1,09,1.13,152.7,M,-34.3,M,,*5F
$GPGGA,150543.500,4308.0120,N,07726.5083,W,1,09,1.14,152.7,M,-34.3,M,,*5E
$GPRMC,150543.500,A,4308.0120,N,07726.5083,W,33.57,172.54,18071.7,M,-34.3,M,,*5E
$GPGGA,150544.250,4308.0056,N,07726.5072,W,1,09,1.14,152.7,M,-34.3,M,,*55
$GPRMC,150544.250,A,4308.0056,N,07726.5072,W,29.57,173.27,18071,,,A*4D
$GPRMC,150544.750,A,4308.0020,N,07726.5066,W,26.32,173.88,180719,,,A*45
$GPGGA,150545.000,4308.0003,N,07726.5063,W,1,09,1.13,152.7,M,-34.3,M,,*54
$GPGGA,150545.500,4307.9973,N,07726.5058,W,1,09,1.13,152.7,M,-34.3,M,,*51
$GPRMC,150545.500,A,4307.9973,N,07726.5058,W,22.28,173.01,180712.8,M,-34.3,M,,*54
$GPRMC,150545.750,A,4307.9961,N,07726.5056,W,20.63,173.50,180714D
$GPGGA,150546.250,4307.9937,N,07726.5052,W,1,09,1.13,153.0,M,-34.3,M,,*5C
$GPGGA,150546.750,4307.9917,N,07726.5046,W,1,09,1.13,153.4,M,-34.3,M,,*5A
$GPRMC,150546.750,A,4307.9917,N,07726.5046,W,16.25,168.66,18071,,,A*41
$GPRMC,150547.250,A,4307.9901,N,07726.5041,W,14.32,166.36,180719,,,A*4A
$GPGGA,150547.500,4307.9894,N,07726.5039,W,1,09,1.13,153.9,M,-34.3,M,,*53
$GPRMC,150548.000,A,4307.9884,N,07726.5036,W,11.03,164.90,180719,,,A*47
$GPGGA,150548.250,4307.9880,N,07726.5034,W,1,09,1.13,154.3,M,-34.3,M,,*5B
$GPGGA,150548.750,4307.9874,N,07726.5032,W,1,09,1.13,154.7,M,-34.3,M,,*57
$GPRMC,150548.750,A,4307.9874,N,07726.5032,W,8.04,163.24,180719,,A*79
$GPRMC,150549.250,A,4307.9871,N,07726.5030,W,6.22,163.07,180719,,,A*71
$GPGGA,150549.500,4307.9871,N,07726.5030,W,1,09,1.13,155.1,M,-34.3,M,,*51
$GPGGA,150550.000,4307.9869,N,07726.5028,W,1,09,1.06,155.3,M,-34.3,M,,*5A
$GPRMC,150550.000,A,4307.9869,N,07726.5028,W,4.53,163.14,180719,,,A*78
$GPRMC,150550.500,A,4307.9869,N,07726.5028,W,3.61,166.94,180719,,,A*76
$GPGGA,150550.750,4307.9869,N,07726.5028,W,1,09,1.06,155.9,M,-34.3,M,,*52
$GPGGA,150551.250,4307.9873,N,07726.5029,W,1,09,1.06,156.5,M,-34.3,M,,*53
$GPRMC,150551.250,A,4307.9873,N,07726.5029,W,0.16,170.24,180719,,A*70
$GPRMC,150551.750,A,4307.9880,N,07726.5031,W,0.05,170.24,180719,,,A*72
$GPGGA,150552.000,4307.9882,N,07726.5031,W,1,09,1.06,157.0,M,-34.3,M,,*54
$GPGGA,150552.500,4307.9884,N,07726.5032,W,1,09,1.06,157.1,M,-34.3,M,,*55
$GPRMC,150552.500,A,4307.9884,N,07726.5032,W,0.03,170.24,1807194.3,M,,*50
$GPRMC,150553.250,A,4307.9885,N,07726.5032,W,0.03,170.24,180719,,,A*75
$GPGGA,150553.500,4307.9885,N,07726.5032,W,1,09,1.06,157.4,M,-34.3,M,,*50
$GPGGA,150554.000,4307.9885,N,07726.5032,W,1,09,1.06,157.7,M,-34.3,M,,*51
$GPRMC,150554.000,A,4307.9885,N,07726.5032,W,0.04,170.24,180719,,A*72
$GPRMC,150554.500,A,4307.9885,N,07726.5031,W,0.07,170.24,180719,,,A*77
$GPGGA,150554.750,4307.9884,N,07726.5031,W,1,09,1.06,158.1,M,-34.3,M,,*58
$GPRMC,150555.250,A,4307.9883,N,07726.5032,W,0.08,170.24,180719,,,A*7E
$GPGGA,150555.500,4307.9883,N,07726.5032,W,1,09,1.06,158.1,M,-34.3,M,,*5A
$GPGGA,150556.000,4307.9882,N,07726.5033,W,1,09,1.06,158.1,M,-34.3,M,,*5C
$GPRMC,150556.000,A,4307.9882,N,07726.5033,W,0.08,170.24,180719,,A*7A
$GPRMC,150556.500,A,4307.9881,N,07726.5034,W,0.08,170.24,180719,,,A*7B
$GPGGA,150556.750,4307.9880,N,07726.5034,W,1,09,1.06,158.1,M,-34.3,M,,*5B
$GPGGA,150557.250,4307.9880,N,07726.5035,W,1,09,1.06,158.1,M,-34.3,M,,*5E
$GPRMC,150557.250,A,4307.9880,N,07726.5035,W,0.06,170.24,180719.1,M,-34.3,M,,*5A
$GPRMC,150557.500,A,4307.9879,N,07726.5035,W,0.05,170.24,180719
$GPGGA,150558.000,4307.9879,N,07726.5035,W,1,09,1.06,158.1,M,-34.3,M,,*50
$GPGGA,150558.500,4307.9878,N,07726.5036,W,1,09,1.06,158.1,M,-34.3,M,,*57
$GPRMC,150558.500,A,4307.9878,N,07726.5036,W,0.03,170.24,180719,,A*7A
$GPRMC,150559.000,A,4307.9878,N,07726.5036,W,0.02,170.24,180719,,,A*7F
$GPGGA,150559.250,4307.9878,N,07726.5036,W,1,09,1.06,158.1,M,-34.3,M,,*54
$GPRMC,150559.750,A,4307.9878,N,07726.5036,W,0.00,170.24,180719,,,A*7F
$GPGGA,150600.000,4307.9878,N,07726.5036,W,1,09,1.06,158.1,M,-34.3,M,,*5C
$GPGGA,150600.500,4307.9878,N,07726.5036,W,1,09,1.06,158.1,M,-34.3,M,,*59
$GPRMC,150600.500,A,4307.9878,N,07726.5036,W,0.00,170.24,180719,,A*77
$GPRMC,150601.000,A,4307.9878,N,07726.5036,W,0.01,170.24,180719,,,A*72
$GPGGA,150601.250,4307.9878,N,07726.5036,W,1,09,1.06,158.1,M,-34.3,M,,*5A
$GPGGA,150601.750,4307.9879,N,07726.5036,W,1,09,1.06,158.1,M,-34.3,M,,*5E
$GPRMC,150601.750,A,4307.9879,N,07726.5036,W,0.01,170.24,180719,158.1,M,-34.3,M,,*5F
$GPRMC,150602.000,A,4307.9879,N,07726.5036,W,0.02,170.24,18071
$GPGGA,150602.500,4307.9879,N,07726.5036,W,1,09,1.06,158.1,M,-34.3,M,,*5A
$GPRMC,150602.500,A,4307.9879,N,07726.5036,W,0.02,170.24,18071972
$GPGGA,150603.000,4307.9879,N,07726.5035,W,1,09,1.06,158.1,M,-34.3,M,,*5D
$GPGGA,150603.500,4307.9879,N,07726.5035,W,1,09,1.06,158.1,M,-34.3,M,,*58
$GPRMC,150603.500,A,4307.9879,N,07726.5035,W,0.02,170.24,180719,,A*74
$GPRMC,150604.000,A,4307.9880,N,07726.5034,W,0.03,170.24,180719,,,A*70
$GPGGA,150604.250,4307.9880,N,07726.5034,W,1,09,1.06,158.1,M,-34.3,M,,*5A
$GPGGA,150604.750,4307.9880,N,07726.5034,W,1,09,1.06,158.2,M,-34.3,M,,*5C
$GPRMC,150604.750,A,4307.9880,N,07726.5034,W,0.02,170.24,180719,,A*73
$GPRMC,150605.250,A,4307.9880,N,07726.5034,W,0.02,170.24,180719,,,A*77
$GPGGA,150605.500,4307.9880,N,07726.5033,W,1,09,1.06,158.2,M,-34.3,M,,*5D
$GPGGA,150606.000,4307.9880,N,07726.5033,W,1,09,1.06,158.2,M,-34.3,M,,*5B
$GPRMC,150606.000,A,4307.9880,N,07726.5033,W,0.02,170.24,1807198.2,M,-34.3,M,,*5C
$GPRMC,150606.750,A,4307.9880,N,07726.5033,W,0.03,170.24,180719,,,A*77
$GPGGA,150607.000,4307.9881,N,07726.5032,W,1,09,1.06,158.2,M,-34.3,M,,*5A
$GPGGA,150607.500,4307.9881,N,07726.5032,W,1,09,1.06,158.2,M,-34.3,M,,*5F
$GPRMC,150607.500,A,4307.9881,N,07726.5032,W,0.03,170.24,180719,,A*71
$GPRMC,150608.000,A,4307.9881,N,07726.5032,W,0.00,170.24,180719,,,A*78
$GPGGA,150608.250,4307.9881,N,07726.5032,W,1,09,1.13,158.2,M,-34.3,M,,*56
$GPRMC,150608.750,A,4307.9881,N,07726.5032,W,0.00,170.24,180719,,,A*7A
$GPGGA,150609.000,4307.9881,N,07726.5032,W,1,09,1.13,158.2,M,-34.3,M,,*50
$GPRMC,150609.000,A,4307.9881,N,07726.5032,W,0.00,170.24,1807197E
$GPGGA,150609.500,4307.9881,N,07726.5032,W,1,09,1.13,158.2,M,-34.3,M,,*55
$GPGGA,150610.000,4307.9881,N,07726.5032,W,1,09,1.13,158.2,M,-34.3,M,,*58
$GPRMC,150610.000,A,4307.9881,N,07726.5032,W,0.00,170.24,180719,,A*71
$GPRMC,150610.500,A,4307.9881,N,07726.5032,W,0.00,170.24,180719,,,A*74
$GPGGA,150610.750,4307.9881,N,07726.5032,W,1,08,1.09,158.2,M,-350
$GPRMC,150610.750,A,4307.9881,N,07726.5032,W,0.00,170.24,18071970
$GPGGA,150611.250,4307.9881,N,07726.5032,W,1,09,1.06,158.2,M,-34.3,M,,*5A
$GPGGA,150611.750,4307.9881,N,07726.5031,W,1,09,1.06,158.2,M,-34.3,M,,*5C
$GPRMC,150611.750,A,4307.9881,N,07726.5031,W,0.01,170.24,180719,,A*70
$GPRMC,150612.250,A,4307.9881,N,07726.5031,W,0.01,170.24,180719,,,A*76
$GPGGA,150612.500,4307.9881,N,07726.5031,W,1,09,1.06,158.2,M,-34.3,M,,*58
$GPRMC,150613.000,A,4307.9881,N,07726.5031,W,0.01,170.24,180719,,,A*70
$GPGGA,150613.250,4307.9881,N,07726.5031,W,1,09,1.06,158.2,M,-34.3,M,,*5B
$GPGGA,150613.750,4307.9881,N,07726.5031,W,1,09,1.06,158.2,M,-34.3,M,,*5E
$GPRMC,150613.750,A,4307.9881,N,07726.5031,W,0.01,170.24,180719,,A*72
$GPRMC,150614.250,A,4307.9881,N,07726.5031,W,0.00,170.24,180719,,,A*71
$GPGGA,150614.500,4307.9881,N,07726.5031,W,1,09,1.06,158.2,M,-34.3,M,,*5E
$GPGGA,150615.000,4307.9881,N,07726.5031,W,1,09,1.06,158.2,M,-34.3,M,,*5A
$GPRMC,150615.000,A,4307.9881,N,07726.5031,W,0.00,170.24,180719*5D
$GPRMC,150615.750,A,4307.9881,N,07726.5031,W,0.03,170.24,180719,,,A*76
$GPGGA,150616.000,4307.9881,N,07726.5031,W,1,09,1.06,158.2,M,-34.3,M,,*59
$GPGGA,150616.500,4307.9881,N,07726.5031,W,1,09,1.06,158.2,M,-34.3,M,,*5C
$GPRMC,150616.500,A,4307.9881,N,07726.5031,W,0.03,170.24,180719,,A*72
$GPRMC,150617.000,A,4307.9881,N,07726.5031,W,0.08,170.24,180719,,,A*7D
$GPGGA,150617.250,4307.9881,N,07726.5031,W,1,09,1.06,158.2,M,-34.3,M,,*5F
$GPGGA,150617.750,4307.9881,N,07726.5031,W,1,09,1.06,158.2,M,-34.3,M,,*5A
$GPRMC,150617.750,A,4307.9881,N,07726.5031,W,0.04,170.24,180719,,,A*73
$GPGGA,150618.000,4307.9881,N,07726.5031,W,1,09,1.06,158.2,M,-34.3,M,,*57
$GPRMC,150618.000,A,4307.9881,N,07726.5031,W,0.17,170.24,180719,,A*7C
$GPRMC,150618.500,A,4307.9881,N,07726.5031,W,1.03,170.24,180719,,,A*7D
$GPGGA,150618.750,4307.9880,N,07726.5031,W,1,09,1.06,158.2,M,-34.3,M,,*54
$GPGGA,150619.250,4307.9877,N,07726.5028,W,1,09,1.06,158.2,M,-34.3,M,,*50
$GPRMC,150619.250,A,4307.9877,N,07726.5028,W,2.93,131.67,180719,,A*77
$GPRMC,150619.750,A,4307.9870,N,07726.5015,W,7.26,113.80,180719,,,A*79
$GPGGA,150620.000,4307.9868,N,07726.5008,W,1,09,1.13,158.3,M,-34.3,M,,*54
$GPRMC,150620.000,A,4307.9868,N,07726.5008,W,8.21,111.17,18071972
$GPGGA,150620.500,4307.9864,N,07726.4989,W,1,09,1.13,158.4,M,-34.3,M,,*5B
$GPGGA,150621.000,4307.9860,N,07726.4965,W,1,09,1.13,158.5,M,-34.3,M,,*58
$GPRMC,150621.000,A,4307.9860,N,07726.4965,W,11.56,102.78,18071,,,A*49
$GPRMC,150621.500,A,4307.9858,N,07726.4940,W,13.00,95.90,180719,,,A*78
$GPGGA,150621.750,4307.9858,N,07726.4927,W,1,09,1.13,158.7,M,-34.3,M,,*55
$GPRMC,150622.250,A,4307.9857,N,07726.4901,W,13.53,93.26,180719,,,A*7E
$GPGGA,150622.500,4307.9858,N,07726.4888,W,1,09,1.14,158.9,M,-34.3,M,,*5C
$GPRMC,150623.000,A,4307.9858,N,07726.4862,W,13.18,91.29,180719,,,A*71
$GPGGA,150623.250,4307.9858,N,07726.4849,W,1,09,1.13,158.9,M,-34.3,M,,*55
$GPRMC,150623.750,A,4307.9857,N,07726.4823,W,12.95,91.74,180719,,,A*75
$GPGGA,150624.000,4307.9856,N,07726.4810,W,1,09,1.13,158.9,M,-34.3,M,,*57
$GPRMC,150624.500,A,4307.9856,N,07726.4785,W,13.03,91.56,180719,,,A*79
$GPGGA,150624.750,4307.9857,N,07726.4772,W,1,09,1.13,158.9,M,-34.3,M,,*5F
$GPRMC,150624.750,A,4307.9857,N,07726.4772,W,13.03,89.31,18071919,,,A*77
$GPGGA,150625.250,4307.9862,N,07726.4748,W,1,09,1.13,158.8,M,-34.3,M,,*55
$GPGGA,150625.750,4307.9874,N,07726.4728,W,1,09,1.13,158.7,M,-34.3,M,,*5E
$GPRMC,150625.750,A,4307.9874,N,07726.4728,W,11.98,70.33,180719,,A*74
$GPRMC,150626.250,A,4307.9882,N,07726.4708,W,11.27,64.11,180719,,,A*78
$GPGGA,150626.500,4307.9890,N,07726.4700,W,1,09,1.13,158.6,M,-34.3,M,,*5B
$GPRMC,150627.000,A,4307.9905,N,07726.4690,W,10.41,34.92,180719,,,A*7F
$GPGGA,150627.250,4307.9914,N,07726.4687,W,1,09,1.13,158.6,M,-34.3,M,,*5B
$GPGGA,150627.750,4307.9930,N,07726.4684,W,1,09,1.13,158.8,M,-34.3,M,,*55
$GPRMC,150627.750,A,4307.9930,N,07726.4684,W,10.83,4.77,180719,,A*48
$GPRMC,150628.250,A,4307.9944,N,07726.4682,W,10.43,357.05,180719,,,A*4B
$GPGGA,150628.500,4307.9950,N,07726.4683,W,1,09,1.13,158.9,M,-34.3,M,,*5D
$GPRMC,150629.000,A,4307.9962,N,07726.4687,W,9.42,345.27,180719,,,A*76
$GPGGA,150629.250,4307.9968,N,07726.4690,W,1,09,1.13,159.0,M,-34.3,M,,*5F
$GPGGA,150629.750,4307.9978,N,07726.4700,W,1,09,1.13,159.2,M,-34.3,M,,*51
$GPRMC,150629.750,A,4307.9978,N,07726.4700,W,9.19,326.15,180719,,A*7B
$GPRMC,150630.250,A,4307.9985,N,07726.4710,W,8.73,316.48,180719,,,A*73
$GPGGA,150630.500,4307.9988,N,07726.4716,W,1,09,1.13,159.3,M,-34.3,M,,*57
$GPGGA,150631.000,4307.9993,N,07726.4729,W,1,09,1.13,159.3,M,-34.3,M,,*55
$GPRMC,150631.000,A,4307.9993,N,07726.4729,W,7.79,305.66,180719.3,M,-34.3,M,,*58
$GPRMC,150631.750,A,4307.9997,N,07726.4744,W,5.53,301.90,180719,,,A*79
$GPGGA,150632.000,4307.9998,N,07726.4748,W,1,09,1.13,159.5,M,-34.3,M,,*5C
$GPRMC,150632.000,A,4307.9998,N,07726.4748,W,4.81,301.69,18071919,,,A*7B
$GPGGA,150632.500,4308.0000,N,07726.4752,W,1,09,1.06,159.6,M,-34.3,M,,*5B
$GPGGA,150633.000,4308.0001,N,07726.4754,W,1,09,1.06,159.7,M,-34.3,M,,*59
$GPRMC,150633.000,A,4308.0001,N,07726.4754,W,1.09,301.30,180719,,A*79
$GPRMC,150633.500,A,4308.0002,N,07726.4753,W,0.34,301.30,180719,,,A*77
$GPGGA,150633.750,4308.0003,N,07726.4752,W,1,09,1.06,159.4,M,-34.3,M,,*5C
$GPGGA,150634.250,4308.0004,N,07726.4752,W,1,09,1.05,159.2,M,-34.3,M,,*5C
$GPRMC,150634.250,A,4308.0004,N,07726.4752,W,0.23,301.30,180719,,A*73
$GPGGA,150634.500,4308.0004,N,07726.4751,W,1,09,1.05,159.2,M,-3B
$GPGGA,150634.750,4308.0004,N,07726.4751,W,1,09,1.06,159.2,M,-34.3,M,,*59
$GPGGA,150635.250,4308.0005,N,07726.4750,W,1,09,1.05,159.3,M,-34.3,M,,*5F
$GPRMC,150635.250,A,4308.0005,N,07726.4750,W,0.13,301.30,180719159.4,M,-34.3,M,,*59
$GPRMC,150636.000,A,4308.0005,N,07726.4750,W,0.10,301.30,180719,,,A*75
$GPGGA,150636.250,4308.0005,N,07726.4750,W,1,09,1.06,159.5,M,-34.3,M,,*59
$GPGGA,150636.750,4308.0005,N,07726.4749,W,1,09,1.06,159.5,M,-34.3,M,,*54
$GPRMC,150636.750,A,4308.0005,N,07726.4749,W,0.07,301.30,180719,,A*79
$GPRMC,150637.250,A,4308.0005,N,07726.4749,W,0.02,301.30,180719,,,A*78
$GPGGA,150637.500,4308.0005,N,07726.4749,W,1,09,1.06,159.5,M,-34.3,M,,*52
$GPRMC,150638.000,A,4308.0005,N,07726.4749,W,0.01,301.30,180719,,,A*73
$GPGGA,150638.250,4308.0005,N,07726.4749,W,1,09,1.06,159.5,M,-34.3,M,,*5F
$GPGGA,150638.750,4308.0005,N,07726.4749,W,1,09,1.06,159.5,M,-34.3,M,,*5A
$GPRMC,150638.750,A,4308.0005,N,07726.4749,W,0.02,301.30,180719,,A*72
$GPRMC,150639.250,A,4308.0005,N,07726.4749,W,0.03,301.30,180719,,,A*77
$GPGGA,150639.500,4308.0005,N,07726.4749,W,1,09,1.06,159.5,M,-34.3,M,,*5C
$GPRMC,150640.000,A,4308.0005,N,07726.4749,W,0.03,301.30,180719,,,A*7E
$GPGGA,150640.250,4308.0005,N,07726.4749,W,1,09,1.05,159.6,M,-34.3,M,,*50
$GPGGA,150640.750,4308.0005,N,07726.4749,W,1,09,1.06,159.6,M,-34.3,M,,*56
$GPRMC,150640.750,A,4308.0005,N,07726.4749,W,0.01,301.30,180719,,A*7E
$GPRMC,150641.250,A,4308.0005,N,07726.4749,W,0.04,301.30,180719,,,A*7F
$GPGGA,150641.500,4308.0005,N,07726.4749,W,1,09,1.06,159.6,M,-34.3,M,,*50
$GPRMC,150641.500,A,4308.0005,N,07726.4749,W,0.05,301.30,180719,A*7C
$GPGGA,150642.000,4308.0005,N,07726.4749,W,1,09,1.05,159.6,M,-34.3,M,,*55
$GPRMC,150642.500,A,4308.0005,N,07726.4749,W,0.04,301.30,180719,,,A*7E
$GPGGA,150642.750,4308.0005,N,07726.4749,W,1,09,1.06,159.6,M,-34.3,M,,*54
$GPGGA,150643.250,4308.0005,N,07726.4749,W,1,09,1.06,159.6,M,-34.3,M,,*50
$GPRMC,150643.250,A,4308.0005,N,07726.4749,W,0.05,301.30,180719,,A*7C
$GPRMC,150643.750,A,4308.0005,N,07726.4749,W,0.03,301.30,180719,,,A*7F
$GPGGA,150644.000,4308.0005,N,07726.4749,W,1,09,1.06,159.6,M,-34.3,M,,*50
$GPGGA,150644.500,4308.0005,N,07726.4749,W,1,09,1.06,159.6,M,-34.3,M,,*55
$GPRMC,150644.500,A,4308.0005,N,07726.4749,W,0.03,301.30,180719,M,-34.3,M,,*51
$GPRMC,150645.250,A,4308.0005,N,07726.4749,W,0.03,301.30,180719,,,A*7C
$GPGGA,150645.500,4308.0005,N,07726.4749,W,1,09,1.05,159.6,M,-34.3,M,,*57
$GPGGA,150646.000,4308.0005,N,07726.4749,W,1,09,1.06,159.6,M,-34.3,M,,*52
$GPRMC,150646.000,A,4308.0005,N,07726.4749,W,0.02,301.30,180719,,,A*79
$GPRMC,150646.500,A,4308.0005,N,07726.4749,W,0.04,301.30,180719,,,A*7A
$GPGGA,150646.750,4308.0005,N,07726.4749,W,1,09,1.06,159.6,M,-34.3,M,,*50
$GPRMC,150647.250,A,4308.0005,N,07726.4749,W,0.03,301.30,180719,,,A*7E
$GPGGA,150647.500,4308.0005,N,07726.4749,W,1,09,1.06,159.6,M,-34.3,M,,*56
$GPGGA,150648.000,4308.0005,N,07726.4749,W,1,09,1.06,159.6,M,-34.3,M,,*5C
$GPRMC,150648.000,A,4308.0005,N,07726.4749,W,0.04,301.30,180719,,,A*71
$GPRMC,150648.500,A,4308.0005,N,07726.4749,W,0.06,301.30,180719,,,A*76
$GPGGA,150648.750,4308.0005,N,07726.4749,W,1,09,1.13,159.6,M,-34.3,M,,*5A
$GPGGA,150649.250,4308.0005,N,07726.4749,W,1,09,1.13,159.6,M,-34.3,M,,*5E
$GPRMC,150649.250,A,4308.0005,N,07726.4749,W,0.01,301.30,1807191.13,159.6,M,-34.3,M,,*5C
$GPRMC,150650.000,A,4308.0005,N,07726.4749,W,0.01,301.30,180719,,,A*7D
$GPGGA,150650.250,4308.0005,N,07726.4749,W,1,09,1.13,159.6,M,-34.3,M,,*56
$GPGGA,150650.750,4308.0005,N,07726.4749,W,1,09,1.13,159.6,M,-34.3,M,,*53
$GPRMC,150650.750,A,4308.0005,N,07726.4749,W,0.01,301.30,180719,,A*7F
$GPRMC,150651.250,A,4308.0005,N,07726.4749,W,0.01,301.30,180719,,,A*7B
$GPGGA,150651.500,4308.0005,N,07726.4749,W,1,09,1.13,159.6,M,-34.3,M,,*55
$GPRMC,150652.000,A,4308.0005,N,07726.4749,W,0.00,301.30,180719,,,A*7E
$GPGGA,150652.250,4308.0005,N,07726.4749,W,1,09,1.13,159.6,M,-34.3,M,,*54
$GPGGA,150652.750,4308.0005,N,07726.4749,W,1,09,1.13,159.6,M,-34.3,M,,*51
$GPRMC,150652.750,A,4308.0005,N,07726.4749,W,0.00,301.30,180719,,,A*7C
$GPRMC,150653.250,A,4308.0005,N,07726.4749,W,0.01,301.30,180719,,,A*79
$GPGGA,150653.500,4308.0005,N,07726.4749,W,1,09,1.13,159.6,M,-34.3,M,,*57
$GPGGA,150654.000,4308.0005,N,07726.4749,W,1,09,1.13,159.6,M,-34.3,M,,*55
$GPRMC,150654.000,A,4308.0005,N,07726.4749,W,0.01,301.30,1807199.6,M,-34.3,M,,*52
$GPRMC,150654.750,A,4308.0005,N,07726.4749,W,0.01,301.30,180719,,,A*7B
$GPGGA,150655.000,4308.0005,N,07726.4749,W,1,08,1.21,159.6,M,-34.3,M,,*54
$GPRMC,150655.000,A,4308.0005,N,07726.4749,W,0.01,301.30,18071
$GPGGA,150655.500,4308.0005,N,07726.4749,W,1,08,1.21,159.6,M,-34.3,M,,*51
$GPGGA,150656.000,4308.0005,N,07726.4749,W,1,08,1.21,159.6,M,-34.3,M,,*57
$GPRMC,150656.000,A,4308.0005,N,07726.4749,W,0.00,301.30,180719,,,A*7A
$GPGGA,150656.750,4308.0005,N,07726.4749,W,1,08,1.21,159.6,M,-34.3,M,,*55
$GPRMC,150656.750,A,4308.0005,N,07726.4749,W,0.00,301.30,180719,,A*78
$GPRMC,150657.250,A,4308.0005,N,07726.4749,W,0.01,301.30,180719,,,A*7D
$GPGGA,150657.500,4308.0005,N,07726.4749,W,1,08,1.21,159.6,M,-34.3,M,,*53
$GPGGA,150658.000,4308.0005,N,07726.4749,W,1,08,1.21,159.6,M,-34.3,M,,*59
$GPRMC,150658.000,A,4308.0005,N,07726.4749,W,0.00,301.30,180719,,A*74
$GPRMC,150658.500,A,4308.0005,N,07726.4749,W,0.00,301.30,180719,,,A*71
$GPGGA,150658.750,4308.0005,N,07726.4749,W,1,08,1.21,159.6,M,-34.3,M,,*5B
$GPGGA,150659.250,4308.0005,N,07726.4749,W,1,08,1.21,159.6,M,-34.3,M,,*5F
$GPRMC,150659.250,A,4308.0005,N,07726.4749,W,0.00,301.30,180719,,A*72
$GPRMC,150659.750,A,4308.0005,N,07726.4749,W,0.01,301.30,180719,,,A*76
$GPGGA,150700.000,4308.0005,N,07726.4749,W,1,08,1.21,159.6,M,-34.3,M,,*55
$GPGGA,150700.500,4308.0005,N,07726.4749,W,1,08,1.21,159.6,M,-34.3,M,,*50
$GPRMC,150700.500,A,4308.0005,N,07726.4749,W,0.01,301.30,180719,,A*7C
$GPRMC,150701.000,A,4308.0005,N,07726.4749,W,0.01,301.30,180719,,,A*78
$GPGGA,150701.250,4308.0005,N,07726.4749,W,1,08,1.21,159.6,M,-34.3,M,,*53
$GPGGA,150701.750,4308.0005,N,07726.4749,W,1,08,1.21,159.6,M,-34.3,M,,*56
$GPRMC,150701.750,A,4308.0005,N,07726.4749,W,0.00,301.30,180719,,A*7B
$GPRMC,150702.250,A,4308.0005,N,07726.4749,W,0.01,301.30,180719,,,A*7C
$GPGGA,150702.500,4308.0005,N,07726.4749,W,1,09,1.17,159.7,M,-34.3,M,,*57
$GPGGA,150703.000,4308.0005,N,07726.4749,W,1,09,1.17,159.7,M,-34.3,M,,*53
$GPRMC,150703.000,A,4308.0005,N,07726.4749,W,0.01,301.30,180719,159.7,M,-34.3,M,,*54
$GPRMC,150703.250,A,4308.0005,N,07726.4749,W,0.00,301.30,180719E
$GPGGA,150703.750,4308.0005,N,07726.4749,W,1,09,1.17,159.7,M,-34.3,M,,*51
$GPRMC,150704.250,A,4308.0005,N,07726.4749,W,0.00,301.30,180719,,,A*7B
$GPGGA,150704.500,4308.0005,N,07726.4749,W,1,09,1.17,159.7,M,-34.3,M,,*51
$GPRMC,150705.000,A,4308.0005,N,07726.4749,W,0.01,301.30,180719,,,A*7C
$GPGGA,150705.250,4308.0005,N,07726.4749,W,1,09,1.17,159.7,M,-34.3,M,,*52
$GPRMC,150705.750,A,4308.0005,N,07726.4749,W,0.01,301.30,180719,,,A*7E
$GPGGA,150706.000,4308.0005,N,07726.4749,W,1,09,1.17,159.7,M,-34.3,M,,*56
$GPGGA,150706.500,4308.0005,N,07726.4749,W,1,09,1.17,159.7,M,-34.3,M,,*53
$GPRMC,150706.500,A,4308.0005,N,07726.4749,W,0.00,301.30,180719,,A*7B
$GPRMC,150707.000,A,4308.0005,N,07726.4749,W,0.00,301.30,180719,,,A*7F
$GPGGA,150707.250,4308.0005,N,07726.4749,W,1,09,1.17,159.7,M,-34.3,M,,*50
$GPGGA,150707.750,4308.0004,N,07726.4749,W,1,09,1.17,159.7,M,-34.3,M,,*54
$GPRMC,150707.750,A,4308.0004,N,07726.4749,W,0.01,301.30,180719W,1,09,1.17,159.7,M,-34.3,M,,*59
$GPRMC,150708.500,A,4308.0004,N,07726.4749,W,0.00,301.30,180719,,,A*74
$GPGGA,150708.750,4308.0004,N,07726.4749,W,1,09,1.17,159.7,M,-34.3,M,,*5B
$GPGGA,150709.250,4308.0004,N,07726.4749,W,1,09,1.17,159.7,M,-34.3,M,,*5F
$GPRMC,150709.250,A,4308.0004,N,07726.4749,W,0.00,301.30,180719,,,A*77
$GPRMC,150709.750,A,4308.0004,N,07726.4749,W,0.00,301.30,180719,,,A*72
$GPGGA,150710.000,4308.0004,N,07726.4749,W,1,09,1.17,159.7,M,-34.3,M,,*50
$GPRMC,150710.500,A,4308.0004,N,07726.4749,W,0.01,301.30,180719,,,A*7C
$GPGGA,150710.750,4308.0004,N,07726.4749,W,1,09,1.17,159.7,M,-34.3,M,,*52
$GPGGA,150711.250,4308.0004,N,07726.4749,W,1,09,1.17,159.7,M,-34.3,M,,*56
$GPRMC,150711.250,A,4308.0004,N,07726.4749,W,0.01,301.30,180719,,A*7F
$GPGGA,150711.500,4308.0004,N,07726.4749,W,1,09,1.17,159.7,M,-
$GPGGA,150711.750,4308.0004,N,07726.4749,W,1,09,1.17,159.7,M,-34.3,M,,*53
$GPGGA,150712.250,4308.0004,N,07726.4749,W,1,09,1.17,159.7,M,-34.3,M,,*55
$GPRMC,150712.250,A,4308.0004,N,07726.4749,W,0.00,301.30,18071917,159.7,M,-34.3,M,,*57
$GPRMC,150713.000,A,4308.0004,N,07726.4749,W,0.01,301.30,180719,,,A*7A
$GPGGA,150713.250,4308.0004,N,07726.4749,W,1,09,1.17,159.7,M,-34.3,M,,*54
$GPGGA,150713.750,4308.0004,N,07726.4749,W,1,09,1.17,159.7,M,-34.3,M,,*51
$GPRMC,150713.750,A,4308.0004,N,07726.4749,W,0.00,301.30,180719,,,A*79
$GPRMC,150714.250,A,4308.0004,N,07726.4749,W,0.00,301.30,180719,,,A*7B
$GPGGA,150714.500,4308.0004,N,07726.4749,W,1,09,1.17,159.7,M,-34.3,M,,*51
$GPRMC,150715.000,A,4308.0004,N,07726.4749,W,0.00,301.30,180719,,,A*7D
$GPGGA,150715.250,4308.0004,N,07726.4749,W,1,09,1.17,159.7,M,-34.3,M,,*52
$GPGGA,150715.750,4308.0004,N,07726.4749,W,1,09,1.17,159.7,M,-34.3,M,,*57
$GPRMC,150715.750,A,4308.0004,N,07726.4749,W,0.00,301.30,180719,,A*7F
$GPGGA,150716.000,4308.0004,N,07726.4749,W,1,09,1.17,159.7,M,-3
$GPGGA,150716.250,4308.0004,N,07726.4749,W,1,09,1.17,159.7,M,-34.3,M,,*51
$GPGGA,150716.750,4308.0004,N,07726.4749,W,1,09,1.17,159.7,M,-34.3,M,,*54
$GPRMC,150716.750,A,4308.0004,N,07726.4749,W,0.01,301.30,1807197,159.7,M,-34.3,M,,*57
$GPRMC,150717.000,A,4308.0004,N,07726.4749,W,0.00,301.30,18071
$GPGGA,150717.500,4308.0004,N,07726.4749,W,1,09,1.17,159.7,M,-34.3,M,,*52
$GPGGA,150718.000,4308.0004,N,07726.4749,W,1,09,1.17,159.7,M,-34.3,M,,*58
$GPRMC,150718.000,A,4308.0004,N,07726.4749,W,0.00,301.30,180719,,,A*70
$GPRMC,150718.500,A,4308.0004,N,07726.4749,W,0.01,301.30,180719,,,A*74
$GPGGA,150718.750,4308.0004,N,07726.4749,W,1,09,1.17,159.7,M,-34.3,M,,*5A
$GPRMC,150719.250,A,4308.0004,N,07726.4749,W,0.01,301.30,180719,,,A*77
$GPGGA,150719.500,4308.0004,N,07726.4749,W,1,09,1.17,159.7,M,-34.3,M,,*5C
$GPGGA,150720.000,4308.0004,N,07726.4749,W,1,10,1.11,159.7,M,-34.3,M,,*5D
$GPRMC,150720.000,A,4308.0004,N,07726.4749,W,0.01,301.30,180719,,,A*7A
$GPRMC,150720.500,A,4308.0004,N,07726.4749,W,0.01,301.30,180719,,,A*7F
$GPGGA,150720.750,4308.0004,N,07726.4749,W,1,10,1.11,159.7,M,-34.3,M,,*5F
$GPRMC,150721.250,A,4308.0004,N,07726.4749,W,0.01,301.30,180719,,,A*7C
$GPGGA,150721.500,4308.0004,N,07726.4749,W,1,10,1.11,159.7,M,-34.3,M,,*59
$GPRMC,150722.000,A,4308.0004,N,07726.4749,W,0.00,301.30,180719,,,A*79
$GPGGA,150722.250,4308.0004,N,07726.4749,W,1,09,1.17,159.7,M,-34.3,M,,*56
$GPGGA,150722.750,4308.0004,N,07726.4749,W,1,09,1.17,159.7,M,-34.3,M,,*53
$GPRMC,150722.750,A,4308.0004,N,07726.4749,W,0.00,301.30,180719,,A*7B
$GPRMC,150723.250,A,4308.0004,N,07726.4749,W,0.00,301.30,180719,,,A*7F
$GPGGA,150723.500,4308.0004,N,07726.4749,W,1,09,1.17,159.7,M,-34.3,M,,*55
$GPRMC,150724.000,A,4308.0004,N,07726.4749,W,0.01,301.30,180719,,,A*7E
$GPGGA,150724.250,4308.0004,N,07726.4749,W,1,09,1.17,159.7,M,-34.3,M,,*50
$GPGGA,150724.750,4308.0004,N,07726.4749,W,1,09,1.17,159.7,M,-34.3,M,,*55
$GPRMC,150724.750,A,4308.0004,N,07726.4749,W,0.01,301.30,180719,,,A*7C
$GPRMC,150725.250,A,4308.0004,N,07726.4749,W,0.00,301.30,180719,,,A*79
$GPGGA,150725.500,4308.0004,N,07726.4749,W,1,09,1.17,159.7,M,-34.3,M,,*53
$GPGGA,150726.000,4308.0004,N,07726.4749,W,1,09,1.17,159.7,M,-34.3,M,,*55
$GPRMC,150726.000,A,4308.0004,N,07726.4749,W,0.00,301.30,1807199.7,M,-34.3,M,,*52
