Vers 60
USE_SERIAL_FEEDBACK=true
DEVELOPMENT_MODE=false
USE_RMC_ONLY=false

$GPRMC,132339.250,A,4308.3033,N,07726.2633,W,0.03,158.15,290519,,,A*73
$GPGGA,132339.500,4308.3033,N,07726.2634,W,1,06,1.05,153.6,M,-34.4,M,,*54
lng=-77.437721, lat=43.138385, altitude=153.10, speed=0.03, satellites=6, angle=158.1500, fixquality=1
$GPRMC,132339.750,A,4308.3033,N,07726.2634,W,0.02,143.04,290519,,,A*7A
$GPGGA,132340.000,4308.3033,N,07726.2634,W,1,06,1.05,153.9,M,-34.4,M,,*50
lng=-77.437721, lat=43.138385, altitude=153.60, speed=0.02, satellites=6, angle=143.0400, fixquality=1
$GPRMC,132340.250,A,4308.3033,N,07726.2634,W,0.03,62.65,290519,,,A*45
$GPGGA,132340.500,4308.3033,N,07726.2635,W,1,06,1.05,154.2,M,-34.4,M,,*58
lng=-77.437721, lat=43.138385, altitude=153.90, speed=0.03, satellites=6, angle=62.6500, fixquality=1
$GPRMC,132340.750,A,4308.3033,N,07726.2635,W,0.00,334.95,290519,,,A*7D
$GPGGA,132341.000,4308.3034,N,07726.2635,W,1,06,1.05,154.4,M,-34.4,M,,*5D
lng=-77.437728, lat=43.138385, altitude=154.20, speed=0.00, satellites=6, angle=334.9500, fixquality=1
$GPRMC,132341.250,A,4308.3034,N,07726.2635,W,0.01,118.31,290519,,,A*7D
$GPGGA,132341.500,4308.3034,N,07726.2635,W,1,06,1.05,154.5,M,-34.4,M,,*59
lng=-77.437728, lat=43.138385, altitude=154.40, speed=0.01, satellites=6, angle=118.3100, fixquality=1
$GPRMC,132341.750,A,4308.3034,N,07726.2636,W,0.02,140.56,290519,,,A*74
$GPGGA,132342.000,4308.3034,N,07726.2636,W,1,06,1.05,154.6,M,-34.4,M,,*5F
lng=-77.437728, lat=43.138385, altitude=154.50, speed=0.02, satellites=6, angle=140.5600, fixquality=1
$GPRMC,132342.250,A,4308.3034,N,07726.2636,W,0.02,213.10,290519,,,A*75
$GPGGA,132342.500,4308.3034,N,07726.2636,W,1,06,1.05,154.7,M,-34.4,M,,*5B
lng=-77.437728, lat=43.138385, altitude=154.60, speed=0.02, satellites=6, angle=213.1000, fixquality=1
$GPRMC,132342.750,A,4308.3034,N,07726.2636,W,0.03,288.94,290519,,,A*7F
$GPGGA,132343.000,4308.3034,N,07726.2636,W,1,06,1.05,154.8,M,-34.4,M,,*50
lng=-77.437728, lat=43.138385, altitude=154.70, speed=0.03, satellites=6, angle=288.9400, fixquality=1
$GPRMC,132343.250,A,4308.3034,N,07726.2636,W,0.04,38.71,290519,,,A*4E
$GPGGA,132343.500,4308.3034,N,07726.2636,W,1,06,1.05,154.9,M,-34.4,M,,*54
lng=-77.437728, lat=43.138385, altitude=154.80, speed=0.04, satellites=6, angle=38.7100, fixquality=1
$GPRMC,132343.750,A,4308.3034,N,07726.2636,W,0.01,338.89,290519,,,A*7A
$GPGGA,132344.000,4308.3034,N,07726.2636,W,1,06,1.05,154.9,M,-34.4,M,,*56
lng=-77.437728, lat=43.138385, altitude=154.90, speed=0.01, satellites=6, angle=338.8900, fixquality=1
$GPRMC,132344.250,A,4308.3034,N,07726.2636,W,0.02,255.94,290519,,,A*7D
$GPGGA,132344.500,4308.3034,N,07726.2636,W,1,06,1.05,154.9,M,-34.4,M,,*53
lng=-77.437728, lat=43.138385, altitude=154.90, speed=0.02, satellites=6, angle=255.9400, fixquality=1
$GPRMC,132344.750,A,4308.3034,N,07726.2636,W,0.03,317.91,290519,,,A*7B
$GPGGA,132345.000,4308.3034,N,07726.2636,W,1,06,1.05,154.8,M,-34.4,M,,*56
lng=-77.437728, lat=43.138385, altitude=154.90, speed=0.03, satellites=6, angle=317.9100, fixquality=1
$GPRMC,132345.250,A,4308.3034,N,07726.2636,W,0.03,336.74,290519,,,A*77
$GPGGA,132345.500,4308.3034,N,07726.2636,W,1,06,1.05,154.7,M,-34.4,M,,*5C
lng=-77.437728, lat=43.138385, altitude=154.80, speed=0.03, satellites=6, angle=336.7400, fixquality=1
$GPRMC,132345.750,A,4308.3034,N,07726.2636,W,0.03,31.34,290519,,,A*42
$GPGGA,132346.000,4308.3034,N,07726.2636,W,1,06,1.05,154.7,M,-34.4,M,,*5A
lng=-77.437728, lat=43.138385, altitude=154.70, speed=0.03, satellites=6, angle=31.3400, fixquality=1
$GPRMC,132346.250,A,4308.3035,N,07726.2636,W,0.43,358.18,290519,,,A*73
$GPGGA,132346.500,4308.3035,N,07726.2636,W,1,06,1.12,154.5,M,-34.4,M,,*5A
lng=-77.437728, lat=43.138393, altitude=154.70, speed=0.43, satellites=6, angle=358.1800, fixquality=1
$GPRMC,132346.750,A,4308.3036,N,07726.2636,W,1.12,0.83,290519,,,A*7C
$GPGGA,132347.000,4308.3037,N,07726.2636,W,1,06,1.12,154.4,M,-34.4,M,,*5D
lng=-77.437728, lat=43.138393, altitude=154.50, speed=1.12, satellites=6, angle=0.8300, fixquality=1
$GPRMC,132347.250,A,4308.3038,N,07726.2636,W,1.72,4.20,290519,,,A*7D
$GPGGA,132347.500,4308.3039,N,07726.2636,W,1,06,1.12,154.2,M,-34.4,M,,*50
lng=-77.437728, lat=43.138393, altitude=154.40, speed=1.72, satellites=6, angle=4.2000, fixquality=1
$GPRMC,132347.750,A,4308.3041,N,07726.2636,W,2.39,350.56,290519,,,A*79
$GPGGA,132348.000,4308.3042,N,07726.2636,W,1,06,1.12,154.1,M,-34.4,M,,*55
lng=-77.437728, lat=43.138404, altitude=154.20, speed=2.39, satellites=6, angle=350.5600, fixquality=1
$GPRMC,132348.250,A,4308.3045,N,07726.2636,W,3.11,357.11,290519,,,A*78
$GPGGA,132348.500,4308.3047,N,07726.2637,W,1,06,1.12,154.0,M,-34.4,M,,*55
lng=-77.437728, lat=43.138412, altitude=154.10, speed=3.11, satellites=6, angle=357.1100, fixquality=1
$GPRMC,132348.750,A,4308.3049,N,07726.2637,W,3.17,348.80,290519,,,A*70
$GPGGA,132349.000,4308.3051,N,07726.2638,W,1,06,1.12,154.0,M,-34.4,M,,*59
lng=-77.437728, lat=43.138412, altitude=154.00, speed=3.17, satellites=6, angle=348.8000, fixquality=1
$GPRMC,132349.250,A,4308.3053,N,07726.2639,W,3.37,344.78,290519,,,A*78
$GPGGA,132349.500,4308.3056,N,07726.2641,W,1,06,1.05,154.0,M,-34.4,M,,*53
lng=-77.437728, lat=43.138420, altitude=154.00, speed=3.37, satellites=6, angle=344.7800, fixquality=1
$GPRMC,132349.750,A,4308.3058,N,07726.2642,W,3.53,335.54,290519,,,A*70
$GPGGA,132350.000,4308.3060,N,07726.2643,W,1,06,1.05,153.9,M,-34.4,M,,*57
lng=-77.437736, lat=43.138427, altitude=154.00, speed=3.53, satellites=6, angle=335.5400, fixquality=1
$GPRMC,132350.250,A,4308.3061,N,07726.2644,W,2.37,340.04,290519,,,A*75
$GPGGA,132350.500,4308.3063,N,07726.2646,W,1,06,1.05,153.8,M,-34.4,M,,*55
lng=-77.437736, lat=43.138435, altitude=153.90, speed=2.37, satellites=6, angle=340.0400, fixquality=1
$GPRMC,132350.750,A,4308.3064,N,07726.2647,W,2.12,326.28,290519,,,A*7F
$GPGGA,132351.000,4308.3065,N,07726.2649,W,1,06,1.05,153.8,M,-34.4,M,,*58
lng=-77.437744, lat=43.138442, altitude=153.80, speed=2.12, satellites=6, angle=326.2800, fixquality=1
$GPRMC,132351.250,A,4308.3066,N,07726.2650,W,2.28,316.74,290519,,,A*7C
$GPGGA,132351.500,4308.3068,N,07726.2652,W,1,06,1.05,153.8,M,-34.4,M,,*5A
lng=-77.437751, lat=43.138442, altitude=153.80, speed=2.28, satellites=6, angle=316.7400, fixquality=1
$GPRMC,132351.750,A,4308.3070,N,07726.2653,W,3.25,336.31,290519,,,A*72
$GPGGA,132352.000,4308.3072,N,07726.2654,W,1,06,1.05,153.7,M,-34.4,M,,*5E
lng=-77.437751, lat=43.138450, altitude=153.80, speed=3.25, satellites=6, angle=336.3100, fixquality=1
$GPRMC,132352.250,A,4308.3075,N,07726.2656,W,3.65,335.32,290519,,,A*70
$GPGGA,132352.500,4308.3078,N,07726.2657,W,1,06,1.05,153.7,M,-34.4,M,,*52
lng=-77.437759, lat=43.138462, altitude=153.70, speed=3.65, satellites=6, angle=335.3200, fixquality=1
$GPRMC,132352.750,A,4308.3081,N,07726.2658,W,4.09,346.50,290519,,,A*7D
$GPGGA,132353.000,4308.3084,N,07726.2659,W,1,06,1.12,153.6,M,-34.4,M,,*5C
lng=-77.437759, lat=43.138469, altitude=153.70, speed=4.09, satellites=6, angle=346.5000, fixquality=1
$GPRMC,132353.250,A,4308.3086,N,07726.2660,W,3.92,350.66,290519,,,A*72
$GPGGA,132353.500,4308.3089,N,07726.2661,W,1,06,1.12,153.5,M,-34.4,M,,*5C
lng=-77.437767, lat=43.138477, altitude=153.60, speed=3.92, satellites=6, angle=350.6600, fixquality=1
$GPRMC,132353.750,A,4308.3092,N,07726.2661,W,3.89,0.00,290519,,,A*7F
$GPGGA,132354.000,4308.3095,N,07726.2661,W,1,06,1.12,153.5,M,-34.4,M,,*53
lng=-77.437767, lat=43.138484, altitude=153.50, speed=3.89, satellites=6, angle=0.0000, fixquality=1
$GPRMC,132354.250,A,4308.3098,N,07726.2660,W,3.94,9.84,290519,,,A*7F
$GPGGA,132354.500,4308.3101,N,07726.2659,W,1,06,1.12,153.5,M,-34.4,M,,*51
lng=-77.437767, lat=43.138492, altitude=153.50, speed=3.94, satellites=6, angle=9.8400, fixquality=1
$GPRMC,132354.750,A,4308.3104,N,07726.2657,W,4.20,20.33,290519,,,A*45
$GPGGA,132355.000,4308.3107,N,07726.2655,W,1,06,1.05,153.4,M,-34.4,M,,*58
lng=-77.437759, lat=43.138507, altitude=153.50, speed=4.20, satellites=6, angle=20.3300, fixquality=1
$GPRMC,132355.250,A,4308.3109,N,07726.2654,W,4.19,31.53,290519,,,A*43
$GPGGA,132355.500,4308.3111,N,07726.2651,W,1,06,1.12,153.5,M,-34.4,M,,*59
lng=-77.437759, lat=43.138515, altitude=153.40, speed=4.19, satellites=6, angle=31.5300, fixquality=1
$GPRMC,132355.750,A,4308.3113,N,07726.2648,W,4.11,43.53,290519,,,A*4D
$GPGGA,132356.000,4308.3115,N,07726.2646,W,1,06,1.12,153.5,M,-34.4,M,,*5D
lng=-77.437744, lat=43.138526, altitude=153.50, speed=4.11, satellites=6, angle=43.5300, fixquality=1
$GPRMC,132356.250,A,4308.3117,N,07726.2645,W,3.28,31.48,290519,,,A*40
$GPGGA,132356.500,4308.3116,N,07726.2646,W,1,07,1.02,154.0,M,-34.4,M,,*59
lng=-77.437744, lat=43.138526, altitude=153.50, speed=3.28, satellites=6, angle=31.4800, fixquality=1
$GPRMC,132356.750,A,4308.3116,N,07726.2646,W,1.22,24.26,290519,,,A*43
$GPGGA,132357.000,4308.3116,N,07726.2646,W,1,07,1.02,154.4,M,-34.4,M,,*59
lng=-77.437744, lat=43.138526, altitude=154.00, speed=1.22, satellites=7, angle=24.2600, fixquality=1
$GPRMC,132357.250,A,4308.3116,N,07726.2646,W,1.05,31.49,290519,,,A*4F
$GPGGA,132357.500,4308.3117,N,07726.2646,W,1,07,1.02,154.7,M,-34.4,M,,*5E
lng=-77.437744, lat=43.138526, altitude=154.40, speed=1.05, satellites=7, angle=31.4900, fixquality=1
$GPRMC,132357.750,A,4308.3117,N,07726.2646,W,0.93,36.30,290519,,,A*4C
$GPGGA,132358.000,4308.3117,N,07726.2646,W,1,07,1.02,155.1,M,-34.4,M,,*53
lng=-77.437744, lat=43.138526, altitude=154.70, speed=0.93, satellites=7, angle=36.3000, fixquality=1
$GPRMC,132358.250,A,4308.3117,N,07726.2647,W,0.82,36.24,290519,,,A*42
$GPGGA,132358.500,4308.3117,N,07726.2647,W,1,07,1.02,155.5,M,-34.4,M,,*53
lng=-77.437744, lat=43.138526, altitude=155.10, speed=0.82, satellites=7, angle=36.2400, fixquality=1
$GPRMC,132358.750,A,4308.3117,N,07726.2647,W,0.63,40.30,290519,,,A*4C
$GPGGA,132359.000,4308.3117,N,07726.2647,W,1,07,1.02,155.8,M,-34.4,M,,*5A
lng=-77.437744, lat=43.138526, altitude=155.50, speed=0.63, satellites=7, angle=40.3000, fixquality=1
$GPRMC,132359.250,A,4308.3117,N,07726.2647,W,0.66,51.80,290519,,,A*46
$GPGGA,132359.500,4308.3118,N,07726.2646,W,1,06,1.13,156.1,M,-34.4,M,,*5A
lng=-77.437744, lat=43.138526, altitude=155.80, speed=0.66, satellites=7, angle=51.8000, fixquality=1
$GPRMC,132359.750,A,4308.3118,N,07726.2644,W,0.96,58.48,290519,,,A*4D
$GPGGA,132400.000,4308.3119,N,07726.2642,W,1,07,1.02,156.3,M,-34.4,M,,*52
lng=-77.437736, lat=43.138534, altitude=156.10, speed=0.96, satellites=6, angle=58.4800, fixquality=1
$GPRMC,132400.250,A,4308.3121,N,07726.2639,W,1.43,55.94,290519,,,A*46
$GPGGA,132400.500,4308.3122,N,07726.2637,W,1,07,1.02,156.5,M,-34.4,M,,*5B
lng=-77.437728, lat=43.138534, altitude=156.30, speed=1.43, satellites=7, angle=55.9400, fixquality=1
$GPRMC,132400.750,A,4308.3124,N,07726.2635,W,1.79,46.00,290519,,,A*4C
$GPGGA,132401.000,4308.3125,N,07726.2634,W,1,07,1.02,156.8,M,-34.4,M,,*56
lng=-77.437728, lat=43.138542, altitude=156.50, speed=1.79, satellites=7, angle=46.0000, fixquality=1
$GPRMC,132401.250,A,4308.3126,N,07726.2633,W,1.71,44.94,290519,,,A*4B
$GPGGA,132401.500,4308.3126,N,07726.2633,W,1,07,1.02,157.0,M,-34.4,M,,*5E
lng=-77.437721, lat=43.138542, altitude=156.80, speed=1.71, satellites=7, angle=44.9400, fixquality=1
$GPRMC,132401.750,A,4308.3126,N,07726.2634,W,0.58,49.53,290519,,,A*45
$GPGGA,132402.000,4308.3126,N,07726.2634,W,1,07,1.02,157.3,M,-34.4,M,,*5C
lng=-77.437721, lat=43.138542, altitude=157.00, speed=0.58, satellites=7, angle=49.5300, fixquality=1
$GPRMC,132402.250,A,4308.3125,N,07726.2635,W,0.17,62.21,290519,,,A*46
$GPGGA,132402.500,4308.3125,N,07726.2635,W,1,07,1.02,157.5,M,-34.4,M,,*5D
lng=-77.437728, lat=43.138542, altitude=157.30, speed=0.17, satellites=7, angle=62.2100, fixquality=1
$GPRMC,132402.750,A,4308.3125,N,07726.2636,W,0.02,153.58,290519,,,A*79
$GPGGA,132403.000,4308.3126,N,07726.2636,W,1,07,1.02,157.7,M,-34.4,M,,*5B
lng=-77.437728, lat=43.138542, altitude=157.50, speed=0.02, satellites=7, angle=153.5800, fixquality=1
$GPRMC,132403.250,A,4308.3126,N,07726.2636,W,0.01,353.39,290519,,,A*78
$GPGGA,132403.500,4308.3126,N,07726.2636,W,1,07,1.12,157.8,M,-34.4,M,,*50
lng=-77.437728, lat=43.138542, altitude=157.70, speed=0.01, satellites=7, angle=353.3900, fixquality=1
$GPRMC,132403.750,A,4308.3126,N,07726.2636,W,0.12,42.52,290519,,,A*41
$GPGGA,132404.000,4308.3127,N,07726.2636,W,1,07,1.02,158.0,M,-34.4,M,,*55
lng=-77.437728, lat=43.138542, altitude=157.80, speed=0.12, satellites=7, angle=42.5200, fixquality=1
$GPRMC,132404.250,A,4308.3127,N,07726.2635,W,0.29,46.10,290519,,,A*4B
$GPGGA,132404.500,4308.3128,N,07726.2635,W,1,07,1.02,158.2,M,-34.4,M,,*5E
lng=-77.437728, lat=43.138542, altitude=158.00, speed=0.29, satellites=7, angle=46.1000, fixquality=1
$GPRMC,132404.750,A,4308.3130,N,07726.2634,W,0.75,23.56,290519,,,A*41
$GPGGA,132405.000,4308.3131,N,07726.2633,W,1,07,1.02,158.4,M,-34.4,M,,*52
lng=-77.437721, lat=43.138549, altitude=158.20, speed=0.75, satellites=7, angle=23.5600, fixquality=1
$GPRMC,132405.250,A,4308.3132,N,07726.2630,W,1.25,41.48,290519,,,A*4C
$GPGGA,132405.500,4308.3134,N,07726.2628,W,1,07,1.02,158.7,M,-34.4,M,,*5B
lng=-77.437721, lat=43.138549, altitude=158.40, speed=1.25, satellites=7, angle=41.4800, fixquality=1
$GPRMC,132405.750,A,4308.3135,N,07726.2626,W,1.96,35.70,290519,,,A*49
$GPGGA,132406.000,4308.3136,N,07726.2624,W,1,07,1.02,158.9,M,-34.4,M,,*5D
lng=-77.437713, lat=43.138557, altitude=158.70, speed=1.96, satellites=7, angle=35.7000, fixquality=1
$GPRMC,132406.250,A,4308.3137,N,07726.2622,W,2.53,55.15,290519,,,A*46
$GPGGA,132406.500,4308.3138,N,07726.2620,W,1,07,1.02,159.1,M,-34.4,M,,*5B
lng=-77.437705, lat=43.138557, altitude=158.90, speed=2.53, satellites=7, angle=55.1500, fixquality=1
$GPRMC,132406.750,A,4308.3139,N,07726.2617,W,2.89,68.58,290519,,,A*4B
$GPGGA,132407.000,4308.3140,N,07726.2615,W,1,07,1.02,159.2,M,-34.4,M,,*55
lng=-77.437698, lat=43.138565, altitude=159.10, speed=2.89, satellites=7, angle=68.5800, fixquality=1
$GPRMC,132407.250,A,4308.3141,N,07726.2613,W,2.75,56.82,290519,,,A*4D
$GPGGA,132407.500,4308.3142,N,07726.2611,W,1,07,1.02,159.3,M,-34.4,M,,*57
lng=-77.437690, lat=43.138565, altitude=159.20, speed=2.75, satellites=7, angle=56.8200, fixquality=1
$GPRMC,132407.750,A,4308.3144,N,07726.2607,W,3.25,65.19,290519,,,A*4E
$GPGGA,132408.000,4308.3145,N,07726.2604,W,1,07,1.02,159.4,M,-34.4,M,,*59
lng=-77.437675, lat=43.138572, altitude=159.30, speed=3.25, satellites=7, angle=65.1900, fixquality=1
$GPRMC,132408.250,A,4308.3146,N,07726.2601,W,2.93,67.57,290519,,,A*44
$GPGGA,132408.500,4308.3146,N,07726.2598,W,1,07,1.02,159.5,M,-34.4,M,,*58
lng=-77.437667, lat=43.138572, altitude=159.40, speed=2.93, satellites=7, angle=67.5700, fixquality=1
$GPRMC,132408.750,A,4308.3146,N,07726.2595,W,2.88,89.22,290519,,,A*47
$GPGGA,132409.000,4308.3147,N,07726.2592,W,1,07,1.02,159.7,M,-34.4,M,,*55
lng=-77.437652, lat=43.138572, altitude=159.50, speed=2.88, satellites=7, angle=89.2200, fixquality=1
$GPRMC,132409.250,A,4308.3146,N,07726.2589,W,3.02,99.52,290519,,,A*4B
$GPGGA,132409.500,4308.3146,N,07726.2586,W,1,07,1.02,159.8,M,-34.4,M,,*5B
lng=-77.437644, lat=43.138572, altitude=159.70, speed=3.02, satellites=7, angle=99.5200, fixquality=1
$GPRMC,132409.750,A,4308.3146,N,07726.2583,W,2.39,99.23,290519,,,A*4B
$GPGGA,132410.000,4308.3146,N,07726.2581,W,1,07,1.02,159.9,M,-34.4,M,,*50
lng=-77.437637, lat=43.138572, altitude=159.80, speed=2.39, satellites=7, angle=99.2300, fixquality=1
$GPRMC,132410.250,A,4308.3146,N,07726.2580,W,1.26,78.64,290519,,,A*44
$GPGGA,132410.500,4308.3147,N,07726.2580,W,1,06,1.13,160.0,M,-34.4,M,,*57
lng=-77.437629, lat=43.138572, altitude=159.90, speed=1.26, satellites=7, angle=78.6400, fixquality=1
$GPRMC,132410.750,A,4308.3148,N,07726.2580,W,0.75,21.88,290519,,,A*46
$GPGGA,132411.000,4308.3148,N,07726.2581,W,1,07,1.02,160.1,M,-34.4,M,,*5D
lng=-77.437629, lat=43.138584, altitude=160.00, speed=0.75, satellites=6, angle=21.8800, fixquality=1
$GPRMC,132411.250,A,4308.3149,N,07726.2582,W,0.82,336.19,290519,,,A*74
$GPGGA,132411.500,4308.3150,N,07726.2585,W,1,07,1.02,160.2,M,-34.4,M,,*56
lng=-77.437637, lat=43.138584, altitude=160.10, speed=0.82, satellites=7, angle=336.1900, fixquality=1
$GPRMC,132411.750,A,4308.3151,N,07726.2589,W,1.66,305.34,290519,,,A*77
$GPGGA,132412.000,4308.3151,N,07726.2592,W,1,07,1.02,160.3,M,-34.4,M,,*56
lng=-77.437644, lat=43.138584, altitude=160.20, speed=1.66, satellites=7, angle=305.3400, fixquality=1
$GPRMC,132412.250,A,4308.3151,N,07726.2596,W,3.30,289.28,290519,,,A*76
$GPGGA,132412.500,4308.3153,N,07726.2600,W,1,07,1.02,160.4,M,-34.4,M,,*5E
lng=-77.437660, lat=43.138584, altitude=160.30, speed=3.30, satellites=7, angle=289.2800, fixquality=1
$GPRMC,132412.750,A,4308.3154,N,07726.2606,W,5.77,292.77,290519,,,A*79
$GPGGA,132413.000,4308.3156,N,07726.2612,W,1,07,1.02,160.5,M,-34.4,M,,*5D
lng=-77.437675, lat=43.138591, altitude=160.40, speed=5.77, satellites=7, angle=292.7700, fixquality=1
$GPRMC,132413.250,A,4308.3158,N,07726.2619,W,7.35,294.75,290519,,,A*7F
$GPGGA,132413.500,4308.3161,N,07726.2627,W,1,07,1.12,160.5,M,-34.4,M,,*5B
lng=-77.437698, lat=43.138599, altitude=160.50, speed=7.35, satellites=7, angle=294.7500, fixquality=1
$GPRMC,132413.750,A,4308.3162,N,07726.2637,W,9.75,291.75,290519,,,A*70
$GPGGA,132414.000,4308.3165,N,07726.2647,W,1,07,1.02,160.6,M,-34.4,M,,*59
lng=-77.437728, lat=43.138607, altitude=160.50, speed=9.75, satellites=7, angle=291.7500, fixquality=1
$GPRMC,132414.250,A,4308.3167,N,07726.2657,W,10.90,288.28,290519,,,A*42
$GPGGA,132414.500,4308.3170,N,07726.2668,W,1,07,1.02,160.6,M,-34.4,M,,*55
lng=-77.437759, lat=43.138614, altitude=160.60, speed=10.90, satellites=7, angle=288.2800, fixquality=1
$GPRMC,132414.750,A,4308.3172,N,07726.2681,W,12.39,286.60,290519,,,A*4B
$GPGGA,132415.000,4308.3173,N,07726.2694,W,1,07,1.02,160.7,M,-34.4,M,,*50
lng=-77.437797, lat=43.138622, altitude=160.60, speed=12.39, satellites=7, angle=286.6000, fixquality=1
$GPRMC,132415.250,A,4308.3174,N,07726.2710,W,14.05,283.83,290519,,,A*41
$GPGGA,132415.500,4308.3176,N,07726.2725,W,1,07,1.12,160.7,M,-34.4,M,,*5A
lng=-77.437850, lat=43.138622, altitude=160.70, speed=14.05, satellites=7, angle=283.8300, fixquality=1
$GPRMC,132415.750,A,4308.3178,N,07726.2739,W,15.24,281.78,290519,,,A*47
$GPGGA,132416.000,4308.3180,N,07726.2755,W,1,07,1.12,160.8,M,-34.4,M,,*5D
lng=-77.437896, lat=43.138629, altitude=160.70, speed=15.24, satellites=7, angle=281.7800, fixquality=1
$GPRMC,132416.250,A,4308.3183,N,07726.2771,W,16.61,281.38,290519,,,A*4F
$GPGGA,132416.500,4308.3187,N,07726.2787,W,1,07,1.12,160.7,M,-34.4,M,,*5F
lng=-77.437950, lat=43.138637, altitude=160.80, speed=16.61, satellites=7, angle=281.3800, fixquality=1
$GPRMC,132416.750,A,4308.3190,N,07726.2803,W,17.56,283.72,290519,,,A*4B
$GPGGA,132417.000,4308.3193,N,07726.2821,W,1,07,1.12,160.7,M,-34.4,M,,*5D
lng=-77.438003, lat=43.138648, altitude=160.70, speed=17.56, satellites=7, angle=283.7200, fixquality=1
$GPRMC,132417.250,A,4308.3198,N,07726.2837,W,18.32,285.26,290519,,,A*4A
$GPGGA,132417.500,4308.3202,N,07726.2853,W,1,07,1.12,160.6,M,-34.4,M,,*57
lng=-77.438064, lat=43.138664, altitude=160.70, speed=18.32, satellites=7, angle=285.2600, fixquality=1
$GPRMC,132417.750,A,4308.3207,N,07726.2870,W,19.11,288.29,290519,,,A*4B
$GPGGA,132418.000,4308.3213,N,07726.2888,W,1,07,1.02,160.6,M,-34.4,M,,*5A
lng=-77.438117, lat=43.138679, altitude=160.60, speed=19.11, satellites=7, angle=288.2900, fixquality=1
$GPRMC,132418.250,A,4308.3218,N,07726.2907,W,20.27,290.49,290519,,,A*4E
$GPGGA,132418.500,4308.3224,N,07726.2926,W,1,07,1.12,160.5,M,-34.4,M,,*5C
lng=-77.438179, lat=43.138694, altitude=160.60, speed=20.27, satellites=7, angle=290.4900, fixquality=1
$GPRMC,132418.750,A,4308.3231,N,07726.2945,W,21.04,294.17,290519,,,A*49
$GPGGA,132419.000,4308.3238,N,07726.2965,W,1,07,1.12,160.5,M,-34.4,M,,*52
lng=-77.438240, lat=43.138721, altitude=160.50, speed=21.04, satellites=7, angle=294.1700, fixquality=1
$GPRMC,132419.250,A,4308.3246,N,07726.2984,W,21.77,296.81,290519,,,A*49
$GPGGA,132419.500,4308.3254,N,07726.3004,W,1,07,1.12,160.4,M,-34.4,M,,*53
lng=-77.438308, lat=43.138744, altitude=160.50, speed=21.77, satellites=7, angle=296.8100, fixquality=1
$GPRMC,132419.750,A,4308.3263,N,07726.3023,W,21.99,299.07,290519,,,A*4F
$GPGGA,132420.000,4308.3271,N,07726.3042,W,1,07,1.02,160.4,M,-34.4,M,,*58
lng=-77.438369, lat=43.138771, altitude=160.40, speed=21.99, satellites=7, angle=299.0700, fixquality=1
$GPRMC,132420.250,A,4308.3280,N,07726.3060,W,22.05,300.93,290519,,,A*40
$GPGGA,132420.500,4308.3289,N,07726.3079,W,1,07,1.12,160.4,M,-34.4,M,,*53
lng=-77.438438, lat=43.138801, altitude=160.40, speed=22.05, satellites=7, angle=300.9300, fixquality=1
$GPRMC,132420.750,A,4308.3298,N,07726.3097,W,22.33,301.75,290519,,,A*48
$GPGGA,132421.000,4308.3307,N,07726.3116,W,1,07,1.12,160.4,M,-34.4,M,,*58
lng=-77.438491, lat=43.138828, altitude=160.40, speed=22.33, satellites=7, angle=301.7500, fixquality=1
$GPRMC,132421.250,A,4308.3315,N,07726.3136,W,22.56,301.46,290519,,,A*41
$GPGGA,132421.500,4308.3324,N,07726.3155,W,1,07,1.12,160.4,M,-34.4,M,,*5B
lng=-77.438560, lat=43.138858, altitude=160.40, speed=22.56, satellites=7, angle=301.4600, fixquality=1
$GPRMC,132421.750,A,4308.3332,N,07726.3175,W,22.80,301.37,290519,,,A*4B
$GPGGA,132422.000,4308.3341,N,07726.3195,W,1,07,1.12,160.7,M,-34.4,M,,*51
lng=-77.438621, lat=43.138881, altitude=160.40, speed=22.80, satellites=7, angle=301.3700, fixquality=1
$GPRMC,132422.250,A,4308.3349,N,07726.3215,W,23.31,300.94,290519,,,A*47
$GPGGA,132422.500,4308.3358,N,07726.3236,W,1,07,1.12,160.8,M,-34.4,M,,*59
lng=-77.438690, lat=43.138916, altitude=160.70, speed=23.31, satellites=7, angle=300.9400, fixquality=1
$GPRMC,132422.750,A,4308.3366,N,07726.3256,W,23.61,300.61,290519,,,A*47
$GPGGA,132423.000,4308.3374,N,07726.3277,W,1,07,1.12,161.0,M,-34.4,M,,*5F
lng=-77.438758, lat=43.138938, altitude=160.80, speed=23.61, satellites=7, angle=300.6100, fixquality=1
$GPRMC,132423.250,A,4308.3383,N,07726.3298,W,24.09,300.47,290519,,,A*47
$GPGGA,132423.500,4308.3391,N,07726.3318,W,1,07,1.12,161.3,M,-34.4,M,,*5A
lng=-77.438827, lat=43.138973, altitude=161.00, speed=24.09, satellites=7, angle=300.4700, fixquality=1
$GPRMC,132423.750,A,4308.3400,N,07726.3339,W,24.34,300.88,290519,,,A*49
$GPGGA,132424.000,4308.3409,N,07726.3360,W,1,07,1.12,161.4,M,-34.4,M,,*56
lng=-77.438896, lat=43.138996, altitude=161.30, speed=24.34, satellites=7, angle=300.8800, fixquality=1
$GPRMC,132424.250,A,4308.3417,N,07726.3381,W,24.61,301.38,290519,,,A*44
$GPGGA,132424.500,4308.3426,N,07726.3402,W,1,07,1.12,161.5,M,-34.4,M,,*5C
lng=-77.438964, lat=43.139030, altitude=161.40, speed=24.61, satellites=7, angle=301.3800, fixquality=1
$GPRMC,132424.750,A,4308.3435,N,07726.3422,W,24.83,302.17,290519,,,A*4D
$GPGGA,132425.000,4308.3445,N,07726.3443,W,1,07,1.12,161.6,M,-34.4,M,,*5B
lng=-77.439041, lat=43.139053, altitude=161.50, speed=24.83, satellites=7, angle=302.1700, fixquality=1
$GPRMC,132425.250,A,4308.3454,N,07726.3463,W,24.95,304.05,290519,,,A*49
$GPGGA,132425.500,4308.3464,N,07726.3483,W,1,07,1.12,161.8,M,-34.4,M,,*5F
lng=-77.439102, lat=43.139087, altitude=161.60, speed=24.95, satellites=7, angle=304.0500, fixquality=1
$GPRMC,132425.750,A,4308.3473,N,07726.3504,W,25.02,302.97,290519,,,A*4B
$GPGGA,132426.000,4308.3483,N,07726.3524,W,1,07,1.12,162.0,M,-34.4,M,,*57
lng=-77.439178, lat=43.139118, altitude=161.80, speed=25.02, satellites=7, angle=302.9700, fixquality=1
$GPRMC,132426.250,A,4308.3493,N,07726.3543,W,25.14,306.51,290519,,,A*49
$GPGGA,132426.500,4308.3504,N,07726.3562,W,1,08,1.02,162.1,M,-34.4,M,,*51
lng=-77.439239, lat=43.139152, altitude=162.00, speed=25.14, satellites=7, angle=306.5100, fixquality=1
$GPRMC,132426.750,A,4308.3515,N,07726.3581,W,25.19,310.12,290519,,,A*40
$GPGGA,132427.000,4308.3527,N,07726.3599,W,1,08,1.02,162.3,M,-34.4,M,,*52
lng=-77.439300, lat=43.139194, altitude=162.10, speed=25.19, satellites=8, angle=310.1200, fixquality=1
$GPRMC,132427.250,A,4308.3538,N,07726.3616,W,24.95,313.87,290519,,,A*4C
$GPGGA,132427.500,4308.3551,N,07726.3632,W,1,07,1.10,162.6,M,-34.4,M,,*5D
lng=-77.439361, lat=43.139232, altitude=162.30, speed=24.95, satellites=8, angle=313.8700, fixquality=1
$GPRMC,132427.750,A,4308.3564,N,07726.3648,W,24.95,318.41,290519,,,A*4A
$GPGGA,132428.000,4308.3577,N,07726.3664,W,1,08,1.02,162.7,M,-34.4,M,,*5D
lng=-77.439414, lat=43.139274, altitude=162.60, speed=24.95, satellites=7, angle=318.4100, fixquality=1
$GPRMC,132428.250,A,4308.3591,N,07726.3678,W,24.86,322.76,290519,,,A*46
$GPGGA,132428.500,4308.3605,N,07726.3692,W,1,08,1.02,162.9,M,-34.4,M,,*59
lng=-77.439460, lat=43.139316, altitude=162.70, speed=24.86, satellites=8, angle=322.7600, fixquality=1
$GPRMC,132428.750,A,4308.3619,N,07726.3705,W,24.40,324.80,290519,,,A*4E
$GPGGA,132429.000,4308.3633,N,07726.3718,W,1,08,1.02,163.1,M,-34.4,M,,*52
lng=-77.439506, lat=43.139362, altitude=162.90, speed=24.40, satellites=8, angle=324.8000, fixquality=1
$GPRMC,132429.250,A,4308.3647,N,07726.3730,W,24.35,326.66,290519,,,A*4F
$GPGGA,132429.500,4308.3662,N,07726.3742,W,1,08,1.02,163.4,M,-34.4,M,,*59
lng=-77.439552, lat=43.139411, altitude=163.10, speed=24.35, satellites=8, angle=326.6600, fixquality=1
$GPRMC,132429.750,A,4308.3677,N,07726.3752,W,23.92,330.98,290519,,,A*41
$GPGGA,132430.000,4308.3692,N,07726.3762,W,1,08,0.99,163.6,M,-34.4,M,,*58
lng=-77.439582, lat=43.139461, altitude=163.40, speed=23.92, satellites=8, angle=330.9800, fixquality=1
$GPRMC,132430.250,A,4308.3708,N,07726.3771,W,23.85,335.27,290519,,,A*43
$GPGGA,132430.500,4308.3724,N,07726.3779,W,1,08,1.02,164.0,M,-34.4,M,,*59
lng=-77.439613, lat=43.139511, altitude=163.60, speed=23.85, satellites=8, angle=335.2700, fixquality=1
$GPRMC,132430.750,A,4308.3739,N,07726.3787,W,23.94,338.80,290519,,,A*4D
$GPGGA,132431.000,4308.3756,N,07726.3794,W,1,08,0.99,164.3,M,-34.4,M,,*5B
lng=-77.439651, lat=43.139568, altitude=164.00, speed=23.94, satellites=8, angle=338.8000, fixquality=1
$GPRMC,132431.250,A,4308.3773,N,07726.3800,W,24.57,341.89,290519,,,A*48
$GPGGA,132431.500,4308.3789,N,07726.3805,W,1,08,1.02,164.6,M,-34.4,M,,*5D
lng=-77.439666, lat=43.139625, altitude=164.30, speed=24.57, satellites=8, angle=341.8900, fixquality=1
$GPRMC,132431.750,A,4308.3806,N,07726.3809,W,24.41,346.47,290519,,,A*4B
$GPGGA,132432.000,4308.3823,N,07726.3812,W,1,08,1.02,164.7,M,-34.4,M,,*53
lng=-77.439682, lat=43.139671, altitude=164.60, speed=24.41, satellites=8, angle=346.4700, fixquality=1
$GPRMC,132432.250,A,4308.3840,N,07726.3811,W,24.39,353.89,290519,,,A*4F
$GPGGA,132432.500,4308.3858,N,07726.3810,W,1,08,1.02,164.9,M,-34.4,M,,*56
lng=-77.439682, lat=43.139728, altitude=164.70, speed=24.39, satellites=8, angle=353.8900, fixquality=1
$GPRMC,132432.750,A,4308.3875,N,07726.3811,W,24.77,357.98,290519,,,A*42
$GPGGA,132433.000,4308.3893,N,07726.3810,W,1,08,1.02,165.1,M,-34.4,M,,*5C
lng=-77.439682, lat=43.139793, altitude=164.90, speed=24.77, satellites=8, angle=357.9800, fixquality=1
$GPRMC,132433.250,A,4308.3910,N,07726.3808,W,24.84,1.75,290519,,,A*43
$GPGGA,132433.500,4308.3928,N,07726.3806,W,1,08,1.02,165.2,M,-34.4,M,,*5C
lng=-77.439682, lat=43.139850, altitude=165.10, speed=24.84, satellites=8, angle=1.7500, fixquality=1
$GPRMC,132433.750,A,4308.3946,N,07726.3802,W,25.07,4.81,290519,,,A*4B
$GPGGA,132434.000,4308.3964,N,07726.3798,W,1,08,1.02,165.3,M,-34.4,M,,*5F
lng=-77.439674, lat=43.139907, altitude=165.20, speed=25.07, satellites=8, angle=4.8100, fixquality=1
$GPRMC,132434.250,A,4308.3982,N,07726.3794,W,25.33,6.79,290519,,,A*43
$GPGGA,132434.500,4308.4000,N,07726.3790,W,1,08,1.02,165.4,M,-34.4,M,,*59
lng=-77.439659, lat=43.139972, altitude=165.30, speed=25.33, satellites=8, angle=6.7900, fixquality=1
$GPRMC,132434.750,A,4308.4018,N,07726.3785,W,25.75,8.95,290519,,,A*45
$GPGGA,132435.000,4308.4036,N,07726.3780,W,1,08,0.99,165.5,M,-34.4,M,,*5B
lng=-77.439643, lat=43.140029, altitude=165.40, speed=25.75, satellites=8, angle=8.9500, fixquality=1
$GPRMC,132435.250,A,4308.4054,N,07726.3775,W,25.69,10.83,290519,,,A*75
$GPGGA,132435.500,4308.4072,N,07726.3769,W,1,08,1.02,165.7,M,-34.4,M,,*58
lng=-77.439620, lat=43.140087, altitude=165.50, speed=25.69, satellites=8, angle=10.8300, fixquality=1
$GPRMC,132435.750,A,4308.4090,N,07726.3764,W,25.90,10.57,290519,,,A*77
$GPGGA,132436.000,4308.4108,N,07726.3759,W,1,08,1.02,166.0,M,-34.4,M,,*55
lng=-77.439605, lat=43.140151, altitude=165.70, speed=25.90, satellites=8, angle=10.5700, fixquality=1
$GPRMC,132436.250,A,4308.4127,N,07726.3754,W,25.93,9.29,290519,,,A*4D
$GPGGA,132436.500,4308.4145,N,07726.3750,W,1,08,1.02,166.3,M,-34.4,M,,*53
lng=-77.439590, lat=43.140209, altitude=166.00, speed=25.93, satellites=8, angle=9.2900, fixquality=1
$GPRMC,132436.750,A,4308.4163,N,07726.3745,W,26.27,9.30,290519,,,A*4C
$GPGGA,132437.000,4308.4181,N,07726.3740,W,1,08,1.02,166.4,M,-34.4,M,,*59
lng=-77.439575, lat=43.140274, altitude=166.30, speed=26.27, satellites=8, angle=9.3000, fixquality=1
$GPRMC,132437.250,A,4308.4200,N,07726.3735,W,26.13,9.21,290519,,,A*4E
$GPGGA,132437.500,4308.4218,N,07726.3731,W,1,08,1.02,166.8,M,-34.4,M,,*55
lng=-77.439559, lat=43.140331, altitude=166.40, speed=26.13, satellites=8, angle=9.2100, fixquality=1
$GPRMC,132437.750,A,4308.4236,N,07726.3726,W,25.77,9.18,290519,,,A*47
$GPGGA,132438.000,4308.4254,N,07726.3721,W,1,08,0.99,167.1,M,-34.4,M,,*5D
lng=-77.439544, lat=43.140396, altitude=166.80, speed=25.77, satellites=8, angle=9.1800, fixquality=1
$GPRMC,132438.250,A,4308.4271,N,07726.3716,W,25.55,9.10,290519,,,A*45
$GPGGA,132438.500,4308.4288,N,07726.3712,W,1,08,1.02,167.5,M,-34.4,M,,*5E
lng=-77.439529, lat=43.140453, altitude=167.10, speed=25.55, satellites=8, angle=9.1000, fixquality=1
$GPRMC,132438.750,A,4308.4306,N,07726.3707,W,24.94,9.09,290519,,,A*45
$GPGGA,132439.000,4308.4323,N,07726.3703,W,1,08,1.02,167.8,M,-34.4,M,,*57
lng=-77.439506, lat=43.140510, altitude=167.50, speed=24.94, satellites=8, angle=9.0900, fixquality=1
$GPRMC,132439.250,A,4308.4339,N,07726.3699,W,24.46,8.76,290519,,,A*4D
$GPGGA,132439.500,4308.4356,N,07726.3695,W,1,08,1.02,168.1,M,-34.4,M,,*58
lng=-77.439498, lat=43.140567, altitude=167.80, speed=24.46, satellites=8, angle=8.7600, fixquality=1
$GPRMC,132439.750,A,4308.4371,N,07726.3691,W,23.62,8.92,290519,,,A*47
$GPGGA,132440.000,4308.4387,N,07726.3687,W,1,08,1.03,168.4,M,-34.4,M,,*58
lng=-77.439483, lat=43.140617, altitude=168.10, speed=23.62, satellites=8, angle=8.9200, fixquality=1
$GPRMC,132440.250,A,4308.4403,N,07726.3682,W,22.84,8.99,290519,,,A*4E
$GPGGA,132440.500,4308.4418,N,07726.3678,W,1,08,1.02,168.7,M,-34.4,M,,*5E
lng=-77.439468, lat=43.140674, altitude=168.40, speed=22.84, satellites=8, angle=8.9900, fixquality=1
$GPRMC,132440.750,A,4308.4433,N,07726.3674,W,21.43,9.00,290519,,,A*48
$GPGGA,132441.000,4308.4447,N,07726.3671,W,1,08,1.03,168.9,M,-34.4,M,,*56
lng=-77.439453, lat=43.140724, altitude=168.70, speed=21.43, satellites=8, angle=9.0000, fixquality=1
$GPRMC,132441.250,A,4308.4461,N,07726.3667,W,19.64,8.73,290519,,,A*42
$GPGGA,132441.500,4308.4474,N,07726.3664,W,1,08,1.02,169.2,M,-34.4,M,,*5C
lng=-77.439445, lat=43.140769, altitude=168.90, speed=19.64, satellites=8, angle=8.7300, fixquality=1
$GPRMC,132441.750,A,4308.4487,N,07726.3661,W,18.37,8.24,290519,,,A*4C
$GPGGA,132442.000,4308.4499,N,07726.3658,W,1,08,1.02,169.4,M,-34.4,M,,*50
lng=-77.439437, lat=43.140811, altitude=169.20, speed=18.37, satellites=8, angle=8.2400, fixquality=1
$GPRMC,132442.250,A,4308.4510,N,07726.3655,W,17.10,8.32,290519,,,A*4F
$GPGGA,132442.500,4308.4520,N,07726.3652,W,1,08,1.02,169.8,M,-34.4,M,,*50
lng=-77.439430, lat=43.140853, altitude=169.40, speed=17.10, satellites=8, angle=8.3200, fixquality=1
$GPRMC,132442.750,A,4308.4529,N,07726.3647,W,14.72,10.15,290519,,,A*78
$GPGGA,132443.000,4308.4537,N,07726.3643,W,1,08,1.02,170.2,M,-34.4,M,,*50
lng=-77.439414, lat=43.140884, altitude=169.80, speed=14.72, satellites=8, angle=10.1500, fixquality=1
$GPRMC,132443.250,A,4308.4545,N,07726.3639,W,12.64,11.49,290519,,,A*76
$GPGGA,132443.500,4308.4551,N,07726.3635,W,1,08,1.02,170.5,M,-34.4,M,,*53
lng=-77.439399, lat=43.140911, altitude=170.20, speed=12.64, satellites=8, angle=11.4900, fixquality=1
$GPRMC,132443.750,A,4308.4557,N,07726.3633,W,9.82,13.05,290519,,,A*42
$GPGGA,132444.000,4308.4562,N,07726.3631,W,1,08,1.03,170.8,M,-34.4,M,,*59
lng=-77.439384, lat=43.140926, altitude=170.50, speed=9.82, satellites=8, angle=13.0500, fixquality=1
$GPRMC,132444.250,A,4308.4566,N,07726.3628,W,7.29,13.96,290519,,,A*4D
$GPGGA,132444.500,4308.4569,N,07726.3627,W,1,08,1.02,171.1,M,-34.4,M,,*59
lng=-77.439376, lat=43.140941, altitude=170.80, speed=7.29, satellites=8, angle=13.9600, fixquality=1
$GPRMC,132444.750,A,4308.4571,N,07726.3624,W,5.05,14.89,290519,,,A*47
$GPGGA,132445.000,4308.4573,N,07726.3622,W,1,08,1.03,171.2,M,-34.4,M,,*51
lng=-77.439369, lat=43.140949, altitude=171.10, speed=5.05, satellites=8, angle=14.8900, fixquality=1
$GPRMC,132445.250,A,4308.4575,N,07726.3620,W,4.30,12.03,290519,,,A*40
$GPGGA,132445.500,4308.4577,N,07726.3618,W,1,08,1.03,171.5,M,-34.4,M,,*5E
lng=-77.439361, lat=43.140956, altitude=171.20, speed=4.30, satellites=8, angle=12.0300, fixquality=1
$GPRMC,132445.750,A,4308.4579,N,07726.3615,W,3.94,7.11,290519,,,A*71
$GPGGA,132446.000,4308.4581,N,07726.3613,W,1,08,1.02,171.5,M,-34.4,M,,*5B
lng=-77.439353, lat=43.140968, altitude=171.50, speed=3.94, satellites=8, angle=7.1100, fixquality=1
$GPRMC,132446.250,A,4308.4584,N,07726.3611,W,4.81,359.99,290519,,,A*7A
$GPGGA,132446.500,4308.4588,N,07726.3611,W,1,08,1.03,171.7,M,-34.4,M,,*56
lng=-77.439353, lat=43.140975, altitude=171.50, speed=4.81, satellites=8, angle=359.9900, fixquality=1
$GPRMC,132446.750,A,4308.4593,N,07726.3611,W,6.83,348.35,290519,,,A*7F
$GPGGA,132447.000,4308.4598,N,07726.3613,W,1,08,1.03,172.3,M,-34.4,M,,*56
lng=-77.439353, lat=43.140991, altitude=171.70, speed=6.83, satellites=8, angle=348.3500, fixquality=1
$GPRMC,132447.250,A,4308.4602,N,07726.3617,W,7.74,336.68,290519,,,A*7E
$GPGGA,132447.500,4308.4607,N,07726.3621,W,1,08,1.03,173.3,M,-34.4,M,,*56
lng=-77.439361, lat=43.140998, altitude=172.30, speed=7.74, satellites=8, angle=336.6800, fixquality=1
$GPRMC,132447.750,A,4308.4613,N,07726.3627,W,10.06,324.73,290519,,,A*42
$GPGGA,132448.000,4308.4618,N,07726.3635,W,1,08,0.99,174.0,M,-34.4,M,,*51
lng=-77.439376, lat=43.141025, altitude=173.30, speed=10.06, satellites=8, angle=324.7300, fixquality=1
$GPRMC,132448.250,A,4308.4623,N,07726.3645,W,12.20,310.48,290519,,,A*46
$GPGGA,132448.500,4308.4628,N,07726.3656,W,1,08,1.03,174.6,M,-34.4,M,,*56
lng=-77.439407, lat=43.141040, altitude=174.00, speed=12.20, satellites=8, angle=310.4800, fixquality=1
$GPRMC,132448.750,A,4308.4633,N,07726.3668,W,14.78,301.91,290519,,,A*42
$GPGGA,132449.000,4308.4638,N,07726.3681,W,1,08,1.03,175.0,M,-34.4,M,,*5E
lng=-77.439445, lat=43.141056, altitude=174.60, speed=14.78, satellites=8, angle=301.9100, fixquality=1
$GPRMC,132449.250,A,4308.4643,N,07726.3696,W,16.51,295.07,290519,,,A*4A
$GPGGA,132449.500,4308.4647,N,07726.3712,W,1,08,1.03,175.5,M,-34.4,M,,*5D
lng=-77.439491, lat=43.141071, altitude=175.00, speed=16.51, satellites=8, angle=295.0700, fixquality=1
$GPRMC,132449.750,A,4308.4650,N,07726.3729,W,18.34,288.11,290519,,,A*4E
$GPGGA,132450.000,4308.4653,N,07726.3746,W,1,08,0.99,175.9,M,-34.4,M,,*5A
lng=-77.439552, lat=43.141078, altitude=175.50, speed=18.34, satellites=8, angle=288.1100, fixquality=1
$GPRMC,132450.250,A,4308.4656,N,07726.3765,W,19.55,282.17,290519,,,A*47
$GPGGA,132450.500,4308.4658,N,07726.3785,W,1,08,1.02,176.4,M,-34.4,M,,*56
lng=-77.439605, lat=43.141098, altitude=175.90, speed=19.55, satellites=8, angle=282.1700, fixquality=1
$GPRMC,132450.750,A,4308.4659,N,07726.3805,W,21.02,278.32,290519,,,A*4F
$GPGGA,132451.000,4308.4661,N,07726.3826,W,1,08,0.99,176.9,M,-34.4,M,,*50
lng=-77.439674, lat=43.141098, altitude=176.40, speed=21.02, satellites=8, angle=278.3200, fixquality=1
$GPRMC,132451.250,A,4308.4663,N,07726.3847,W,22.03,277.25,290519,,,A*4F
$GPGGA,132451.500,4308.4665,N,07726.3869,W,1,08,1.03,177.3,M,-34.4,M,,*53
lng=-77.439743, lat=43.141105, altitude=176.90, speed=22.03, satellites=8, angle=277.2500, fixquality=1
$GPRMC,132451.750,A,4308.4666,N,07726.3891,W,22.53,276.34,290519,,,A*40
$GPGGA,132452.000,4308.4667,N,07726.3913,W,1,08,0.99,176.9,M,-34.4,M,,*52
lng=-77.439819, lat=43.141113, altitude=177.30, speed=22.53, satellites=8, angle=276.3400, fixquality=1
$GPRMC,132452.250,A,4308.4668,N,07726.3934,W,22.57,276.12,290519,,,A*46
$GPGGA,132452.500,4308.4670,N,07726.3956,W,1,08,1.03,177.2,M,-34.4,M,,*58
lng=-77.439895, lat=43.141113, altitude=176.90, speed=22.57, satellites=8, angle=276.1200, fixquality=1
$GPRMC,132452.750,A,4308.4672,N,07726.3978,W,22.14,276.36,290519,,,A*41
$GPGGA,132453.000,4308.4673,N,07726.3999,W,1,08,0.99,177.5,M,-34.4,M,,*59
lng=-77.439964, lat=43.141120, altitude=177.20, speed=22.14, satellites=8, angle=276.3600, fixquality=1
$GPRMC,132453.250,A,4308.4675,N,07726.4021,W,21.85,276.79,290519,,,A*40
$GPGGA,132453.500,4308.4676,N,07726.4041,W,1,08,1.03,177.7,M,-34.4,M,,*52
lng=-77.440040, lat=43.141120, altitude=177.50, speed=21.85, satellites=8, angle=276.7900, fixquality=1
$GPRMC,132453.750,A,4308.4678,N,07726.4061,W,20.95,277.59,290519,,,A*4F
$GPGGA,132454.000,4308.4680,N,07726.4082,W,1,08,0.99,178.0,M,-34.4,M,,*5C
lng=-77.440101, lat=43.141128, altitude=177.70, speed=20.95, satellites=8, angle=277.5900, fixquality=1
$GPRMC,132454.250,A,4308.4682,N,07726.4102,W,20.87,278.36,290519,,,A*49
$GPGGA,132454.500,4308.4684,N,07726.4122,W,1,08,1.03,178.4,M,-34.4,M,,*50
lng=-77.440170, lat=43.141136, altitude=178.00, speed=20.87, satellites=8, angle=278.3600, fixquality=1
$GPRMC,132454.750,A,4308.4686,N,07726.4142,W,20.85,278.71,290519,,,A*4D
$GPGGA,132455.000,4308.4688,N,07726.4162,W,1,08,0.99,178.7,M,-34.4,M,,*5D
lng=-77.440231, lat=43.141147, altitude=178.40, speed=20.85, satellites=8, angle=278.7100, fixquality=1
$GPRMC,132455.250,A,4308.4689,N,07726.4182,W,20.77,278.93,290519,,,A*4B
$GPGGA,132455.500,4308.4691,N,07726.4201,W,1,08,1.03,178.9,M,-34.4,M,,*5A
lng=-77.440299, lat=43.141147, altitude=178.70, speed=20.77, satellites=8, angle=278.9300, fixquality=1
$GPRMC,132455.750,A,4308.4693,N,07726.4221,W,19.95,278.36,290519,,,A*46
$GPGGA,132456.000,4308.4694,N,07726.4239,W,1,08,0.99,179.1,M,-34.4,M,,*59
lng=-77.440361, lat=43.141155, altitude=178.90, speed=19.95, satellites=8, angle=278.3600, fixquality=1
$GPRMC,132456.250,A,4308.4696,N,07726.4257,W,18.77,278.66,290519,,,A*4C
$GPGGA,132456.500,4308.4698,N,07726.4274,W,1,08,1.03,179.2,M,-34.4,M,,*58
lng=-77.440429, lat=43.141162, altitude=179.10, speed=18.77, satellites=8, angle=278.6600, fixquality=1
$GPRMC,132456.750,A,4308.4699,N,07726.4290,W,16.66,279.53,290519,,,A*44
$GPGGA,132457.000,4308.4701,N,07726.4305,W,1,08,0.99,179.3,M,-34.4,M,,*59
lng=-77.440483, lat=43.141162, altitude=179.20, speed=16.66, satellites=8, angle=279.5300, fixquality=1
$GPRMC,132457.250,A,4308.4702,N,07726.4319,W,14.97,279.37,290519,,,A*4D
$GPGGA,132457.500,4308.4704,N,07726.4334,W,1,08,1.03,179.3,M,-34.4,M,,*59
lng=-77.440536, lat=43.141170, altitude=179.30, speed=14.97, satellites=8, angle=279.3700, fixquality=1
$GPRMC,132457.750,A,4308.4705,N,07726.4346,W,13.08,280.08,290519,,,A*4E
$GPGGA,132458.000,4308.4707,N,07726.4358,W,1,08,0.99,179.4,M,-34.4,M,,*5F
lng=-77.440574, lat=43.141178, altitude=179.30, speed=13.08, satellites=8, angle=280.0800, fixquality=1
$GPRMC,132458.250,A,4308.4708,N,07726.4370,W,11.45,281.03,290519,,,A*4D
$GPGGA,132458.500,4308.4709,N,07726.4379,W,1,08,1.03,179.4,M,-34.4,M,,*55
lng=-77.440620, lat=43.141178, altitude=179.40, speed=11.45, satellites=8, angle=281.0300, fixquality=1
$GPRMC,132458.750,A,4308.4710,N,07726.4388,W,9.06,284.01,290519,,,A*7F
$GPGGA,132459.000,4308.4712,N,07726.4396,W,1,08,0.99,179.6,M,-34.4,M,,*5A
lng=-77.440650, lat=43.141185, altitude=179.40, speed=9.06, satellites=8, angle=284.0100, fixquality=1
$GPRMC,132459.250,A,4308.4713,N,07726.4401,W,6.20,286.01,290519,,,A*77
$GPGGA,132459.500,4308.4714,N,07726.4406,W,1,08,1.03,179.7,M,-34.4,M,,*54
lng=-77.440666, lat=43.141185, altitude=179.60, speed=6.20, satellites=8, angle=286.0100, fixquality=1
$GPRMC,132459.750,A,4308.4715,N,07726.4410,W,3.84,281.31,290519,,,A*7B
$GPGGA,132500.000,4308.4716,N,07726.4413,W,1,08,0.99,179.8,M,-34.4,M,,*57
lng=-77.440681, lat=43.141193, altitude=179.70, speed=3.84, satellites=8, angle=281.3100, fixquality=1
$GPRMC,132500.250,A,4308.4716,N,07726.4414,W,1.89,282.92,290519,,,A*71
$GPGGA,132500.500,4308.4716,N,07726.4415,W,1,08,0.99,179.9,M,-34.4,M,,*55
lng=-77.440689, lat=43.141193, altitude=179.80, speed=1.89, satellites=8, angle=282.9200, fixquality=1
$GPRMC,132500.750,A,4308.4716,N,07726.4416,W,0.91,282.92,290519,,,A*7E
$GPGGA,132501.000,4308.4716,N,07726.4416,W,1,08,0.99,179.2,M,-34.4,M,,*59
lng=-77.440689, lat=43.141193, altitude=179.90, speed=0.91, satellites=8, angle=282.9200, fixquality=1
$GPRMC,132501.250,A,4308.4715,N,07726.4415,W,0.47,282.92,290519,,,A*71
$GPGGA,132501.500,4308.4715,N,07726.4414,W,1,08,0.99,178.7,M,-34.4,M,,*59
lng=-77.440689, lat=43.141193, altitude=179.20, speed=0.47, satellites=8, angle=282.9200, fixquality=1
$GPRMC,132501.750,A,4308.4715,N,07726.4413,W,0.15,282.92,290519,,,A*75
$GPGGA,132502.000,4308.4715,N,07726.4412,W,1,08,1.03,178.3,M,-34.4,M,,*5F
lng=-77.440689, lat=43.141193, altitude=178.70, speed=0.15, satellites=8, angle=282.9200, fixquality=1
$GPRMC,132502.250,A,4308.4715,N,07726.4411,W,0.14,282.92,290519,,,A*70
$GPGGA,132502.500,4308.4714,N,07726.4410,W,1,08,0.99,177.5,M,-34.4,M,,*52
lng=-77.440681, lat=43.141193, altitude=178.30, speed=0.14, satellites=8, angle=282.9200, fixquality=1
$GPRMC,132502.750,A,4308.4714,N,07726.4409,W,0.13,282.92,290519,,,A*7A
$GPGGA,132503.000,4308.4714,N,07726.4409,W,1,08,0.99,177.2,M,-34.4,M,,*59
lng=-77.440681, lat=43.141185, altitude=177.50, speed=0.13, satellites=8, angle=282.9200, fixquality=1
$GPRMC,132503.250,A,4308.4714,N,07726.4409,W,0.11,282.92,290519,,,A*7C
$GPGGA,132503.500,4308.4714,N,07726.4408,W,1,08,1.03,176.7,M,-34.4,M,,*5B
lng=-77.440681, lat=43.141185, altitude=177.20, speed=0.11, satellites=8, angle=282.9200, fixquality=1
$GPRMC,132503.750,A,4308.4714,N,07726.4408,W,0.09,282.92,290519,,,A*71
$GPGGA,132504.000,4308.4714,N,07726.4408,W,1,08,0.99,176.8,M,-34.4,M,,*54
lng=-77.440681, lat=43.141185, altitude=176.70, speed=0.09, satellites=8, angle=282.9200, fixquality=1
$GPRMC,132504.250,A,4308.4714,N,07726.4408,W,0.11,282.92,290519,,,A*7A
$GPGGA,132504.500,4308.4714,N,07726.4408,W,1,08,0.99,176.9,M,-34.4,M,,*50
lng=-77.440681, lat=43.141185, altitude=176.80, speed=0.11, satellites=8, angle=282.9200, fixquality=1
$GPRMC,132504.750,A,4308.4714,N,07726.4408,W,0.05,282.92,290519,,,A*7A
$GPGGA,132505.000,4308.4714,N,07726.4408,W,1,08,1.03,176.9,M,-34.4,M,,*56
lng=-77.440681, lat=43.141185, altitude=176.90, speed=0.05, satellites=8, angle=282.9200, fixquality=1
$GPRMC,132505.250,A,4308.4714,N,07726.4408,W,0.05,282.92,290519,,,A*7E
$GPGGA,132505.500,4308.4714,N,07726.4408,W,1,08,1.03,176.9,M,-34.4,M,,*53
lng=-77.440681, lat=43.141185, altitude=176.90, speed=0.05, satellites=8, angle=282.9200, fixquality=1
$GPRMC,132505.750,A,4308.4714,N,07726.4408,W,0.07,282.92,290519,,,A*79
$GPGGA,132506.000,4308.4714,N,07726.4408,W,1,08,0.99,177.0,M,-34.4,M,,*5F
lng=-77.440681, lat=43.141185, altitude=176.90, speed=0.07, satellites=8, angle=282.9200, fixquality=1
$GPRMC,132506.250,A,4308.4714,N,07726.4408,W,0.01,282.92,290519,,,A*79
$GPGGA,132506.500,4308.4714,N,07726.4408,W,1,08,1.03,177.0,M,-34.4,M,,*58
lng=-77.440681, lat=43.141185, altitude=177.00, speed=0.01, satellites=8, angle=282.9200, fixquality=1
$GPRMC,132506.750,A,4308.4714,N,07726.4408,W,0.05,282.92,290519,,,A*78
$GPGGA,132507.000,4308.4714,N,07726.4408,W,1,08,0.99,177.0,M,-34.4,M,,*5E
lng=-77.440681, lat=43.141185, altitude=177.00, speed=0.05, satellites=8, angle=282.9200, fixquality=1
$GPRMC,132507.250,A,4308.4714,N,07726.4408,W,0.05,282.92,290519,,,A*7C
$GPGGA,132507.500,4308.4714,N,07726.4408,W,1,08,0.99,177.0,M,-34.4,M,,*5B
lng=-77.440681, lat=43.141185, altitude=177.00, speed=0.05, satellites=8, angle=282.9200, fixquality=1
$GPRMC,132507.750,A,4308.4714,N,07726.4408,W,0.04,282.92,290519,,,A*78
$GPGGA,132508.000,4308.4714,N,07726.4408,W,1,08,0.99,177.1,M,-34.4,M,,*50
lng=-77.440681, lat=43.141185, altitude=177.00, speed=0.04, satellites=8, angle=282.9200, fixquality=1
$GPRMC,132508.250,A,4308.4714,N,07726.4408,W,0.05,282.92,290519,,,A*73
$GPGGA,132508.500,4308.4714,N,07726.4408,W,1,08,1.03,177.1,M,-34.4,M,,*57
lng=-77.440681, lat=43.141185, altitude=177.10, speed=0.05, satellites=8, angle=282.9200, fixquality=1
$GPRMC,132508.750,A,4308.4714,N,07726.4408,W,0.04,282.92,290519,,,A*77
$GPGGA,132509.000,4308.4715,N,07726.4408,W,1,08,0.99,177.1,M,-34.4,M,,*50
lng=-77.440681, lat=43.141185, altitude=177.10, speed=0.04, satellites=8, angle=282.9200, fixquality=1
$GPRMC,132509.250,A,4308.4715,N,07726.4408,W,0.02,282.92,290519,,,A*74
$GPGGA,132509.500,4308.4715,N,07726.4408,W,1,08,0.99,177.1,M,-34.4,M,,*55
lng=-77.440681, lat=43.141193, altitude=177.10, speed=0.02, satellites=8, angle=282.9200, fixquality=1
$GPRMC,132509.750,A,4308.4715,N,07726.4408,W,0.04,282.92,290519,,,A*77
$GPGGA,132510.000,4308.4715,N,07726.4408,W,1,08,0.99,177.1,M,-34.4,M,,*58
lng=-77.440681, lat=43.141193, altitude=177.10, speed=0.04, satellites=8, angle=282.9200, fixquality=1
$GPRMC,132510.250,A,4308.4715,N,07726.4408,W,0.14,282.92,290519,,,A*7B
$GPGGA,132510.500,4308.4715,N,07726.4408,W,1,08,0.99,177.1,M,-34.4,M,,*5D
lng=-77.440681, lat=43.141193, altitude=177.10, speed=0.14, satellites=8, angle=282.9200, fixquality=1
$GPRMC,132510.750,A,4308.4715,N,07726.4408,W,0.57,282.92,290519,,,A*79
$GPGGA,132511.000,4308.4715,N,07726.4409,W,1,08,0.99,177.1,M,-34.4,M,,*58
lng=-77.440681, lat=43.141193, altitude=177.10, speed=0.57, satellites=8, angle=282.9200, fixquality=1
$GPRMC,132511.250,A,4308.4715,N,07726.4410,W,2.52,282.92,290519,,,A*73
$GPGGA,132511.500,4308.4715,N,07726.4413,W,1,08,0.99,176.9,M,-34.4,M,,*5F
lng=-77.440681, lat=43.141193, altitude=177.10, speed=2.52, satellites=8, angle=282.9200, fixquality=1
$GPRMC,132511.750,A,4308.4716,N,07726.4417,W,4.90,279.93,290519,,,A*7F
$GPGGA,132512.000,4308.4717,N,07726.4423,W,1,08,1.03,176.8,M,-34.4,M,,*5B
lng=-77.440696, lat=43.141193, altitude=176.90, speed=4.90, satellites=8, angle=279.9300, fixquality=1
$GPRMC,132512.250,A,4308.4719,N,07726.4428,W,7.27,275.82,290519,,,A*79
$GPGGA,132512.500,4308.4720,N,07726.4435,W,1,08,1.03,176.6,M,-34.4,M,,*53
lng=-77.440711, lat=43.141193, altitude=176.80, speed=7.27, satellites=8, angle=275.8200, fixquality=1
$GPRMC,132512.750,A,4308.4722,N,07726.4443,W,9.57,277.64,290519,,,A*7A
$GPGGA,132513.000,4308.4724,N,07726.4452,W,1,08,1.03,176.4,M,-34.4,M,,*50
lng=-77.440742, lat=43.141201, altitude=176.60, speed=9.57, satellites=8, angle=277.6400, fixquality=1
$GPRMC,132513.250,A,4308.4724,N,07726.4462,W,10.58,278.54,290519,,,A*40
$GPGGA,132513.500,4308.4725,N,07726.4473,W,1,08,1.03,176.2,M,-34.4,M,,*51
lng=-77.440773, lat=43.141201, altitude=176.40, speed=10.58, satellites=8, angle=278.5400, fixquality=1
$GPRMC,132513.750,A,4308.4726,N,07726.4484,W,12.04,279.98,290519,,,A*45
$GPGGA,132514.000,4308.4727,N,07726.4496,W,1,08,0.99,176.1,M,-34.4,M,,*5B
lng=-77.440803, lat=43.141212, altitude=176.20, speed=12.04, satellites=8, angle=279.9800, fixquality=1
$GPRMC,132514.250,A,4308.4728,N,07726.4509,W,13.31,279.51,290519,,,A*4F
$GPGGA,132514.500,4308.4730,N,07726.4522,W,1,08,1.03,175.9,M,-34.4,M,,*5F
lng=-77.440841, lat=43.141212, altitude=176.10, speed=13.31, satellites=8, angle=279.5100, fixquality=1
$GPRMC,132514.750,A,4308.4731,N,07726.4536,W,14.97,280.73,290519,,,A*43
$GPGGA,132515.000,4308.4733,N,07726.4550,W,1,08,0.99,175.8,M,-34.4,M,,*5E
lng=-77.440895, lat=43.141220, altitude=175.90, speed=14.97, satellites=8, angle=280.7300, fixquality=1
$GPRMC,132515.250,A,4308.4735,N,07726.4566,W,16.14,279.82,290519,,,A*47
$GPGGA,132515.500,4308.4737,N,07726.4582,W,1,08,1.03,175.8,M,-34.4,M,,*52
lng=-77.440940, lat=43.141227, altitude=175.80, speed=16.14, satellites=8, angle=279.8200, fixquality=1
$GPRMC,132515.750,A,4308.4739,N,07726.4598,W,17.35,278.47,290519,,,A*45
$GPGGA,132516.000,4308.4741,N,07726.4616,W,1,08,0.99,175.8,M,-34.4,M,,*59
lng=-77.441001, lat=43.141235, altitude=175.80, speed=17.35, satellites=8, angle=278.4700, fixquality=1
$GPRMC,132516.250,A,4308.4743,N,07726.4633,W,18.31,277.58,290519,,,A*46
$GPGGA,132516.500,4308.4744,N,07726.4652,W,1,08,1.03,175.8,M,-34.4,M,,*5B
lng=-77.441055, lat=43.141235, altitude=175.80, speed=18.31, satellites=8, angle=277.5800, fixquality=1
$GPRMC,132516.750,A,4308.4746,N,07726.4670,W,19.24,277.67,290519,,,A*48
$GPGGA,132517.000,4308.4747,N,07726.4689,W,1,08,1.03,175.8,M,-34.4,M,,*5A
lng=-77.441116, lat=43.141242, altitude=175.80, speed=19.24, satellites=8, angle=277.6700, fixquality=1
$GPRMC,132517.250,A,4308.4748,N,07726.4707,W,19.64,278.00,290519,,,A*49
$GPGGA,132517.500,4308.4749,N,07726.4726,W,1,07,1.13,175.8,M,-34.4,M,,*5B
lng=-77.441177, lat=43.141242, altitude=175.80, speed=19.64, satellites=8, angle=278.0000, fixquality=1
$GPRMC,132517.750,A,4308.4750,N,07726.4745,W,20.18,278.34,290519,,,A*45
$GPGGA,132518.000,4308.4752,N,07726.4764,W,1,07,1.02,175.9,M,-34.4,M,,*5C
lng=-77.441246, lat=43.141250, altitude=175.80, speed=20.18, satellites=7, angle=278.3400, fixquality=1
$GPRMC,132518.250,A,4308.4753,N,07726.4783,W,20.65,278.57,290519,,,A*49
$GPGGA,132518.500,4308.4755,N,07726.4803,W,1,07,1.10,176.0,M,-34.4,M,,*59
lng=-77.441307, lat=43.141250, altitude=175.90, speed=20.65, satellites=7, angle=278.5700, fixquality=1
$GPRMC,132518.750,A,4308.4757,N,07726.4823,W,21.65,278.75,290519,,,A*4C
$GPGGA,132519.000,4308.4759,N,07726.4843,W,1,07,1.03,176.1,M,-34.4,M,,*56
lng=-77.441375, lat=43.141258, altitude=176.00, speed=21.65, satellites=7, angle=278.7500, fixquality=1
$GPRMC,132519.250,A,4308.4761,N,07726.4864,W,22.54,278.27,290519,,,A*48
$GPGGA,132519.500,4308.4762,N,07726.4886,W,1,07,1.13,176.2,M,-34.4,M,,*50
lng=-77.441436, lat=43.141269, altitude=176.10, speed=22.54, satellites=7, angle=278.2700, fixquality=1
$GPRMC,132519.750,A,4308.4764,N,07726.4908,W,23.73,278.13,290519,,,A*40
$GPGGA,132520.000,4308.4766,N,07726.4931,W,1,07,1.09,176.3,M,-34.4,M,,*5C
lng=-77.441513, lat=43.141277, altitude=176.20, speed=23.73, satellites=7, angle=278.1300, fixquality=1
$GPRMC,132520.250,A,4308.4767,N,07726.4954,W,24.83,277.36,290519,,,A*45
$GPGGA,132520.500,4308.4768,N,07726.4978,W,1,07,1.10,176.4,M,-34.4,M,,*55
lng=-77.441596, lat=43.141277, altitude=176.30, speed=24.83, satellites=7, angle=277.3600, fixquality=1
$GPRMC,132520.750,A,4308.4769,N,07726.5002,W,25.86,276.05,290519,,,A*40
$GPGGA,132521.000,4308.4770,N,07726.5027,W,1,07,1.09,176.4,M,-34.4,M,,*52
lng=-77.441665, lat=43.141284, altitude=176.40, speed=25.86, satellites=7, angle=276.0500, fixquality=1
$GPRMC,132521.250,A,4308.4772,N,07726.5053,W,26.65,274.97,290519,,,A*4D
$GPGGA,132521.500,4308.4773,N,07726.5079,W,1,07,1.10,176.5,M,-34.4,M,,*56
lng=-77.441757, lat=43.141284, altitude=176.40, speed=26.65, satellites=7, angle=274.9700, fixquality=1
$GPRMC,132521.750,A,4308.4774,N,07726.5105,W,27.36,274.38,290519,,,A*4E
$GPGGA,132522.000,4308.4776,N,07726.5131,W,1,07,1.09,176.5,M,-34.4,M,,*50
lng=-77.441841, lat=43.141292, altitude=176.50, speed=27.36, satellites=7, angle=274.3800, fixquality=1
$GPRMC,132522.250,A,4308.4777,N,07726.5158,W,27.75,274.91,290519,,,A*47
$GPGGA,132522.500,4308.4778,N,07726.5184,W,1,07,1.10,176.5,M,-34.4,M,,*5D
lng=-77.441925, lat=43.141292, altitude=176.50, speed=27.75, satellites=7, angle=274.9100, fixquality=1
$GPRMC,132522.750,A,4308.4780,N,07726.5211,W,28.32,274.97,290519,,,A*4E
$GPGGA,132523.000,4308.4781,N,07726.5239,W,1,08,0.99,176.5,M,-34.4,M,,*55
lng=-77.442016, lat=43.141300, altitude=176.50, speed=28.32, satellites=7, angle=274.9700, fixquality=1
$GPRMC,132523.250,A,4308.4782,N,07726.5266,W,28.60,275.10,290519,,,A*41
$GPGGA,132523.500,4308.4783,N,07726.5293,W,1,08,1.03,176.5,M,-34.4,M,,*50
lng=-77.442108, lat=43.141300, altitude=176.50, speed=28.60, satellites=8, angle=275.1000, fixquality=1
$GPRMC,132523.750,A,4308.4785,N,07726.5321,W,29.30,274.65,290519,,,A*46
$GPGGA,132524.000,4308.4786,N,07726.5348,W,1,07,1.09,176.6,M,-34.4,M,,*56
lng=-77.442207, lat=43.141307, altitude=176.50, speed=29.30, satellites=8, angle=274.6500, fixquality=1
$GPRMC,132524.250,A,4308.4787,N,07726.5376,W,29.66,273.43,290519,,,A*44
$GPGGA,132524.500,4308.4787,N,07726.5405,W,1,07,1.09,176.7,M,-34.4,M,,*5D
lng=-77.442291, lat=43.141307, altitude=176.60, speed=29.66, satellites=7, angle=273.4300, fixquality=1
$GPRMC,132524.750,A,4308.4789,N,07726.5434,W,29.88,273.32,290519,,,A*48
$GPGGA,132525.000,4308.4790,N,07726.5463,W,1,07,1.09,176.7,M,-34.4,M,,*5F
lng=-77.442390, lat=43.141315, altitude=176.70, speed=29.88, satellites=7, angle=273.3200, fixquality=1
$GPRMC,132525.250,A,4308.4791,N,07726.5493,W,30.15,273.03,290519,,,A*46
$GPGGA,132525.500,4308.4792,N,07726.5522,W,1,07,1.10,176.8,M,-34.4,M,,*5B
lng=-77.442489, lat=43.141315, altitude=176.70, speed=30.15, satellites=7, angle=273.0300, fixquality=1
$GPRMC,132525.750,A,4308.4793,N,07726.5553,W,30.44,272.66,290519,,,A*4A
$GPGGA,132526.000,4308.4794,N,07726.5583,W,1,07,1.09,177.0,M,-34.4,M,,*51
lng=-77.442588, lat=43.141323, altitude=176.80, speed=30.44, satellites=7, angle=272.6600, fixquality=1
$GPRMC,132526.250,A,4308.4795,N,07726.5614,W,30.76,272.58,290519,,,A*46
$GPGGA,132526.500,4308.4796,N,07726.5645,W,1,07,1.09,177.1,M,-34.4,M,,*5E
lng=-77.442695, lat=43.141323, altitude=177.00, speed=30.76, satellites=7, angle=272.5800, fixquality=1
$GPRMC,132526.750,A,4308.4797,N,07726.5676,W,32.92,272.53,290519,,,A*46
$GPGGA,132527.000,4308.4799,N,07726.5707,W,1,07,1.09,177.2,M,-34.4,M,,*51
lng=-77.442787, lat=43.141323, altitude=177.10, speed=32.92, satellites=7, angle=272.5300, fixquality=1
$GPRMC,132527.250,A,4308.4800,N,07726.5739,W,33.19,273.08,290519,,,A*44
$GPGGA,132527.500,4308.4801,N,07726.5771,W,1,07,1.10,177.4,M,-34.4,M,,*55
lng=-77.442893, lat=43.141334, altitude=177.20, speed=33.19, satellites=7, angle=273.0800, fixquality=1
$GPRMC,132527.750,A,4308.4803,N,07726.5803,W,33.74,273.15,290519,,,A*43
$GPGGA,132528.000,4308.4805,N,07726.5835,W,1,07,1.09,177.4,M,-34.4,M,,*5C
lng=-77.443000, lat=43.141342, altitude=177.40, speed=33.74, satellites=7, angle=273.1500, fixquality=1
$GPRMC,132528.250,A,4308.4806,N,07726.5867,W,33.91,273.32,290519,,,A*40
$GPGGA,132528.500,4308.4806,N,07726.5899,W,1,07,1.09,177.4,M,-34.4,M,,*5C
lng=-77.443115, lat=43.141342, altitude=177.40, speed=33.91, satellites=7, angle=273.3200, fixquality=1
$GPRMC,132528.750,A,4308.4807,N,07726.5932,W,34.16,273.09,290519,,,A*45
$GPGGA,132529.000,4308.4807,N,07726.5964,W,1,07,1.09,177.4,M,-34.4,M,,*5A
lng=-77.443222, lat=43.141342, altitude=177.40, speed=34.16, satellites=7, angle=273.0900, fixquality=1
$GPRMC,132529.250,A,4308.4808,N,07726.5997,W,34.55,272.95,290519,,,A*42
$GPGGA,132529.500,4308.4809,N,07726.6030,W,1,07,1.10,177.4,M,-34.4,M,,*52
lng=-77.443328, lat=43.141349, altitude=177.40, speed=34.55, satellites=7, angle=272.9500, fixquality=1
$GPRMC,132529.750,A,4308.4809,N,07726.6063,W,34.58,272.49,290519,,,A*4B
$GPGGA,132530.000,4308.4810,N,07726.6096,W,1,07,1.09,177.4,M,-34.4,M,,*53
lng=-77.443443, lat=43.141349, altitude=177.40, speed=34.58, satellites=7, angle=272.4900, fixquality=1
$GPRMC,132530.250,A,4308.4809,N,07726.6129,W,34.72,272.08,290519,,,A*44
$GPGGA,132530.500,4308.4810,N,07726.6163,W,1,07,1.09,177.3,M,-34.4,M,,*5A
lng=-77.443550, lat=43.141349, altitude=177.40, speed=34.72, satellites=7, angle=272.0800, fixquality=1
$GPRMC,132530.750,A,4308.4808,N,07726.6196,W,35.35,271.15,290519,,,A*49
$GPGGA,132531.000,4308.4807,N,07726.6230,W,1,07,1.09,177.2,M,-34.4,M,,*5C
lng=-77.443656, lat=43.141349, altitude=177.30, speed=35.35, satellites=7, angle=271.1500, fixquality=1
$GPRMC,132531.250,A,4308.4807,N,07726.6264,W,35.69,270.88,290519,,,A*40
$GPGGA,132531.500,4308.4806,N,07726.6298,W,1,07,1.10,177.3,M,-34.4,M,,*53
lng=-77.443771, lat=43.141342, altitude=177.20, speed=35.69, satellites=7, angle=270.8800, fixquality=1
$GPRMC,132531.750,A,4308.4806,N,07726.6332,W,36.05,270.54,290519,,,A*4E
$GPGGA,132532.000,4308.4805,N,07726.6367,W,1,07,1.09,177.4,M,-34.4,M,,*58
lng=-77.443885, lat=43.141342, altitude=177.30, speed=36.05, satellites=7, angle=270.5400, fixquality=1
$GPRMC,132532.250,A,4308.4804,N,07726.6401,W,36.10,269.45,290519,,,A*41
$GPGGA,132532.500,4308.4803,N,07726.6435,W,1,07,1.10,177.5,M,-34.4,M,,*52
lng=-77.444000, lat=43.141342, altitude=177.40, speed=36.10, satellites=7, angle=269.4500, fixquality=1
$GPRMC,132532.750,A,4308.4802,N,07726.6470,W,36.63,268.66,290519,,,A*40
$GPGGA,132533.000,4308.4800,N,07726.6505,W,1,07,1.09,177.5,M,-34.4,M,,*5F
lng=-77.444114, lat=43.141334, altitude=177.50, speed=36.63, satellites=7, angle=268.6600, fixquality=1
$GPRMC,132533.250,A,4308.4799,N,07726.6541,W,37.21,267.60,290519,,,A*44
$GPGGA,132533.500,4308.4797,N,07726.6576,W,1,08,1.03,177.6,M,-34.4,M,,*59
lng=-77.444236, lat=43.141334, altitude=177.50, speed=37.21, satellites=7, angle=267.6000, fixquality=1
$GPRMC,132533.750,A,4308.4795,N,07726.6612,W,37.85,267.15,290519,,,A*44
$GPGGA,132534.000,4308.4794,N,07726.6648,W,1,08,1.00,177.5,M,-34.4,M,,*56
lng=-77.444351, lat=43.141323, altitude=177.60, speed=37.85, satellites=8, angle=267.1500, fixquality=1
$GPRMC,132534.250,A,4308.4792,N,07726.6684,W,38.07,267.17,290519,,,A*49
$GPGGA,132534.500,4308.4791,N,07726.6720,W,1,08,1.03,177.6,M,-34.4,M,,*59
lng=-77.444473, lat=43.141315, altitude=177.50, speed=38.07, satellites=8, angle=267.1700, fixquality=1
$GPRMC,132534.750,A,4308.4789,N,07726.6757,W,38.19,266.66,290519,,,A*41
$GPGGA,132535.000,4308.4787,N,07726.6793,W,1,08,1.00,177.6,M,-34.4,M,,*51
lng=-77.444595, lat=43.141315, altitude=177.60, speed=38.19, satellites=8, angle=266.6600, fixquality=1
$GPRMC,132535.250,A,4308.4786,N,07726.6830,W,38.43,266.60,290519,,,A*4D
$GPGGA,132535.500,4308.4784,N,07726.6866,W,1,08,1.03,177.6,M,-34.4,M,,*51
lng=-77.444717, lat=43.141307, altitude=177.60, speed=38.43, satellites=8, angle=266.6000, fixquality=1
$GPRMC,132535.750,A,4308.4783,N,07726.6903,W,38.50,266.05,290519,,,A*4D
$GPGGA,132536.000,4308.4781,N,07726.6939,W,1,08,1.03,177.4,M,-34.4,M,,*5B
lng=-77.444839, lat=43.141307, altitude=177.60, speed=38.50, satellites=8, angle=266.0500, fixquality=1
$GPRMC,132536.250,A,4308.4779,N,07726.6976,W,38.60,265.99,290519,,,A*49
$GPGGA,132536.500,4308.4776,N,07726.7012,W,1,08,1.03,177.3,M,-34.4,M,,*50
lng=-77.444961, lat=43.141300, altitude=177.40, speed=38.60, satellites=8, angle=265.9900, fixquality=1
$GPRMC,132536.750,A,4308.4774,N,07726.7049,W,38.89,265.53,290519,,,A*44
$GPGGA,132537.000,4308.4772,N,07726.7086,W,1,08,1.03,177.2,M,-34.4,M,,*5C
lng=-77.445083, lat=43.141292, altitude=177.30, speed=38.89, satellites=8, angle=265.5300, fixquality=1
$GPRMC,132537.250,A,4308.4770,N,07726.7123,W,38.95,265.72,290519,,,A*47
$GPGGA,132537.500,4308.4768,N,07726.7160,W,1,08,1.03,177.4,M,-34.4,M,,*5D
lng=-77.445205, lat=43.141284, altitude=177.20, speed=38.95, satellites=8, angle=265.7200, fixquality=1
$GPRMC,132537.750,A,4308.4766,N,07726.7197,W,38.95,265.97,290519,,,A*41
$GPGGA,132538.000,4308.4764,N,07726.7233,W,1,08,1.00,177.6,M,-34.4,M,,*5F
lng=-77.445327, lat=43.141277, altitude=177.40, speed=38.95, satellites=8, angle=265.9700, fixquality=1
$GPRMC,132538.250,A,4308.4762,N,07726.7270,W,38.76,266.00,290519,,,A*45
$GPGGA,132538.500,4308.4760,N,07726.7307,W,1,08,1.03,177.8,M,-34.4,M,,*55
lng=-77.445449, lat=43.141269, altitude=177.60, speed=38.76, satellites=8, angle=266.0000, fixquality=1
$GPRMC,132538.750,A,4308.4758,N,07726.7343,W,38.97,265.95,290519,,,A*48
$GPGGA,132539.000,4308.4756,N,07726.7380,W,1,08,1.00,178.0,M,-34.4,M,,*5F
lng=-77.445571, lat=43.141258, altitude=177.80, speed=38.97, satellites=8, angle=265.9500, fixquality=1
$GPRMC,132539.250,A,4308.4754,N,07726.7417,W,39.07,266.39,290519,,,A*4B
$GPGGA,132539.500,4308.4752,N,07726.7455,W,1,08,1.03,178.2,M,-34.4,M,,*50
lng=-77.445693, lat=43.141258, altitude=178.00, speed=39.07, satellites=8, angle=266.3900, fixquality=1
