Vers 72
USE_SERIAL_FEEDBACK=true
DEVELOPMENT_MODE=false
USE_RMC_ONLY=false

$GPRMC,160426.250,A,4308.3019,N,07726.2615,W,0.01,184.57,140519,,,D*7F
$GPGGA,160426.500,4308.3019,N,07726.2615,W,2,08,1.03,159.1,M,-34.4,M,0000,0000*57
lng=-77.437698, lat=43.138362, altitude=159.10, speed=0.01, satellites=7, angle=184.5700, fixquality=2
$GPRMC,160426.750,A,4308.3019,N,07726.2615,W,0.00,184.57,140519,,,D*7B
$GPGGA,160427.000,4308.3019,N,07726.2615,W,2,08,1.03,159.1,M,-34.4,M,0000,0000*53
lng=-77.437698, lat=43.138362, altitude=159.10, speed=0.00, satellites=8, angle=184.5700, fixquality=2
$GPGGA,161750.750,4308.3020,N,07726.2630,W,2,10,0.88,162.0,M,-34.4,M,0000,0000*5C
$GPRMC,161750.750,A,4308.3020,N,07726.2630,W,0.01,184.57,140519,,,D*74
lng=-77.437721, lat=43.138362, altitude=162.00, speed=0.00, satellites=10, angle=184.5700, fixquality=2
$GPGGA,161751.000,4308.3020,N,07726.2630,W,2,10,0.88,162.0,M,-34.4,M,0000,0000*5F
$GPRMC,161751.000,A,4308.3020,N,07726.2630,W,0.01,184.57,140519,,,D*77
lng=-77.437721, lat=43.138362, altitude=162.00, speed=0.01, satellites=10, angle=184.5700, fixquality=2
$GPGGA,170322.500,4308.3024,N,07726.2619,W,2,10,0.94,159.9,M,-34.4,M,0000,0000*59
$GPRMC,170322.500,A,4308.3024,N,07726.2619,W,0.01,184.57,140519,,,D*7D
lng=-77.437698, lat=43.138370, altitude=159.90, speed=0.01, satellites=10, angle=184.5700, fixquality=2
$GPGGA,170322.750,4308.3024,N,07726.2619,W,2,10,0.94,159.9,M,-34.4,M,0000,0000*5E
$GPRMC,170322.750,A,4308.3024,N,07726.2619,W,0.01,184.57,140519,,,D*7A
lng=-77.437698, lat=43.138370, altitude=159.90, speed=0.01, satellites=10, angle=184.5700, fixquality=2
$GPGGA,175639.000,4308.3035,N,07726.2624,W,2,09,1.29,153.5,M,-34.4,M,0000,0000*51
$GPRMC,175639.000,A,4308.3035,N,07726.2624,W,0.01,184.57,140519,,,D*7C
lng=-77.437705, lat=43.138393, altitude=153.50, speed=0.00, satellites=9, angle=184.5700, fixquality=2
$GPGGA,175639.250,4308.3035,N,07726.2624,W,2,09,1.29,153.5,M,-34.4,M,0000,0000*56
$GPRMC,175639.250,A,4308.3035,N,07726.2624,W,0.02,184.57,140519,,,D*78
lng=-77.437705, lat=43.138393, altitude=153.50, speed=0.01, satellites=9, angle=184.5700, fixquality=2
$GPGGA,183018.500,4308.3050,N,07726.2629,W,2,09,1.06,150.3,M,-34.4,M,0000,0000*5E
$GPRMC,183018.500,A,4308.3050,N,07726.2629,W,0.00,184.57,140519,,,D*7A
lng=-77.437713, lat=43.138420, altitude=150.30, speed=0.00, satellites=9, angle=184.5700, fixquality=2
$GPGGA,183018.750,4308.3050,N,07726.2629,W,2,09,1.06,150.3,M,-34.4,M,0000,0000*59
$GPRMC,183018.750,A,4308.3050,N,07726.2629,W,0.00,184.57,140519,,,D*7D
lng=-77.437713, lat=43.138420, altitude=150.30, speed=0.00, satellites=9, angle=184.5700, fixquality=2
$GPGGA,184814.000,4308.3064,N,07726.2633,W,2,09,1.00,148.4,M,-34.4,M,0000,0000*5C
$GPRMC,184814.000,A,4308.3064,N,07726.2633,W,0.01,184.57,140519,,,D*71
lng=-77.437721, lat=43.138442, altitude=148.40, speed=0.01, satellites=9, angle=184.5700, fixquality=2
$GPGGA,184814.250,4308.3064,N,07726.2633,W,2,09,1.00,148.4,M,-34.4,M,0000,0000*5B
$GPRMC,184814.250,A,4308.3064,N,07726.2633,W,0.01,184.57,140519,,,D*76
lng=-77.437721, lat=43.138442, altitude=148.40, speed=0.01, satellites=9, angle=184.5700, fixquality=2
$GPRMC,190231.250,A,4308.3072,N,07726.2636,W,3.04,351.06,140519,,,D*74
$GPGGA,190231.500,4308.3075,N,07726.2636,W,2,10,0.93,146.9,M,-34.4,M,0000,0000*54
lng=-77.437728, lat=43.138450, altitude=147.10, speed=3.04, satellites=10, angle=351.0600, fixquality=2
$GPRMC,190231.750,A,4308.3078,N,07726.2634,W,4.76,353.34,140519,,,D*78
$GPGGA,190232.000,4308.3080,N,07726.2634,W,2,10,0.93,146.6,M,-34.4,M,0000,0000*55
lng=-77.437721, lat=43.138462, altitude=146.90, speed=4.76, satellites=10, angle=353.3400, fixquality=2
$GPRMC,190232.250,A,4308.3084,N,07726.2633,W,5.74,355.73,140519,,,D*7C
$GPGGA,190232.500,4308.3089,N,07726.2632,W,2,10,0.93,146.3,M,-34.4,M,0000,0000*5A
lng=-77.437721, lat=43.138477, altitude=146.60, speed=5.74, satellites=10, angle=355.7300, fixquality=2
$GPRMC,190232.750,A,4308.3095,N,07726.2631,W,6.13,356.31,140519,,,D*7C
$GPGGA,190233.000,4308.3101,N,07726.2630,W,2,10,0.93,146.0,M,-34.4,M,0000,0000*5E
lng=-77.437721, lat=43.138492, altitude=146.30, speed=6.13, satellites=10, angle=356.3100, fixquality=2
$GPRMC,190233.250,A,4308.3106,N,07726.2629,W,6.09,358.77,140519,,,D*7D
$GPGGA,190233.500,4308.3110,N,07726.2629,W,2,10,0.93,145.7,M,-34.4,M,0000,0000*57
lng=-77.437713, lat=43.138507, altitude=146.00, speed=6.09, satellites=10, angle=358.7700, fixquality=2
$GPRMC,190233.750,A,4308.3113,N,07726.2628,W,5.84,1.45,140519,,,D*75
$GPGGA,190234.000,4308.3117,N,07726.2627,W,2,10,0.93,145.6,M,-34.4,M,0000,0000*5D
lng=-77.437713, lat=43.138526, altitude=145.70, speed=5.84, satellites=10, angle=1.4500, fixquality=2
$GPRMC,190234.250,A,4308.3120,N,07726.2627,W,5.55,4.30,140519,,,D*73
$GPGGA,190234.500,4308.3123,N,07726.2627,W,2,10,0.93,145.5,M,-34.4,M,0000,0000*5C
lng=-77.437713, lat=43.138534, altitude=145.60, speed=5.55, satellites=10, angle=4.3000, fixquality=2
$GPRMC,190234.750,A,4308.3125,N,07726.2625,W,5.05,6.06,140519,,,D*73
$GPGGA,190235.000,4308.3127,N,07726.2624,W,2,09,1.32,145.3,M,-34.4,M,0000,0000*5B
lng=-77.437713, lat=43.138542, altitude=145.50, speed=5.05, satellites=10, angle=6.0600, fixquality=2
$GPRMC,190235.250,A,4308.3129,N,07726.2622,W,4.34,12.28,140519,,,D*46
$GPGGA,190235.500,4308.3131,N,07726.2621,W,2,10,0.93,145.2,M,-34.4,M,0000,0000*5F
lng=-77.437705, lat=43.138549, altitude=145.30, speed=4.34, satellites=9, angle=12.2800, fixquality=2
$GPRMC,190235.750,A,4308.3134,N,07726.2620,W,4.11,18.37,140519,,,D*4E
$GPGGA,190236.000,4308.3136,N,07726.2618,W,2,10,0.93,145.0,M,-34.4,M,0000,0000*56
lng=-77.437705, lat=43.138557, altitude=145.20, speed=4.11, satellites=10, angle=18.3700, fixquality=2
$GPRMC,190236.250,A,4308.3139,N,07726.2616,W,3.69,25.37,140519,,,D*46
$GPGGA,190236.500,4308.3141,N,07726.2615,W,2,10,0.92,145.0,M,-34.4,M,0000,0000*5F
lng=-77.437698, lat=43.138565, altitude=145.00, speed=3.69, satellites=10, angle=25.3700, fixquality=2
$GPRMC,190236.750,A,4308.3143,N,07726.2613,W,3.62,34.56,140519,,,D*47
$GPGGA,190237.000,4308.3146,N,07726.2611,W,2,10,0.92,144.9,M,-34.4,M,0000,0000*50
lng=-77.437690, lat=43.138572, altitude=145.00, speed=3.62, satellites=10, angle=34.5600, fixquality=2
$GPRMC,190237.250,A,4308.3149,N,07726.2608,W,3.72,45.02,140519,,,D*45
$GPGGA,190237.500,4308.3153,N,07726.2605,W,2,10,0.92,144.6,M,-34.4,M,0000,0000*5B
lng=-77.437675, lat=43.138584, altitude=144.90, speed=3.72, satellites=10, angle=45.0200, fixquality=2
$GPRMC,190237.750,A,4308.3157,N,07726.2602,W,3.41,58.54,140519,,,D*4A
$GPGGA,190238.000,4308.3159,N,07726.2598,W,2,10,0.92,144.4,M,-34.4,M,0000,0000*5E
lng=-77.437667, lat=43.138599, altitude=144.60, speed=3.41, satellites=10, angle=58.5400, fixquality=2
$GPRMC,190238.250,A,4308.3160,N,07726.2595,W,3.13,74.72,140519,,,D*44
$GPGGA,190238.500,4308.3161,N,07726.2592,W,2,10,0.92,144.2,M,-34.4,M,0000,0000*5C
lng=-77.437652, lat=43.138599, altitude=144.40, speed=3.13, satellites=10, angle=74.7200, fixquality=2
$GPRMC,190238.750,A,4308.3161,N,07726.2590,W,1.89,86.64,140519,,,D*4E
$GPGGA,190239.000,4308.3162,N,07726.2589,W,2,10,0.92,144.1,M,-34.4,M,0000,0000*52
lng=-77.437644, lat=43.138599, altitude=144.20, speed=1.89, satellites=10, angle=86.6400, fixquality=2
$GPGGA,190240.500,4308.3164,N,07726.2604,W,2,10,0.92,143.8,M,-34.4,M,0000,0000*57
$GPRMC,190240.500,A,4308.3164,N,07726.2604,W,4.07,260.27,140519,,,D*73
lng=-77.437667, lat=43.138607, altitude=143.80, speed=1.87, satellites=10, angle=263.3000, fixquality=2
$GPGGA,190240.750,4308.3165,N,07726.2610,W,2,10,0.93,143.7,M,-34.4,M,0000,0000*5A
$GPRMC,190240.750,A,4308.3165,N,07726.2610,W,5.48,267.33,140519,,,D*78
lng=-77.437690, lat=43.138607, altitude=143.70, speed=4.07, satellites=10, angle=260.2700, fixquality=2
$GPGGA,190241.000,4308.3166,N,07726.2615,W,2,10,0.93,143.7,M,-34.4,M,0000,0000*5F
$GPRMC,190241.000,A,4308.3166,N,07726.2615,W,6.41,273.20,140519,,,D*70
lng=-77.437698, lat=43.138607, altitude=143.70, speed=5.48, satellites=10, angle=267.3300, fixquality=2
$GPGGA,190241.250,4308.3167,N,07726.2622,W,2,10,0.93,143.7,M,-34.4,M,0000,0000*5D
$GPRMC,190241.250,A,4308.3167,N,07726.2622,W,6.78,274.46,140519,,,D*7F
lng=-77.437705, lat=43.138614, altitude=143.70, speed=6.41, satellites=10, angle=273.2000, fixquality=2
$GPGGA,190241.500,4308.3168,N,07726.2628,W,2,10,0.93,143.7,M,-34.4,M,0000,0000*5A
$GPRMC,190241.500,A,4308.3168,N,07726.2628,W,7.93,276.88,140519,,,D*7C
lng=-77.437713, lat=43.138614, altitude=143.70, speed=6.78, satellites=10, angle=274.4600, fixquality=2
$GPGGA,190241.750,4308.3170,N,07726.2635,W,2,10,0.93,143.6,M,-34.4,M,0000,0000*59
$GPRMC,190241.750,A,4308.3170,N,07726.2635,W,8.67,279.22,140519,,,D*75
lng=-77.437728, lat=43.138614, altitude=143.60, speed=7.93, satellites=10, angle=276.8800, fixquality=2
$GPGGA,190242.000,4308.3172,N,07726.2643,W,2,09,1.32,143.6,M,-34.4,M,0000,0000*59
$GPRMC,190242.000,A,4308.3172,N,07726.2643,W,9.15,281.25,140519,,,D*73
lng=-77.437736, lat=43.138622, altitude=143.60, speed=8.67, satellites=9, angle=279.2200, fixquality=2
$GPGGA,190242.250,4308.3173,N,07726.2653,W,2,09,1.32,143.5,M,-34.4,M,0000,0000*5D
$GPRMC,190242.250,A,4308.3173,N,07726.2653,W,9.96,281.27,140519,,,D*7D
lng=-77.437751, lat=43.138622, altitude=143.50, speed=9.15, satellites=9, angle=281.2500, fixquality=2
$GPGGA,190242.500,4308.3175,N,07726.2662,W,2,09,1.32,143.5,M,-34.4,M,0000,0000*5B
$GPRMC,190242.500,A,4308.3175,N,07726.2662,W,10.49,283.03,140519,,,D*45
lng=-77.437767, lat=43.138622, altitude=143.50, speed=9.96, satellites=9, angle=281.2700, fixquality=2
$GPGGA,190242.750,4308.3177,N,07726.2672,W,2,09,1.32,143.5,M,-34.4,M,0000,0000*5F
$GPRMC,190242.750,A,4308.3177,N,07726.2672,W,11.08,283.85,140519,,,D*4B
lng=-77.437782, lat=43.138629, altitude=143.50, speed=10.49, satellites=9, angle=283.0300, fixquality=2
$GPGGA,190243.000,4308.3179,N,07726.2683,W,2,09,1.32,143.5,M,-34.4,M,0000,0000*5C
$GPRMC,190243.000,A,4308.3179,N,07726.2683,W,11.98,283.09,140519,,,D*45
lng=-77.437797, lat=43.138629, altitude=143.50, speed=11.08, satellites=9, angle=283.8500, fixquality=2
$GPGGA,190243.250,4308.3181,N,07726.2695,W,2,09,1.32,143.5,M,-34.4,M,0000,0000*5B
$GPRMC,190243.250,A,4308.3181,N,07726.2695,W,12.01,284.80,140519,,,D*47
lng=-77.437828, lat=43.138629, altitude=143.50, speed=11.98, satellites=9, angle=283.0900, fixquality=2
$GPGGA,190243.500,4308.3184,N,07726.2706,W,2,09,1.32,143.5,M,-34.4,M,0000,0000*57
$GPRMC,190243.500,A,4308.3184,N,07726.2706,W,13.08,284.54,140519,,,D*4A
lng=-77.437843, lat=43.138637, altitude=143.50, speed=12.01, satellites=9, angle=284.8000, fixquality=2
$GPGGA,190243.750,4308.3186,N,07726.2719,W,2,09,1.32,143.5,M,-34.4,M,0000,0000*5C
$GPRMC,190243.750,A,4308.3186,N,07726.2719,W,13.04,285.31,140519,,,D*4F
lng=-77.437866, lat=43.138637, altitude=143.50, speed=13.08, satellites=9, angle=284.5400, fixquality=2
$GPGGA,190244.000,4308.3189,N,07726.2732,W,2,09,1.32,143.5,M,-34.4,M,0000,0000*5F
$GPRMC,190244.000,A,4308.3189,N,07726.2732,W,13.12,285.36,140519,,,D*4C
lng=-77.437889, lat=43.138648, altitude=143.50, speed=13.04, satellites=9, angle=285.3100, fixquality=2
$GPGGA,190244.250,4308.3192,N,07726.2745,W,2,10,0.93,143.5,M,-34.4,M,0000,0000*50
$GPRMC,190244.250,A,4308.3192,N,07726.2745,W,13.41,285.31,140519,,,D*40
lng=-77.437904, lat=43.138656, altitude=143.50, speed=13.12, satellites=10, angle=285.3600, fixquality=2
$GPGGA,190244.500,4308.3194,N,07726.2758,W,2,10,0.93,143.5,M,-34.4,M,0000,0000*58
$GPRMC,190244.500,A,4308.3194,N,07726.2758,W,13.43,285.69,140519,,,D*47
lng=-77.437934, lat=43.138656, altitude=143.50, speed=13.41, satellites=10, angle=285.3100, fixquality=2
$GPGGA,190244.750,4308.3197,N,07726.2771,W,2,10,0.93,143.4,M,-34.4,M,0000,0000*56
$GPRMC,190244.750,A,4308.3197,N,07726.2771,W,13.49,286.24,140519,,,D*48
lng=-77.437950, lat=43.138664, altitude=143.40, speed=13.43, satellites=10, angle=285.6900, fixquality=2
$GPGGA,190245.000,4308.3201,N,07726.2785,W,2,10,0.93,143.4,M,-34.4,M,0000,0000*52
$GPRMC,190245.000,A,4308.3201,N,07726.2785,W,13.98,286.62,140519,,,D*42
lng=-77.437973, lat=43.138671, altitude=143.40, speed=13.49, satellites=10, angle=286.2400, fixquality=2
$GPGGA,190245.250,4308.3204,N,07726.2799,W,2,10,0.93,143.3,M,-34.4,M,0000,0000*5A
$GPRMC,190245.250,A,4308.3204,N,07726.2799,W,14.31,286.79,140519,,,D*43
lng=-77.437995, lat=43.138671, altitude=143.30, speed=13.98, satellites=10, angle=286.6200, fixquality=2
$GPGGA,190245.500,4308.3207,N,07726.2814,W,2,10,0.93,143.2,M,-34.4,M,0000,0000*50
$GPRMC,190245.500,A,4308.3207,N,07726.2814,W,14.92,287.21,140519,,,D*4D
lng=-77.438018, lat=43.138679, altitude=143.20, speed=14.31, satellites=10, angle=286.7900, fixquality=2
$GPGGA,190245.750,4308.3211,N,07726.2829,W,2,10,0.93,143.2,M,-34.4,M,0000,0000*5E
$GPRMC,190245.750,A,4308.3211,N,07726.2829,W,15.49,287.69,140519,,,D*48
lng=-77.438041, lat=43.138687, altitude=143.20, speed=14.92, satellites=10, angle=287.2100, fixquality=2
$GPGGA,190246.000,4308.3215,N,07726.2844,W,2,10,0.93,143.1,M,-34.4,M,0000,0000*53
$GPRMC,190246.000,A,4308.3215,N,07726.2844,W,15.82,288.02,140519,,,D*43
lng=-77.438072, lat=43.138687, altitude=143.10, speed=15.49, satellites=10, angle=287.6900, fixquality=2
$GPGGA,190246.250,4308.3219,N,07726.2859,W,2,10,0.93,143.1,M,-34.4,M,0000,0000*54
$GPRMC,190246.250,A,4308.3219,N,07726.2859,W,16.20,288.69,140519,,,D*42
lng=-77.438102, lat=43.138694, altitude=143.10, speed=15.82, satellites=10, angle=288.0200, fixquality=2
$GPGGA,190246.500,4308.3223,N,07726.2875,W,2,10,0.93,143.0,M,-34.4,M,0000,0000*50
$GPRMC,190246.500,A,4308.3223,N,07726.2875,W,16.50,289.18,140519,,,D*47
lng=-77.438125, lat=43.138706, altitude=143.00, speed=16.20, satellites=10, angle=288.6900, fixquality=2
$GPGGA,190246.750,4308.3228,N,07726.2891,W,2,10,0.93,143.0,M,-34.4,M,0000,0000*56
$GPRMC,190246.750,A,4308.3228,N,07726.2891,W,16.85,290.51,140519,,,D*4C
lng=-77.438148, lat=43.138713, altitude=143.00, speed=16.50, satellites=10, angle=289.1800, fixquality=2
$GPGGA,190247.000,4308.3233,N,07726.2906,W,2,10,0.93,143.0,M,-34.4,M,0000,0000*50
$GPRMC,190247.000,A,4308.3233,N,07726.2906,W,17.25,291.99,140519,,,D*44
lng=-77.438179, lat=43.138721, altitude=143.00, speed=16.85, satellites=10, angle=290.5100, fixquality=2
$GPGGA,190247.250,4308.3238,N,07726.2921,W,2,10,0.93,142.9,M,-34.4,M,0000,0000*51
$GPRMC,190247.250,A,4308.3238,N,07726.2921,W,17.52,293.89,140519,,,D*4E
lng=-77.438201, lat=43.138729, altitude=142.90, speed=17.25, satellites=10, angle=291.9900, fixquality=2
$GPGGA,190247.500,4308.3244,N,07726.2937,W,2,10,0.93,142.9,M,-34.4,M,0000,0000*5F
$GPRMC,190247.500,A,4308.3244,N,07726.2937,W,17.76,294.99,140519,,,D*40
lng=-77.438224, lat=43.138736, altitude=142.90, speed=17.52, satellites=10, angle=293.8900, fixquality=2
$GPGGA,190247.750,4308.3250,N,07726.2953,W,2,10,0.93,142.9,M,-34.4,M,0000,0000*5F
$GPRMC,190247.750,A,4308.3250,N,07726.2953,W,18.04,296.52,140519,,,D*4F
lng=-77.438255, lat=43.138751, altitude=142.90, speed=17.76, satellites=10, angle=294.9900, fixquality=2
$GPGGA,190248.000,4308.3256,N,07726.2969,W,2,10,0.93,142.9,M,-34.4,M,0000,0000*5D
$GPRMC,190248.000,A,4308.3256,N,07726.2969,W,18.38,297.24,140519,,,D*42
lng=-77.438278, lat=43.138759, altitude=142.90, speed=18.04, satellites=10, angle=296.5200, fixquality=2
$GPGGA,190248.250,4308.3263,N,07726.2985,W,2,10,0.93,142.9,M,-34.4,M,0000,0000*5E
$GPRMC,190248.250,A,4308.3263,N,07726.2985,W,18.68,298.24,140519,,,D*4B
lng=-77.438308, lat=43.138771, altitude=142.90, speed=18.38, satellites=10, angle=297.2400, fixquality=2
$GPGGA,190248.500,4308.3269,N,07726.3002,W,2,10,0.93,142.9,M,-34.4,M,0000,0000*51
$GPRMC,190248.500,A,4308.3269,N,07726.3002,W,18.74,298.02,140519,,,D*4D
lng=-77.438339, lat=43.138778, altitude=142.90, speed=18.68, satellites=10, angle=298.2400, fixquality=2
$GPGGA,190248.750,4308.3276,N,07726.3018,W,2,10,0.93,142.9,M,-34.4,M,0000,0000*53
$GPRMC,190248.750,A,4308.3276,N,07726.3018,W,19.10,298.88,140519,,,D*4E
lng=-77.438362, lat=43.138793, altitude=142.90, speed=18.74, satellites=10, angle=298.0200, fixquality=2
$GPGGA,190249.000,4308.3283,N,07726.3034,W,2,10,0.93,142.9,M,-34.4,M,0000,0000*54
$GPRMC,190249.000,A,4308.3283,N,07726.3034,W,19.05,300.11,140519,,,D*4D
lng=-77.438385, lat=43.138801, altitude=142.90, speed=19.10, satellites=10, angle=298.8800, fixquality=2
$GPGGA,190249.250,4308.3291,N,07726.3051,W,2,10,0.93,142.9,M,-34.4,M,0000,0000*53
$GPRMC,190249.250,A,4308.3291,N,07726.3051,W,19.60,300.90,140519,,,D*40
lng=-77.438423, lat=43.138816, altitude=142.90, speed=19.05, satellites=10, angle=300.1100, fixquality=2
$GPGGA,190249.500,4308.3298,N,07726.3068,W,2,10,0.93,143.0,M,-34.4,M,0000,0000*5A
$GPRMC,190249.500,A,4308.3298,N,07726.3068,W,19.92,301.45,140519,,,D*45
lng=-77.438446, lat=43.138828, altitude=143.00, speed=19.60, satellites=10, angle=300.9000, fixquality=2
$GPGGA,190249.750,4308.3306,N,07726.3085,W,2,10,0.93,143.0,M,-34.4,M,0000,0000*58
$GPRMC,190249.750,A,4308.3306,N,07726.3085,W,20.14,301.62,140519,,,D*46
lng=-77.438476, lat=43.138843, altitude=143.00, speed=19.92, satellites=10, angle=301.4500, fixquality=2
$GPGGA,190250.000,4308.3313,N,07726.3102,W,2,10,0.93,143.1,M,-34.4,M,0000,0000*59
$GPRMC,190250.000,A,4308.3313,N,07726.3102,W,20.21,302.11,140519,,,D*47
lng=-77.438499, lat=43.138858, altitude=143.10, speed=20.14, satellites=10, angle=301.6200, fixquality=2
$GPGGA,190250.250,4308.3321,N,07726.3119,W,2,10,0.93,143.1,M,-34.4,M,0000,0000*55
$GPRMC,190250.250,A,4308.3321,N,07726.3119,W,20.44,301.96,140519,,,D*44
lng=-77.438529, lat=43.138866, altitude=143.10, speed=20.21, satellites=10, angle=302.1100, fixquality=2
$GPGGA,190250.500,4308.3329,N,07726.3136,W,2,10,0.93,143.1,M,-34.4,M,0000,0000*52
$GPRMC,190250.500,A,4308.3329,N,07726.3136,W,20.87,303.32,140519,,,D*40
lng=-77.438560, lat=43.138881, altitude=143.10, speed=20.44, satellites=10, angle=301.9600, fixquality=2
$GPGGA,190250.750,4308.3336,N,07726.3153,W,2,10,0.93,143.2,M,-34.4,M,0000,0000*5B
$GPRMC,190250.750,A,4308.3336,N,07726.3153,W,20.88,302.01,140519,,,D*44
lng=-77.438591, lat=43.138893, altitude=143.20, speed=20.87, satellites=10, angle=303.3200, fixquality=2
$GPGGA,190251.000,4308.3344,N,07726.3171,W,2,10,0.93,143.3,M,-34.4,M,0000,0000*5C
$GPRMC,190251.000,A,4308.3344,N,07726.3171,W,21.30,302.63,140519,,,D*44
lng=-77.438613, lat=43.138908, altitude=143.30, speed=20.88, satellites=10, angle=302.0100, fixquality=2
$GPGGA,190251.250,4308.3352,N,07726.3189,W,2,10,0.93,143.4,M,-34.4,M,0000,0000*5C
$GPRMC,190251.250,A,4308.3352,N,07726.3189,W,21.30,302.25,140519,,,D*41
lng=-77.438644, lat=43.138916, altitude=143.40, speed=21.30, satellites=10, angle=302.6300, fixquality=2
$GPGGA,190251.500,4308.3360,N,07726.3206,W,2,10,0.93,143.6,M,-34.4,M,0000,0000*59
$GPRMC,190251.500,A,4308.3360,N,07726.3206,W,21.23,302.02,140519,,,D*41
lng=-77.438682, lat=43.138931, altitude=143.60, speed=21.30, satellites=10, angle=302.2500, fixquality=2
$GPGGA,190251.750,4308.3368,N,07726.3224,W,2,10,0.93,143.5,M,-34.4,M,0000,0000*55
$GPRMC,190251.750,A,4308.3368,N,07726.3224,W,21.25,301.45,14051$GPGGA,190252.000,4308.3376,N,07726.3242,W,2,10,0.93,143.7,M,-34.4,M,0000,0000*59
lng=-77.438705, lat=43.138950, altitude=143.50, speed=21.23, satellites=10, angle=302.0200, fixquality=2
$GPRMC,190252.250,A,4308.3384,N,07726.3260,W,21.67,302.51,140519,,,D*4C
$GPGGA,190252.500,4308.3392,N,07726.3277,W,2,10,0.93,143.7,M,-34.4,M,0000,0000*50
lng=-77.438766, lat=43.138973, altitude=143.50, speed=21.67, satellites=10, angle=302.5100, fixquality=2
$GPRMC,190252.750,A,4308.3401,N,07726.3295,W,21.73,301.97,140519,,,D*45
$GPGGA,190253.000,4308.3409,N,07726.3314,W,2,10,0.93,143.8,M,-34.4,M,0000,0000*5A
lng=-77.438827, lat=43.139003, altitude=143.70, speed=21.73, satellites=10, angle=301.9700, fixquality=2
$GPRMC,190253.250,A,4308.3417,N,07726.3332,W,22.10,302.25,140519,,,D*46
$GPGGA,190253.500,4308.3426,N,07726.3350,W,2,10,0.93,143.8,M,-34.4,M,0000,0000*52
lng=-77.438880, lat=43.139030, altitude=143.80, speed=22.10, satellites=10, angle=302.2500, fixquality=2
$GPRMC,190253.750,A,4308.3434,N,07726.3368,W,22.30,302.40,140519,,,D*4C
$GPGGA,190254.000,4308.3443,N,07726.3387,W,2,10,0.93,143.9,M,-34.4,M,0000,0000*58
lng=-77.438949, lat=43.139053, altitude=143.80, speed=22.30, satellites=10, angle=302.4000, fixquality=2
$GPRMC,190254.250,A,4308.3451,N,07726.3405,W,22.71,303.03,140519,,,D*42
$GPGGA,190254.500,4308.3460,N,07726.3424,W,2,10,0.93,143.9,M,-34.4,M,0000,0000*52
lng=-77.439002, lat=43.139087, altitude=143.90, speed=22.71, satellites=10, angle=303.0300, fixquality=2
$GPRMC,190254.750,A,4308.3469,N,07726.3442,W,22.93,302.68,140519,,,D*4F
$GPGGA,190255.000,4308.3478,N,07726.3461,W,2,10,0.93,144.0,M,-34.4,M,0000,0000*50
lng=-77.439071, lat=43.139110, altitude=143.90, speed=22.93, satellites=10, angle=302.6800, fixquality=2
$GPRMC,190255.250,A,4308.3487,N,07726.3479,W,22.87,304.92,140519,,,D*45
$GPGGA,190255.500,4308.3497,N,07726.3497,W,2,10,0.93,144.2,M,-34.4,M,0000,0000*5F
lng=-77.439125, lat=43.139144, altitude=144.00, speed=22.87, satellites=10, angle=304.9200, fixquality=2
$GPRMC,190255.750,A,4308.3506,N,07726.3515,W,23.08,306.98,140519,,,D*4D
$GPGGA,190256.000,4308.3517,N,07726.3533,W,2,10,0.93,144.3,M,-34.4,M,0000,0000*5E
lng=-77.439193, lat=43.139175, altitude=144.20, speed=23.08, satellites=10, angle=306.9800, fixquality=2
$GPRMC,190256.250,A,4308.3527,N,07726.3549,W,22.85,309.91,140519,,,D*43
$GPGGA,190256.500,4308.3537,N,07726.3566,W,2,10,0.93,144.4,M,-34.4,M,0000,0000*5E
lng=-77.439247, lat=43.139209, altitude=144.30, speed=22.85, satellites=10, angle=309.9100, fixquality=2
$GPRMC,190256.750,A,4308.3548,N,07726.3583,W,23.80,313.39,140519,,,D*44
$GPGGA,190257.000,4308.3560,N,07726.3599,W,2,10,0.93,144.5,M,-34.4,M,0000,0000*59
lng=-77.439308, lat=43.139247, altitude=144.40, speed=23.80, satellites=10, angle=313.3900, fixquality=2
$GPRMC,190257.250,A,4308.3571,N,07726.3615,W,23.25,315.01,140519,,,D*44
$GPGGA,190257.500,4308.3583,N,07726.3631,W,2,10,0.93,144.6,M,-34.4,M,0000,0000*53
lng=-77.439353, lat=43.139282, altitude=144.50, speed=23.25, satellites=10, angle=315.0100, fixquality=2
$GPRMC,190257.750,A,4308.3596,N,07726.3646,W,23.45,319.90,140519,,,D*4C
$GPGGA,190258.000,4308.3609,N,07726.3661,W,2,09,1.33,144.6,M,-34.4,M,0000,0000*5E
lng=-77.439414, lat=43.139324, altitude=144.60, speed=23.45, satellites=10, angle=319.9000, fixquality=2
$GPRMC,190258.250,A,4308.3623,N,07726.3674,W,23.41,324.92,140519,,,D*42
$GPGGA,190258.500,4308.3637,N,07726.3686,W,2,09,1.33,144.7,M,-34.4,M,0000,0000*5E
lng=-77.439453, lat=43.139369, altitude=144.60, speed=23.41, satellites=9, angle=324.9200, fixquality=2
$GPRMC,190258.750,A,4308.3651,N,07726.3698,W,23.62,330.18,140519,,,D*46
$GPGGA,190259.000,4308.3666,N,07726.3709,W,2,09,1.33,144.7,M,-34.4,M,0000,0000*58
lng=-77.439491, lat=43.139419, altitude=144.70, speed=23.62, satellites=9, angle=330.1800, fixquality=2
$GPRMC,190259.250,A,4308.3681,N,07726.3719,W,23.82,334.55,140519,,,D*44
$GPGGA,190259.500,4308.3698,N,07726.3729,W,2,09,1.33,144.7,M,-34.4,M,0000,0000*5E
lng=-77.439537, lat=43.139469, altitude=144.70, speed=23.82, satellites=9, angle=334.5500, fixquality=2
$GPRMC,190259.750,A,4308.3713,N,07726.3737,W,24.05,339.56,140519,,,D*41
$GPGGA,190300.000,4308.3729,N,07726.3745,W,2,09,1.33,144.8,M,-34.4,M,0000,0000*58
lng=-77.439559, lat=43.139518, altitude=144.70, speed=24.05, satellites=9, angle=339.5600, fixquality=2
$GPRMC,190300.250,A,4308.3745,N,07726.3752,W,24.46,343.12,140519,,,D*43
$GPGGA,190300.500,4308.3762,N,07726.3759,W,2,10,0.93,144.9,M,-34.4,M,0000,0000*5D
lng=-77.439582, lat=43.139575, altitude=144.80, speed=24.46, satellites=9, angle=343.1200, fixquality=2
$GPRMC,190300.750,A,4308.3778,N,07726.3766,W,24.55,343.18,140519,,,D*47
$GPGGA,190301.000,4308.3795,N,07726.3773,W,2,10,0.93,145.0,M,-34.4,M,0000,0000*51
lng=-77.439605, lat=43.139633, altitude=144.90, speed=24.55, satellites=10, angle=343.1800, fixquality=2
$GPRMC,190301.250,A,4308.3812,N,07726.3779,W,24.56,344.68,140519,,,D*4D
$GPGGA,190301.500,4308.3829,N,07726.3784,W,2,10,0.93,145.1,M,-34.4,M,0000,0000*55
lng=-77.439628, lat=43.139690, altitude=145.00, speed=24.56, satellites=10, angle=344.6800, fixquality=2
$GPRMC,190301.750,A,4308.3846,N,07726.3789,W,24.75,347.31,140519,,,D*48
$GPGGA,190302.000,4308.3863,N,07726.3792,W,2,09,1.33,145.2,M,-34.4,M,0000,0000*5A
lng=-77.439651, lat=43.139747, altitude=145.10, speed=24.75, satellites=10, angle=347.3100, fixquality=2
$GPRMC,190302.250,A,4308.3881,N,07726.3794,W,24.77,352.41,140519,,,D*48
$GPGGA,190302.500,4308.3898,N,07726.3796,W,2,09,1.33,145.3,M,-34.4,M,0000,0000*5E
lng=-77.439659, lat=43.139804, altitude=145.20, speed=24.77, satellites=9, angle=352.4100, fixquality=2
$GPRMC,190302.750,A,4308.3915,N,07726.3797,W,24.42,355.86,140519,,,D*48
$GPGGA,190303.000,4308.3932,N,07726.3798,W,2,09,1.33,145.4,M,-34.4,M,0000,0000*52
lng=-77.439666, lat=43.139858, altitude=145.30, speed=24.42, satellites=9, angle=355.8600, fixquality=2
$GPRMC,190303.250,A,4308.3949,N,07726.3796,W,24.08,0.58,140519,,,D*4A
$GPGGA,190303.500,4308.3966,N,07726.3795,W,2,09,1.33,145.5,M,-34.4,M,0000,0000*5A
lng=-77.439659, lat=43.139915, altitude=145.40, speed=24.08, satellites=9, angle=0.5800, fixquality=2
$GPRMC,190303.750,A,4308.3982,N,07726.3792,W,23.99,4.32,140519,,,D*4B
$GPGGA,190304.000,4308.3999,N,07726.3789,W,2,09,1.33,145.6,M,-34.4,M,0000,0000*56
lng=-77.439659, lat=43.139972, altitude=145.50, speed=23.99, satellites=9, angle=4.3200, fixquality=2
$GPRMC,190304.250,A,4308.4015,N,07726.3785,W,23.65,8.73,140519,,,D*45
$GPGGA,190304.500,4308.4031,N,07726.3780,W,2,10,0.93,145.7,M,-34.4,M,0000,0000*54
lng=-77.439643, lat=43.140022, altitude=145.60, speed=23.65, satellites=9, angle=8.7300, fixquality=2
$GPRMC,190304.750,A,4308.4047,N,07726.3775,W,23.20,11.58,140519,,,D*78
$GPGGA,190305.000,4308.4063,N,07726.3770,W,2,10,0.93,145.8,M,-34.4,M,0000,0000*57
lng=-77.439620, lat=43.140079, altitude=145.70, speed=23.20, satellites=10, angle=11.5800, fixquality=2
$GPRMC,190305.250,A,4308.4078,N,07726.3766,W,22.53,12.18,140519,,,D*70
$GPGGA,190305.500,4308.4093,N,07726.3761,W,2,10,0.93,145.8,M,-34.4,M,0000,0000*5D
lng=-77.439605, lat=43.140129, altitude=145.80, speed=22.53, satellites=10, angle=12.1800, fixquality=2
$GPRMC,190305.750,A,4308.4109,N,07726.3756,W,22.12,12.07,140519,,,D*7A
$GPGGA,190306.000,4308.4124,N,07726.3752,W,2,09,1.33,145.9,M,-34.4,M,0000,0000*54
lng=-77.439590, lat=43.140186, altitude=145.80, speed=22.12, satellites=10, angle=12.0700, fixquality=2
$GPRMC,190306.250,A,4308.4139,N,07726.3748,W,21.68,11.21,140519,,,D*79
$GPGGA,190306.500,4308.4154,N,07726.3744,W,2,09,1.33,146.0,M,-34.4,M,0000,0000*5B
lng=-77.439582, lat=43.140235, altitude=145.90, speed=21.68, satellites=9, angle=11.2100, fixquality=2
$GPRMC,190306.750,A,4308.4170,N,07726.3741,W,21.57,8.69,140519,,,D*40
$GPGGA,190307.000,4308.4185,N,07726.3738,W,2,09,1.33,145.9,M,-34.4,M,0000,0000*52
lng=-77.439567, lat=43.140281, altitude=146.00, speed=21.57, satellites=9, angle=8.6900, fixquality=2
$GPRMC,190307.250,A,4308.4199,N,07726.3735,W,20.54,7.82,140519,,,D*48
$GPGGA,190307.500,4308.4214,N,07726.3732,W,2,09,1.33,145.9,M,-34.4,M,0000,0000*56
lng=-77.439559, lat=43.140331, altitude=145.90, speed=20.54, satellites=9, angle=7.8200, fixquality=2
$GPRMC,190307.750,A,4308.4228,N,07726.3729,W,20.02,6.24,140519,,,D*47
$GPGGA,190308.000,4308.4242,N,07726.3727,W,2,09,1.33,145.9,M,-34.4,M,0000,0000*5B
lng=-77.439552, lat=43.140380, altitude=145.90, speed=20.02, satellites=9, angle=6.2400, fixquality=2
$GPRMC,190308.250,A,4308.4256,N,07726.3725,W,19.23,5.84,140519,,,D*48
$GPGGA,190308.500,4308.4269,N,07726.3722,W,2,09,1.33,145.9,M,-34.4,M,0000,0000*52
lng=-77.439544, lat=43.140430, altitude=145.90, speed=19.23, satellites=9, angle=5.8400, fixquality=2
$GPRMC,190308.750,A,4308.4283,N,07726.3720,W,19.15,6.90,140519,,,D*43
$GPGGA,190309.000,4308.4296,N,07726.3717,W,2,09,1.33,145.8,M,-34.4,M,0000,0000*51
lng=-77.439537, lat=43.140468, altitude=145.90, speed=19.15, satellites=9, angle=6.9000, fixquality=2
$GPRMC,190309.250,A,4308.4308,N,07726.3714,W,18.40,8.87,140519,,,D*4B
$GPGGA,190309.500,4308.4321,N,07726.3711,W,2,09,1.33,145.9,M,-34.4,M,0000,0000*5E
lng=-77.439529, lat=43.140510, altitude=145.80, speed=18.40, satellites=9, angle=8.8700, fixquality=2
$GPRMC,190309.750,A,4308.4334,N,07726.3708,W,17.78,9.45,140519,,,D*47
$GPGGA,190310.000,4308.4346,N,07726.3705,W,2,09,1.33,145.9,M,-34.4,M,0000,0000*57
lng=-77.439506, lat=43.140560, altitude=145.90, speed=17.78, satellites=9, angle=9.4500, fixquality=2
$GPRMC,190310.250,A,4308.4358,N,07726.3702,W,17.36,10.14,140519,,,D*7C
$GPGGA,190310.500,4308.4370,N,07726.3699,W,2,10,0.93,146.1,M,-34.4,M,0000,0000*5B
lng=-77.439498, lat=43.140602, altitude=145.90, speed=17.36, satellites=9, angle=10.1400, fixquality=2
$GPRMC,190310.750,A,4308.4383,N,07726.3695,W,16.82,11.00,140519,,,D*7A
$GPGGA,190311.000,4308.4395,N,07726.3690,W,2,10,0.93,146.2,M,-34.4,M,0000,0000*5E
lng=-77.439491, lat=43.140640, altitude=146.10, speed=16.82, satellites=10, angle=11.0000, fixquality=2
$GPRMC,190311.250,A,4308.4407,N,07726.3685,W,16.36,11.72,140519,,,D*7E
$GPGGA,190311.500,4308.4419,N,07726.3681,W,2,10,0.93,146.5,M,-34.4,M,0000,0000*5F
lng=-77.439476, lat=43.140682, altitude=146.20, speed=16.36, satellites=10, angle=11.7200, fixquality=2
$GPRMC,190311.750,A,4308.4431,N,07726.3677,W,15.29,11.77,140519,,,D*7B
$GPGGA,190312.000,4308.4441,N,07726.3673,W,2,10,0.93,146.6,M,-34.4,M,0000,0000*5A
lng=-77.439460, lat=43.140712, altitude=146.50, speed=15.29, satellites=10, angle=11.7700, fixquality=2
$GPRMC,190312.250,A,4308.4452,N,07726.3670,W,13.34,12.30,140519,,,D*75
$GPGGA,190312.500,4308.4461,N,07726.3666,W,2,10,0.93,146.5,M,-34.4,M,0000,0000*5A
lng=-77.439453, lat=43.140754, altitude=146.60, speed=13.34, satellites=10, angle=12.3000, fixquality=2
$GPRMC,190312.750,A,4308.4469,N,07726.3663,W,11.02,12.52,140519,,,D*79
$GPGGA,190313.000,4308.4477,N,07726.3661,W,2,10,0.93,146.7,M,-34.4,M,0000,0000*5C
lng=-77.439437, lat=43.140781, altitude=146.50, speed=11.02, satellites=10, angle=12.5200, fixquality=2
$GPRMC,190313.250,A,4308.4484,N,07726.3659,W,9.54,11.35,140519,,,D*4F
$GPGGA,190313.500,4308.4491,N,07726.3656,W,2,10,0.93,146.6,M,-34.4,M,0000,0000*54
lng=-77.439430, lat=43.140804, altitude=146.70, speed=9.54, satellites=10, angle=11.3500, fixquality=2
$GPRMC,190313.750,A,4308.4498,N,07726.3654,W,9.15,12.38,140519,,,D*41
$GPGGA,190314.000,4308.4504,N,07726.3651,W,2,10,0.93,146.5,M,-34.4,M,0000,0000*5F
lng=-77.439422, lat=43.140827, altitude=146.60, speed=9.15, satellites=10, angle=12.3800, fixquality=2
$GPRMC,190314.250,A,4308.4510,N,07726.3649,W,8.54,12.38,140519,,,D*4A
$GPGGA,190314.500,4308.4516,N,07726.3647,W,2,10,0.93,146.6,M,-34.4,M,0000,0000*5D
lng=-77.439414, lat=43.140853, altitude=146.50, speed=8.54, satellites=10, angle=12.3800, fixquality=2
$GPRMC,190314.750,A,4308.4522,N,07726.3645,W,8.20,11.45,140519,,,D*48
$GPGGA,190315.000,4308.4528,N,07726.3644,W,2,10,0.93,146.6,M,-34.4,M,0000,0000*57
lng=-77.439407, lat=43.140869, altitude=146.60, speed=8.20, satellites=10, angle=11.4500, fixquality=2
$GPRMC,190315.250,A,4308.4534,N,07726.3642,W,7.62,11.49,140519,,,D*49
$GPGGA,190315.500,4308.4540,N,07726.3640,W,2,10,0.93,146.6,M,-34.4,M,0000,0000*58
lng=-77.439407, lat=43.140892, altitude=146.60, speed=7.62, satellites=10, angle=11.4900, fixquality=2
$GPRMC,190315.750,A,4308.4545,N,07726.3639,W,7.24,11.05,140519,,,D*4C
$GPGGA,190316.000,4308.4550,N,07726.3637,W,2,10,0.93,146.6,M,-34.4,M,0000,0000*5F
lng=-77.439399, lat=43.140911, altitude=146.60, speed=7.24, satellites=10, angle=11.0500, fixquality=2
$GPRMC,190316.250,A,4308.4555,N,07726.3636,W,6.86,11.64,140519,,,D*4A
$GPGGA,190316.500,4308.4560,N,07726.3634,W,2,10,0.93,146.7,M,-34.4,M,0000,0000*5B
lng=-77.439399, lat=43.140926, altitude=146.60, speed=6.86, satellites=10, angle=11.6400, fixquality=2
$GPRMC,190316.750,A,4308.4565,N,07726.3633,W,6.56,11.94,140519,,,D*4B
$GPGGA,190317.000,4308.4569,N,07726.3631,W,2,10,0.93,146.6,M,-34.4,M,0000,0000*52
lng=-77.439384, lat=43.140941, altitude=146.70, speed=6.56, satellites=10, angle=11.9400, fixquality=2
$GPRMC,190317.250,A,4308.4573,N,07726.3630,W,5.98,13.17,140519,,,D*43
$GPGGA,190317.500,4308.4577,N,07726.3629,W,2,09,1.33,146.6,M,-34.4,M,0000,0000*52
lng=-77.439376, lat=43.140956, altitude=146.60, speed=5.98, satellites=10, angle=13.1700, fixquality=2
$GPRMC,190317.750,A,4308.4581,N,07726.3628,W,4.76,8.50,140519,,,D*7A
$GPGGA,190318.000,4308.4584,N,07726.3627,W,2,09,1.33,146.6,M,-34.4,M,0000,0000*5A
lng=-77.439376, lat=43.140968, altitude=146.60, speed=4.76, satellites=9, angle=8.5000, fixquality=2
$GPRMC,190318.250,A,4308.4586,N,07726.3627,W,3.60,7.23,140519,,,D*73
$GPGGA,190318.500,4308.4589,N,07726.3627,W,2,09,1.33,146.4,M,-34.4,M,0000,0000*50
lng=-77.439376, lat=43.140975, altitude=146.60, speed=3.60, satellites=9, angle=7.2300, fixquality=2
$GPRMC,190318.750,A,4308.4590,N,07726.3627,W,3.39,6.88,140519,,,D*7D
$GPGGA,190319.000,4308.4592,N,07726.3628,W,2,10,0.93,146.6,M,-34.4,M,0000,0000*50
lng=-77.439376, lat=43.140983, altitude=146.40, speed=3.39, satellites=9, angle=6.8800, fixquality=2
$GPRMC,190319.250,A,4308.4593,N,07726.3628,W,3.37,1.66,140519,,,D*7C
$GPGGA,190319.500,4308.4594,N,07726.3628,W,2,09,1.33,146.7,M,-34.4,M,0000,0000*51
lng=-77.439376, lat=43.140991, altitude=146.60, speed=3.37, satellites=10, angle=1.6600, fixquality=2
$GPRMC,190319.750,A,4308.4597,N,07726.3628,W,4.52,356.80,140519,,,D*70
$GPGGA,190320.000,4308.4601,N,07726.3628,W,2,09,1.33,146.7,M,-34.4,M,0000,0000*51
lng=-77.439376, lat=43.140991, altitude=146.70, speed=4.52, satellites=9, angle=356.8000, fixquality=2
$GPRMC,190320.250,A,4308.4604,N,07726.3629,W,5.93,347.71,140519,,,D*75
$GPGGA,190320.500,4308.4608,N,07726.3631,W,2,10,0.93,146.8,M,-34.4,M,0000,0000*59
lng=-77.439376, lat=43.141006, altitude=146.70, speed=5.93, satellites=9, angle=347.7100, fixquality=2
$GPRMC,190320.750,A,4308.4613,N,07726.3634,W,7.67,337.24,140519,,,D*74
$GPGGA,190321.000,4308.4619,N,07726.3638,W,2,10,0.93,146.8,M,-34.4,M,0000,0000*54
lng=-77.439384, lat=43.141025, altitude=146.80, speed=7.67, satellites=10, angle=337.2400, fixquality=2
$GPRMC,190321.250,A,4308.4624,N,07726.3644,W,9.16,322.47,140519,,,D*7A
$GPGGA,190321.500,4308.4630,N,07726.3650,W,2,10,0.93,146.8,M,-34.4,M,0000,0000*54
lng=-77.439407, lat=43.141040, altitude=146.80, speed=9.16, satellites=10, angle=322.4700, fixquality=2
$GPRMC,190321.750,A,4308.4635,N,07726.3658,W,11.07,313.16,140519,,,D*4D
$GPGGA,190322.000,4308.4640,N,07726.3667,W,2,10,0.93,146.8,M,-34.4,M,0000,0000*51
lng=-77.439430, lat=43.141056, altitude=146.80, speed=11.07, satellites=10, angle=313.1600, fixquality=2
$GPRMC,190322.250,A,4308.4645,N,07726.3677,W,12.85,303.11,140519,,,D*4E
$GPGGA,190322.500,4308.4650,N,07726.3688,W,2,10,0.93,146.8,M,-34.4,M,0000,0000*54
lng=-77.439460, lat=43.141071, altitude=146.80, speed=12.85, satellites=10, angle=303.1100, fixquality=2
$GPRMC,190322.750,A,4308.4654,N,07726.3699,W,13.57,299.94,140519,,,D*4A
$GPGGA,190323.000,4308.4659,N,07726.3711,W,2,10,0.93,146.8,M,-34.4,M,0000,0000*58
lng=-77.439498, lat=43.141090, altitude=146.80, speed=13.57, satellites=10, angle=299.9400, fixquality=2
$GPRMC,190323.250,A,4308.4663,N,07726.3725,W,14.66,295.19,140519,,,D*40
$GPGGA,190323.500,4308.4667,N,07726.3738,W,2,10,0.93,146.8,M,-34.4,M,0000,0000*5B
lng=-77.439544, lat=43.141105, altitude=146.80, speed=14.66, satellites=10, angle=295.1900, fixquality=2
$GPRMC,190323.750,A,4308.4669,N,07726.3755,W,16.14,286.53,140519,,,D*43
$GPGGA,190324.000,4308.4671,N,07726.3771,W,2,10,0.93,146.8,M,-34.4,M,0000,0000*53
lng=-77.439590, lat=43.141113, altitude=146.80, speed=16.14, satellites=10, angle=286.5300, fixquality=2
$GPRMC,190324.250,A,4308.4673,N,07726.3788,W,17.42,280.66,140519,,,D*48
$GPGGA,190324.500,4308.4675,N,07726.3805,W,2,10,0.93,146.7,M,-34.4,M,0000,0000*51
lng=-77.439651, lat=43.141120, altitude=146.80, speed=17.42, satellites=10, angle=280.6600, fixquality=2
$GPRMC,190324.750,A,4308.4677,N,07726.3823,W,18.73,278.80,140519,,,D*45
$GPGGA,190325.000,4308.4679,N,07726.3841,W,2,10,0.93,146.4,M,-34.4,M,0000,0000*5A
lng=-77.439704, lat=43.141128, altitude=146.70, speed=18.73, satellites=10, angle=278.8000, fixquality=2
$GPRMC,190325.250,A,4308.4680,N,07726.3860,W,19.97,277.33,140519,,,D*42
$GPGGA,190325.500,4308.4681,N,07726.3880,W,2,10,0.93,146.2,M,-34.4,M,0000,0000*53
lng=-77.439773, lat=43.141128, altitude=146.40, speed=19.97, satellites=10, angle=277.3300, fixquality=2
$GPRMC,190325.750,A,4308.4683,N,07726.3900,W,21.19,275.22,140519,,,D*4C
$GPGGA,190326.000,4308.4684,N,07726.3921,W,2,10,0.93,146.0,M,-34.4,M,0000,0000*58
lng=-77.439834, lat=43.141136, altitude=146.20, speed=21.19, satellites=10, angle=275.2200, fixquality=2
$GPRMC,190326.250,A,4308.4684,N,07726.3942,W,22.11,274.50,140519,,,D*44
$GPGGA,190326.500,4308.4686,N,07726.3963,W,2,10,0.93,145.7,M,-34.4,M,0000,0000*5D
lng=-77.439903, lat=43.141136, altitude=146.00, speed=22.11, satellites=10, angle=274.5000, fixquality=2
$GPRMC,190326.750,A,4308.4687,N,07726.3985,W,22.66,274.73,140519,,,D*48
$GPGGA,190327.000,4308.4688,N,07726.4007,W,2,10,0.93,145.5,M,-34.4,M,0000,0000*59
lng=-77.439971, lat=43.141147, altitude=145.70, speed=22.66, satellites=10, angle=274.7300, fixquality=2
$GPRMC,190327.250,A,4308.4689,N,07726.4028,W,22.24,275.13,140519,,,D*4A
$GPGGA,190327.500,4308.4690,N,07726.4049,W,2,10,0.93,145.4,M,-34.4,M,0000,0000*5E
lng=-77.440048, lat=43.141147, altitude=145.50, speed=22.24, satellites=10, angle=275.1300, fixquality=2
$GPRMC,190327.750,A,4308.4692,N,07726.4071,W,21.98,275.60,140519,,,D*49
$GPGGA,190328.000,4308.4694,N,07726.4092,W,2,10,0.93,145.1,M,-34.4,M,0000,0000*53
lng=-77.440116, lat=43.141155, altitude=145.40, speed=21.98, satellites=10, angle=275.6000, fixquality=2
$GPRMC,190328.250,A,4308.4696,N,07726.4113,W,21.93,276.85,140519,,,D*41
$GPGGA,190328.500,4308.4698,N,07726.4134,W,2,10,0.93,145.0,M,-34.4,M,0000,0000*56
lng=-77.440185, lat=43.141162, altitude=145.10, speed=21.93, satellites=10, angle=276.8500, fixquality=2
$GPRMC,190328.750,A,4308.4699,N,07726.4154,W,21.30,277.06,140519,,,D*4B
$GPGGA,190329.000,4308.4701,N,07726.4174,W,2,10,0.93,144.8,M,-34.4,M,0000,0000*5E
lng=-77.440261, lat=43.141162, altitude=145.00, speed=21.30, satellites=10, angle=277.0600, fixquality=2
$GPRMC,190329.250,A,4308.4702,N,07726.4193,W,20.27,276.84,140519,,,D*4B
$GPGGA,190329.500,4308.4704,N,07726.4211,W,2,10,0.93,144.7,M,-34.4,M,0000,0000*51
lng=-77.440322, lat=43.141170, altitude=144.80, speed=20.27, satellites=10, angle=276.8400, fixquality=2
$GPRMC,190329.750,A,4308.4705,N,07726.4229,W,18.00,277.53,140519,,,D*4E
$GPGGA,190330.000,4308.4707,N,07726.4245,W,2,10,0.93,144.7,M,-34.4,M,0000,0000*5E
lng=-77.440383, lat=43.141178, altitude=144.70, speed=18.00, satellites=10, angle=277.5300, fixquality=2
$GPRMC,190330.250,A,4308.4708,N,07726.4261,W,15.90,277.60,140519,,,D*46
$GPGGA,190330.500,4308.4709,N,07726.4276,W,2,10,0.93,144.4,M,-34.4,M,0000,0000*56
lng=-77.440437, lat=43.141178, altitude=144.70, speed=15.90, satellites=10, angle=277.6000, fixquality=2
$GPRMC,190330.750,A,4308.4711,N,07726.4290,W,13.85,279.56,140519,,,D*4C
$GPGGA,190331.000,4308.4712,N,07726.4303,W,2,10,0.93,144.3,M,-34.4,M,0000,0000*5C
lng=-77.440483, lat=43.141185, altitude=144.40, speed=13.85, satellites=10, angle=279.5600, fixquality=2
$GPRMC,190331.250,A,4308.4713,N,07726.4315,W,12.54,277.74,140519,,,D*45
$GPGGA,190331.500,4308.4713,N,07726.4328,W,2,10,0.93,144.2,M,-34.4,M,0000,0000*50
lng=-77.440528, lat=43.141185, altitude=144.30, speed=12.54, satellites=10, angle=277.7400, fixquality=2
$GPRMC,190331.750,A,4308.4714,N,07726.4340,W,11.91,278.03,140519,,,D*42
$GPGGA,190332.000,4308.4714,N,07726.4352,W,2,10,0.93,144.2,M,-34.4,M,0000,0000*5C
lng=-77.440567, lat=43.141185, altitude=144.20, speed=11.91, satellites=10, angle=278.0300, fixquality=2
$GPRMC,190332.250,A,4308.4714,N,07726.4363,W,10.60,277.93,140519,,,D*4C
$GPGGA,190332.500,4308.4715,N,07726.4373,W,2,10,0.93,144.2,M,-34.4,M,0000,0000*5B
lng=-77.440605, lat=43.141185, altitude=144.20, speed=10.60, satellites=10, angle=277.9300, fixquality=2
$GPRMC,190332.750,A,4308.4715,N,07726.4381,W,8.68,279.19,140519,,,D*79
$GPGGA,190333.000,4308.4716,N,07726.4388,W,2,10,0.93,144.1,M,-34.4,M,0000,0000*5B
lng=-77.440635, lat=43.141193, altitude=144.20, speed=8.68, satellites=10, angle=279.1900, fixquality=2
$GPRMC,190333.250,A,4308.4717,N,07726.4394,W,5.94,280.09,140519,,,D*72
$GPGGA,190333.500,4308.4717,N,07726.4399,W,2,10,0.93,144.0,M,-34.4,M,0000,0000*5E
lng=-77.440658, lat=43.141193, altitude=144.10, speed=5.94, satellites=10, angle=280.0900, fixquality=2
$GPRMC,190333.750,A,4308.4718,N,07726.4402,W,3.07,285.21,140519,,,D*73
$GPGGA,190334.000,4308.4718,N,07726.4403,W,2,10,0.92,143.9,M,-34.4,M,0000,0000*58
lng=-77.440673, lat=43.141193, altitude=144.00, speed=3.07, satellites=10, angle=285.2100, fixquality=2
$GPRMC,190334.250,A,4308.4718,N,07726.4404,W,0.05,285.21,140519,,,D*76
$GPGGA,190334.500,4308.4718,N,07726.4403,W,2,10,0.92,143.9,M,-34.4,M,0000,0000*5D
lng=-77.440673, lat=43.141193, altitude=143.90, speed=0.05, satellites=10, angle=285.2100, fixquality=2
$GPRMC,190419.750,A,4308.4717,N,07726.4400,W,3.25,276.73,140519,,,D*7A
$GPGGA,190420.000,4308.4717,N,07726.4403,W,2,10,0.92,143.6,M,-34.4,M,0000,0000*5A
lng=-77.440666, lat=43.141193, altitude=143.50, speed=3.25, satellites=10, angle=276.7300, fixquality=2
$GPRMC,190420.250,A,4308.4717,N,07726.4407,W,5.11,278.70,140519,,,D*7E
$GPGGA,190420.500,4308.4718,N,07726.4412,W,2,09,1.34,143.6,M,-34.4,M,0000,0000*55
lng=-77.440681, lat=43.141193, altitude=143.60, speed=5.11, satellites=10, angle=278.7000, fixquality=2
$GPRMC,190420.750,A,4308.4719,N,07726.4418,W,6.97,278.78,140519,,,D*7E
$GPGGA,190421.000,4308.4719,N,07726.4425,W,2,09,1.34,143.7,M,-34.4,M,0000,0000*55
lng=-77.440696, lat=43.141193, altitude=143.60, speed=6.97, satellites=9, angle=278.7800, fixquality=2
$GPRMC,190421.250,A,4308.4720,N,07726.4433,W,8.92,277.89,140519,,,D*73
$GPGGA,190421.500,4308.4721,N,07726.4441,W,2,10,0.93,143.7,M,-34.4,M,0000,0000*5D
lng=-77.440719, lat=43.141201, altitude=143.70, speed=8.92, satellites=9, angle=277.8900, fixquality=2
$GPRMC,190421.750,A,4308.4722,N,07726.4451,W,10.71,278.80,140519,,,D*42
$GPGGA,190422.000,4308.4723,N,07726.4461,W,2,10,0.93,143.8,M,-34.4,M,0000,0000*54
lng=-77.440757, lat=43.141201, altitude=143.70, speed=10.71, satellites=10, angle=278.8000, fixquality=2
$GPRMC,190422.250,A,4308.4724,N,07726.4472,W,12.45,278.46,140519,,,D*4C
$GPGGA,190422.500,4308.4725,N,07726.4483,W,2,10,0.93,143.9,M,-34.4,M,0000,0000*5A
lng=-77.440788, lat=43.141201, altitude=143.80, speed=12.45, satellites=10, angle=278.4600, fixquality=2
$GPRMC,190422.750,A,4308.4727,N,07726.4495,W,12.90,278.19,140519,,,D*41
$GPGGA,190423.000,4308.4728,N,07726.4508,W,2,10,0.93,144.0,M,-34.4,M,0000,0000*5F
lng=-77.440826, lat=43.141212, altitude=143.90, speed=12.90, satellites=10, angle=278.1900, fixquality=2
$GPRMC,190423.250,A,4308.4729,N,07726.4521,W,14.08,278.02,140519,,,D*48
$GPGGA,190423.500,4308.4730,N,07726.4534,W,2,10,0.93,144.1,M,-34.4,M,0000,0000*5D
lng=-77.440872, lat=43.141212, altitude=144.00, speed=14.08, satellites=10, angle=278.0200, fixquality=2
$GPRMC,190423.750,A,4308.4732,N,07726.4549,W,15.67,276.97,140519,,,D*43
$GPGGA,190424.000,4308.4733,N,07726.4565,W,2,10,0.93,144.3,M,-34.4,M,0000,0000*5A
lng=-77.440917, lat=43.141220, altitude=144.10, speed=15.67, satellites=10, angle=276.9700, fixquality=2
$GPRMC,190424.250,A,4308.4735,N,07726.4581,W,18.11,277.30,140519,,,D*42
$GPGGA,190424.500,4308.4737,N,07726.4599,W,2,10,0.93,144.3,M,-34.4,M,0000,0000*58
lng=-77.440963, lat=43.141227, altitude=144.30, speed=18.11, satellites=10, angle=277.3000, fixquality=2
$GPRMC,190424.750,A,4308.4739,N,07726.4618,W,19.76,277.80,140519,,,D*43
$GPGGA,190425.000,4308.4741,N,07726.4638,W,2,10,0.93,144.4,M,-34.4,M,0000,0000*52
lng=-77.441032, lat=43.141235, altitude=144.30, speed=19.76, satellites=10, angle=277.8000, fixquality=2
$GPRMC,190425.250,A,4308.4743,N,07726.4659,W,22.59,278.40,140519,,,D*49
$GPGGA,190425.500,4308.4746,N,07726.4682,W,2,10,0.93,144.4,M,-34.4,M,0000,0000*51
lng=-77.441093, lat=43.141235, altitude=144.40, speed=22.59, satellites=10, angle=278.4000, fixquality=2
$GPRMC,190425.750,A,4308.4748,N,07726.4705,W,24.87,278.17,140519,,,D*48
$GPGGA,190426.000,4308.4751,N,07726.4730,W,2,10,0.93,144.6,M,-34.4,M,0000,0000*5B
lng=-77.441177, lat=43.141242, altitude=144.40, speed=24.87, satellites=10, angle=278.1700, fixquality=2
$GPRMC,190426.250,A,4308.4753,N,07726.4757,W,27.81,277.59,140519,,,D*43
$GPGGA,190426.500,4308.4756,N,07726.4784,W,2,10,0.93,144.7,M,-34.4,M,0000,0000*57
lng=-77.441261, lat=43.141250, altitude=144.60, speed=27.81, satellites=10, angle=277.5900, fixquality=2
$GPRMC,190426.750,A,4308.4759,N,07726.4812,W,30.38,278.18,140519,,,D*4C
$GPGGA,190427.000,4308.4762,N,07726.4842,W,2,10,0.93,144.9,M,-34.4,M,0000,0000*5F
lng=-77.441352, lat=43.141269, altitude=144.70, speed=30.38, satellites=10, angle=278.1800, fixquality=2
$GPRMC,190427.250,A,4308.4765,N,07726.4873,W,32.79,276.68,140519,,,D*4E
$GPGGA,190427.500,4308.4767,N,07726.4905,W,2,10,0.93,145.1,M,-34.4,M,0000,0000*54
lng=-77.441452, lat=43.141277, altitude=144.90, speed=32.79, satellites=10, angle=276.6800, fixquality=2
$GPRMC,190427.750,A,4308.4770,N,07726.4937,W,34.32,276.22,140519,,,D*49
$GPGGA,190428.000,4308.4773,N,07726.4970,W,2,10,0.93,145.3,M,-34.4,M,0000,0000*5B
lng=-77.441558, lat=43.141284, altitude=145.10, speed=34.32, satellites=10, angle=276.2200, fixquality=2
$GPRMC,190428.250,A,4308.4775,N,07726.5004,W,35.55,275.43,140519,,,D*4A
$GPGGA,190428.500,4308.4778,N,07726.5038,W,2,10,0.93,145.3,M,-34.4,M,0000,0000*51
lng=-77.441673, lat=43.141292, altitude=145.30, speed=35.55, satellites=10, angle=275.4300, fixquality=2
$GPRMC,190428.750,A,4308.4780,N,07726.5073,W,36.78,275.42,140519,,,D*48
$GPGGA,190429.000,4308.4782,N,07726.5109,W,2,10,0.93,145.3,M,-34.4,M,0000,0000*53
lng=-77.441787, lat=43.141300, altitude=145.30, speed=36.78, satellites=10, angle=275.4200, fixquality=2
$GPRMC,190429.250,A,4308.4784,N,07726.5145,W,37.66,275.04,140519,,,D*40
$GPGGA,190429.500,4308.4787,N,07726.5182,W,2,10,0.93,145.4,M,-34.4,M,0000,0000*57
lng=-77.441909, lat=43.141307, altitude=145.30, speed=37.66, satellites=10, angle=275.0400, fixquality=2
$GPRMC,190429.750,A,4308.4789,N,07726.5219,W,38.59,274.12,140519,,,D*47
$GPGGA,190430.000,4308.4790,N,07726.5256,W,2,10,0.93,145.3,M,-34.4,M,0000,0000*51
lng=-77.442031, lat=43.141315, altitude=145.40, speed=38.59, satellites=10, angle=274.1200, fixquality=2
$GPRMC,190430.250,A,4308.4792,N,07726.5294,W,39.42,274.03,140519,,,D*4E
$GPGGA,190430.500,4308.4794,N,07726.5332,W,2,10,0.93,145.4,M,-34.4,M,0000,0000*54
lng=-77.442153, lat=43.141315, altitude=145.30, speed=39.42, satellites=10, angle=274.0300, fixquality=2
$GPRMC,190430.750,A,4308.4796,N,07726.5370,W,40.38,273.61,140519,,,D*44
$GPGGA,190431.000,4308.4798,N,07726.5410,W,2,10,0.93,145.3,M,-34.4,M,0000,0000*5C
lng=-77.442283, lat=43.141323, altitude=145.40, speed=40.38, satellites=10, angle=273.6100, fixquality=2
$GPRMC,190431.250,A,4308.4799,N,07726.5449,W,41.04,273.45,140519,,,D*4A
$GPGGA,190431.500,4308.4801,N,07726.5488,W,2,10,0.93,145.3,M,-34.4,M,0000,0000*57
lng=-77.442413, lat=43.141334, altitude=145.30, speed=41.04, satellites=10, angle=273.4500, fixquality=2
$GPRMC,190431.750,A,4308.4803,N,07726.5527,W,41.37,273.01,140519,,,D*4A
$GPGGA,190432.000,4308.4804,N,07726.5566,W,2,10,0.93,145.2,M,-34.4,M,0000,0000*54
lng=-77.442543, lat=43.141342, altitude=145.30, speed=41.37, satellites=10, angle=273.0100, fixquality=2
$GPRMC,190432.250,A,4308.4806,N,07726.5604,W,41.36,273.16,140519,,,D*4C
$GPGGA,190432.500,4308.4807,N,07726.5641,W,2,10,0.92,145.6,M,-34.4,M,0000,0000*51
lng=-77.442672, lat=43.141342, altitude=145.20, speed=41.36, satellites=10, angle=273.1600, fixquality=2
$GPRMC,190432.750,A,4308.4809,N,07726.5679,W,41.20,273.24,140519,,,D*4A
$GPGGA,190433.000,4308.4811,N,07726.5717,W,2,10,0.93,145.4,M,-34.4,M,0000,0000*53
lng=-77.442794, lat=43.141349, altitude=145.60, speed=41.20, satellites=10, angle=273.2400, fixquality=2
$GPRMC,190433.250,A,4308.4812,N,07726.5754,W,40.88,273.05,140519,,,D*4A
$GPGGA,190433.500,4308.4814,N,07726.5791,W,2,10,0.93,145.5,M,-34.4,M,0000,0000*5C
lng=-77.442916, lat=43.141349, altitude=145.40, speed=40.88, satellites=10, angle=273.0500, fixquality=2
$GPRMC,190433.750,A,4308.4815,N,07726.5828,W,40.51,272.87,140519,,,D*43
$GPGGA,190434.000,4308.4817,N,07726.5865,W,2,10,0.93,145.4,M,-34.4,M,0000,0000*58
lng=-77.443046, lat=43.141357, altitude=145.50, speed=40.51, satellites=10, angle=272.8700, fixquality=2
$GPRMC,190434.250,A,4308.4818,N,07726.5901,W,37.70,272.58,140519,,,D*47
$GPGGA,190434.500,4308.4820,N,07726.5937,W,2,10,0.93,145.4,M,-34.4,M,0000,0000*5F
lng=-77.443168, lat=43.141365, altitude=145.40, speed=37.70, satellites=10, angle=272.5800, fixquality=2
$GPRMC,190434.750,A,4308.4821,N,07726.5973,W,37.40,272.02,140519,,,D*41
$GPGGA,190435.000,4308.4822,N,07726.6009,W,2,10,0.93,145.4,M,-34.4,M,0000,0000*5E
lng=-77.443283, lat=43.141365, altitude=145.40, speed=37.40, satellites=10, angle=272.0200, fixquality=2
$GPRMC,190435.250,A,4308.4823,N,07726.6044,W,36.79,272.01,140519,,,D*41
$GPGGA,190435.500,4308.4824,N,07726.6079,W,2,10,0.93,145.5,M,-34.4,M,0000,0000*5B
lng=-77.443405, lat=43.141372, altitude=145.40, speed=36.79, satellites=10, angle=272.0100, fixquality=2
$GPRMC,190435.750,A,4308.4824,N,07726.6114,W,36.56,270.83,140519,,,D*42
$GPGGA,190436.000,4308.4825,N,07726.6149,W,2,10,0.93,145.5,M,-34.4,M,0000,0000*5E
lng=-77.443519, lat=43.141372, altitude=145.50, speed=36.56, satellites=10, angle=270.8300, fixquality=2
$GPRMC,190436.250,A,4308.4826,N,07726.6183,W,36.06,271.10,140519,,,D*46
$GPGGA,190436.500,4308.4826,N,07726.6217,W,2,10,0.93,145.6,M,-34.4,M,0000,0000*53
lng=-77.443634, lat=43.141372, altitude=145.50, speed=36.06, satellites=10, angle=271.1000, fixquality=2
$GPRMC,190436.750,A,4308.4827,N,07726.6252,W,35.44,270.62,140519,,,D*4C
$GPGGA,190437.000,4308.4827,N,07726.6285,W,2,10,0.93,145.5,M,-34.4,M,0000,0000*5E
lng=-77.443748, lat=43.141380, altitude=145.60, speed=35.44, satellites=10, angle=270.6200, fixquality=2
$GPRMC,190437.250,A,4308.4827,N,07726.6319,W,34.89,269.72,140519,,,D*4F
$GPGGA,190437.500,4308.4827,N,07726.6352,W,2,10,0.93,145.5,M,-34.4,M,0000,0000*50
lng=-77.443862, lat=43.141380, altitude=145.50, speed=34.89, satellites=10, angle=269.7200, fixquality=2
$GPRMC,190437.750,A,4308.4827,N,07726.6385,W,34.42,268.94,140519,,,D*41
$GPGGA,190438.000,4308.4826,N,07726.6418,W,2,10,0.93,145.5,M,-34.4,M,0000,0000*52
lng=-77.443977, lat=43.141380, altitude=145.50, speed=34.42, satellites=10, angle=268.9400, fixquality=2
$GPRMC,190438.250,A,4308.4826,N,07726.6451,W,34.23,268.06,140519,,,D*48
$GPGGA,190438.500,4308.4825,N,07726.6483,W,2,10,0.93,145.5,M,-34.4,M,0000,0000*56
lng=-77.444084, lat=43.141372, altitude=145.50, speed=34.23, satellites=10, angle=268.0600, fixquality=2
$GPRMC,190438.750,A,4308.4824,N,07726.6515,W,33.69,267.73,140519,,,D*4A
$GPGGA,190439.000,4308.4823,N,07726.6547,W,2,10,0.93,145.5,M,-34.4,M,0000,0000*5D
lng=-77.444190, lat=43.141372, altitude=145.50, speed=33.69, satellites=10, angle=267.7300, fixquality=2
$GPRMC,190439.250,A,4308.4822,N,07726.6579,W,33.04,267.30,140519,,,D*4E
$GPGGA,190439.500,4308.4821,N,07726.6611,W,2,10,0.93,145.4,M,-34.4,M,0000,0000*5B
lng=-77.444297, lat=43.141372, altitude=145.50, speed=33.04, satellites=10, angle=267.3000, fixquality=2
$GPRMC,190439.750,A,4308.4820,N,07726.6642,W,32.59,267.19,140519,,,D*40
$GPGGA,190440.000,4308.4819,N,07726.6673,W,2,10,0.93,145.4,M,-34.4,M,0000,0000*5F
lng=-77.444404, lat=43.141365, altitude=145.40, speed=32.59, satellites=10, angle=267.1900, fixquality=2
$GPRMC,190440.250,A,4308.4818,N,07726.6704,W,32.36,267.26,140519,,,D*46
$GPGGA,190440.500,4308.4817,N,07726.6734,W,2,10,0.93,145.4,M,-34.4,M,0000,0000*56
lng=-77.444503, lat=43.141365, altitude=145.40, speed=32.36, satellites=10, angle=267.2600, fixquality=2
$GPRMC,190440.750,A,4308.4816,N,07726.6765,W,31.68,266.96,140519,,,D*48
$GPGGA,190441.000,4308.4815,N,07726.6795,W,2,10,0.93,145.6,M,-34.4,M,0000,0000*59
lng=-77.444602, lat=43.141357, altitude=145.40, speed=31.68, satellites=10, angle=266.9600, fixquality=2
$GPRMC,190441.250,A,4308.4813,N,07726.6824,W,31.55,266.21,140519,,,D*41
$GPGGA,190441.500,4308.4812,N,07726.6853,W,2,10,0.93,146.0,M,-34.4,M,0000,0000*5B
lng=-77.444709, lat=43.141357, altitude=145.60, speed=31.55, satellites=10, angle=266.2100, fixquality=2
$GPRMC,190441.750,A,4308.4810,N,07726.6883,W,30.59,265.73,140519,,,D*43
$GPGGA,190442.000,4308.4809,N,07726.6912,W,2,10,0.93,146.0,M,-34.4,M,0000,0000*53
lng=-77.444808, lat=43.141349, altitude=146.00, speed=30.59, satellites=10, angle=265.7300, fixquality=2
$GPRMC,190442.250,A,4308.4807,N,07726.6941,W,29.96,265.35,140519,,,D*45
$GPGGA,190442.500,4308.4805,N,07726.6970,W,2,10,0.92,146.2,M,-34.4,M,0000,0000*5D
lng=-77.444908, lat=43.141342, altitude=146.00, speed=29.96, satellites=10, angle=265.3500, fixquality=2
$GPRMC,190442.750,A,4308.4803,N,07726.6998,W,29.64,265.48,140519,,,D*47
$GPGGA,190443.000,4308.4802,N,07726.7027,W,2,10,0.93,146.3,M,-34.4,M,0000,0000*54
lng=-77.444992, lat=43.141342, altitude=146.20, speed=29.64, satellites=10, angle=265.4800, fixquality=2
$GPRMC,190443.250,A,4308.4800,N,07726.7055,W,29.36,265.23,140519,,,D*43
$GPGGA,190443.500,4308.4798,N,07726.7083,W,2,10,0.93,146.4,M,-34.4,M,0000,0000*54
lng=-77.445091, lat=43.141334, altitude=146.30, speed=29.36, satellites=10, angle=265.2300, fixquality=2
$GPRMC,190443.750,A,4308.4796,N,07726.7111,W,29.37,265.56,140519,,,D*44
$GPGGA,190444.000,4308.4795,N,07726.7139,W,2,10,0.93,146.6,M,-34.4,M,0000,0000*59
lng=-77.445182, lat=43.141323, altitude=146.40, speed=29.37, satellites=10, angle=265.5600, fixquality=2
$GPRMC,190444.250,A,4308.4793,N,07726.7167,W,29.54,265.32,140519,,,D*45
$GPGGA,190444.500,4308.4792,N,07726.7195,W,2,10,0.93,146.8,M,-34.4,M,0000,0000*53
lng=-77.445281, lat=43.141323, altitude=146.60, speed=29.54, satellites=10, angle=265.3200, fixquality=2
$GPRMC,190444.750,A,4308.4790,N,07726.7223,W,29.33,265.50,140519,,,D*45
$GPGGA,190445.000,4308.4789,N,07726.7251,W,2,10,0.93,147.0,M,-34.4,M,0000,0000*5F
lng=-77.445365, lat=43.141315, altitude=146.80, speed=29.33, satellites=10, angle=265.5000, fixquality=2
$GPRMC,190445.250,A,4308.4787,N,07726.7279,W,28.95,266.03,140519,,,D*40
$GPGGA,190445.500,4308.4786,N,07726.7306,W,2,10,0.93,147.2,M,-34.4,M,0000,0000*54
lng=-77.445465, lat=43.141307, altitude=147.00, speed=28.95, satellites=10, angle=266.0300, fixquality=2
$GPRMC,190445.750,A,4308.4784,N,07726.7333,W,28.74,266.21,140519,,,D*46
$GPGGA,190446.000,4308.4783,N,07726.7360,W,2,10,0.93,147.3,M,-34.4,M,0000,0000*56
lng=-77.445556, lat=43.141307, altitude=147.20, speed=28.74, satellites=10, angle=266.2100, fixquality=2
$GPRMC,190446.250,A,4308.4782,N,07726.7387,W,28.29,266.79,140519,,,D*4C
$GPGGA,190446.500,4308.4781,N,07726.7414,W,2,10,0.93,147.5,M,-34.4,M,0000,0000*53
lng=-77.445648, lat=43.141300, altitude=147.30, speed=28.29, satellites=10, angle=266.7900, fixquality=2
$GPRMC,190446.750,A,4308.4780,N,07726.7440,W,27.22,266.65,140519,,,D*4E
$GPGGA,190447.000,4308.4779,N,07726.7466,W,2,10,0.93,147.6,M,-34.4,M,0000,0000*56
lng=-77.445732, lat=43.141300, altitude=147.50, speed=27.22, satellites=10, angle=266.6500, fixquality=2
$GPRMC,190447.250,A,4308.4778,N,07726.7491,W,27.09,266.65,140519,,,D*48
$GPGGA,190447.500,4308.4777,N,07726.7517,W,2,10,0.93,147.8,M,-34.4,M,0000,0000*54
lng=-77.445816, lat=43.141300, altitude=147.60, speed=27.09, satellites=10, angle=266.6500, fixquality=2
$GPRMC,190447.750,A,4308.4776,N,07726.7542,W,26.93,266.07,140519,,,D*4A
$GPGGA,190448.000,4308.4775,N,07726.7568,W,2,10,0.93,147.9,M,-34.4,M,0000,0000*55
lng=-77.445907, lat=43.141292, altitude=147.80, speed=26.93, satellites=10, angle=266.0700, fixquality=2
$GPRMC,190448.250,A,4308.4774,N,07726.7594,W,26.96,265.42,140519,,,D*4E
$GPGGA,190448.500,4308.4772,N,07726.7620,W,2,10,0.93,148.1,M,-34.4,M,0000,0000*5F
lng=-77.445991, lat=43.141292, altitude=147.90, speed=26.96, satellites=10, angle=265.4200, fixquality=2
$GPRMC,190448.750,A,4308.4771,N,07726.7645,W,26.95,265.07,140519,,,D*43
$GPGGA,190449.000,4308.4769,N,07726.7671,W,2,10,0.93,148.2,M,-34.4,M,0000,0000*56
lng=-77.446075, lat=43.141284, altitude=148.10, speed=26.95, satellites=10, angle=265.0700, fixquality=2
$GPRMC,190449.250,A,4308.4768,N,07726.7697,W,27.65,265.72,140519,,,D*4C
$GPGGA,190449.500,4308.4766,N,07726.7723,W,2,10,0.93,148.3,M,-34.4,M,0000,0000*5B
lng=-77.446159, lat=43.141277, altitude=148.20, speed=27.65, satellites=10, angle=265.7200, fixquality=2
$GPRMC,190449.750,A,4308.4764,N,07726.7750,W,27.63,265.32,140519,,,D*4D
$GPGGA,190450.000,4308.4763,N,07726.7776,W,2,10,0.93,148.4,M,-34.4,M,0000,0000*54
lng=-77.446250, lat=43.141277, altitude=148.30, speed=27.63, satellites=10, angle=265.3200, fixquality=2
$GPRMC,190450.250,A,4308.4761,N,07726.7803,W,27.92,266.06,140519,,,D*46
$GPGGA,190450.500,4308.4760,N,07726.7830,W,2,10,0.93,148.4,M,-34.4,M,0000,0000*5F
lng=-77.446334, lat=43.141269, altitude=148.40, speed=27.92, satellites=10, angle=266.0600, fixquality=2
$GPRMC,190450.750,A,4308.4759,N,07726.7857,W,28.10,265.72,140519,,,D*4C
$GPGGA,190451.000,4308.4757,N,07726.7885,W,2,10,0.93,148.4,M,-34.4,M,0000,0000*51
lng=-77.446426, lat=43.141269, altitude=148.40, speed=28.10, satellites=10, angle=265.7200, fixquality=2
$GPRMC,190451.250,A,4308.4756,N,07726.7913,W,29.51,265.77,140519,,,D*47
$GPGGA,190451.500,4308.4754,N,07726.7941,W,2,10,0.93,148.3,M,-34.4,M,0000,0000*59
lng=-77.446525, lat=43.141258, altitude=148.40, speed=29.51, satellites=10, angle=265.7700, fixquality=2
$GPRMC,190451.750,A,4308.4753,N,07726.7970,W,30.32,265.78,140519,,,D*40
$GPGGA,190452.000,4308.4751,N,07726.7999,W,2,10,0.93,148.2,M,-34.4,M,0000,0000*5E
lng=-77.446617, lat=43.141250, altitude=148.30, speed=30.32, satellites=10, angle=265.7800, fixquality=2
$GPRMC,190452.250,A,4308.4749,N,07726.8028,W,30.57,265.23,140519,,,D*4B
$GPGGA,190452.500,4308.4747,N,07726.8057,W,2,10,0.93,148.2,M,-34.4,M,0000,0000*58
lng=-77.446708, lat=43.141250, altitude=148.20, speed=30.57, satellites=10, angle=265.2300, fixquality=2
$GPRMC,190452.750,A,4308.4745,N,07726.8086,W,30.99,264.77,140519,,,D*44
$GPGGA,190453.000,4308.4743,N,07726.8116,W,2,10,0.93,148.1,M,-34.4,M,0000,0000*5F
lng=-77.446807, lat=43.141242, altitude=148.20, speed=30.99, satellites=10, angle=264.7700, fixquality=2
$GPRMC,190453.250,A,4308.4741,N,07726.8145,W,31.18,264.64,140519,,,D*40
$GPGGA,190453.500,4308.4739,N,07726.8175,W,2,10,0.93,148.0,M,-34.4,M,0000,0000*53
lng=-77.446907, lat=43.141235, altitude=148.10, speed=31.18, satellites=10, angle=264.6400, fixquality=2
$GPRMC,190453.750,A,4308.4737,N,07726.8204,W,31.24,264.93,140519,,,D*45
$GPGGA,190454.000,4308.4735,N,07726.8234,W,2,10,0.93,148.0,M,-34.4,M,0000,0000*5B
lng=-77.447006, lat=43.141227, altitude=148.00, speed=31.24, satellites=10, angle=264.9300, fixquality=2
$GPRMC,190454.250,A,4308.4733,N,07726.8263,W,30.95,264.83,140519,,,D*48
$GPGGA,190454.500,4308.4731,N,07726.8293,W,2,10,0.93,147.9,M,-34.4,M,0000,0000*51
lng=-77.447105, lat=43.141220, altitude=148.00, speed=30.95, satellites=10, angle=264.8300, fixquality=2
$GPRMC,190454.750,A,4308.4729,N,07726.8322,W,30.91,265.17,140519,,,D*4A
$GPGGA,190455.000,4308.4728,N,07726.8352,W,2,10,0.93,147.8,M,-34.4,M,0000,0000*50
lng=-77.447196, lat=43.141212, altitude=147.90, speed=30.91, satellites=10, angle=265.1700, fixquality=2
$GPRMC,190455.250,A,4308.4726,N,07726.8381,W,31.44,264.72,140519,,,D*43
$GPGGA,190455.500,4308.4724,N,07726.8411,W,2,10,0.93,147.7,M,-34.4,M,0000,0000*56
lng=-77.447296, lat=43.141212, altitude=147.80, speed=31.44, satellites=10, angle=264.7200, fixquality=2
$GPRMC,190455.750,A,4308.4722,N,07726.8441,W,31.90,264.70,140519,,,D*42
$GPGGA,190456.000,4308.4720,N,07726.8472,W,2,10,0.93,147.5,M,-34.4,M,0000,0000*53
lng=-77.447402, lat=43.141201, altitude=147.70, speed=31.90, satellites=10, angle=264.7000, fixquality=2
