Vers 60
USE_SERIAL_FEEDBACK=true
DEVELOPMENT_MODE=false
USE_RMC_ONLY=false

$GPRMC,134818.000,A,4308.3054,N,07726.2648,W,0.36,355.99,030619,,,A*71
$GPGGA,134818.250,4308.3054,N,07726.2648,W,1,07,1.24,147.2,M,-34.4,M,,*51
lng=-77.437744, lat=43.138420, altitude=147.10, speed=0.36, satellites=7, angle=355.9900, fixquality=1
$GPRMC,134818.500,A,4308.3054,N,07726.2648,W,0.30,347.38,030619,,,A*7A
$GPGGA,134818.750,4308.3054,N,07726.2648,W,1,07,1.24,147.3,M,-34.4,M,,*55
lng=-77.437744, lat=43.138420, altitude=147.20, speed=0.30, satellites=7, angle=347.3800, fixquality=1
$GPRMC,134819.000,A,4308.3054,N,07726.2649,W,0.25,346.90,030619,,,A*78
$GPGGA,134819.250,4308.3054,N,07726.2649,W,1,07,1.24,147.2,M,-34.4,M,,*51
lng=-77.437751, lat=43.138420, altitude=147.30, speed=0.25, satellites=7, angle=346.9000, fixquality=1
$GPRMC,134819.500,A,4308.3054,N,07726.2649,W,0.19,336.90,030619,,,A*75
$GPGGA,134819.750,4308.3053,N,07726.2649,W,1,07,1.16,147.3,M,-34.4,M,,*53
lng=-77.437751, lat=43.138420, altitude=147.20, speed=0.19, satellites=7, angle=336.9000, fixquality=1
$GPRMC,134820.000,A,4308.3053,N,07726.2649,W,0.09,356.73,030619,,,A*77
$GPGGA,134820.250,4308.3053,N,07726.2649,W,1,07,1.24,147.5,M,-34.4,M,,*5B
lng=-77.437751, lat=43.138420, altitude=147.30, speed=0.09, satellites=7, angle=356.7300, fixquality=1
$GPRMC,134820.500,A,4308.3052,N,07726.2648,W,0.15,182.25,030619,,,A*77
$GPGGA,134820.750,4308.3052,N,07726.2648,W,1,07,1.16,147.8,M,-34.4,M,,*52
lng=-77.437744, lat=43.138420, altitude=147.50, speed=0.15, satellites=7, angle=182.2500, fixquality=1
$GPRMC,134821.000,A,4308.3051,N,07726.2648,W,0.24,174.85,030619,,,A*71
$GPGGA,134821.250,4308.3051,N,07726.2648,W,1,07,1.16,148.0,M,-34.4,M,,*52
lng=-77.437744, lat=43.138420, altitude=147.80, speed=0.24, satellites=7, angle=174.8500, fixquality=1
$GPRMC,134821.500,A,4308.3051,N,07726.2649,W,0.16,177.05,030619,,,A*7F
$GPGGA,134821.750,4308.3051,N,07726.2648,W,1,07,1.16,148.2,M,-34.4,M,,*55
lng=-77.437751, lat=43.138420, altitude=148.00, speed=0.16, satellites=7, angle=177.0500, fixquality=1
$GPRMC,134822.000,A,4308.3051,N,07726.2649,W,0.13,215.96,030619,,,A*71
$GPGGA,134822.250,4308.3051,N,07726.2649,W,1,07,1.16,148.3,M,-34.4,M,,*53
lng=-77.437751, lat=43.138420, altitude=148.20, speed=0.13, satellites=7, angle=215.9600, fixquality=1
$GPRMC,134822.500,A,4308.3051,N,07726.2649,W,0.13,185.66,030619,,,A*71
$GPGGA,134822.750,4308.3051,N,07726.2649,W,1,07,1.16,148.4,M,-34.4,M,,*51
lng=-77.437751, lat=43.138420, altitude=148.30, speed=0.13, satellites=7, angle=185.6600, fixquality=1
$GPRMC,134823.000,A,4308.3051,N,07726.2649,W,0.11,179.76,030619,,,A*75
$GPGGA,134823.250,4308.3051,N,07726.2649,W,1,07,1.16,148.4,M,-34.4,M,,*55
lng=-77.437751, lat=43.138420, altitude=148.40, speed=0.11, satellites=7, angle=179.7600, fixquality=1
$GPRMC,134823.500,A,4308.3051,N,07726.2649,W,0.12,210.00,030619,,,A*7E
$GPGGA,134823.750,4308.3050,N,07726.2649,W,1,07,1.16,148.6,M,-34.4,M,,*53
lng=-77.437751, lat=43.138420, altitude=148.40, speed=0.12, satellites=7, angle=210.0000, fixquality=1
$GPRMC,134824.000,A,4308.3050,N,07726.2649,W,0.08,191.64,030619,,,A*7E
$GPGGA,134824.250,4308.3050,N,07726.2649,W,1,07,1.16,148.7,M,-34.4,M,,*50
lng=-77.437751, lat=43.138420, altitude=148.60, speed=0.08, satellites=7, angle=191.6400, fixquality=1
$GPRMC,134824.500,A,4308.3050,N,07726.2649,W,0.09,142.98,030619,,,A*77
$GPGGA,134824.750,4308.3050,N,07726.2649,W,1,06,1.35,148.8,M,-34.4,M,,*5A
lng=-77.437751, lat=43.138420, altitude=148.70, speed=0.09, satellites=7, angle=142.9800, fixquality=1
$GPRMC,134825.000,A,4308.3050,N,07726.2649,W,0.10,146.04,030619,,,A*7A
$GPGGA,134825.250,4308.3050,N,07726.2649,W,1,07,1.16,148.8,M,-34.4,M,,*5E
lng=-77.437751, lat=43.138420, altitude=148.80, speed=0.10, satellites=6, angle=146.0400, fixquality=1
$GPRMC,134825.500,A,4308.3050,N,07726.2649,W,0.11,125.35,030619,,,A*79
$GPGGA,134825.750,4308.3050,N,07726.2649,W,1,07,1.16,148.8,M,-34.4,M,,*5B
lng=-77.437751, lat=43.138420, altitude=148.80, speed=0.11, satellites=7, angle=125.3500, fixquality=1
$GPRMC,134826.000,A,4308.3050,N,07726.2649,W,0.16,102.75,030619,,,A*79
$GPGGA,134826.250,4308.3051,N,07726.2650,W,1,07,1.19,148.9,M,-34.4,M,,*5A
lng=-77.437751, lat=43.138420, altitude=148.80, speed=0.16, satellites=7, angle=102.7500, fixquality=1
$GPRMC,134826.500,A,4308.3051,N,07726.2650,W,0.11,219.04,030619,,,A*7D
$GPGGA,134826.750,4308.3051,N,07726.2650,W,1,07,1.20,148.9,M,-34.4,M,,*55
lng=-77.437751, lat=43.138420, altitude=148.90, speed=0.11, satellites=7, angle=219.0400, fixquality=1
$GPRMC,134827.000,A,4308.3051,N,07726.2650,W,0.14,193.88,030619,,,A*79
$GPGGA,134827.250,4308.3052,N,07726.2650,W,1,07,1.19,148.9,M,-34.4,M,,*58
lng=-77.437751, lat=43.138420, altitude=148.90, speed=0.14, satellites=7, angle=193.8800, fixquality=1
$GPRMC,134827.500,A,4308.3052,N,07726.2650,W,0.04,161.92,030619,,,A*78
$GPGGA,134827.750,4308.3053,N,07726.2650,W,1,07,1.19,148.9,M,-34.4,M,,*5C
lng=-77.437751, lat=43.138420, altitude=148.90, speed=0.04, satellites=7, angle=161.9200, fixquality=1
$GPRMC,134828.000,A,4308.3054,N,07726.2651,W,0.14,335.73,030619,,,A*78
$GPGGA,134828.250,4308.3054,N,07726.2651,W,1,07,1.19,148.9,M,-34.4,M,,*50
lng=-77.437751, lat=43.138420, altitude=148.90, speed=0.14, satellites=7, angle=335.7300, fixquality=1
$GPRMC,134828.500,A,4308.3054,N,07726.2651,W,0.11,332.96,030619,,,A*74
$GPGGA,134828.750,4308.3055,N,07726.2651,W,1,07,1.19,148.9,M,-34.4,M,,*54
lng=-77.437751, lat=43.138420, altitude=148.90, speed=0.11, satellites=7, angle=332.9600, fixquality=1
$GPRMC,134829.000,A,4308.3055,N,07726.2651,W,0.13,300.46,030619,,,A*7F
$GPGGA,134829.250,4308.3055,N,07726.2651,W,1,07,1.19,148.9,M,-34.4,M,,*50
lng=-77.437751, lat=43.138427, altitude=148.90, speed=0.13, satellites=7, angle=300.4600, fixquality=1
$GPRMC,134829.500,A,4308.3056,N,07726.2651,W,0.10,235.98,030619,,,A*7E
$GPGGA,134829.750,4308.3056,N,07726.2651,W,1,07,1.19,148.9,M,-34.4,M,,*56
lng=-77.437751, lat=43.138427, altitude=148.90, speed=0.10, satellites=7, angle=235.9800, fixquality=1
$GPRMC,134830.000,A,4308.3057,N,07726.2652,W,0.03,41.09,030619,,,A*4A
$GPGGA,134830.250,4308.3057,N,07726.2652,W,1,07,1.20,148.9,M,-34.4,M,,*53
lng=-77.437751, lat=43.138427, altitude=148.90, speed=0.03, satellites=7, angle=41.0900, fixquality=1
$GPRMC,134830.500,A,4308.3057,N,07726.2652,W,0.01,6.00,030619,,,A*77
$GPGGA,134830.750,4308.3058,N,07726.2652,W,1,07,1.24,148.9,M,-34.4,M,,*5D
lng=-77.437751, lat=43.138427, altitude=148.90, speed=0.01, satellites=7, angle=6.0000, fixquality=1
$GPRMC,134831.000,A,4308.3058,N,07726.2652,W,0.02,49.87,030619,,,A*4B
$GPGGA,134831.250,4308.3059,N,07726.2652,W,1,07,1.19,148.9,M,-34.4,M,,*56
lng=-77.437751, lat=43.138427, altitude=148.90, speed=0.02, satellites=7, angle=49.8700, fixquality=1
$GPRMC,134831.500,A,4308.3059,N,07726.2652,W,0.08,76.21,030619,,,A*45
$GPGGA,134831.750,4308.3059,N,07726.2652,W,1,08,1.03,148.9,M,-34.4,M,,*57
lng=-77.437751, lat=43.138427, altitude=148.90, speed=0.08, satellites=7, angle=76.2100, fixquality=1
$GPRMC,134832.000,A,4308.3059,N,07726.2653,W,0.06,167.57,030619,,,A*7C
$GPGGA,134832.250,4308.3059,N,07726.2653,W,1,08,1.03,148.9,M,-34.4,M,,*50
lng=-77.437751, lat=43.138427, altitude=148.90, speed=0.06, satellites=8, angle=167.5700, fixquality=1
$GPRMC,134832.500,A,4308.3059,N,07726.2653,W,0.07,316.49,030619,,,A*73
$GPGGA,134832.750,4308.3059,N,07726.2653,W,1,08,1.03,148.8,M,-34.4,M,,*54
lng=-77.437751, lat=43.138427, altitude=148.90, speed=0.07, satellites=8, angle=316.4900, fixquality=1
$GPRMC,134833.000,A,4308.3059,N,07726.2653,W,0.06,170.41,030619,,,A*7C
$GPGGA,134833.250,4308.3059,N,07726.2653,W,1,08,1.03,148.7,M,-34.4,M,,*5F
lng=-77.437751, lat=43.138427, altitude=148.80, speed=0.06, satellites=8, angle=170.4100, fixquality=1
$GPRMC,134833.500,A,4308.3059,N,07726.2653,W,0.13,131.42,030619,,,A*7B
$GPGGA,134833.750,4308.3059,N,07726.2653,W,1,08,1.03,148.5,M,-34.4,M,,*58
lng=-77.437751, lat=43.138427, altitude=148.70, speed=0.13, satellites=8, angle=131.4200, fixquality=1
$GPRMC,134834.000,A,4308.3059,N,07726.2653,W,0.10,90.56,030619,,,A*45
$GPGGA,134834.250,4308.3059,N,07726.2653,W,1,08,1.03,148.4,M,-34.4,M,,*5B
lng=-77.437751, lat=43.138427, altitude=148.50, speed=0.10, satellites=8, angle=90.5600, fixquality=1
$GPRMC,134834.500,A,4308.3058,N,07726.2653,W,0.07,101.49,030619,,,A*70
$GPGGA,134834.750,4308.3058,N,07726.2653,W,1,08,1.03,148.5,M,-34.4,M,,*5E
lng=-77.437751, lat=43.138427, altitude=148.40, speed=0.07, satellites=8, angle=101.4900, fixquality=1
$GPRMC,134835.000,A,4308.3058,N,07726.2653,W,0.07,112.61,030619,,,A*7C
$GPGGA,134835.250,4308.3058,N,07726.2653,W,1,08,1.03,148.4,M,-34.4,M,,*5B
lng=-77.437751, lat=43.138427, altitude=148.50, speed=0.07, satellites=8, angle=112.6100, fixquality=1
$GPRMC,134835.500,A,4308.3057,N,07726.2653,W,0.04,138.76,030619,,,A*7B
$GPGGA,134835.750,4308.3057,N,07726.2653,W,1,08,1.03,148.4,M,-34.4,M,,*51
lng=-77.437751, lat=43.138427, altitude=148.40, speed=0.04, satellites=8, angle=138.7600, fixquality=1
$GPRMC,134836.000,A,4308.3057,N,07726.2653,W,0.11,276.08,030619,,,A*79
$GPGGA,134836.250,4308.3057,N,07726.2653,W,1,08,1.03,148.4,M,-34.4,M,,*57
lng=-77.437751, lat=43.138427, altitude=148.40, speed=0.11, satellites=8, angle=276.0800, fixquality=1
$GPRMC,134836.500,A,4308.3057,N,07726.2653,W,0.04,284.89,030619,,,A*7C
$GPGGA,134836.750,4308.3057,N,07726.2653,W,1,08,1.03,148.4,M,-34.4,M,,*52
lng=-77.437751, lat=43.138427, altitude=148.40, speed=0.04, satellites=8, angle=284.8900, fixquality=1
$GPRMC,134837.000,A,4308.3057,N,07726.2653,W,0.04,347.59,030619,,,A*7B
$GPGGA,134837.250,4308.3057,N,07726.2653,W,1,08,1.13,148.4,M,-34.4,M,,*57
lng=-77.437751, lat=43.138427, altitude=148.40, speed=0.04, satellites=8, angle=347.5900, fixquality=1
$GPRMC,134837.500,A,4308.3057,N,07726.2653,W,0.02,310.87,030619,,,A*79
$GPGGA,134837.750,4308.3057,N,07726.2653,W,1,08,1.03,148.4,M,-34.4,M,,*53
lng=-77.437751, lat=43.138427, altitude=148.40, speed=0.02, satellites=8, angle=310.8700, fixquality=1
$GPRMC,134838.000,A,4308.3057,N,07726.2653,W,0.03,153.76,030619,,,A*79
$GPGGA,134838.250,4308.3057,N,07726.2653,W,1,08,1.03,148.4,M,-34.4,M,,*59
lng=-77.437751, lat=43.138427, altitude=148.40, speed=0.03, satellites=8, angle=153.7600, fixquality=1
$GPRMC,134838.500,A,4308.3057,N,07726.2653,W,0.02,209.93,030619,,,A*7A
$GPGGA,134838.750,4308.3057,N,07726.2653,W,1,08,1.03,148.4,M,-34.4,M,,*5C
lng=-77.437751, lat=43.138427, altitude=148.40, speed=0.02, satellites=8, angle=209.9300, fixquality=1
$GPRMC,134839.000,A,4308.3057,N,07726.2653,W,0.01,326.73,030619,,,A*7F
$GPGGA,134839.250,4308.3057,N,07726.2653,W,1,08,1.03,148.4,M,-34.4,M,,*58
lng=-77.437751, lat=43.138427, altitude=148.40, speed=0.01, satellites=8, angle=326.7300, fixquality=1
$GPRMC,134839.500,A,4308.3057,N,07726.2653,W,0.03,54.38,030619,,,A*41
$GPGGA,134839.750,4308.3057,N,07726.2653,W,1,08,1.03,148.4,M,-34.4,M,,*5D
lng=-77.437751, lat=43.138427, altitude=148.40, speed=0.03, satellites=8, angle=54.3800, fixquality=1
$GPRMC,134840.000,A,4308.3057,N,07726.2653,W,0.07,294.04,030619,,,A*7F
$GPGGA,134840.250,4308.3057,N,07726.2653,W,1,08,1.03,148.4,M,-34.4,M,,*56
lng=-77.437751, lat=43.138427, altitude=148.40, speed=0.07, satellites=8, angle=294.0400, fixquality=1
$GPRMC,134840.500,A,4308.3057,N,07726.2653,W,0.04,237.71,030619,,,A*72
$GPGGA,134840.750,4308.3057,N,07726.2653,W,1,08,1.03,148.4,M,-34.4,M,,*53
lng=-77.437751, lat=43.138427, altitude=148.40, speed=0.04, satellites=8, angle=237.7100, fixquality=1
$GPRMC,134841.000,A,4308.3057,N,07726.2653,W,0.04,26.70,030619,,,A*45
$GPGGA,134841.250,4308.3057,N,07726.2653,W,1,08,1.03,148.4,M,-34.4,M,,*57
lng=-77.437751, lat=43.138427, altitude=148.40, speed=0.04, satellites=8, angle=26.7000, fixquality=1
$GPRMC,134841.500,A,4308.3057,N,07726.2653,W,0.04,114.38,030619,,,A*7C
$GPGGA,134841.750,4308.3057,N,07726.2653,W,1,08,1.03,148.4,M,-34.4,M,,*52
lng=-77.437751, lat=43.138427, altitude=148.40, speed=0.04, satellites=8, angle=114.3800, fixquality=1
$GPRMC,134842.000,A,4308.3057,N,07726.2653,W,0.01,41.08,030619,,,A*4D
$GPGGA,134842.250,4308.3057,N,07726.2653,W,1,08,1.03,148.4,M,-34.4,M,,*54
lng=-77.437751, lat=43.138427, altitude=148.40, speed=0.01, satellites=8, angle=41.0800, fixquality=1
$GPRMC,134842.500,A,4308.3057,N,07726.2653,W,0.05,183.35,030619,,,A*7D
$GPGGA,134842.750,4308.3057,N,07726.2653,W,1,08,1.03,148.4,M,-34.4,M,,*51
lng=-77.437751, lat=43.138427, altitude=148.40, speed=0.05, satellites=8, angle=183.3500, fixquality=1
$GPRMC,134843.000,A,4308.3057,N,07726.2653,W,0.01,319.83,030619,,,A*71
$GPGGA,134843.250,4308.3057,N,07726.2653,W,1,08,1.03,148.4,M,-34.4,M,,*55
lng=-77.437751, lat=43.138427, altitude=148.40, speed=0.01, satellites=8, angle=319.8300, fixquality=1
$GPRMC,134843.500,A,4308.3057,N,07726.2653,W,0.03,267.59,030619,,,A*79
$GPGGA,134843.750,4308.3057,N,07726.2653,W,1,08,1.03,148.4,M,-34.4,M,,*50
lng=-77.437751, lat=43.138427, altitude=148.40, speed=0.03, satellites=8, angle=267.5900, fixquality=1
$GPRMC,134844.000,A,4308.3057,N,07726.2653,W,0.05,238.60,030619,,,A*7D
$GPGGA,134844.250,4308.3057,N,07726.2653,W,1,08,1.03,148.4,M,-34.4,M,,*52
lng=-77.437751, lat=43.138427, altitude=148.40, speed=0.05, satellites=8, angle=238.6000, fixquality=1
$GPRMC,134844.500,A,4308.3057,N,07726.2653,W,0.04,143.58,030619,,,A*7D
$GPGGA,134844.750,4308.3057,N,07726.2653,W,1,08,1.03,148.4,M,-34.4,M,,*57
lng=-77.437751, lat=43.138427, altitude=148.40, speed=0.04, satellites=8, angle=143.5800, fixquality=1
$GPRMC,134845.000,A,4308.3057,N,07726.2653,W,0.06,82.11,030619,,,A*4A
$GPGGA,134845.250,4308.3057,N,07726.2653,W,1,08,1.03,148.4,M,-34.4,M,,*53
lng=-77.437751, lat=43.138427, altitude=148.40, speed=0.06, satellites=8, angle=82.1100, fixquality=1
$GPRMC,134845.500,A,4308.3057,N,07726.2653,W,0.06,60.67,030619,,,A*42
$GPGGA,134845.750,4308.3057,N,07726.2653,W,1,08,1.13,148.4,M,-34.4,M,,*57
lng=-77.437751, lat=43.138427, altitude=148.40, speed=0.06, satellites=8, angle=60.6700, fixquality=1
$GPRMC,134846.000,A,4308.3057,N,07726.2653,W,0.03,277.31,030619,,,A*76
$GPGGA,134846.250,4308.3057,N,07726.2653,W,1,08,1.13,148.4,M,-34.4,M,,*51
lng=-77.437751, lat=43.138427, altitude=148.40, speed=0.03, satellites=8, angle=277.3100, fixquality=1
$GPRMC,134846.500,A,4308.3057,N,07726.2653,W,0.09,352.98,030619,,,A*7C
$GPGGA,134846.750,4308.3057,N,07726.2653,W,1,08,1.13,148.4,M,-34.4,M,,*54
lng=-77.437751, lat=43.138427, altitude=148.40, speed=0.09, satellites=8, angle=352.9800, fixquality=1
$GPRMC,134847.000,A,4308.3057,N,07726.2653,W,0.03,177.18,030619,,,A*7F
$GPGGA,134847.250,4308.3057,N,07726.2653,W,1,08,1.13,148.4,M,-34.4,M,,*50
lng=-77.437751, lat=43.138427, altitude=148.40, speed=0.03, satellites=8, angle=177.1800, fixquality=1
$GPRMC,134847.500,A,4308.3057,N,07726.2653,W,0.02,283.84,030619,,,A*76
$GPGGA,134847.750,4308.3057,N,07726.2653,W,1,08,1.13,148.4,M,-34.4,M,,*55
lng=-77.437751, lat=43.138427, altitude=148.40, speed=0.02, satellites=8, angle=283.8400, fixquality=1
$GPRMC,134848.000,A,4308.3057,N,07726.2653,W,0.02,290.87,030619,,,A*7D
$GPGGA,134848.250,4308.3057,N,07726.2653,W,1,08,1.13,148.4,M,-34.4,M,,*5F
lng=-77.437751, lat=43.138427, altitude=148.40, speed=0.02, satellites=8, angle=290.8700, fixquality=1
$GPRMC,134848.500,A,4308.3057,N,07726.2653,W,0.02,220.81,030619,,,A*75
$GPGGA,134848.750,4308.3057,N,07726.2653,W,1,08,1.13,148.4,M,-34.4,M,,*5A
lng=-77.437751, lat=43.138427, altitude=148.40, speed=0.02, satellites=8, angle=220.8100, fixquality=1
$GPRMC,134849.000,A,4308.3057,N,07726.2653,W,0.01,354.55,030619,,,A*79
$GPGGA,134849.250,4308.3057,N,07726.2653,W,1,08,1.13,148.4,M,-34.4,M,,*5E
lng=-77.437751, lat=43.138427, altitude=148.40, speed=0.01, satellites=8, angle=354.5500, fixquality=1
$GPRMC,134849.500,A,4308.3057,N,07726.2653,W,0.02,350.51,030619,,,A*7F
$GPGGA,134849.750,4308.3057,N,07726.2653,W,1,08,1.13,148.4,M,-34.4,M,,*5B
lng=-77.437751, lat=43.138427, altitude=148.40, speed=0.02, satellites=8, angle=350.5100, fixquality=1
$GPRMC,134850.000,A,4308.3057,N,07726.2653,W,0.03,15.87,030619,,,A*4A
$GPGGA,134850.250,4308.3057,N,07726.2653,W,1,08,1.13,148.4,M,-34.4,M,,*56
lng=-77.437751, lat=43.138427, altitude=148.40, speed=0.03, satellites=8, angle=15.8700, fixquality=1
$GPRMC,134850.500,A,4308.3057,N,07726.2653,W,0.08,2.83,030619,,,A*76
$GPGGA,134850.750,4308.3057,N,07726.2653,W,1,08,1.13,148.4,M,-34.4,M,,*53
lng=-77.437751, lat=43.138427, altitude=148.40, speed=0.08, satellites=8, angle=2.8300, fixquality=1
$GPRMC,134851.000,A,4308.3057,N,07726.2653,W,0.05,16.26,030619,,,A*45
$GPGGA,134851.250,4308.3057,N,07726.2653,W,1,08,1.13,148.4,M,-34.4,M,,*57
lng=-77.437751, lat=43.138427, altitude=148.40, speed=0.05, satellites=8, angle=16.2600, fixquality=1
$GPRMC,134851.500,A,4308.3057,N,07726.2653,W,0.07,19.02,030619,,,A*4B
$GPGGA,134851.750,4308.3057,N,07726.2653,W,1,08,1.13,148.3,M,-34.4,M,,*55
lng=-77.437751, lat=43.138427, altitude=148.40, speed=0.07, satellites=8, angle=19.0200, fixquality=1
$GPRMC,134852.000,A,4308.3057,N,07726.2653,W,0.07,24.71,030619,,,A*47
$GPGGA,134852.250,4308.3057,N,07726.2653,W,1,08,1.03,148.3,M,-34.4,M,,*52
lng=-77.437751, lat=43.138427, altitude=148.30, speed=0.07, satellites=8, angle=24.7100, fixquality=1
$GPRMC,134852.500,A,4308.3057,N,07726.2653,W,0.23,19.28,030619,,,A*46
$GPGGA,134852.750,4308.3057,N,07726.2653,W,1,08,1.03,148.3,M,-34.4,M,,*57
lng=-77.437751, lat=43.138427, altitude=148.30, speed=0.23, satellites=8, angle=19.2800, fixquality=1
$GPRMC,134853.000,A,4308.3060,N,07726.2648,W,1.39,37.62,030619,,,A*44
$GPGGA,134853.250,4308.3062,N,07726.2649,W,1,08,1.03,148.2,M,-34.4,M,,*5F
lng=-77.437744, lat=43.138435, altitude=148.30, speed=1.39, satellites=8, angle=37.6200, fixquality=1
$GPRMC,134853.500,A,4308.3065,N,07726.2649,W,3.43,359.71,030619,,,A*73
$GPGGA,134853.750,4308.3069,N,07726.2650,W,1,08,1.13,148.0,M,-34.4,M,,*5A
lng=-77.437751, lat=43.138442, altitude=148.20, speed=3.43, satellites=8, angle=359.7100, fixquality=1
$GPRMC,134854.000,A,4308.3072,N,07726.2651,W,4.68,350.61,030619,,,A*78
$GPGGA,134854.250,4308.3076,N,07726.2653,W,1,08,1.13,147.8,M,-34.4,M,,*52
lng=-77.437751, lat=43.138450, altitude=148.00, speed=4.68, satellites=8, angle=350.6100, fixquality=1
$GPRMC,134854.500,A,4308.3080,N,07726.2654,W,5.50,345.70,030619,,,A*7B
$GPGGA,134854.750,4308.3084,N,07726.2656,W,1,08,1.13,147.7,M,-34.4,M,,*50
lng=-77.437759, lat=43.138469, altitude=147.80, speed=5.50, satellites=8, angle=345.7000, fixquality=1
$GPRMC,134855.000,A,4308.3087,N,07726.2657,W,5.33,344.01,030619,,,A*79
$GPGGA,134855.250,4308.3090,N,07726.2658,W,1,08,1.13,147.6,M,-34.4,M,,*5E
lng=-77.437759, lat=43.138477, altitude=147.70, speed=5.33, satellites=8, angle=344.0100, fixquality=1
$GPRMC,134855.500,A,4308.3094,N,07726.2659,W,5.19,348.29,030619,,,A*7E
$GPGGA,134855.750,4308.3097,N,07726.2660,W,1,08,1.13,147.5,M,-34.4,M,,*54
lng=-77.437767, lat=43.138492, altitude=147.60, speed=5.19, satellites=8, angle=348.2900, fixquality=1
$GPRMC,134856.000,A,4308.3101,N,07726.2660,W,4.85,351.56,030619,,,A*7B
$GPGGA,134856.250,4308.3104,N,07726.2661,W,1,08,1.13,147.5,M,-34.4,M,,*58
lng=-77.437767, lat=43.138500, altitude=147.50, speed=4.85, satellites=8, angle=351.5600, fixquality=1
$GPRMC,134856.500,A,4308.3106,N,07726.2660,W,4.19,359.63,030619,,,A*72
$GPGGA,134856.750,4308.3109,N,07726.2660,W,1,08,1.13,147.4,M,-34.4,M,,*50
lng=-77.437767, lat=43.138507, altitude=147.50, speed=4.19, satellites=8, angle=359.6300, fixquality=1
$GPRMC,134857.000,A,4308.3112,N,07726.2660,W,3.53,4.03,030619,,,A*77
$GPGGA,134857.250,4308.3113,N,07726.2659,W,1,08,1.13,147.4,M,-34.4,M,,*55
lng=-77.437767, lat=43.138515, altitude=147.40, speed=3.53, satellites=8, angle=4.0300, fixquality=1
$GPRMC,134857.500,A,4308.3115,N,07726.2659,W,2.34,8.60,030619,,,A*76
$GPGGA,134857.750,4308.3116,N,07726.2659,W,1,08,1.13,147.3,M,-34.4,M,,*52
lng=-77.437767, lat=43.138526, altitude=147.40, speed=2.34, satellites=8, angle=8.6000, fixquality=1
$GPRMC,134858.000,A,4308.3117,N,07726.2658,W,1.78,9.10,030619,,,A*72
$GPGGA,134858.250,4308.3118,N,07726.2658,W,1,08,1.13,147.3,M,-34.4,M,,*57
lng=-77.437759, lat=43.138526, altitude=147.30, speed=1.78, satellites=8, angle=9.1000, fixquality=1
$GPRMC,134858.500,A,4308.3119,N,07726.2658,W,1.66,14.68,030619,,,A*45
$GPGGA,134858.750,4308.3120,N,07726.2657,W,1,08,1.13,147.2,M,-34.4,M,,*57
lng=-77.437759, lat=43.138534, altitude=147.30, speed=1.66, satellites=8, angle=14.6800, fixquality=1
$GPRMC,134859.000,A,4308.3122,N,07726.2657,W,1.96,18.61,030619,,,A*4C
$GPGGA,134859.250,4308.3124,N,07726.2656,W,1,08,1.03,147.2,M,-34.4,M,,*57
lng=-77.437759, lat=43.138534, altitude=147.20, speed=1.96, satellites=8, angle=18.6100, fixquality=1
$GPRMC,134859.500,A,4308.3125,N,07726.2655,W,2.65,25.32,030619,,,A*4B
$GPGGA,134859.750,4308.3127,N,07726.2653,W,1,08,1.03,147.1,M,-34.4,M,,*57
lng=-77.437759, lat=43.138542, altitude=147.20, speed=2.65, satellites=8, angle=25.3200, fixquality=1
$GPRMC,134900.000,A,4308.3129,N,07726.2652,W,3.03,29.67,030619,,,A*45
$GPGGA,134900.250,4308.3131,N,07726.2650,W,1,08,1.03,147.0,M,-34.4,M,,*5A
lng=-77.437751, lat=43.138549, altitude=147.10, speed=3.03, satellites=8, angle=29.6700, fixquality=1
$GPRMC,134900.500,A,4308.3133,N,07726.2649,W,3.56,30.76,030619,,,A*49
$GPGGA,134900.750,4308.3135,N,07726.2647,W,1,08,1.03,146.9,M,-34.4,M,,*55
lng=-77.437751, lat=43.138557, altitude=147.00, speed=3.56, satellites=8, angle=30.7600, fixquality=1
$GPRMC,134901.000,A,4308.3137,N,07726.2645,W,3.62,44.10,030619,,,A*41
$GPGGA,134901.250,4308.3139,N,07726.2642,W,1,08,1.03,146.9,M,-34.4,M,,*58
lng=-77.437744, lat=43.138557, altitude=146.90, speed=3.62, satellites=8, angle=44.1000, fixquality=1
$GPRMC,134901.500,A,4308.3141,N,07726.2640,W,3.95,45.11,030619,,,A*48
$GPGGA,134901.750,4308.3143,N,07726.2638,W,1,08,1.13,146.9,M,-34.4,M,,*5C
lng=-77.437736, lat=43.138565, altitude=146.90, speed=3.95, satellites=8, angle=45.1100, fixquality=1
$GPRMC,134902.000,A,4308.3145,N,07726.2635,W,3.89,60.51,030619,,,A*46
$GPGGA,134902.250,4308.3147,N,07726.2631,W,1,08,1.13,146.9,M,-34.4,M,,*57
lng=-77.437728, lat=43.138572, altitude=146.90, speed=3.89, satellites=8, angle=60.5100, fixquality=1
$GPRMC,134902.500,A,4308.3148,N,07726.2628,W,4.19,65.52,030619,,,A*4A
$GPGGA,134902.750,4308.3149,N,07726.2624,W,1,08,1.13,147.0,M,-34.4,M,,*50
lng=-77.437713, lat=43.138584, altitude=146.90, speed=4.19, satellites=8, angle=65.5200, fixquality=1
$GPRMC,134903.000,A,4308.3149,N,07726.2621,W,3.75,78.50,030619,,,A*45
$GPGGA,134903.250,4308.3150,N,07726.2618,W,1,08,1.03,147.0,M,-34.4,M,,*52
lng=-77.437705, lat=43.138584, altitude=147.00, speed=3.75, satellites=8, angle=78.5000, fixquality=1
$GPRMC,134903.500,A,4308.3151,N,07726.2615,W,3.52,81.11,030619,,,A*48
$GPGGA,134903.750,4308.3151,N,07726.2613,W,1,08,1.03,147.0,M,-34.4,M,,*5D
lng=-77.437698, lat=43.138584, altitude=147.00, speed=3.52, satellites=8, angle=81.1100, fixquality=1
$GPRMC,134904.000,A,4308.3151,N,07726.2611,W,2.59,91.40,030619,,,A*41
$GPGGA,134904.250,4308.3151,N,07726.2609,W,1,08,1.03,147.0,M,-34.4,M,,*54
lng=-77.437690, lat=43.138584, altitude=147.00, speed=2.59, satellites=8, angle=91.4000, fixquality=1
$GPRMC,134904.500,A,4308.3151,N,07726.2608,W,1.00,97.86,030619,,,A*4F
$GPGGA,134904.750,4308.3151,N,07726.2609,W,1,08,1.03,147.1,M,-34.4,M,,*50
lng=-77.437675, lat=43.138584, altitude=147.00, speed=1.00, satellites=8, angle=97.8600, fixquality=1
$GPRMC,134905.000,A,4308.3152,N,07726.2611,W,0.73,302.29,030619,,,A*7F
$GPGGA,134905.250,4308.3151,N,07726.2614,W,1,08,1.03,146.9,M,-34.4,M,,*51
lng=-77.437690, lat=43.138591, altitude=147.10, speed=0.73, satellites=8, angle=302.2900, fixquality=1
$GPRMC,134905.500,A,4308.3151,N,07726.2616,W,3.13,274.05,030619,,,A*75
$GPGGA,134905.750,4308.3151,N,07726.2620,W,1,08,1.03,146.8,M,-34.4,M,,*52
lng=-77.437698, lat=43.138584, altitude=146.90, speed=3.13, satellites=8, angle=274.0500, fixquality=1
$GPRMC,134906.000,A,4308.3151,N,07726.2624,W,5.00,275.73,030619,,,A*76
$GPGGA,134906.250,4308.3152,N,07726.2629,W,1,08,1.12,146.8,M,-34.4,M,,*5E
lng=-77.437705, lat=43.138584, altitude=146.80, speed=5.00, satellites=8, angle=275.7300, fixquality=1
$GPRMC,134906.500,A,4308.3152,N,07726.2635,W,6.58,277.18,030619,,,A*71
$GPGGA,134906.750,4308.3153,N,07726.2642,W,1,07,1.24,146.7,M,-34.4,M,,*52
lng=-77.437728, lat=43.138591, altitude=146.80, speed=6.58, satellites=8, angle=277.1800, fixquality=1
$GPRMC,134907.000,A,4308.3154,N,07726.2649,W,8.00,279.14,030619,,,A*79
$GPGGA,134907.250,4308.3155,N,07726.2657,W,1,08,1.13,146.7,M,-34.4,M,,*5F
lng=-77.437751, lat=43.138591, altitude=146.70, speed=8.00, satellites=7, angle=279.1400, fixquality=1
$GPRMC,134907.500,A,4308.3156,N,07726.2666,W,9.88,280.24,030619,,,A*77
$GPGGA,134907.750,4308.3157,N,07726.2675,W,1,08,1.13,146.7,M,-34.4,M,,*58
lng=-77.437774, lat=43.138591, altitude=146.70, speed=9.88, satellites=8, angle=280.2400, fixquality=1
$GPRMC,134908.000,A,4308.3158,N,07726.2685,W,11.07,281.69,030619,,,A*48
$GPGGA,134908.250,4308.3159,N,07726.2696,W,1,08,1.13,146.8,M,-34.4,M,,*5E
lng=-77.437812, lat=43.138599, altitude=146.70, speed=11.07, satellites=8, angle=281.6900, fixquality=1
$GPRMC,134908.500,A,4308.3161,N,07726.2707,W,12.46,282.07,030619,,,A*41
$GPGGA,134908.750,4308.3163,N,07726.2719,W,1,08,1.13,146.8,M,-34.4,M,,*54
lng=-77.437843, lat=43.138599, altitude=146.80, speed=12.46, satellites=8, angle=282.0700, fixquality=1
$GPRMC,134909.000,A,4308.3165,N,07726.2731,W,13.60,283.34,030619,,,A*40
$GPGGA,134909.250,4308.3167,N,07726.2744,W,1,08,1.03,146.9,M,-34.4,M,,*5C
lng=-77.437881, lat=43.138607, altitude=146.80, speed=13.60, satellites=8, angle=283.3400, fixquality=1
$GPRMC,134909.500,A,4308.3170,N,07726.2757,W,13.85,284.62,030619,,,A*4E
$GPGGA,134909.750,4308.3172,N,07726.2770,W,1,08,1.12,147.1,M,-34.4,M,,*53
lng=-77.437934, lat=43.138614, altitude=146.90, speed=13.85, satellites=8, angle=284.6200, fixquality=1
$GPRMC,134910.000,A,4308.3175,N,07726.2783,W,14.15,286.38,030619,,,A*4C
$GPGGA,134910.250,4308.3178,N,07726.2796,W,1,08,1.12,147.1,M,-34.4,M,,*5C
lng=-77.437973, lat=43.138622, altitude=147.10, speed=14.15, satellites=8, angle=286.3800, fixquality=1
$GPRMC,134910.500,A,4308.3182,N,07726.2811,W,15.47,288.80,030619,,,A*4E
$GPGGA,134910.750,4308.3185,N,07726.2826,W,1,08,1.13,147.2,M,-34.4,M,,*5D
lng=-77.438018, lat=43.138637, altitude=147.10, speed=15.47, satellites=8, angle=288.8000, fixquality=1
$GPRMC,134911.000,A,4308.3189,N,07726.2842,W,16.22,289.45,030619,,,A*4F
$GPGGA,134911.250,4308.3194,N,07726.2858,W,1,08,1.12,147.3,M,-34.4,M,,*50
lng=-77.438072, lat=43.138648, altitude=147.20, speed=16.22, satellites=8, angle=289.4500, fixquality=1
$GPRMC,134911.500,A,4308.3199,N,07726.2874,W,17.76,293.05,030619,,,A*41
$GPGGA,134911.750,4308.3204,N,07726.2889,W,1,08,1.13,147.4,M,-34.4,M,,*55
lng=-77.438125, lat=43.138664, altitude=147.30, speed=17.76, satellites=8, angle=293.0500, fixquality=1
$GPRMC,134912.000,A,4308.3209,N,07726.2905,W,18.35,294.66,030619,,,A*40
$GPGGA,134912.250,4308.3215,N,07726.2920,W,1,08,1.03,147.4,M,-34.4,M,,*50
lng=-77.438179, lat=43.138679, altitude=147.40, speed=18.35, satellites=8, angle=294.6600, fixquality=1
$GPRMC,134912.500,A,4308.3221,N,07726.2936,W,18.84,295.71,030619,,,A*42
$GPGGA,134912.750,4308.3228,N,07726.2952,W,1,08,1.12,147.5,M,-34.4,M,,*5F
lng=-77.438224, lat=43.138706, altitude=147.40, speed=18.84, satellites=8, angle=295.7100, fixquality=1
$GPRMC,134913.000,A,4308.3234,N,07726.2968,W,19.19,296.33,030619,,,A*49
$GPGGA,134913.250,4308.3240,N,07726.2985,W,1,08,1.03,147.5,M,-34.4,M,,*5F
lng=-77.438278, lat=43.138721, altitude=147.50, speed=19.19, satellites=8, angle=296.3300, fixquality=1
$GPRMC,134913.500,A,4308.3247,N,07726.3002,W,20.10,297.18,030619,,,A*47
$GPGGA,134913.750,4308.3254,N,07726.3018,W,1,07,1.24,147.6,M,-34.4,M,,*5A
lng=-77.438339, lat=43.138744, altitude=147.50, speed=20.10, satellites=8, angle=297.1800, fixquality=1
$GPRMC,134914.000,A,4308.3262,N,07726.3035,W,20.58,298.42,030619,,,A*4A
$GPGGA,134914.250,4308.3269,N,07726.3053,W,1,08,1.03,147.6,M,-34.4,M,,*53
lng=-77.438392, lat=43.138771, altitude=147.60, speed=20.58, satellites=7, angle=298.4200, fixquality=1
$GPRMC,134914.500,A,4308.3277,N,07726.3071,W,21.54,299.22,030619,,,A*41
$GPGGA,134914.750,4308.3285,N,07726.3089,W,1,07,1.24,147.6,M,-34.4,M,,*59
lng=-77.438453, lat=43.138793, altitude=147.60, speed=21.54, satellites=8, angle=299.2200, fixquality=1
$GPRMC,134915.000,A,4308.3292,N,07726.3107,W,21.95,299.90,030619,,,A*4A
$GPGGA,134915.250,4308.3300,N,07726.3125,W,1,07,1.24,147.7,M,-34.4,M,,*57
lng=-77.438507, lat=43.138816, altitude=147.60, speed=21.95, satellites=7, angle=299.9000, fixquality=1
$GPRMC,134915.500,A,4308.3308,N,07726.3143,W,22.65,300.78,030619,,,A*46
$GPGGA,134915.750,4308.3317,N,07726.3162,W,1,07,1.24,147.9,M,-34.4,M,,*59
lng=-77.438575, lat=43.138843, altitude=147.70, speed=22.65, satellites=7, angle=300.7800, fixquality=1
$GPRMC,134916.000,A,4308.3325,N,07726.3181,W,23.03,301.69,030619,,,A*41
$GPGGA,134916.250,4308.3333,N,07726.3200,W,1,08,1.12,148.0,M,-34.4,M,,*52
lng=-77.438629, lat=43.138874, altitude=147.90, speed=23.03, satellites=7, angle=301.6900, fixquality=1
$GPRMC,134916.500,A,4308.3341,N,07726.3220,W,23.38,302.32,030619,,,A*4B
$GPGGA,134916.750,4308.3350,N,07726.3239,W,1,08,1.12,148.1,M,-34.4,M,,*59
lng=-77.438697, lat=43.138900, altitude=148.00, speed=23.38, satellites=8, angle=302.3200, fixquality=1
$GPRMC,134917.000,A,4308.3358,N,07726.3258,W,23.62,302.47,030619,,,A*45
$GPGGA,134917.250,4308.3366,N,07726.3278,W,1,08,1.12,148.2,M,-34.4,M,,*5E
lng=-77.438758, lat=43.138931, altitude=148.10, speed=23.62, satellites=8, angle=302.4700, fixquality=1
$GPRMC,134917.500,A,4308.3375,N,07726.3297,W,24.06,302.95,030619,,,A*46
$GPGGA,134917.750,4308.3384,N,07726.3317,W,1,08,1.12,148.4,M,-34.4,M,,*59
lng=-77.438827, lat=43.138957, altitude=148.20, speed=24.06, satellites=8, angle=302.9500, fixquality=1
$GPRMC,134918.000,A,4308.3393,N,07726.3336,W,24.10,303.00,030619,,,A*44
$GPGGA,134918.250,4308.3402,N,07726.3355,W,1,08,1.12,148.5,M,-34.4,M,,*5D
lng=-77.438888, lat=43.138988, altitude=148.40, speed=24.10, satellites=8, angle=303.0000, fixquality=1
$GPRMC,134918.500,A,4308.3411,N,07726.3375,W,24.11,303.06,030619,,,A*4C
$GPGGA,134918.750,4308.3420,N,07726.3394,W,1,08,1.12,148.7,M,-34.4,M,,*57
lng=-77.438957, lat=43.139022, altitude=148.50, speed=24.11, satellites=8, angle=303.0600, fixquality=1
$GPRMC,134919.000,A,4308.3429,N,07726.3413,W,24.08,303.29,030619,,,A*41
$GPGGA,134919.250,4308.3438,N,07726.3433,W,1,08,1.12,148.9,M,-34.4,M,,*5E
lng=-77.439018, lat=43.139045, altitude=148.70, speed=24.08, satellites=8, angle=303.2900, fixquality=1
$GPRMC,134919.500,A,4308.3447,N,07726.3452,W,24.01,303.06,030619,,,A*4D
$GPGGA,134919.750,4308.3457,N,07726.3471,W,1,08,1.12,149.0,M,-34.4,M,,*5C
lng=-77.439086, lat=43.139080, altitude=148.90, speed=24.01, satellites=8, angle=303.0600, fixquality=1
$GPRMC,134920.000,A,4308.3466,N,07726.3490,W,24.01,303.15,030619,,,A*4D
$GPGGA,134920.250,4308.3475,N,07726.3509,W,1,08,1.12,149.1,M,-34.4,M,,*5C
lng=-77.439155, lat=43.139110, altitude=149.00, speed=24.01, satellites=8, angle=303.1500, fixquality=1
$GPRMC,134920.500,A,4308.3484,N,07726.3528,W,23.72,303.88,030619,,,A*41
$GPGGA,134920.750,4308.3493,N,07726.3546,W,1,08,1.12,149.3,M,-34.4,M,,*58
lng=-77.439216, lat=43.139144, altitude=149.10, speed=23.72, satellites=8, angle=303.8800, fixquality=1
$GPRMC,134921.000,A,4308.3503,N,07726.3565,W,23.61,305.10,030619,,,A*47
$GPGGA,134921.250,4308.3514,N,07726.3582,W,1,08,1.12,149.6,M,-34.4,M,,*5F
lng=-77.439277, lat=43.139167, altitude=149.30, speed=23.61, satellites=8, angle=305.1000, fixquality=1
$GPRMC,134921.500,A,4308.3525,N,07726.3600,W,23.07,308.19,030619,,,A*42
$GPGGA,134921.750,4308.3536,N,07726.3617,W,1,08,1.12,150.1,M,-34.4,M,,*5A
lng=-77.439331, lat=43.139209, altitude=149.60, speed=23.07, satellites=8, angle=308.1900, fixquality=1
$GPRMC,134922.000,A,4308.3548,N,07726.3633,W,22.55,310.57,030619,,,A*4A
$GPGGA,134922.250,4308.3558,N,07726.3649,W,1,08,1.03,150.3,M,-34.4,M,,*5D
lng=-77.439384, lat=43.139247, altitude=150.10, speed=22.55, satellites=8, angle=310.5700, fixquality=1
$GPRMC,134922.500,A,4308.3570,N,07726.3663,W,21.30,315.94,030619,,,A*4B
$GPGGA,134922.750,4308.3581,N,07726.3676,W,1,08,1.12,150.5,M,-34.4,M,,*56
lng=-77.439437, lat=43.139282, altitude=150.30, speed=21.30, satellites=8, angle=315.9400, fixquality=1
$GPRMC,134923.000,A,4308.3593,N,07726.3688,W,20.81,321.34,030619,,,A*41
$GPGGA,134923.250,4308.3605,N,07726.3698,W,1,08,1.12,150.9,M,-34.4,M,,*51
lng=-77.439476, lat=43.139324, altitude=150.50, speed=20.81, satellites=8, angle=321.3400, fixquality=1
$GPRMC,134923.500,A,4308.3618,N,07726.3709,W,20.55,327.21,030619,,,A*47
$GPGGA,134923.750,4308.3631,N,07726.3718,W,1,08,1.12,151.4,M,-34.4,M,,*56
lng=-77.439521, lat=43.139362, altitude=150.90, speed=20.55, satellites=8, angle=327.2100, fixquality=1
$GPRMC,134924.000,A,4308.3644,N,07726.3727,W,20.62,330.37,030619,,,A*45
$GPGGA,134924.250,4308.3657,N,07726.3736,W,1,07,1.25,151.7,M,-34.4,M,,*50
lng=-77.439544, lat=43.139404, altitude=151.40, speed=20.62, satellites=8, angle=330.3700, fixquality=1
$GPRMC,134924.500,A,4308.3671,N,07726.3743,W,20.60,334.97,030619,,,A*48
$GPGGA,134924.750,4308.3685,N,07726.3751,W,1,08,1.12,152.0,M,-34.4,M,,*54
lng=-77.439575, lat=43.139453, altitude=151.70, speed=20.60, satellites=7, angle=334.9700, fixquality=1
$GPRMC,134925.000,A,4308.3698,N,07726.3758,W,20.66,337.29,030619,,,A*41
$GPGGA,134925.250,4308.3712,N,07726.3765,W,1,08,1.03,152.3,M,-34.4,M,,*5B
lng=-77.439598, lat=43.139492, altitude=152.00, speed=20.66, satellites=8, angle=337.2900, fixquality=1
$GPRMC,134925.500,A,4308.3727,N,07726.3771,W,20.67,341.52,030619,,,A*46
$GPGGA,134925.750,4308.3741,N,07726.3776,W,1,08,1.12,152.6,M,-34.4,M,,*5F
lng=-77.439613, lat=43.139541, altitude=152.30, speed=20.67, satellites=8, angle=341.5200, fixquality=1
$GPRMC,134926.000,A,4308.3756,N,07726.3781,W,20.91,344.93,030619,,,A*48
$GPGGA,134926.250,4308.3771,N,07726.3786,W,1,08,1.03,152.9,M,-34.4,M,,*5A
lng=-77.439628, lat=43.139591, altitude=152.60, speed=20.91, satellites=8, angle=344.9300, fixquality=1
$GPRMC,134926.500,A,4308.3786,N,07726.3790,W,20.67,348.09,030619,,,A*46
$GPGGA,134926.750,4308.3801,N,07726.3794,W,1,08,1.12,153.2,M,-34.4,M,,*5E
lng=-77.439651, lat=43.139640, altitude=152.90, speed=20.67, satellites=8, angle=348.0900, fixquality=1
$GPRMC,134927.000,A,4308.3815,N,07726.3797,W,20.65,350.86,030619,,,A*4C
$GPGGA,134927.250,4308.3830,N,07726.3799,W,1,08,1.12,153.4,M,-34.4,M,,*53
lng=-77.439666, lat=43.139690, altitude=153.20, speed=20.65, satellites=8, angle=350.8600, fixquality=1
$GPRMC,134927.500,A,4308.3845,N,07726.3799,W,20.90,355.79,030619,,,A*4D
$GPGGA,134927.750,4308.3860,N,07726.3800,W,1,08,1.12,153.6,M,-34.4,M,,*5E
lng=-77.439666, lat=43.139736, altitude=153.40, speed=20.90, satellites=8, angle=355.7900, fixquality=1
$GPRMC,134928.000,A,4308.3875,N,07726.3799,W,21.15,358.91,030619,,,A*43
$GPGGA,134928.250,4308.3891,N,07726.3799,W,1,08,1.12,153.8,M,-34.4,M,,*5B
lng=-77.439666, lat=43.139793, altitude=153.60, speed=21.15, satellites=8, angle=358.9100, fixquality=1
$GPRMC,134928.500,A,4308.3907,N,07726.3797,W,21.94,2.34,030619,,,A*46
$GPGGA,134928.750,4308.3923,N,07726.3796,W,1,08,1.12,154.0,M,-34.4,M,,*56
lng=-77.439666, lat=43.139842, altitude=153.80, speed=21.94, satellites=8, angle=2.3400, fixquality=1
$GPRMC,134929.000,A,4308.3939,N,07726.3794,W,22.46,4.48,030619,,,A*4D
$GPGGA,134929.250,4308.3955,N,07726.3792,W,1,08,1.12,154.3,M,-34.4,M,,*54
lng=-77.439659, lat=43.139900, altitude=154.00, speed=22.46, satellites=8, angle=4.4800, fixquality=1
$GPRMC,134929.500,A,4308.3972,N,07726.3789,W,23.01,6.67,030619,,,A*46
$GPGGA,134929.750,4308.3988,N,07726.3786,W,1,08,1.12,154.7,M,-34.4,M,,*50
lng=-77.439651, lat=43.139949, altitude=154.30, speed=23.01, satellites=8, angle=6.6700, fixquality=1
$GPRMC,134930.000,A,4308.4005,N,07726.3782,W,23.31,8.31,030619,,,A*40
$GPGGA,134930.250,4308.4021,N,07726.3779,W,1,08,1.12,154.9,M,-34.4,M,,*5E
lng=-77.439643, lat=43.140007, altitude=154.70, speed=23.31, satellites=8, angle=8.3100, fixquality=1
$GPRMC,134930.500,A,4308.4038,N,07726.3775,W,23.38,9.53,030619,,,A*4F
$GPGGA,134930.750,4308.4054,N,07726.3771,W,1,08,1.12,155.2,M,-34.4,M,,*5B
lng=-77.439620, lat=43.140064, altitude=154.90, speed=23.38, satellites=8, angle=9.5300, fixquality=1
$GPRMC,134931.000,A,4308.4071,N,07726.3766,W,23.49,10.06,030619,,,A*7A
$GPGGA,134931.250,4308.4087,N,07726.3763,W,1,08,1.12,155.4,M,-34.4,M,,*54
lng=-77.439605, lat=43.140121, altitude=155.20, speed=23.49, satellites=8, angle=10.0600, fixquality=1
$GPRMC,134931.500,A,4308.4104,N,07726.3759,W,23.57,8.82,030619,,,A*4A
$GPGGA,134931.750,4308.4120,N,07726.3756,W,1,08,1.12,155.7,M,-34.4,M,,*58
lng=-77.439598, lat=43.140171, altitude=155.40, speed=23.57, satellites=8, angle=8.8200, fixquality=1
$GPRMC,134932.000,A,4308.4137,N,07726.3752,W,23.66,8.74,030619,,,A*4C
$GPGGA,134932.250,4308.4153,N,07726.3749,W,1,08,1.12,155.9,M,-34.4,M,,*5A
lng=-77.439582, lat=43.140224, altitude=155.70, speed=23.66, satellites=8, angle=8.7400, fixquality=1
$GPRMC,134932.500,A,4308.4170,N,07726.3745,W,23.67,9.39,030619,,,A*45
$GPGGA,134932.750,4308.4186,N,07726.3741,W,1,08,1.12,156.1,M,-34.4,M,,*54
lng=-77.439575, lat=43.140281, altitude=155.90, speed=23.67, satellites=8, angle=9.3900, fixquality=1
$GPRMC,134933.000,A,4308.4202,N,07726.3737,W,23.22,9.77,030619,,,A*49
$GPGGA,134933.250,4308.4217,N,07726.3734,W,1,08,1.12,156.3,M,-34.4,M,,*5B
lng=-77.439559, lat=43.140338, altitude=156.10, speed=23.22, satellites=8, angle=9.7700, fixquality=1
$GPRMC,134933.500,A,4308.4233,N,07726.3730,W,22.70,10.29,030619,,,A*7C
$GPGGA,134933.750,4308.4248,N,07726.3726,W,1,08,1.12,156.5,M,-34.4,M,,*51
lng=-77.439552, lat=43.140388, altitude=156.30, speed=22.70, satellites=8, angle=10.2900, fixquality=1
$GPRMC,134934.000,A,4308.4263,N,07726.3722,W,21.91,9.80,030619,,,A*4F
$GPGGA,134934.250,4308.4278,N,07726.3719,W,1,08,1.12,156.8,M,-34.4,M,,*51
lng=-77.439537, lat=43.140438, altitude=156.50, speed=21.91, satellites=8, angle=9.8000, fixquality=1
$GPRMC,134934.500,A,4308.4292,N,07726.3715,W,21.34,9.60,030619,,,A*41
$GPGGA,134934.750,4308.4306,N,07726.3712,W,1,08,1.12,157.1,M,-34.4,M,,*5F
lng=-77.439529, lat=43.140487, altitude=156.80, speed=21.34, satellites=8, angle=9.6000, fixquality=1
$GPRMC,134935.000,A,4308.4320,N,07726.3709,W,20.73,9.54,030619,,,A*45
$GPGGA,134935.250,4308.4334,N,07726.3706,W,1,08,1.12,157.3,M,-34.4,M,,*5D
lng=-77.439521, lat=43.140537, altitude=157.10, speed=20.73, satellites=8, angle=9.5400, fixquality=1
$GPRMC,134935.500,A,4308.4349,N,07726.3703,W,20.46,9.71,030619,,,A*44
$GPGGA,134935.750,4308.4363,N,07726.3700,W,1,08,1.12,157.5,M,-34.4,M,,*5A
lng=-77.439498, lat=43.140583, altitude=157.30, speed=20.46, satellites=8, angle=9.7100, fixquality=1
$GPRMC,134936.000,A,4308.4377,N,07726.3697,W,20.23,9.65,030619,,,A*45
$GPGGA,134936.250,4308.4390,N,07726.3694,W,1,08,1.12,157.6,M,-34.4,M,,*5F
lng=-77.439491, lat=43.140625, altitude=157.50, speed=20.23, satellites=8, angle=9.6500, fixquality=1
$GPRMC,134936.500,A,4308.4404,N,07726.3691,W,19.85,10.19,030619,,,A*70
$GPGGA,134936.750,4308.4417,N,07726.3688,W,1,08,1.12,157.8,M,-34.4,M,,*51
lng=-77.439483, lat=43.140674, altitude=157.60, speed=19.85, satellites=8, angle=10.1900, fixquality=1
$GPRMC,134937.000,A,4308.4430,N,07726.3685,W,19.45,10.21,030619,,,A*71
$GPGGA,134937.250,4308.4443,N,07726.3682,W,1,08,1.12,158.0,M,-34.4,M,,*59
lng=-77.439476, lat=43.140712, altitude=157.80, speed=19.45, satellites=8, angle=10.2100, fixquality=1
$GPRMC,134937.500,A,4308.4455,N,07726.3679,W,18.52,9.96,030619,,,A*47
$GPGGA,134937.750,4308.4466,N,07726.3676,W,1,08,1.12,158.1,M,-34.4,M,,*51
lng=-77.439460, lat=43.140754, altitude=158.00, speed=18.52, satellites=8, angle=9.9600, fixquality=1
$GPRMC,134938.000,A,4308.4477,N,07726.3674,W,17.09,10.24,030619,,,A*70
$GPGGA,134938.250,4308.4488,N,07726.3671,W,1,08,1.12,158.5,M,-34.4,M,,*58
lng=-77.439453, lat=43.140796, altitude=158.10, speed=17.09, satellites=8, angle=10.2400, fixquality=1
$GPRMC,134938.500,A,4308.4498,N,07726.3668,W,15.20,11.07,030619,,,A*70
$GPGGA,134938.750,4308.4507,N,07726.3665,W,1,08,1.12,158.6,M,-34.4,M,,*5D
lng=-77.439445, lat=43.140827, altitude=158.50, speed=15.20, satellites=8, angle=11.0700, fixquality=1
$GPRMC,134939.000,A,4308.4516,N,07726.3663,W,13.50,10.80,030619,,,A*77
$GPGGA,134939.250,4308.4522,N,07726.3660,W,1,08,1.12,158.7,M,-34.4,M,,*5A
lng=-77.439437, lat=43.140861, altitude=158.60, speed=13.50, satellites=8, angle=10.8000, fixquality=1
$GPRMC,134939.500,A,4308.4529,N,07726.3658,W,11.57,11.56,030619,,,A*79
$GPGGA,134939.750,4308.4535,N,07726.3655,W,1,08,1.12,158.9,M,-34.4,M,,*51
lng=-77.439430, lat=43.140884, altitude=158.70, speed=11.57, satellites=8, angle=11.5600, fixquality=1
$GPRMC,134940.000,A,4308.4540,N,07726.3653,W,9.67,12.12,030619,,,A*4F
$GPGGA,134940.250,4308.4544,N,07726.3651,W,1,08,1.12,159.1,M,-34.4,M,,*51
lng=-77.439422, lat=43.140903, altitude=158.90, speed=9.67, satellites=8, angle=12.1200, fixquality=1
$GPRMC,134940.500,A,4308.4547,N,07726.3649,W,7.75,15.45,030619,,,A*4E
$GPGGA,134940.750,4308.4550,N,07726.3648,W,1,08,1.12,159.3,M,-34.4,M,,*5B
lng=-77.439414, lat=43.140911, altitude=159.10, speed=7.75, satellites=8, angle=15.4500, fixquality=1
$GPRMC,134941.000,A,4308.4553,N,07726.3646,W,6.10,15.51,030619,,,A*47
$GPGGA,134941.250,4308.4552,N,07726.3648,W,1,08,1.12,159.5,M,-34.4,M,,*5B
lng=-77.439414, lat=43.140918, altitude=159.30, speed=6.10, satellites=8, angle=15.5100, fixquality=1
$GPRMC,134941.500,A,4308.4553,N,07726.3647,W,2.53,9.52,030619,,,A*7E
$GPGGA,134941.750,4308.4554,N,07726.3647,W,1,08,1.12,159.8,M,-34.4,M,,*5A
lng=-77.439414, lat=43.140918, altitude=159.50, speed=2.53, satellites=8, angle=9.5200, fixquality=1
$GPRMC,134942.000,A,4308.4554,N,07726.3647,W,0.09,9.52,030619,,,A*72
$GPGGA,134942.250,4308.4554,N,07726.3647,W,1,08,1.12,160.3,M,-34.4,M,,*5D
lng=-77.439414, lat=43.140926, altitude=159.80, speed=0.09, satellites=8, angle=9.5200, fixquality=1
$GPRMC,134942.500,A,4308.4553,N,07726.3645,W,0.03,9.52,030619,,,A*78
$GPGGA,134942.750,4308.4553,N,07726.3644,W,1,08,1.12,159.1,M,-34.4,M,,*54
lng=-77.439407, lat=43.140918, altitude=160.30, speed=0.03, satellites=8, angle=9.5200, fixquality=1
$GPRMC,134943.000,A,4308.4554,N,07726.3644,W,0.11,9.52,030619,,,A*79
$GPGGA,134943.250,4308.4556,N,07726.3643,W,1,08,1.12,159.0,M,-34.4,M,,*53
lng=-77.439407, lat=43.140926, altitude=159.10, speed=0.11, satellites=8, angle=9.5200, fixquality=1
$GPRMC,134943.500,A,4308.4558,N,07726.3642,W,0.35,9.52,030619,,,A*70
$GPGGA,134943.750,4308.4561,N,07726.3641,W,1,08,1.12,159.0,M,-34.4,M,,*50
lng=-77.439407, lat=43.140926, altitude=159.00, speed=0.35, satellites=8, angle=9.5200, fixquality=1
$GPRMC,134944.000,A,4308.4565,N,07726.3640,W,5.05,360.00,030619,,,A*73
$GPGGA,134944.250,4308.4569,N,07726.3640,W,1,08,1.12,159.4,M,-34.4,M,,*5F
lng=-77.439399, lat=43.140941, altitude=159.00, speed=5.05, satellites=8, angle=360.0000, fixquality=1
$GPRMC,134944.500,A,4308.4574,N,07726.3640,W,6.65,350.17,030619,,,A*76
$GPGGA,134944.750,4308.4580,N,07726.3641,W,1,08,1.12,159.3,M,-34.4,M,,*5B
lng=-77.439399, lat=43.140956, altitude=159.40, speed=6.65, satellites=8, angle=350.1700, fixquality=1
$GPRMC,134945.000,A,4308.4585,N,07726.3642,W,8.21,338.09,030619,,,A*71
$GPGGA,134945.250,4308.4591,N,07726.3645,W,1,08,1.12,159.6,M,-34.4,M,,*5E
lng=-77.439407, lat=43.140975, altitude=159.30, speed=8.21, satellites=8, angle=338.0900, fixquality=1
$GPRMC,134945.500,A,4308.4596,N,07726.3649,W,9.21,325.18,030619,,,A*70
$GPGGA,134945.750,4308.4601,N,07726.3655,W,1,08,1.12,160.0,M,-34.4,M,,*5C
lng=-77.439414, lat=43.140991, altitude=159.60, speed=9.21, satellites=8, angle=325.1800, fixquality=1
$GPRMC,134946.000,A,4308.4606,N,07726.3661,W,9.91,320.98,030619,,,A*70
$GPGGA,134946.250,4308.4612,N,07726.3665,W,1,08,1.12,160.3,M,-34.4,M,,*58
lng=-77.439437, lat=43.141006, altitude=160.00, speed=9.91, satellites=8, angle=320.9800, fixquality=1
$GPRMC,134946.500,A,4308.4617,N,07726.3671,W,10.45,313.35,030619,,,A*42
$GPGGA,134946.750,4308.4622,N,07726.3679,W,1,08,1.12,160.5,M,-34.4,M,,*55
lng=-77.439453, lat=43.141033, altitude=160.30, speed=10.45, satellites=8, angle=313.3500, fixquality=1
$GPRMC,134947.000,A,4308.4626,N,07726.3687,W,10.79,307.40,030619,,,A*45
$GPGGA,134947.250,4308.4630,N,07726.3696,W,1,08,1.12,160.6,M,-34.4,M,,*50
lng=-77.439476, lat=43.141040, altitude=160.50, speed=10.79, satellites=8, angle=307.4000, fixquality=1
$GPRMC,134947.500,A,4308.4633,N,07726.3705,W,11.56,300.52,030619,,,A*47
$GPGGA,134947.750,4308.4636,N,07726.3715,W,1,08,1.12,160.5,M,-34.4,M,,*5A
lng=-77.439506, lat=43.141056, altitude=160.60, speed=11.56, satellites=8, angle=300.5200, fixquality=1
$GPRMC,134948.000,A,4308.4639,N,07726.3725,W,11.65,296.05,030619,,,A*49
$GPGGA,134948.250,4308.4642,N,07726.3735,W,1,08,1.12,160.6,M,-34.4,M,,*52
lng=-77.439544, lat=43.141063, altitude=160.50, speed=11.65, satellites=8, angle=296.0500, fixquality=1
$GPRMC,134948.500,A,4308.4644,N,07726.3746,W,11.90,291.69,030619,,,A*44
$GPGGA,134948.750,4308.4645,N,07726.3756,W,1,08,1.12,160.5,M,-34.4,M,,*56
lng=-77.439575, lat=43.141071, altitude=160.60, speed=11.90, satellites=8, angle=291.6900, fixquality=1
$GPRMC,134949.000,A,4308.4648,N,07726.3766,W,11.95,288.50,030619,,,A*49
$GPGGA,134949.250,4308.4649,N,07726.3777,W,1,08,1.03,160.6,M,-34.4,M,,*5E
lng=-77.439605, lat=43.141078, altitude=160.50, speed=11.95, satellites=8, angle=288.5000, fixquality=1
$GPRMC,134949.500,A,4308.4650,N,07726.3788,W,11.92,281.60,030619,,,A*48
$GPGGA,134949.750,4308.4650,N,07726.3799,W,1,08,1.12,160.5,M,-34.4,M,,*50
lng=-77.439651, lat=43.141078, altitude=160.60, speed=11.92, satellites=8, angle=281.6000, fixquality=1
$GPRMC,134950.000,A,4308.4650,N,07726.3810,W,11.96,277.35,030619,,,A*46
$GPGGA,134950.250,4308.4651,N,07726.3821,W,1,08,1.12,160.5,M,-34.4,M,,*50
lng=-77.439682, lat=43.141078, altitude=160.50, speed=11.96, satellites=8, angle=277.3500, fixquality=1
$GPRMC,134950.500,A,4308.4651,N,07726.3833,W,12.02,275.12,030619,,,A*4A
$GPGGA,134950.750,4308.4651,N,07726.3845,W,1,08,1.12,160.3,M,-34.4,M,,*51
lng=-77.439720, lat=43.141090, altitude=160.50, speed=12.02, satellites=8, angle=275.1200, fixquality=1
$GPRMC,134951.000,A,4308.4652,N,07726.3857,W,12.08,274.40,030619,,,A*43
$GPGGA,134951.250,4308.4652,N,07726.3868,W,1,08,1.03,160.3,M,-34.4,M,,*59
lng=-77.439765, lat=43.141090, altitude=160.30, speed=12.08, satellites=8, angle=274.4000, fixquality=1
$GPRMC,134951.500,A,4308.4653,N,07726.3880,W,12.19,274.11,030619,,,A*49
$GPGGA,134951.750,4308.4654,N,07726.3892,W,1,08,1.03,160.3,M,-34.4,M,,*5F
lng=-77.439804, lat=43.141090, altitude=160.30, speed=12.19, satellites=8, angle=274.1100, fixquality=1
$GPRMC,134952.000,A,4308.4654,N,07726.3904,W,12.29,274.29,030619,,,A*4D
$GPGGA,134952.250,4308.4655,N,07726.3916,W,1,08,1.03,160.2,M,-34.4,M,,*54
lng=-77.439842, lat=43.141090, altitude=160.30, speed=12.29, satellites=8, angle=274.2900, fixquality=1
$GPRMC,134952.500,A,4308.4656,N,07726.3928,W,12.30,274.71,030619,,,A*41
$GPGGA,134952.750,4308.4657,N,07726.3939,W,1,08,1.12,160.2,M,-34.4,M,,*5E
lng=-77.439872, lat=43.141098, altitude=160.20, speed=12.30, satellites=8, angle=274.7100, fixquality=1
$GPRMC,134953.000,A,4308.4658,N,07726.3952,W,12.10,274.60,030619,,,A*44
$GPGGA,134953.250,4308.4659,N,07726.3964,W,1,08,1.12,160.1,M,-34.4,M,,*5F
lng=-77.439918, lat=43.141098, altitude=160.20, speed=12.10, satellites=8, angle=274.6000, fixquality=1
$GPRMC,134953.500,A,4308.4661,N,07726.3976,W,12.17,275.37,030619,,,A*49
$GPGGA,134953.750,4308.4662,N,07726.3987,W,1,08,1.12,159.9,M,-34.4,M,,*5D
lng=-77.439956, lat=43.141105, altitude=160.10, speed=12.17, satellites=8, angle=275.3700, fixquality=1
$GPRMC,134954.000,A,4308.4663,N,07726.3999,W,12.26,276.00,030619,,,A*4D
$GPGGA,134954.250,4308.4664,N,07726.4010,W,1,08,1.03,159.8,M,-34.4,M,,*58
lng=-77.439994, lat=43.141105, altitude=159.90, speed=12.26, satellites=8, angle=276.0000, fixquality=1
$GPRMC,134954.500,A,4308.4666,N,07726.4022,W,12.32,276.63,030619,,,A*43
$GPGGA,134954.750,4308.4667,N,07726.4033,W,1,08,1.03,159.8,M,-34.4,M,,*5F
lng=-77.440040, lat=43.141113, altitude=159.80, speed=12.32, satellites=8, angle=276.6300, fixquality=1
$GPRMC,134955.000,A,4308.4668,N,07726.4043,W,12.28,277.38,030619,,,A*4A
$GPGGA,134955.250,4308.4668,N,07726.4053,W,1,08,1.03,159.8,M,-34.4,M,,*52
lng=-77.440071, lat=43.141113, altitude=159.80, speed=12.28, satellites=8, angle=277.3800, fixquality=1
$GPRMC,134955.500,A,4308.4669,N,07726.4064,W,11.96,277.21,030619,,,A*45
$GPGGA,134955.750,4308.4670,N,07726.4075,W,1,08,1.03,159.7,M,-34.4,M,,*55
lng=-77.440101, lat=43.141113, altitude=159.80, speed=11.96, satellites=8, angle=277.2100, fixquality=1
$GPRMC,134956.000,A,4308.4670,N,07726.4087,W,11.87,277.43,030619,,,A*42
$GPGGA,134956.250,4308.4671,N,07726.4098,W,1,08,1.03,159.7,M,-34.4,M,,*51
lng=-77.440147, lat=43.141113, altitude=159.70, speed=11.87, satellites=8, angle=277.4300, fixquality=1
$GPRMC,134956.500,A,4308.4671,N,07726.4109,W,11.76,276.75,030619,,,A*4B
$GPGGA,134956.750,4308.4673,N,07726.4120,W,1,08,1.03,159.7,M,-34.4,M,,*54
lng=-77.440185, lat=43.141120, altitude=159.70, speed=11.76, satellites=8, angle=276.7500, fixquality=1
$GPRMC,134957.000,A,4308.4673,N,07726.4131,W,11.69,276.55,030619,,,A*4A
$GPGGA,134957.250,4308.4674,N,07726.4142,W,1,08,1.03,159.8,M,-34.4,M,,*5C
lng=-77.440216, lat=43.141120, altitude=159.70, speed=11.69, satellites=8, angle=276.5500, fixquality=1
$GPRMC,134957.500,A,4308.4675,N,07726.4152,W,11.59,276.93,030619,,,A*45
$GPGGA,134957.750,4308.4677,N,07726.4163,W,1,08,1.03,159.7,M,-34.4,M,,*56
lng=-77.440254, lat=43.141120, altitude=159.80, speed=11.59, satellites=8, angle=276.9300, fixquality=1
$GPRMC,134958.000,A,4308.4679,N,07726.4173,W,11.24,277.34,030619,,,A*46
$GPGGA,134958.250,4308.4680,N,07726.4183,W,1,08,1.12,159.7,M,-34.4,M,,*5A
lng=-77.440292, lat=43.141128, altitude=159.70, speed=11.24, satellites=8, angle=277.3400, fixquality=1
$GPRMC,134958.500,A,4308.4682,N,07726.4193,W,10.73,276.28,030619,,,A*46
$GPGGA,134958.750,4308.4684,N,07726.4203,W,1,08,1.12,159.6,M,-34.4,M,,*51
lng=-77.440322, lat=43.141136, altitude=159.70, speed=10.73, satellites=8, angle=276.2800, fixquality=1
$GPRMC,134959.000,A,4308.4685,N,07726.4213,W,10.64,276.73,030619,,,A*46
$GPGGA,134959.250,4308.4686,N,07726.4224,W,1,08,1.03,159.7,M,-34.4,M,,*53
lng=-77.440353, lat=43.141136, altitude=159.60, speed=10.64, satellites=8, angle=276.7300, fixquality=1
$GPRMC,134959.500,A,4308.4687,N,07726.4234,W,10.53,277.14,030619,,,A*40
$GPGGA,134959.750,4308.4688,N,07726.4244,W,1,08,1.12,159.7,M,-34.4,M,,*5E
lng=-77.440391, lat=43.141147, altitude=159.70, speed=10.53, satellites=8, angle=277.1400, fixquality=1
$GPRMC,135000.000,A,4308.4689,N,07726.4254,W,10.01,276.84,030619,,,A*46
$GPGGA,135000.250,4308.4690,N,07726.4264,W,1,08,1.03,159.7,M,-34.4,M,,*54
lng=-77.440422, lat=43.141147, altitude=159.70, speed=10.01, satellites=8, angle=276.8400, fixquality=1
$GPRMC,135000.500,A,4308.4691,N,07726.4273,W,9.38,276.88,030619,,,A*71
$GPGGA,135000.750,4308.4692,N,07726.4282,W,1,08,1.03,159.8,M,-34.4,M,,*54
lng=-77.440452, lat=43.141155, altitude=159.70, speed=9.38, satellites=8, angle=276.8800, fixquality=1
$GPRMC,135001.000,A,4308.4693,N,07726.4290,W,9.02,276.57,030619,,,A*71
$GPGGA,135001.250,4308.4693,N,07726.4298,W,1,08,1.03,159.9,M,-34.4,M,,*5B
lng=-77.440483, lat=43.141155, altitude=159.80, speed=9.02, satellites=8, angle=276.5700, fixquality=1
$GPRMC,135001.500,A,4308.4693,N,07726.4304,W,7.72,275.19,030619,,,A*78
$GPGGA,135001.750,4308.4694,N,07726.4310,W,1,08,1.12,159.9,M,-34.4,M,,*58
lng=-77.440505, lat=43.141155, altitude=159.90, speed=7.72, satellites=8, angle=275.1900, fixquality=1
$GPRMC,135002.000,A,4308.4693,N,07726.4316,W,6.16,275.46,030619,,,A*74
$GPGGA,135002.250,4308.4694,N,07726.4319,W,1,08,1.12,159.9,M,-34.4,M,,*57
lng=-77.440528, lat=43.141155, altitude=159.90, speed=6.16, satellites=8, angle=275.4600, fixquality=1
$GPRMC,135002.500,A,4308.4694,N,07726.4324,W,4.34,274.46,030619,,,A*74
$GPGGA,135002.750,4308.4694,N,07726.4329,W,1,08,1.12,159.8,M,-34.4,M,,*50
lng=-77.440544, lat=43.141155, altitude=159.90, speed=4.34, satellites=8, angle=274.4600, fixquality=1
$GPRMC,135003.000,A,4308.4694,N,07726.4331,W,3.47,274.50,030619,,,A*70
$GPGGA,135003.250,4308.4695,N,07726.4336,W,1,08,1.03,159.9,M,-34.4,M,,*5A
lng=-77.440551, lat=43.141155, altitude=159.80, speed=3.47, satellites=8, angle=274.5000, fixquality=1
$GPRMC,135003.500,A,4308.4695,N,07726.4339,W,2.84,273.45,030619,,,A*71
$GPGGA,135003.750,4308.4695,N,07726.4343,W,1,08,1.03,159.9,M,-34.4,M,,*5D
lng=-77.440567, lat=43.141162, altitude=159.90, speed=2.84, satellites=8, angle=273.4500, fixquality=1
$GPRMC,135004.000,A,4308.4695,N,07726.4345,W,2.22,273.45,030619,,,A*74
$GPGGA,135004.250,4308.4695,N,07726.4347,W,1,08,1.03,160.0,M,-34.4,M,,*58
lng=-77.440574, lat=43.141162, altitude=159.90, speed=2.22, satellites=8, angle=273.4500, fixquality=1
$GPRMC,135004.500,A,4308.4696,N,07726.4350,W,1.63,273.45,030619,,,A*70
$GPGGA,135004.750,4308.4697,N,07726.4353,W,1,08,1.03,160.1,M,-34.4,M,,*5B
lng=-77.440582, lat=43.141162, altitude=160.00, speed=1.63, satellites=8, angle=273.4500, fixquality=1
$GPRMC,135005.000,A,4308.4698,N,07726.4357,W,1.39,273.45,030619,,,A*72
$GPGGA,135005.250,4308.4699,N,07726.4359,W,1,08,1.03,160.2,M,-34.4,M,,*58
lng=-77.440589, lat=43.141162, altitude=160.10, speed=1.39, satellites=8, angle=273.4500, fixquality=1
$GPRMC,135005.500,A,4308.4700,N,07726.4362,W,1.15,273.45,030619,,,A*7F
$GPGGA,135005.750,4308.4700,N,07726.4363,W,1,08,1.03,160.1,M,-34.4,M,,*56
lng=-77.440597, lat=43.141170, altitude=160.20, speed=1.15, satellites=8, angle=273.4500, fixquality=1
$GPRMC,135006.000,A,4308.4700,N,07726.4364,W,0.88,273.45,030619,,,A*7A
$GPGGA,135006.250,4308.4700,N,07726.4365,W,1,07,1.20,160.0,M,-34.4,M,,*59
lng=-77.440605, lat=43.141170, altitude=160.10, speed=0.88, satellites=8, angle=273.4500, fixquality=1
$GPRMC,135006.500,A,4308.4701,N,07726.4366,W,0.59,273.45,030619,,,A*70
$GPGGA,135006.750,4308.4701,N,07726.4366,W,1,07,1.20,159.9,M,-34.4,M,,*5D
lng=-77.440605, lat=43.141170, altitude=160.00, speed=0.59, satellites=7, angle=273.4500, fixquality=1
$GPRMC,135007.000,A,4308.4702,N,07726.4367,W,0.40,273.45,030619,,,A*7E
$GPGGA,135007.250,4308.4702,N,07726.4367,W,1,07,1.20,159.7,M,-34.4,M,,*55
lng=-77.440605, lat=43.141170, altitude=159.90, speed=0.40, satellites=7, angle=273.4500, fixquality=1
$GPRMC,135007.500,A,4308.4702,N,07726.4366,W,0.32,273.45,030619,,,A*7F
$GPGGA,135007.750,4308.4702,N,07726.4366,W,1,07,1.20,159.6,M,-34.4,M,,*50
lng=-77.440605, lat=43.141170, altitude=159.70, speed=0.32, satellites=7, angle=273.4500, fixquality=1
$GPRMC,135008.000,A,4308.4702,N,07726.4367,W,0.28,273.45,030619,,,A*7F
$GPGGA,135008.250,4308.4702,N,07726.4367,W,1,07,1.20,159.7,M,-34.4,M,,*5A
lng=-77.440605, lat=43.141170, altitude=159.60, speed=0.28, satellites=7, angle=273.4500, fixquality=1
$GPRMC,135008.500,A,4308.4702,N,07726.4367,W,0.26,273.45,030619,,,A*74
$GPGGA,135008.750,4308.4701,N,07726.4367,W,1,08,1.03,159.8,M,-34.4,M,,*5D
lng=-77.440605, lat=43.141170, altitude=159.70, speed=0.26, satellites=7, angle=273.4500, fixquality=1
$GPRMC,135009.000,A,4308.4701,N,07726.4367,W,0.41,273.45,030619,,,A*72
$GPGGA,135009.250,4308.4701,N,07726.4367,W,1,08,1.03,159.8,M,-34.4,M,,*59
lng=-77.440605, lat=43.141170, altitude=159.80, speed=0.41, satellites=8, angle=273.4500, fixquality=1
$GPRMC,135009.500,A,4308.4701,N,07726.4367,W,0.53,273.45,030619,,,A*74
$GPGGA,135009.750,4308.4700,N,07726.4368,W,1,08,1.03,159.9,M,-34.4,M,,*53
lng=-77.440605, lat=43.141170, altitude=159.80, speed=0.53, satellites=8, angle=273.4500, fixquality=1
$GPRMC,135010.000,A,4308.4700,N,07726.4368,W,0.72,273.45,030619,,,A*74
$GPGGA,135010.250,4308.4700,N,07726.4369,W,1,08,1.03,159.9,M,-34.4,M,,*5F
lng=-77.440620, lat=43.141170, altitude=159.90, speed=0.72, satellites=8, angle=273.4500, fixquality=1
$GPRMC,135010.500,A,4308.4699,N,07726.4370,W,1.93,273.45,030619,,,A*77
$GPGGA,135010.750,4308.4699,N,07726.4372,W,1,08,1.03,160.0,M,-34.4,M,,*52
lng=-77.440620, lat=43.141162, altitude=159.90, speed=1.93, satellites=8, angle=273.4500, fixquality=1
$GPRMC,135011.000,A,4308.4700,N,07726.4376,W,3.05,267.59,030619,,,A*71
$GPGGA,135011.250,4308.4697,N,07726.4383,W,1,08,1.03,159.8,M,-34.4,M,,*54
lng=-77.440628, lat=43.141170, altitude=160.00, speed=3.05, satellites=8, angle=267.5900, fixquality=1
$GPRMC,135011.500,A,4308.4698,N,07726.4390,W,5.57,287.08,030619,,,A*77
$GPGGA,135011.750,4308.4700,N,07726.4395,W,1,08,1.12,159.7,M,-34.4,M,,*56
lng=-77.440650, lat=43.141162, altitude=159.80, speed=5.57, satellites=8, angle=287.0800, fixquality=1
$GPRMC,135012.000,A,4308.4704,N,07726.4400,W,7.83,294.66,030619,,,A*7A
$GPGGA,135012.250,4308.4707,N,07726.4408,W,1,08,1.12,159.7,M,-34.4,M,,*54
lng=-77.440666, lat=43.141170, altitude=159.70, speed=7.83, satellites=8, angle=294.6600, fixquality=1
$GPRMC,135012.500,A,4308.4710,N,07726.4416,W,10.12,292.93,030619,,,A*4F
$GPGGA,135012.750,4308.4711,N,07726.4426,W,1,08,1.12,159.7,M,-34.4,M,,*5A
lng=-77.440689, lat=43.141185, altitude=159.70, speed=10.12, satellites=8, angle=292.9300, fixquality=1
$GPRMC,135013.000,A,4308.4715,N,07726.4437,W,12.29,287.79,030619,,,A*47
$GPGGA,135013.250,4308.4719,N,07726.4450,W,1,08,1.03,159.9,M,-34.4,M,,*59
lng=-77.440727, lat=43.141193, altitude=159.70, speed=12.29, satellites=8, angle=287.7900, fixquality=1
$GPRMC,135013.500,A,4308.4722,N,07726.4464,W,15.39,284.13,030619,,,A*49
$GPGGA,135013.750,4308.4725,N,07726.4478,W,1,08,1.03,160.0,M,-34.4,M,,*5A
lng=-77.440773, lat=43.141201, altitude=159.90, speed=15.39, satellites=8, angle=284.1300, fixquality=1
$GPRMC,135014.000,A,4308.4727,N,07726.4493,W,16.39,277.21,030619,,,A*48
$GPGGA,135014.250,4308.4727,N,07726.4509,W,1,08,1.12,160.1,M,-34.4,M,,*5C
lng=-77.440818, lat=43.141212, altitude=160.00, speed=16.39, satellites=8, angle=277.2100, fixquality=1
$GPRMC,135014.500,A,4308.4727,N,07726.4526,W,17.38,272.80,030619,,,A*4C
$GPGGA,135014.750,4308.4727,N,07726.4544,W,1,08,1.12,160.1,M,-34.4,M,,*50
lng=-77.440879, lat=43.141212, altitude=160.10, speed=17.38, satellites=8, angle=272.8000, fixquality=1
$GPRMC,135015.000,A,4308.4727,N,07726.4564,W,20.05,274.92,030619,,,A*41
$GPGGA,135015.250,4308.4728,N,07726.4585,W,1,08,1.12,160.1,M,-34.4,M,,*56
lng=-77.440940, lat=43.141212, altitude=160.10, speed=20.05, satellites=8, angle=274.9200, fixquality=1
$GPRMC,135015.500,A,4308.4728,N,07726.4606,W,21.84,272.69,030619,,,A*46
$GPGGA,135015.750,4308.4728,N,07726.4628,W,1,08,1.12,160.1,M,-34.4,M,,*57
lng=-77.441009, lat=43.141212, altitude=160.10, speed=21.84, satellites=8, angle=272.6900, fixquality=1
$GPRMC,135016.000,A,4308.4729,N,07726.4650,W,22.94,270.86,030619,,,A*43
$GPGGA,135016.250,4308.4729,N,07726.4672,W,1,08,1.12,160.1,M,-34.4,M,,*5F
lng=-77.441078, lat=43.141212, altitude=160.10, speed=22.94, satellites=8, angle=270.8600, fixquality=1
$GPRMC,135016.500,A,4308.4729,N,07726.4695,W,23.52,270.89,030619,,,A*4B
$GPGGA,135016.750,4308.4729,N,07726.4718,W,1,08,1.12,160.0,M,-34.4,M,,*56
lng=-77.441162, lat=43.141212, altitude=160.10, speed=23.52, satellites=8, angle=270.8900, fixquality=1
$GPRMC,135017.000,A,4308.4730,N,07726.4741,W,24.01,270.90,030619,,,A*46
$GPGGA,135017.250,4308.4730,N,07726.4765,W,1,08,1.12,160.1,M,-34.4,M,,*51
lng=-77.441238, lat=43.141220, altitude=160.00, speed=24.01, satellites=8, angle=270.9000, fixquality=1
$GPRMC,135017.500,A,4308.4731,N,07726.4790,W,24.91,271.72,030619,,,A*4A
$GPGGA,135017.750,4308.4731,N,07726.4815,W,1,08,1.12,160.1,M,-34.4,M,,*5D
lng=-77.441314, lat=43.141220, altitude=160.10, speed=24.91, satellites=8, angle=271.7200, fixquality=1
$GPRMC,135018.000,A,4308.4732,N,07726.4840,W,25.89,271.93,030619,,,A*46
$GPGGA,135018.250,4308.4733,N,07726.4866,W,1,08,1.12,160.1,M,-34.4,M,,*51
lng=-77.441398, lat=43.141220, altitude=160.10, speed=25.89, satellites=8, angle=271.9300, fixquality=1
$GPRMC,135018.500,A,4308.4734,N,07726.4893,W,27.23,272.47,030619,,,A*43
