Vers 81
USE_SERIAL_FEEDBACK=true
DEVELOPMENT_MODE=false
USE_RMC_ONLY=false

$GPRMC,141510.000,A,4308.3162,N,07726.2656,W,6.40,274.27,030919,,,A*72
$GPGGA,141510.250,4308.3160,N,07726.2661,W,1,04,6.49,162.0,M,-34.4,M,,*51
$GPRMC,141510.500,A,4308.3159,N,07726.2669,W,7.25,276.14,030919,,,A*73
$GPGGA,141510.750,4308.3158,N,07726.2677,W,1,04,6.49,161.6,M,-34.4,M,,*5D
$GPRMC,141511.000,A,4308.3159,N,07726.2686,W,8.00,281.01,030919,,,A*72
$GPGGA,141511.250,4308.3161,N,07726.2696,W,1,04,6.49,161.4,M,-34.4,M,,*5E
$GPRMC,141511.500,A,4308.3162,N,07726.2707,W,9.44,280.75,030919,,,A*74
$GPGGA,141511.750,4308.3163,N,07726.2719,W,1,04,6.49,160.9,M,-34.4,M,,*53
$GPRMC,141512.000,A,4308.3165,N,07726.2730,W,10.58,282.43,030919,,,A*43
$GPGGA,141512.250,4308.3167,N,07726.2744,W,1,04,6.49,160.6,M,-34.4,M,,*56
$GPRMC,141512.500,A,4308.3168,N,07726.2755,W,11.69,282.13,030919,,,A*4E
$GPGGA,141512.750,4308.3169,N,07726.2767,W,1,04,6.49,160.6,M,-34.4,M,,*5C
$GPRMC,141513.000,A,4308.3170,N,07726.2780,W,12.38,280.98,030919,,,A*4D
$GPGGA,141513.250,4308.3171,N,07726.2793,W,1,04,6.49,160.2,M,-34.4,M,,*5E
$GPRMC,141513.500,A,4308.3174,N,07726.2805,W,12.84,282.75,030919,,,A*48
$GPGGA,141513.750,4308.3177,N,07726.2820,W,1,04,6.49,160.0,M,-34.4,M,,*58
$GPRMC,141514.000,A,4308.3177,N,07726.2833,W,13.71,282.81,030919,,,A*4C
$GPGGA,141514.250,4308.3178,N,07726.2848,W,1,04,6.49,159.6,M,-34.4,M,,*57
$GPRMC,141514.500,A,4308.3183,N,07726.2864,W,14.75,283.22,030919,,,A*4B
$GPGGA,141514.750,4308.3188,N,07726.2878,W,1,04,6.49,159.3,M,-34.4,M,,*5B
$GPRMC,141515.000,A,4308.3190,N,07726.2892,W,14.83,286.65,030919,,,A*4B
$GPGGA,141515.250,4308.3196,N,07726.2909,W,1,04,6.49,158.7,M,-34.4,M,,*52
$GPRMC,141515.500,A,4308.3204,N,07726.2927,W,15.82,290.49,030919,,,A*46
$GPGGA,141515.750,4308.3212,N,07726.2944,W,1,04,6.49,158.6,M,-34.4,M,,*50
$GPRMC,141516.000,A,4308.3221,N,07726.2964,W,16.96,291.52,030919,,,A*4D
$GPGGA,141516.250,4308.3229,N,07726.2981,W,1,04,6.49,158.4,M,-34.4,M,,*55
$GPRMC,141516.500,A,4308.3237,N,07726.2998,W,17.42,294.42,030919,,,A*40
$GPGGA,141516.750,4308.3244,N,07726.3014,W,1,04,6.49,158.6,M,-34.4,M,,*5D
$GPRMC,141517.000,A,4308.3252,N,07726.3031,W,18.02,295.65,030919,,,A*43
$GPGGA,141517.250,4308.3259,N,07726.3048,W,1,04,6.49,158.7,M,-34.4,M,,*5D
$GPRMC,141517.500,A,4308.3267,N,07726.3064,W,18.52,295.50,030919,,,A*43
$GPGGA,141517.750,4308.3274,N,07726.3082,W,1,04,6.49,159.0,M,-34.4,M,,*57
$GPRMC,141518.000,A,4308.3283,N,07726.3100,W,19.08,296.29,030919,,,A*43
$GPGGA,141518.250,4308.3292,N,07726.3118,W,1,04,5.70,159.6,M,-34.4,M,,*58
$GPRMC,141518.500,A,4308.3302,N,07726.3136,W,19.61,297.53,030919,,,A*48
$GPGGA,141518.750,4308.3315,N,07726.3157,W,1,04,6.49,160.2,M,-34.4,M,,*5F
$GPRMC,141519.000,A,4308.3326,N,07726.3176,W,20.49,299.32,030919,,,A*47
$GPGGA,141519.250,4308.3337,N,07726.3196,W,1,04,5.69,160.8,M,-34.4,M,,*5D
$GPRMC,141519.500,A,4308.3348,N,07726.3214,W,21.10,300.64,030919,,,A*42
$GPGGA,141519.750,4308.3358,N,07726.3233,W,1,04,6.49,161.4,M,-34.4,M,,*51
$GPRMC,141520.000,A,4308.3369,N,07726.3252,W,21.57,301.46,030919,,,A*4E
$GPGGA,141520.250,4308.3379,N,07726.3271,W,1,04,5.70,161.8,M,-34.4,M,,*5E
$GPRMC,141520.500,A,4308.3391,N,07726.3291,W,22.14,302.99,030919,,,A*46
$GPGGA,141520.750,4308.3404,N,07726.3311,W,1,04,6.49,162.1,M,-34.4,M,,*52
$GPRMC,141521.000,A,4308.3415,N,07726.3330,W,22.63,304.43,030919,,,A*42
$GPGGA,141521.250,4308.3426,N,07726.3349,W,1,04,5.69,162.2,M,-34.4,M,,*59
$GPRMC,141521.500,A,4308.3438,N,07726.3369,W,22.90,305.29,030919,,,A*45
$GPGGA,141521.750,4308.3449,N,07726.3388,W,1,04,6.49,162.3,M,-34.4,M,,*58
$GPRMC,141522.000,A,4308.3460,N,07726.3407,W,23.00,305.48,030919,,,A*4E
$GPGGA,141522.250,4308.3470,N,07726.3426,W,1,04,5.69,162.5,M,-34.4,M,,*50
$GPRMC,141522.500,A,4308.3479,N,07726.3445,W,23.08,305.53,030919,,,A*47
$GPGGA,141522.750,4308.3489,N,07726.3463,W,1,04,6.49,162.7,M,-34.4,M,,*51
$GPRMC,141523.000,A,4308.3499,N,07726.3481,W,23.15,305.99,030919,,,A*4F
$GPGGA,141523.250,4308.3508,N,07726.3499,W,1,04,6.49,162.8,M,-34.4,M,,*57
$GPRMC,141523.500,A,4308.3518,N,07726.3516,W,22.96,308.03,030919,,,A*49
$GPGGA,141523.750,4308.3529,N,07726.3533,W,1,04,6.50,163.6,M,-34.4,M,,*57
$GPRMC,141524.000,A,4308.3539,N,07726.3549,W,22.69,310.96,030919,,,A*47
$GPGGA,141524.250,4308.3550,N,07726.3564,W,1,04,6.50,164.2,M,-34.4,M,,*5A
$GPRMC,141524.500,A,4308.3559,N,07726.3577,W,21.76,313.87,030919,,,A*47
$GPGGA,141524.750,4308.3570,N,07726.3590,W,1,04,6.50,164.8,M,-34.4,M,,*5C
$GPRMC,141525.000,A,4308.3582,N,07726.3604,W,21.15,317.38,030919,,,A*47
$GPGGA,141525.250,4308.3595,N,07726.3618,W,1,04,6.50,165.2,M,-34.4,M,,*5B
$GPRMC,141525.500,A,4308.3607,N,07726.3630,W,21.01,321.22,030919,,,A*40
$GPGGA,141525.750,4308.3620,N,07726.3643,W,1,04,6.50,165.3,M,-34.4,M,,*5C
$GPRMC,141526.000,A,4308.3633,N,07726.3654,W,21.03,324.81,030919,,,A*4D
$GPGGA,141526.250,4308.3647,N,07726.3666,W,1,04,6.50,165.6,M,-34.4,M,,*59
$GPRMC,141526.500,A,4308.3661,N,07726.3677,W,21.39,328.03,030919,,,A*41
$GPGGA,141526.750,4308.3676,N,07726.3687,W,1,04,6.50,165.7,M,-34.4,M,,*50
$GPRMC,141527.000,A,4308.3690,N,07726.3696,W,21.72,332.52,030919,,,A*44
$GPGGA,141527.250,4308.3707,N,07726.3706,W,1,04,5.68,166.0,M,-34.4,M,,*57
$GPRMC,141527.500,A,4308.3723,N,07726.3715,W,22.39,335.97,030919,,,A*40
$GPGGA,141527.750,4308.3740,N,07726.3725,W,1,04,6.50,166.3,M,-34.4,M,,*5B
$GPRMC,141528.000,A,4308.3756,N,07726.3731,W,23.00,339.42,030919,,,A*41
$GPGGA,141528.250,4308.3774,N,07726.3737,W,1,04,5.68,166.8,M,-34.4,M,,*56
$GPRMC,141528.500,A,4308.3789,N,07726.3740,W,23.40,344.68,030919,,,A*46
$GPGGA,141528.750,4308.3801,N,07726.3739,W,1,04,6.50,167.2,M,-34.4,M,,*53
$GPRMC,141529.000,A,4308.3816,N,07726.3741,W,23.27,348.98,030919,,,A*48
$GPGGA,141529.250,4308.3836,N,07726.3745,W,1,04,6.50,167.7,M,-34.4,M,,*5D
$GPRMC,141529.500,A,4308.3855,N,07726.3750,W,24.28,350.91,030919,,,A*42
$GPGGA,141529.750,4308.3871,N,07726.3752,W,1,04,6.50,168.0,M,-34.4,M,,*55
$GPRMC,141530.000,A,4308.3887,N,07726.3752,W,24.53,352.88,030919,,,A*44
$GPGGA,141530.250,4308.3902,N,07726.3750,W,1,04,6.50,168.5,M,-34.4,M,,*5A
$GPRMC,141530.500,A,4308.3918,N,07726.3749,W,24.80,356.56,030919,,,A*45
$GPGGA,141530.750,4308.3934,N,07726.3746,W,1,04,6.50,168.9,M,-34.4,M,,*51
$GPRMC,141531.000,A,4308.3949,N,07726.3744,W,24.82,359.00,030919,,,A*46
$GPGGA,141531.250,4308.3964,N,07726.3741,W,1,04,6.50,169.3,M,-34.4,M,,*5C
$GPRMC,141531.500,A,4308.3981,N,07726.3738,W,24.87,1.62,030919,,,A*43
$GPGGA,141531.750,4308.3997,N,07726.3733,W,1,04,6.50,169.7,M,-34.4,M,,*54
$GPRMC,141532.000,A,4308.4014,N,07726.3730,W,24.95,4.00,030919,,,A*4D
$GPGGA,141532.250,4308.4032,N,07726.3725,W,1,04,6.50,170.2,M,-34.4,M,,*59
$GPRMC,141532.500,A,4308.4051,N,07726.3721,W,25.34,5.95,030919,,,A*4E
$GPGGA,141532.750,4308.4069,N,07726.3717,W,1,04,6.50,170.8,M,-34.4,M,,*59
$GPRMC,141533.000,A,4308.4088,N,07726.3712,W,25.70,7.26,030919,,,A*44
$GPGGA,141533.250,4308.4107,N,07726.3706,W,1,04,6.50,171.4,M,-34.4,M,,*59
$GPRMC,141533.500,A,4308.4126,N,07726.3702,W,25.85,8.05,030919,,,A*41
$GPGGA,141533.750,4308.4144,N,07726.3698,W,1,04,6.50,171.8,M,-34.4,M,,*51
$GPRMC,141534.000,A,4308.4163,N,07726.3693,W,25.85,8.52,030919,,,A*49
$GPGGA,141534.250,4308.4180,N,07726.3688,W,1,04,6.50,172.2,M,-34.4,M,,*53
$GPRMC,141534.500,A,4308.4198,N,07726.3683,W,25.43,9.32,030919,,,A*44
$GPGGA,141534.750,4308.4215,N,07726.3678,W,1,04,6.50,172.6,M,-34.4,M,,*52
$GPRMC,141535.000,A,4308.4233,N,07726.3673,W,25.12,10.09,030919,,,A*79
$GPGGA,141535.250,4308.4250,N,07726.3668,W,1,04,6.50,172.9,M,-34.4,M,,*59
$GPRMC,141535.500,A,4308.4268,N,07726.3663,W,24.90,10.50,030919,,,A*74
$GPGGA,141535.750,4308.4285,N,07726.3658,W,1,04,6.50,173.3,M,-34.4,M,,*5C
$GPRMC,141536.000,A,4308.4303,N,07726.3653,W,24.63,10.64,030919,,,A*76
$GPGGA,141536.250,4308.4321,N,07726.3647,W,1,04,6.50,173.8,M,-34.4,M,,*50
$GPRMC,141536.500,A,4308.4338,N,07726.3642,W,24.40,10.82,030919,,,A*72
$GPGGA,141536.750,4308.4357,N,07726.3636,W,1,04,6.50,174.3,M,-34.4,M,,*5E
$GPRMC,141537.000,A,4308.4375,N,07726.3631,W,24.22,10.81,030919,,,A*7C
$GPGGA,141537.250,4308.4393,N,07726.3626,W,1,04,6.50,174.8,M,-34.4,M,,*58
$GPRMC,141537.500,A,4308.4408,N,07726.3622,W,23.61,10.34,030919,,,A*78
$GPGGA,141537.750,4308.4425,N,07726.3617,W,1,04,6.50,175.4,M,-34.4,M,,*58
$GPRMC,141538.000,A,4308.4442,N,07726.3613,W,23.30,9.93,030919,,,A*4F
$GPGGA,141538.250,4308.4457,N,07726.3608,W,1,04,6.50,175.8,M,-34.4,M,,*55
$GPRMC,141538.500,A,4308.4471,N,07726.3604,W,22.48,9.98,030919,,,A*49
$GPGGA,141538.750,4308.4486,N,07726.3600,W,1,04,6.50,176.2,M,-34.4,M,,*5D
$GPRMC,141539.000,A,4308.4500,N,07726.3596,W,21.71,9.53,030919,,,A*4C
$GPGGA,141539.250,4308.4513,N,07726.3593,W,1,04,6.50,176.5,M,-34.4,M,,*5A
$GPRMC,141539.500,A,4308.4525,N,07726.3589,W,20.55,9.14,030919,,,A*44
$GPGGA,141539.750,4308.4535,N,07726.3584,W,1,04,6.50,176.9,M,-34.4,M,,*51
$GPRMC,141540.000,A,4308.4546,N,07726.3581,W,19.08,9.00,030919,,,A*45
$GPGGA,141540.250,4308.4555,N,07726.3578,W,1,04,6.51,177.1,M,-34.4,M,,*57
$GPRMC,141540.500,A,4308.4562,N,07726.3575,W,17.36,8.81,030919,,,A*46
$GPGGA,141540.750,4308.4569,N,07726.3572,W,1,04,6.50,177.4,M,-34.4,M,,*53
$GPRMC,141541.000,A,4308.4577,N,07726.3570,W,15.66,7.81,030919,,,A*4B
$GPGGA,141541.250,4308.4584,N,07726.3568,W,1,04,6.50,177.7,M,-34.4,M,,*5C
$GPRMC,141541.500,A,4308.4592,N,07726.3566,W,14.20,6.14,030919,,,A*4C
$GPGGA,141541.750,4308.4597,N,07726.3566,W,1,04,6.51,178.0,M,-34.4,M,,*5C
$GPRMC,141542.000,A,4308.4604,N,07726.3566,W,12.69,3.72,030919,,,A*48
$GPGGA,141542.250,4308.4612,N,07726.3564,W,1,04,6.51,178.2,M,-34.4,M,,*54
$GPRMC,141542.500,A,4308.4616,N,07726.3561,W,5.69,4.54,030919,,,A*7C
$GPGGA,141542.750,4308.4618,N,07726.3558,W,1,04,6.51,178.2,M,-34.4,M,,*54
$GPRMC,141543.000,A,4308.4620,N,07726.3557,W,4.00,10.82,030919,,,A*48
$GPGGA,141543.250,4308.4621,N,07726.3556,W,1,04,6.50,178.2,M,-34.4,M,,*55
$GPRMC,141543.500,A,4308.4620,N,07726.3553,W,2.60,12.92,030919,,,A*4A
$GPGGA,141543.750,4308.4617,N,07726.3549,W,1,04,5.65,178.3,M,-34.4,M,,*5F
$GPRMC,141544.000,A,4308.4616,N,07726.3548,W,1.65,12.92,030919,,,A*41
$GPGGA,141544.250,4308.4614,N,07726.3548,W,1,04,5.64,178.4,M,-34.4,M,,*59
$GPRMC,141544.500,A,4308.4612,N,07726.3548,W,1.09,12.92,030919,,,A*4A
$GPGGA,141544.750,4308.4610,N,07726.3549,W,1,04,5.65,178.7,M,-34.4,M,,*5B
$GPRMC,141545.000,A,4308.4610,N,07726.3548,W,1.37,12.92,030919,,,A*41
$GPGGA,141545.250,4308.4612,N,07726.3548,W,1,04,5.64,178.8,M,-34.4,M,,*52
$GPRMC,141545.500,A,4308.4614,N,07726.3548,W,1.86,12.92,030919,,,A*4A
$GPGGA,141545.750,4308.4617,N,07726.3549,W,1,04,5.64,178.8,M,-34.4,M,,*53
$GPRMC,141546.000,A,4308.4620,N,07726.3550,W,2.44,12.92,030919,,,A*4F
$GPGGA,141546.250,4308.4624,N,07726.3552,W,1,04,5.64,179.2,M,-34.4,M,,*54
$GPRMC,141546.500,A,4308.4633,N,07726.3560,W,3.51,354.04,030919,,,A*70
$GPGGA,141546.750,4308.4643,N,07726.3568,W,1,04,6.51,179.6,M,-34.4,M,,*58
$GPRMC,141547.000,A,4308.4650,N,07726.3575,W,5.55,332.53,030919,,,A*75
$GPGGA,141547.250,4308.4655,N,07726.3581,W,1,04,5.64,179.8,M,-34.4,M,,*57
$GPRMC,141547.500,A,4308.4659,N,07726.3587,W,6.19,323.43,030919,,,A*7E
$GPGGA,141547.750,4308.4665,N,07726.3596,W,1,04,6.51,179.9,M,-34.4,M,,*53
$GPRMC,141548.000,A,4308.4670,N,07726.3604,W,7.51,309.71,030919,,,A*73
$GPGGA,141548.250,4308.4677,N,07726.3613,W,1,04,5.64,179.9,M,-34.4,M,,*51
$GPRMC,141548.500,A,4308.4683,N,07726.3622,W,8.68,306.18,030919,,,A*7B
$GPGGA,141548.750,4308.4691,N,07726.3635,W,1,04,5.63,179.8,M,-34.4,M,,*5E
$GPRMC,141549.000,A,4308.4698,N,07726.3647,W,10.65,301.75,030919,,,A*4E
$GPGGA,141549.250,4308.4705,N,07726.3660,W,1,04,5.63,179.7,M,-34.4,M,,*59
$GPRMC,141549.500,A,4308.4711,N,07726.3673,W,12.33,298.52,030919,,,A*49
$GPGGA,141549.750,4308.4716,N,07726.3687,W,1,04,5.63,179.6,M,-34.4,M,,*56
$GPRMC,141550.000,A,4308.4719,N,07726.3700,W,13.38,294.67,030919,,,A*49
$GPGGA,141550.250,4308.4718,N,07726.3714,W,1,04,5.63,179.8,M,-34.4,M,,*50
$GPRMC,141550.500,A,4308.4719,N,07726.3729,W,14.38,288.17,030919,,,A*4A
$GPGGA,141550.750,4308.4721,N,07726.3745,W,1,04,5.63,179.9,M,-34.4,M,,*5A
$GPRMC,141551.000,A,4308.4724,N,07726.3761,W,15.06,286.46,030919,,,A*4A
$GPGGA,141551.250,4308.4729,N,07726.3778,W,1,04,5.63,179.9,M,-34.4,M,,*58
$GPRMC,141551.500,A,4308.4733,N,07726.3796,W,15.92,286.35,030919,,,A*48
$GPGGA,141551.750,4308.4736,N,07726.3815,W,1,04,5.63,179.8,M,-34.4,M,,*56
$GPRMC,141552.000,A,4308.4738,N,07726.3833,W,16.63,285.00,030919,,,A*4D
$GPGGA,141552.250,4308.4739,N,07726.3851,W,1,04,5.63,179.8,M,-34.4,M,,*5F
$GPRMC,141552.500,A,4308.4742,N,07726.3871,W,17.08,283.49,030919,,,A*44
$GPGGA,141552.750,4308.4744,N,07726.3891,W,1,04,6.51,179.8,M,-34.4,M,,*5E
$GPRMC,141553.000,A,4308.4748,N,07726.3910,W,17.48,283.78,030919,,,A*4A
$GPGGA,141553.250,4308.4752,N,07726.3928,W,1,04,5.63,179.7,M,-34.4,M,,*53
$GPRMC,141553.500,A,4308.4756,N,07726.3947,W,17.53,285.15,030919,,,A*45
$GPGGA,141553.750,4308.4757,N,07726.3967,W,1,04,6.51,179.7,M,-34.4,M,,*5A
$GPRMC,141554.000,A,4308.4759,N,07726.3985,W,17.78,283.49,030919,,,A*40
$GPGGA,141554.250,4308.4762,N,07726.4004,W,1,04,5.62,179.6,M,-34.4,M,,*57
$GPRMC,141554.500,A,4308.4765,N,07726.4023,W,17.79,283.98,030919,,,A*45
$GPGGA,141554.750,4308.4767,N,07726.4043,W,1,04,6.51,179.4,M,-34.4,M,,*55
$GPRMC,141555.000,A,4308.4769,N,07726.4060,W,17.39,284.90,030919,,,A*41
$GPGGA,141555.250,4308.4770,N,07726.4078,W,1,04,5.62,179.3,M,-34.4,M,,*5B
$GPRMC,141555.500,A,4308.4770,N,07726.4093,W,16.25,285.83,030919,,,A*4F
$GPGGA,141555.750,4308.4768,N,07726.4106,W,1,04,6.51,179.0,M,-34.4,M,,*5F
$GPRMC,141556.000,A,4308.4768,N,07726.4120,W,14.80,285.94,030919,,,A*42
$GPGGA,141556.250,4308.4765,N,07726.4129,W,1,04,5.62,178.9,M,-34.4,M,,*52
$GPRMC,141556.500,A,4308.4761,N,07726.4136,W,12.20,284.48,030919,,,A*45
$GPGGA,141556.750,4308.4758,N,07726.4144,W,1,04,6.51,178.5,M,-34.4,M,,*5D
$GPRMC,141557.000,A,4308.4757,N,07726.4152,W,10.55,283.82,030919,,,A*47
$GPGGA,141557.250,4308.4755,N,07726.4158,W,1,04,5.62,178.2,M,-34.4,M,,*5D
$GPRMC,141557.500,A,4308.4754,N,07726.4165,W,8.74,285.92,030919,,,A*78
$GPGGA,141557.750,4308.4753,N,07726.4169,W,1,04,6.51,178.0,M,-34.4,M,,*5D
$GPRMC,141558.000,A,4308.4752,N,07726.4175,W,7.17,289.45,030919,,,A*79
$GPGGA,141558.250,4308.4751,N,07726.4178,W,1,04,6.51,177.8,M,-34.4,M,,*52
$GPRMC,141558.500,A,4308.4749,N,07726.4181,W,5.54,289.75,030919,,,A*7B
$GPGGA,141558.750,4308.4747,N,07726.4184,W,1,04,6.52,177.5,M,-34.4,M,,*5D
$GPRMC,141559.000,A,4308.4745,N,07726.4187,W,4.71,285.65,030919,,,A*7E
$GPGGA,141559.250,4308.4742,N,07726.4188,W,1,04,5.61,177.1,M,-34.4,M,,*57
$GPRMC,141559.500,A,4308.4740,N,07726.4190,W,3.70,276.30,030919,,,A*72
$GPGGA,141559.750,4308.4737,N,07726.4192,W,1,04,5.62,176.8,M,-34.4,M,,*50
$GPRMC,141600.000,A,4308.4736,N,07726.4195,W,3.27,271.93,030919,,,A*70
$GPGGA,141600.250,4308.4733,N,07726.4197,W,1,04,5.61,176.5,M,-34.4,M,,*55
$GPRMC,141600.500,A,4308.4731,N,07726.4200,W,3.15,266.24,030919,,,A*76
$GPGGA,141600.750,4308.4730,N,07726.4203,W,1,04,5.61,176.3,M,-34.4,M,,*5B
$GPRMC,141601.000,A,4308.4728,N,07726.4205,W,3.19,267.35,030919,,,A*72
$GPGGA,141601.250,4308.4727,N,07726.4208,W,1,04,5.61,176.1,M,-34.4,M,,*50
$GPRMC,141601.500,A,4308.4726,N,07726.4211,W,3.23,265.44,030919,,,A*71
$GPGGA,141601.750,4308.4724,N,07726.4213,W,1,04,5.61,176.0,M,-34.4,M,,*5D
$GPRMC,141602.000,A,4308.4724,N,07726.4217,W,3.32,266.61,030919,,,A*77
$GPGGA,141602.250,4308.4724,N,07726.4221,W,1,04,5.61,175.8,M,-34.4,M,,*51
$GPRMC,141602.500,A,4308.4723,N,07726.4225,W,3.65,267.97,030919,,,A*7E
$GPGGA,141602.750,4308.4723,N,07726.4228,W,1,04,5.60,175.7,M,-34.4,M,,*54
$GPRMC,141603.000,A,4308.4723,N,07726.4232,W,3.88,271.28,030919,,,A*7C
$GPGGA,141603.250,4308.4722,N,07726.4236,W,1,04,5.61,175.6,M,-34.4,M,,*5E
$GPRMC,141603.500,A,4308.4722,N,07726.4240,W,4.09,271.71,030919,,,A*7F
$GPGGA,141603.750,4308.4721,N,07726.4243,W,1,04,6.52,175.7,M,-34.4,M,,*58
$GPRMC,141604.000,A,4308.4720,N,07726.4247,W,4.02,270.36,030919,,,A*71
$GPGGA,141604.250,4308.4719,N,07726.4250,W,1,04,6.52,175.7,M,-34.4,M,,*53
$GPRMC,141604.500,A,4308.4719,N,07726.4254,W,3.94,269.42,030919,,,A*7F
$GPGGA,141604.750,4308.4719,N,07726.4258,W,1,04,6.52,175.7,M,-34.4,M,,*5E
$GPRMC,141605.000,A,4308.4719,N,07726.4262,W,3.92,270.66,030919,,,A*76
$GPGGA,141605.250,4308.4719,N,07726.4266,W,1,04,6.52,175.7,M,-34.4,M,,*57
$GPRMC,141605.500,A,4308.4720,N,07726.4271,W,3.98,271.70,030919,,,A*77
$GPGGA,141605.750,4308.4722,N,07726.4276,W,1,04,6.52,175.7,M,-34.4,M,,*5B
$GPRMC,141606.000,A,4308.4723,N,07726.4282,W,4.54,274.56,030919,,,A*78
$GPGGA,141606.250,4308.4724,N,07726.4288,W,1,04,5.60,175.7,M,-34.4,M,,*58
$GPRMC,141606.500,A,4308.4726,N,07726.4295,W,5.27,277.41,030919,,,A*7E
$GPGGA,141606.750,4308.4727,N,07726.4303,W,1,04,6.52,175.6,M,-34.4,M,,*5F
$GPRMC,141607.000,A,4308.4729,N,07726.4311,W,6.31,277.18,030919,,,A*70
$GPGGA,141607.250,4308.4729,N,07726.4321,W,1,04,5.60,175.5,M,-34.4,M,,*54
$GPRMC,141607.500,A,4308.4732,N,07726.4333,W,8.28,276.01,030919,,,A*70
$GPGGA,141607.750,4308.4733,N,07726.4347,W,1,04,6.52,175.3,M,-34.4,M,,*5E
$GPRMC,141608.000,A,4308.4734,N,07726.4360,W,10.46,273.50,030919,,,A*4A
$GPGGA,141608.250,4308.4736,N,07726.4374,W,1,04,5.60,175.2,M,-34.4,M,,*52
$GPRMC,141608.500,A,4308.4737,N,07726.4388,W,11.82,273.23,030919,,,A*47
$GPGGA,141608.750,4308.4741,N,07726.4412,W,1,04,5.59,175.0,M,-34.4,M,,*58
$GPRMC,141609.000,A,4308.4744,N,07726.4430,W,15.04,273.00,030919,,,A*48
$GPGGA,141609.250,4308.4747,N,07726.4452,W,1,04,6.52,174.9,M,-34.4,M,,*5E
$GPRMC,141609.500,A,4308.4753,N,07726.4474,W,17.73,273.69,030919,,,A*46
$GPGGA,141609.750,4308.4759,N,07726.4499,W,1,04,6.52,174.6,M,-34.4,M,,*5C
$GPRMC,141610.000,A,4308.4763,N,07726.4521,W,20.27,274.06,030919,,,A*42
$GPGGA,141610.250,4308.4768,N,07726.4547,W,1,04,5.59,174.4,M,-34.4,M,,*5B
$GPRMC,141610.500,A,4308.4772,N,07726.4572,W,23.07,273.39,030919,,,A*4B
$GPGGA,141610.750,4308.4775,N,07726.4598,W,1,04,6.52,174.3,M,-34.4,M,,*5F
$GPRMC,141611.000,A,4308.4778,N,07726.4623,W,24.60,273.47,030919,,,A*4D
$GPGGA,141611.250,4308.4781,N,07726.4650,W,1,04,6.52,174.4,M,-34.4,M,,*50
$GPRMC,141611.500,A,4308.4783,N,07726.4675,W,26.02,273.18,030919,,,A*43
$GPGGA,141611.750,4308.4784,N,07726.4702,W,1,04,6.52,174.3,M,-34.4,M,,*51
$GPRMC,141612.000,A,4308.4785,N,07726.4729,W,26.99,273.07,030919,,,A*47
$GPGGA,141612.250,4308.4786,N,07726.4758,W,1,04,5.59,174.1,M,-34.4,M,,*50
$GPRMC,141612.500,A,4308.4787,N,07726.4786,W,28.21,272.63,030919,,,A*4B
$GPGGA,141612.750,4308.4785,N,07726.4813,W,1,04,6.52,174.0,M,-34.4,M,,*5F
$GPRMC,141613.000,A,4308.4786,N,07726.4842,W,28.54,271.82,030919,,,A*47
$GPGGA,141613.250,4308.4788,N,07726.4873,W,1,04,5.58,173.9,M,-34.4,M,,*57
$GPRMC,141613.500,A,4308.4790,N,07726.4903,W,30.30,272.94,030919,,,A*4E
$GPGGA,141613.750,4308.4793,N,07726.4936,W,1,04,6.52,173.7,M,-34.4,M,,*5F
$GPRMC,141614.000,A,4308.4795,N,07726.4968,W,32.00,273.88,030919,,,A*49
$GPGGA,141614.250,4308.4797,N,07726.5001,W,1,04,5.58,173.5,M,-34.4,M,,*5E
$GPRMC,141614.500,A,4308.4798,N,07726.5033,W,33.34,273.57,030919,,,A*43
$GPGGA,141614.750,4308.4800,N,07726.5067,W,1,04,5.58,173.3,M,-34.4,M,,*5C
$GPRMC,141615.000,A,4308.4802,N,07726.5100,W,34.49,273.68,030919,,,A*4B
$GPGGA,141615.250,4308.4805,N,07726.5135,W,1,04,6.52,173.1,M,-34.4,M,,*50
$GPRMC,141615.500,A,4308.4808,N,07726.5170,W,35.67,274.21,030919,,,A*44
$GPGGA,141615.750,4308.4809,N,07726.5204,W,1,04,6.52,172.9,M,-34.4,M,,*51
$GPRMC,141616.000,A,4308.4809,N,07726.5239,W,36.56,273.64,030919,,,A*4A
$GPGGA,141616.250,4308.4810,N,07726.5273,W,1,04,5.58,172.9,M,-34.4,M,,*56
$GPRMC,141616.500,A,4308.4812,N,07726.5310,W,37.67,273.13,030919,,,A*4C
$GPGGA,141616.750,4308.4814,N,07726.5348,W,1,04,6.52,172.8,M,-34.4,M,,*56
$GPRMC,141617.000,A,4308.4815,N,07726.5385,W,38.45,273.22,030919,,,A*4E
$GPGGA,141617.250,4308.4816,N,07726.5422,W,1,04,6.52,172.7,M,-34.4,M,,*54
$GPRMC,141617.500,A,4308.4817,N,07726.5459,W,38.43,273.18,030919,,,A*40
$GPGGA,141617.750,4308.4819,N,07726.5496,W,1,04,6.52,172.6,M,-34.4,M,,*50
$GPRMC,141618.000,A,4308.4820,N,07726.5532,W,38.29,273.19,030919,,,A*4F
$GPGGA,141618.250,4308.4822,N,07726.5569,W,1,04,6.52,172.5,M,-34.4,M,,*50
$GPRMC,141618.500,A,4308.4825,N,07726.5606,W,37.75,274.07,030919,,,A*45
$GPGGA,141618.750,4308.4828,N,07726.5643,W,1,04,6.52,172.4,M,-34.4,M,,*55
$GPRMC,141619.000,A,4308.4830,N,07726.5678,W,37.71,274.94,030919,,,A*42
$GPGGA,141619.250,4308.4831,N,07726.5714,W,1,04,6.53,172.3,M,-34.4,M,,*5C
$GPRMC,141619.500,A,4308.4833,N,07726.5749,W,37.15,275.02,030919,,,A*4B
$GPGGA,141619.750,4308.4834,N,07726.5783,W,1,04,6.53,172.2,M,-34.4,M,,*53
$GPRMC,141620.000,A,4308.4835,N,07726.5817,W,36.68,274.83,030919,,,A*45
$GPGGA,141620.250,4308.4836,N,07726.5852,W,1,04,5.57,172.1,M,-34.4,M,,*59
$GPRMC,141620.500,A,4308.4837,N,07726.5886,W,36.39,274.12,030919,,,A*46
$GPGGA,141620.750,4308.4838,N,07726.5920,W,1,04,6.52,172.0,M,-34.4,M,,*51
$GPRMC,141621.000,A,4308.4839,N,07726.5954,W,35.95,273.81,030919,,,A*4A
$GPGGA,141621.250,4308.4839,N,07726.5989,W,1,04,5.57,171.9,M,-34.4,M,,*5B
$GPRMC,141621.500,A,4308.4838,N,07726.6022,W,36.04,272.12,030919,,,A*45
$GPGGA,141621.750,4308.4837,N,07726.6056,W,1,04,6.53,171.8,M,-34.4,M,,*5E
$GPRMC,141622.000,A,4308.4838,N,07726.6091,W,35.99,271.33,030919,,,A*4C
$GPGGA,141622.250,4308.4839,N,07726.6126,W,1,04,5.57,171.7,M,-34.4,M,,*58
$GPRMC,141622.500,A,4308.4840,N,07726.6162,W,36.67,271.59,030919,,,A*45
$GPGGA,141622.750,4308.4840,N,07726.6197,W,1,04,5.56,171.7,M,-34.4,M,,*58
$GPRMC,141623.000,A,4308.4841,N,07726.6232,W,36.97,271.44,030919,,,A*45
$GPGGA,141623.250,4308.4841,N,07726.6268,W,1,04,5.56,171.6,M,-34.4,M,,*5F
$GPRMC,141623.500,A,4308.4842,N,07726.6304,W,37.20,271.34,030919,,,A*4D
$GPGGA,141623.750,4308.4843,N,07726.6340,W,1,04,5.56,171.6,M,-34.4,M,,*53
$GPRMC,141624.000,A,4308.4844,N,07726.6377,W,37.37,271.14,030919,,,A*49
$GPGGA,141624.250,4308.4844,N,07726.6413,W,1,04,5.56,171.6,M,-34.4,M,,*57
$GPRMC,141624.500,A,4308.4844,N,07726.6450,W,37.60,271.19,030919,,,A*41
$GPGGA,141624.750,4308.4845,N,07726.6486,W,1,04,6.53,171.7,M,-34.4,M,,*58
$GPRMC,141625.000,A,4308.4845,N,07726.6524,W,39.06,270.95,030919,,,A*4D
$GPGGA,141625.250,4308.4845,N,07726.6561,W,1,04,5.56,171.7,M,-34.4,M,,*52
$GPRMC,141625.500,A,4308.4843,N,07726.6597,W,39.32,270.24,030919,,,A*4B
$GPGGA,141625.750,4308.4841,N,07726.6634,W,1,04,6.53,171.8,M,-34.4,M,,*59
$GPRMC,141626.000,A,4308.4840,N,07726.6671,W,39.38,269.22,030919,,,A*41
$GPGGA,141626.250,4308.4834,N,07726.6707,W,1,05,5.45,171.3,M,-34.4,M,,*52
$GPRMC,141626.500,A,4308.4825,N,07726.6744,W,39.19,267.72,030919,,,A*48
$GPGGA,141626.750,4308.4820,N,07726.6781,W,1,05,5.54,169.7,M,-34.4,M,,*51
$GPRMC,141627.000,A,4308.4813,N,07726.6818,W,39.14,266.85,030919,,,A*4B
$GPGGA,141627.250,4308.4808,N,07726.6855,W,1,05,5.54,168.5,M,-34.4,M,,*5A
$GPRMC,141627.500,A,4308.4804,N,07726.6892,W,38.97,266.33,030919,,,A*4D
$GPGGA,141627.750,4308.4800,N,07726.6928,W,1,05,5.54,168.2,M,-34.4,M,,*5B
$GPRMC,141628.000,A,4308.4796,N,07726.6964,W,38.70,265.65,030919,,,A*42
$GPGGA,141628.250,4308.4791,N,07726.7000,W,1,05,5.54,168.0,M,-34.4,M,,*56
$GPRMC,141628.500,A,4308.4788,N,07726.7036,W,38.49,264.93,030919,,,A*45
$GPGGA,141628.750,4308.4785,N,07726.7073,W,1,05,5.54,167.8,M,-34.4,M,,*55
$GPRMC,141629.000,A,4308.4781,N,07726.7110,W,38.69,265.06,030919,,,A*42
$GPGGA,141629.250,4308.4777,N,07726.7147,W,1,05,5.54,167.6,M,-34.4,M,,*54
$GPRMC,141629.500,A,4308.4774,N,07726.7184,W,38.74,264.84,030919,,,A*47
$GPGGA,141629.750,4308.4771,N,07726.7221,W,1,05,5.54,167.5,M,-34.4,M,,*57
$GPRMC,141630.000,A,4308.4769,N,07726.7258,W,38.88,265.08,030919,,,A*42
$GPGGA,141630.250,4308.4766,N,07726.7295,W,1,05,5.53,167.4,M,-34.4,M,,*55
$GPRMC,141630.500,A,4308.4763,N,07726.7332,W,38.93,265.41,030919,,,A*47
$GPGGA,141630.750,4308.4760,N,07726.7368,W,1,05,5.53,167.2,M,-34.4,M,,*53
$GPRMC,141631.000,A,4308.4757,N,07726.7405,W,38.91,265.83,030919,,,A*4B
$GPGGA,141631.250,4308.4755,N,07726.7442,W,1,05,5.53,167.1,M,-34.4,M,,*5D
$GPRMC,141631.500,A,4308.4752,N,07726.7478,W,38.39,266.13,030919,,,A*49
$GPGGA,141631.750,4308.4750,N,07726.7514,W,1,05,5.53,166.9,M,-34.4,M,,*56
$GPRMC,141632.000,A,4308.4748,N,07726.7551,W,38.34,266.27,030919,,,A*44
$GPGGA,141632.250,4308.4744,N,07726.7586,W,1,06,1.43,166.5,M,-34.4,M,,*54
$GPRMC,141632.500,A,4308.4741,N,07726.7622,W,38.14,266.75,030919,,,A*4A
$GPGGA,141632.750,4308.4738,N,07726.7658,W,1,06,1.43,166.3,M,-34.4,M,,*5C
$GPRMC,141633.000,A,4308.4736,N,07726.7695,W,38.37,266.14,030919,,,A*44
$GPGGA,141633.250,4308.4734,N,07726.7731,W,1,06,1.43,166.1,M,-34.4,M,,*58
$GPRMC,141633.500,A,4308.4732,N,07726.7768,W,38.34,265.87,030919,,,A*4C
$GPGGA,141633.750,4308.4730,N,07726.7804,W,1,06,1.43,166.1,M,-34.4,M,,*50
$GPRMC,141634.000,A,4308.4728,N,07726.7840,W,37.88,265.16,030919,,,A*40
$GPGGA,141634.250,4308.4725,N,07726.7876,W,1,06,1.38,166.1,M,-34.4,M,,*5F
$GPRMC,141634.500,A,4308.4723,N,07726.7912,W,37.93,264.58,030919,,,A*49
$GPGGA,141634.750,4308.4720,N,07726.7948,W,1,06,1.43,165.9,M,-34.4,M,,*54
$GPRMC,141635.000,A,4308.4718,N,07726.7984,W,37.95,265.03,030919,,,A*43
$GPGGA,141635.250,4308.4716,N,07726.8020,W,1,06,1.43,165.8,M,-34.4,M,,*5C
$GPRMC,141635.500,A,4308.4714,N,07726.8056,W,37.72,264.98,030919,,,A*49
$GPGGA,141635.750,4308.4711,N,07726.8092,W,1,06,1.43,165.5,M,-34.4,M,,*5A
$GPRMC,141636.000,A,4308.4709,N,07726.8129,W,37.79,264.76,030919,,,A*41
$GPGGA,141636.250,4308.4707,N,07726.8167,W,1,06,1.43,165.2,M,-34.4,M,,*57
$GPRMC,141636.500,A,4308.4705,N,07726.8205,W,39.06,264.89,030919,,,A*43
$GPGGA,141636.750,4308.4703,N,07726.8242,W,1,06,1.43,164.8,M,-34.4,M,,*59
$GPRMC,141637.000,A,4308.4701,N,07726.8280,W,39.14,264.42,030919,,,A*4A
$GPGGA,141637.250,4308.4698,N,07726.8318,W,1,06,1.43,164.5,M,-34.4,M,,*5D
$GPRMC,141637.500,A,4308.4696,N,07726.8356,W,39.42,264.29,030919,,,A*44
$GPGGA,141637.750,4308.4694,N,07726.8393,W,1,06,1.43,164.4,M,-34.4,M,,*56
$GPRMC,141638.000,A,4308.4691,N,07726.8431,W,39.46,264.48,030919,,,A*4C
$GPGGA,141638.250,4308.4689,N,07726.8469,W,1,06,1.43,164.2,M,-34.4,M,,*54
$GPRMC,141638.500,A,4308.4686,N,07726.8508,W,39.72,264.78,030919,,,A*40
$GPGGA,141638.750,4308.4684,N,07726.8546,W,1,06,1.43,163.9,M,-34.4,M,,*5C
$GPRMC,141639.000,A,4308.4682,N,07726.8585,W,39.98,265.01,030919,,,A*4E
$GPGGA,141639.250,4308.4680,N,07726.8624,W,1,06,1.43,163.7,M,-34.4,M,,*55
$GPRMC,141639.500,A,4308.4678,N,07726.8663,W,40.64,265.23,030919,,,A*48
$GPGGA,141639.750,4308.4675,N,07726.8702,W,1,06,1.43,163.4,M,-34.4,M,,*5C
$GPRMC,141640.000,A,4308.4673,N,07726.8742,W,40.95,265.30,030919,,,A*46
$GPGGA,141640.250,4308.4671,N,07726.8781,W,1,06,1.43,163.1,M,-34.4,M,,*5D
$GPRMC,141640.500,A,4308.4668,N,07726.8821,W,41.31,265.50,030919,,,A*4A
$GPGGA,141640.750,4308.4666,N,07726.8861,W,1,06,1.43,162.8,M,-34.4,M,,*57
$GPRMC,141641.000,A,4308.4664,N,07726.8900,W,41.36,265.66,030919,,,A*42
$GPGGA,141641.250,4308.4662,N,07726.8940,W,1,06,1.43,162.6,M,-34.4,M,,*5B
$GPRMC,141641.500,A,4308.4659,N,07726.8980,W,41.50,265.78,030919,,,A*4E
$GPGGA,141641.750,4308.4657,N,07726.9019,W,1,06,1.43,162.4,M,-34.4,M,,*5E
$GPRMC,141642.000,A,4308.4655,N,07726.9059,W,41.93,266.14,030919,,,A*4E
$GPGGA,141642.250,4308.4653,N,07726.9099,W,1,06,1.43,162.1,M,-34.4,M,,*51
$GPRMC,141642.500,A,4308.4651,N,07726.9138,W,41.92,266.44,030919,,,A*4D
$GPGGA,141642.750,4308.4649,N,07726.9179,W,1,06,1.43,161.6,M,-34.4,M,,*54
$GPRMC,141643.000,A,4308.4646,N,07726.9218,W,41.84,265.11,030919,,,A*4A
$GPGGA,141643.250,4308.4643,N,07726.9258,W,1,06,1.43,161.1,M,-34.4,M,,*5D
$GPRMC,141643.500,A,4308.4640,N,07726.9297,W,41.73,264.54,030919,,,A*46
$GPGGA,141643.750,4308.4637,N,07726.9337,W,1,06,1.43,160.6,M,-34.4,M,,*55
$GPRMC,141644.000,A,4308.4634,N,07726.9376,W,41.82,264.77,030919,,,A*46
$GPGGA,141644.250,4308.4631,N,07726.9416,W,1,06,1.43,160.2,M,-34.4,M,,*51
$GPRMC,141644.500,A,4308.4628,N,07726.9456,W,41.97,265.16,030919,,,A*49
$GPGGA,141644.750,4308.4625,N,07726.9496,W,1,06,1.43,159.6,M,-34.4,M,,*57
$GPRMC,141645.000,A,4308.4623,N,07726.9536,W,42.14,265.22,030919,,,A*4E
$GPGGA,141645.250,4308.4620,N,07726.9577,W,1,06,1.43,159.0,M,-34.4,M,,*5E
$GPRMC,141645.500,A,4308.4617,N,07726.9617,W,41.96,264.98,030919,,,A*45
$GPGGA,141645.750,4308.4615,N,07726.9657,W,1,06,1.43,158.5,M,-34.4,M,,*58
$GPRMC,141646.000,A,4308.4612,N,07726.9697,W,41.99,264.93,030919,,,A*4A
$GPGGA,141646.250,4308.4609,N,07726.9738,W,1,06,1.43,158.1,M,-34.4,M,,*5F
$GPRMC,141646.500,A,4308.4607,N,07726.9778,W,42.26,265.06,030919,,,D*44
$GPGGA,141646.750,4308.4604,N,07726.9819,W,2,06,1.43,157.7,M,-34.4,M,0000,0000*51
$GPRMC,141647.000,A,4308.4601,N,07726.9860,W,42.14,264.79,030919,,,D*48
$GPGGA,141647.250,4308.4598,N,07726.9901,W,2,06,1.43,157.2,M,-34.4,M,0000,0000*5E
$GPRMC,141647.500,A,4308.4595,N,07726.9941,W,41.87,264.51,030919,,,D*42
$GPGGA,141647.750,4308.4592,N,07726.9981,W,2,06,1.43,156.8,M,-34.4,M,0000,0000*52
$GPRMC,141648.000,A,4308.4589,N,07727.0021,W,41.79,264.56,030919,,,D*44
$GPGGA,141648.250,4308.4587,N,07727.0061,W,2,06,1.43,156.6,M,-34.4,M,0000,0000*5D
$GPRMC,141648.500,A,4308.4584,N,07727.0101,W,41.53,264.91,030919,,,D*4C
$GPGGA,141648.750,4308.4581,N,07727.0140,W,2,06,1.43,156.4,M,-34.4,M,0000,0000*5E
$GPRMC,141649.000,A,4308.4579,N,07727.0180,W,41.54,265.48,030919,,,D*41
$GPGGA,141649.250,4308.4577,N,07727.0221,W,2,06,1.43,156.2,M,-34.4,M,0000,0000*51
$GPRMC,141649.500,A,4308.4575,N,07727.0261,W,41.56,266.00,030919,,,D*49
$GPGGA,141649.750,4308.4573,N,07727.0302,W,2,06,1.43,155.7,M,-34.4,M,0000,0000*56
$GPRMC,141650.000,A,4308.4571,N,07727.0343,W,41.50,266.69,030919,,,D*48
$GPGGA,141650.250,4308.4570,N,07727.0383,W,2,06,1.43,155.3,M,-34.4,M,0000,0000*55
$GPRMC,141650.500,A,4308.4568,N,07727.0422,W,41.23,267.17,030919,,,D*49
$GPGGA,141650.750,4308.4567,N,07727.0461,W,2,06,1.43,155.0,M,-34.4,M,0000,0000*5E
$GPRMC,141651.000,A,4308.4566,N,07727.0500,W,41.00,268.32,030919,,,D*4B
$GPGGA,141651.250,4308.4566,N,07727.0538,W,2,06,1.43,154.9,M,-34.4,M,0000,0000*5E
$GPRMC,141651.500,A,4308.4565,N,07727.0576,W,39.99,269.15,030919,,,D*47
$GPGGA,141651.750,4308.4566,N,07727.0615,W,2,06,1.43,154.8,M,-34.4,M,0000,0000*56
$GPRMC,141652.000,A,4308.4567,N,07727.0653,W,40.22,271.19,030919,,,D*4C
$GPGGA,141652.250,4308.4568,N,07727.0692,W,2,06,1.43,154.7,M,-34.4,M,0000,0000*5E
$GPRMC,141652.500,A,4308.4570,N,07727.0731,W,40.24,272.64,030919,,,D*45
$GPGGA,141652.750,4308.4572,N,07727.0769,W,2,06,1.43,154.3,M,-34.4,M,0000,0000*51
$GPRMC,141653.000,A,4308.4574,N,07727.0807,W,39.51,273.55,030919,,,D*40
$GPGGA,141653.250,4308.4576,N,07727.0844,W,2,06,1.43,154.2,M,-34.4,M,0000,0000*50
$GPRMC,141653.500,A,4308.4579,N,07727.0881,W,39.31,275.04,030919,,,D*42
$GPGGA,141653.750,4308.4581,N,07727.0918,W,2,06,1.43,154.1,M,-34.4,M,0000,0000*56
$GPRMC,141654.000,A,4308.4584,N,07727.0956,W,38.72,276.07,030919,,,D*4F
$GPGGA,141654.250,4308.4588,N,07727.0992,W,2,06,1.43,154.3,M,-34.4,M,0000,0000*5D
$GPRMC,141654.500,A,4308.4591,N,07727.1029,W,38.66,276.89,030919,,,D*4D
$GPGGA,141654.750,4308.4594,N,07727.1065,W,2,06,1.43,154.4,M,-34.4,M,0000,0000*52
$GPRMC,141655.000,A,4308.4597,N,07727.1100,W,38.01,276.84,030919,,,D*49
$GPGGA,141655.250,4308.4600,N,07727.1136,W,2,06,1.43,154.5,M,-34.4,M,0000,0000*5E
$GPRMC,141655.500,A,4308.4604,N,07727.1171,W,37.75,277.56,030919,,,D*41
$GPGGA,141655.750,4308.4608,N,07727.1206,W,2,06,1.43,154.5,M,-34.4,M,0000,0000*53
$GPRMC,141656.000,A,4308.4612,N,07727.1241,W,37.65,278.85,030919,,,D*40
$GPGGA,141656.250,4308.4616,N,07727.1276,W,2,06,1.43,154.7,M,-34.4,M,0000,0000*5F
$GPRMC,141656.500,A,4308.4620,N,07727.1311,W,37.99,279.59,030919,,,D*43
$GPGGA,141656.750,4308.4625,N,07727.1347,W,2,06,1.43,155.0,M,-34.4,M,0000,0000*5F
$GPRMC,141657.000,A,4308.4630,N,07727.1382,W,38.53,279.73,030919,,,D*4D
$GPGGA,141657.250,4308.4634,N,07727.1418,W,2,06,1.43,155.3,M,-34.4,M,0000,0000*55
$GPRMC,141657.500,A,4308.4639,N,07727.1455,W,38.54,279.47,030919,,,D*4C
$GPGGA,141657.750,4308.4643,N,07727.1491,W,2,06,1.43,155.5,M,-34.4,M,0000,0000*57
$GPRMC,141658.000,A,4308.4648,N,07727.1527,W,38.58,279.15,030919,,,D*4F
$GPGGA,141658.250,4308.4652,N,07727.1563,W,2,06,1.43,155.8,M,-34.4,M,0000,0000*5C
$GPRMC,141658.500,A,4308.4656,N,07727.1599,W,38.58,279.18,030919,,,D*4D
$GPGGA,141658.750,4308.4661,N,07727.1634,W,2,06,1.43,156.0,M,-34.4,M,0000,0000*53
$GPRMC,141659.000,A,4308.4665,N,07727.1671,W,38.57,279.32,030919,,,D*4B
$GPGGA,141659.250,4308.4669,N,07727.1707,W,2,06,1.43,156.1,M,-34.4,M,0000,0000*5F
$GPRMC,141659.500,A,4308.4674,N,07727.1743,W,38.88,279.00,030919,,,D*4D
$GPGGA,141659.750,4308.4677,N,07727.1779,W,2,06,1.43,156.2,M,-34.4,M,0000,0000*5F
$GPRMC,141700.000,A,4308.4681,N,07727.1814,W,38.50,278.31,030919,,,D*44
$GPGGA,141700.250,4308.4685,N,07727.1850,W,2,06,1.43,156.3,M,-34.4,M,0000,0000*5F
$GPRMC,141700.500,A,4308.4689,N,07727.1886,W,38.57,278.23,030919,,,D*46
$GPGGA,141700.750,4308.4692,N,07727.1922,W,2,06,1.43,156.4,M,-34.4,M,0000,0000*5F
$GPRMC,141701.000,A,4308.4696,N,07727.1958,W,38.64,278.25,030919,,,D*48
$GPGGA,141701.250,4308.4700,N,07727.1994,W,2,06,1.43,156.5,M,-34.4,M,0000,0000*5D
$GPRMC,141701.500,A,4308.4705,N,07727.2030,W,38.68,278.52,030919,,,D*4E
$GPGGA,141701.750,4308.4709,N,07727.2067,W,2,06,1.43,156.6,M,-34.4,M,0000,0000*54
$GPRMC,141702.000,A,4308.4714,N,07727.2104,W,39.22,279.10,030919,,,D*46
$GPGGA,141702.250,4308.4718,N,07727.2141,W,2,06,1.43,156.7,M,-34.4,M,0000,0000*56
$GPRMC,141702.500,A,4308.4723,N,07727.2177,W,39.23,279.16,030919,,,D*44
$GPGGA,141702.750,4308.4727,N,07727.2214,W,2,06,1.43,156.8,M,-34.4,M,0000,0000*53
$GPRMC,141703.000,A,4308.4731,N,07727.2251,W,39.12,278.73,030919,,,D*44
$GPGGA,141703.250,4308.4735,N,07727.2287,W,2,06,1.43,157.1,M,-34.4,M,0000,0000*56
$GPRMC,141703.500,A,4308.4740,N,07727.2324,W,39.08,279.10,030919,,,D*4B
$GPGGA,141703.750,4308.4745,N,07727.2360,W,2,06,1.43,157.2,M,-34.4,M,0000,0000*5F
$GPRMC,141704.000,A,4308.4749,N,07727.2397,W,38.98,279.30,030919,,,D*42
$GPGGA,141704.250,4308.4754,N,07727.2433,W,2,06,1.43,157.2,M,-34.4,M,0000,0000*5C
$GPRMC,141704.500,A,4308.4759,N,07727.2469,W,38.91,279.32,030919,,,A*4E
$GPGGA,141704.750,4308.4763,N,07727.2505,W,1,06,1.43,157.2,M,-34.4,M,,*5A
$GPRMC,141705.000,A,4308.4768,N,07727.2541,W,38.34,279.06,030919,,,A*4B
$GPGGA,141705.250,4308.4773,N,07727.2577,W,1,06,1.43,157.2,M,-34.4,M,,*5A
$GPRMC,141705.500,A,4308.4778,N,07727.2612,W,38.27,279.14,030919,,,A*4B
$GPGGA,141705.750,4308.4782,N,07727.2648,W,1,06,1.43,157.3,M,-34.4,M,,*5F
$GPRMC,141706.000,A,4308.4787,N,07727.2684,W,38.17,279.14,030919,,,A*41
$GPGGA,141706.250,4308.4791,N,07727.2720,W,1,06,1.43,157.6,M,-34.4,M,,*51
$GPRMC,141706.500,A,4308.4796,N,07727.2756,W,38.18,279.55,030919,,,A*40
$GPGGA,141706.750,4308.4801,N,07727.2791,W,1,06,1.43,158.0,M,-34.4,M,,*51
$GPRMC,141707.000,A,4308.4805,N,07727.2827,W,37.88,279.43,030919,,,A*49
$GPGGA,141707.250,4308.4810,N,07727.2863,W,1,06,1.43,158.1,M,-34.4,M,,*56
$GPRMC,141707.500,A,4308.4815,N,07727.2898,W,37.92,279.49,030919,,,A*48
$GPGGA,141707.750,4308.4819,N,07727.2934,W,1,06,1.43,158.0,M,-34.4,M,,*58
$GPRMC,141708.000,A,4308.4824,N,07727.2968,W,37.11,279.27,030919,,,A*4D
$GPGGA,141708.250,4308.4828,N,07727.3002,W,1,06,1.43,158.0,M,-34.4,M,,*5D
$GPRMC,141708.500,A,4308.4832,N,07727.3036,W,36.13,279.36,030919,,,A*4F
$GPGGA,141708.750,4308.4836,N,07727.3070,W,1,06,1.43,158.0,M,-34.4,M,,*52
$GPRMC,141709.000,A,4308.4840,N,07727.3103,W,35.67,278.56,030919,,,A*4E
$GPGGA,141709.250,4308.4844,N,07727.3137,W,1,06,1.43,158.1,M,-34.4,M,,*50
$GPRMC,141709.500,A,4308.4848,N,07727.3170,W,35.55,278.69,030919,,,A*4A
$GPGGA,141709.750,4308.4852,N,07727.3204,W,1,06,1.43,158.0,M,-34.4,M,,*50
$GPRMC,141710.000,A,4308.4857,N,07727.3237,W,35.60,279.40,030919,,,A*45
$GPGGA,141710.250,4308.4861,N,07727.3270,W,1,06,1.43,158.0,M,-34.4,M,,*5E
$GPRMC,141710.500,A,4308.4865,N,07727.3303,W,35.34,279.01,030919,,,A*43
$GPGGA,141710.750,4308.4869,N,07727.3336,W,1,06,1.43,158.0,M,-34.4,M,,*50
$GPRMC,141711.000,A,4308.4872,N,07727.3368,W,35.07,278.55,030919,,,A*4C
$GPGGA,141711.250,4308.4876,N,07727.3401,W,1,06,1.43,158.1,M,-34.4,M,,*58
$GPRMC,141711.500,A,4308.4880,N,07727.3433,W,34.83,278.72,030919,,,A*45
$GPGGA,141711.750,4308.4884,N,07727.3465,W,1,06,1.43,158.0,M,-34.4,M,,*53
$GPRMC,141712.000,A,4308.4887,N,07727.3498,W,34.73,278.85,030919,,,A*42
$GPGGA,141712.250,4308.4891,N,07727.3530,W,1,06,1.43,158.0,M,-34.4,M,,*50
$GPRMC,141712.500,A,4308.4895,N,07727.3562,W,34.41,278.79,030919,,,A*42
$GPGGA,141712.750,4308.4898,N,07727.3594,W,1,06,1.43,158.0,M,-34.4,M,,*52
$GPRMC,141713.000,A,4308.4902,N,07727.3625,W,34.01,278.98,030919,,,A*42
$GPGGA,141713.250,4308.4906,N,07727.3657,W,1,06,1.43,157.9,M,-34.4,M,,*5A
$GPRMC,141713.500,A,4308.4909,N,07727.3689,W,33.89,278.72,030919,,,A*49
$GPGGA,141713.750,4308.4913,N,07727.3720,W,1,06,1.43,158.0,M,-34.4,M,,*5C
$GPRMC,141714.000,A,4308.4916,N,07727.3751,W,33.44,278.63,030919,,,A*40
$GPGGA,141714.250,4308.4920,N,07727.3782,W,1,06,1.43,158.0,M,-34.4,M,,*56
$GPRMC,141714.500,A,4308.4923,N,07727.3814,W,33.10,278.44,030919,,,A*49
$GPGGA,141714.750,4308.4927,N,07727.3845,W,1,06,1.43,158.0,M,-34.4,M,,*50
$GPRMC,141715.000,A,4308.4930,N,07727.3876,W,32.97,278.90,030919,,,A*4C
$GPGGA,141715.250,4308.4934,N,07727.3906,W,1,06,1.43,158.0,M,-34.4,M,,*50
$GPRMC,141715.500,A,4308.4937,N,07727.3937,W,32.41,278.95,030919,,,A*44
$GPGGA,141715.750,4308.4941,N,07727.3967,W,1,06,1.43,157.9,M,-34.4,M,,*56
$GPRMC,141716.000,A,4308.4944,N,07727.3997,W,31.99,279.12,030919,,,A*44
$GPGGA,141716.250,4308.4948,N,07727.4027,W,1,06,1.43,157.8,M,-34.4,M,,*52
$GPRMC,141716.500,A,4308.4952,N,07727.4057,W,31.78,279.64,030919,,,A*4A
$GPGGA,141716.750,4308.4956,N,07727.4087,W,1,06,1.43,157.9,M,-34.4,M,,*53
$GPRMC,141717.000,A,4308.4960,N,07727.4117,W,31.70,279.69,030919,,,A*4F
$GPGGA,141717.250,4308.4964,N,07727.4147,W,1,06,1.43,158.0,M,-34.4,M,,*5D
$GPRMC,141717.500,A,4308.4968,N,07727.4176,W,31.66,279.94,030919,,,A*40
$GPGGA,141717.750,4308.4971,N,07727.4206,W,1,06,1.43,157.8,M,-34.4,M,,*5D
$GPRMC,141718.000,A,4308.4975,N,07727.4235,W,31.18,279.85,030919,,,A*4B
$GPGGA,141718.250,4308.4979,N,07727.4264,W,1,06,1.43,157.9,M,-34.4,M,,*5A
$GPRMC,141718.500,A,4308.4982,N,07727.4293,W,30.96,279.50,030919,,,A*45
$GPGGA,141718.750,4308.4986,N,07727.4321,W,1,06,1.43,158.2,M,-34.4,M,,*5B
$GPRMC,141719.000,A,4308.4989,N,07727.4349,W,30.37,280.01,030919,,,A*45
$GPGGA,141719.250,4308.4992,N,07727.4377,W,1,06,1.43,158.5,M,-34.4,M,,*5E
$GPRMC,141719.500,A,4308.4996,N,07727.4404,W,30.03,279.69,030919,,,A*4F
$GPGGA,141719.750,4308.4999,N,07727.4431,W,1,06,1.43,158.8,M,-34.4,M,,*58
$GPRMC,141720.000,A,4308.5003,N,07727.4458,W,29.11,279.54,030919,,,A*48
$GPGGA,141720.250,4308.5006,N,07727.4486,W,1,06,1.42,158.9,M,-34.4,M,,*55
$GPRMC,141720.500,A,4308.5009,N,07727.4513,W,29.02,278.77,030919,,,A*4B
$GPGGA,141720.750,4308.5012,N,07727.4540,W,1,06,1.43,158.9,M,-34.4,M,,*5F
$GPRMC,141721.000,A,4308.5015,N,07727.4567,W,28.86,278.53,030919,,,A*4A
$GPGGA,141721.250,4308.5018,N,07727.4594,W,1,06,1.43,158.9,M,-34.4,M,,*58
$GPRMC,141721.500,A,4308.5022,N,07727.4621,W,28.85,279.57,030919,,,A*4C
$GPGGA,141721.750,4308.5026,N,07727.4649,W,1,06,1.43,159.1,M,-34.4,M,,*5A
$GPRMC,141722.000,A,4308.5030,N,07727.4676,W,28.94,280.79,030919,,,A*41
$GPGGA,141722.250,4308.5033,N,07727.4702,W,1,06,1.43,159.2,M,-34.4,M,,*55
$GPRMC,141722.500,A,4308.5037,N,07727.4729,W,28.76,280.70,030919,,,A*4D
$GPGGA,141722.750,4308.5041,N,07727.4757,W,1,06,1.43,159.3,M,-34.4,M,,*54
$GPRMC,141723.000,A,4308.5044,N,07727.4784,W,28.98,279.82,030919,,,A*41
$GPGGA,141723.250,4308.5047,N,07727.4811,W,1,06,1.43,159.5,M,-34.4,M,,*5D
$GPRMC,141723.500,A,4308.5051,N,07727.4838,W,28.91,279.69,030919,,,A*44
$GPGGA,141723.750,4308.5054,N,07727.4865,W,1,06,1.42,159.8,M,-34.4,M,,*55
$GPRMC,141724.000,A,4308.5058,N,07727.4892,W,29.22,280.76,030919,,,A*4E
$GPGGA,141724.250,4308.5062,N,07727.4920,W,1,06,1.42,159.9,M,-34.4,M,,*53
$GPRMC,141724.500,A,4308.5066,N,07727.4947,W,29.55,280.61,030919,,,A*49
$GPGGA,141724.750,4308.5069,N,07727.4974,W,1,06,1.43,160.1,M,-34.4,M,,*5F
$GPRMC,141725.000,A,4308.5072,N,07727.5002,W,29.57,278.99,030919,,,A*43
$GPGGA,141725.250,4308.5074,N,07727.5030,W,1,06,1.43,160.2,M,-34.4,M,,*5C
$GPRMC,141725.500,A,4308.5076,N,07727.5057,W,29.57,277.47,030919,,,A*4E
$GPGGA,141725.750,4308.5080,N,07727.5085,W,1,06,1.43,160.2,M,-34.4,M,,*5C
$GPRMC,141726.000,A,4308.5083,N,07727.5113,W,29.81,278.44,030919,,,A*44
$GPGGA,141726.250,4308.5086,N,07727.5141,W,1,06,1.43,160.3,M,-34.4,M,,*54
$GPRMC,141726.500,A,4308.5090,N,07727.5169,W,29.85,279.61,030919,,,A*4C
$GPGGA,141726.750,4308.5094,N,07727.5198,W,1,06,1.43,160.2,M,-34.4,M,,*57
$GPRMC,141727.000,A,4308.5097,N,07727.5226,W,30.14,280.38,030919,,,A*4D
$GPGGA,141727.250,4308.5101,N,07727.5254,W,1,06,1.43,160.3,M,-34.4,M,,*5C
$GPRMC,141727.500,A,4308.5105,N,07727.5283,W,30.42,279.77,030919,,,A*43
$GPGGA,141727.750,4308.5109,N,07727.5312,W,1,06,1.43,160.3,M,-34.4,M,,*52
$GPRMC,141728.000,A,4308.5113,N,07727.5341,W,30.64,279.74,030919,,,A*46
$GPGGA,141728.250,4308.5117,N,07727.5369,W,1,06,1.42,160.5,M,-34.4,M,,*5C
$GPRMC,141728.500,A,4308.5121,N,07727.5397,W,30.07,279.88,030919,,,A*4F
$GPGGA,141728.750,4308.5124,N,07727.5425,W,1,06,1.42,160.8,M,-34.4,M,,*5B
$GPRMC,141729.000,A,4308.5128,N,07727.5453,W,29.99,279.67,030919,,,A*43
$GPGGA,141729.250,4308.5131,N,07727.5481,W,1,06,1.42,161.0,M,-34.4,M,,*5C
$GPRMC,141729.500,A,4308.5134,N,07727.5509,W,29.72,278.46,030919,,,A*42
$GPGGA,141729.750,4308.5136,N,07727.5537,W,1,06,1.42,161.4,M,-34.4,M,,*56
$GPRMC,141730.000,A,4308.5139,N,07727.5565,W,30.04,277.79,030919,,,A*42
$GPGGA,141730.250,4308.5142,N,07727.5594,W,1,06,1.42,161.5,M,-34.4,M,,*50
$GPRMC,141730.500,A,4308.5145,N,07727.5623,W,30.25,277.85,030919,,,A*4D
$GPGGA,141730.750,4308.5148,N,07727.5651,W,1,06,1.42,161.5,M,-34.4,M,,*55
$GPRMC,141731.000,A,4308.5151,N,07727.5679,W,30.26,277.70,030919,,,A*4A
$GPGGA,141731.250,4308.5154,N,07727.5708,W,1,06,1.42,161.5,M,-34.4,M,,*51
$GPRMC,141731.500,A,4308.5158,N,07727.5737,W,30.34,278.13,030919,,,A*44
$GPGGA,141731.750,4308.5162,N,07727.5766,W,1,06,1.43,161.5,M,-34.4,M,,*58
$GPRMC,141732.000,A,4308.5166,N,07727.5795,W,30.56,278.75,030919,,,A*43
$GPGGA,141732.250,4308.5170,N,07727.5825,W,1,06,1.42,161.5,M,-34.4,M,,*54
$GPRMC,141732.500,A,4308.5174,N,07727.5854,W,30.96,278.75,030919,,,A*4B
$GPGGA,141732.750,4308.5178,N,07727.5883,W,1,06,1.42,161.4,M,-34.4,M,,*54
$GPRMC,141733.000,A,4308.5181,N,07727.5912,W,30.90,278.55,030919,,,A*42
$GPGGA,141733.250,4308.5184,N,07727.5940,W,1,06,1.42,161.4,M,-34.4,M,,*5D
$GPRMC,141733.500,A,4308.5186,N,07727.5968,W,30.94,276.95,030919,,,A*4B
$GPGGA,141733.750,4308.5188,N,07727.5996,W,1,06,1.42,161.3,M,-34.4,M,,*58
$GPRMC,141734.000,A,4308.5190,N,07727.6025,W,30.79,275.41,030919,,,A*44
$GPGGA,141734.250,4308.5192,N,07727.6054,W,1,06,1.42,161.3,M,-34.4,M,,*55
$GPRMC,141734.500,A,4308.5194,N,07727.6082,W,30.24,276.38,030919,,,A*4D
$GPGGA,141734.750,4308.5197,N,07727.6111,W,1,06,1.42,161.2,M,-34.4,M,,*54
$GPRMC,141735.000,A,4308.5200,N,07727.6139,W,30.17,277.71,030919,,,A*4A
$GPGGA,141735.250,4308.5204,N,07727.6167,W,1,06,1.42,161.2,M,-34.4,M,,*58
$GPRMC,141735.500,A,4308.5207,N,07727.6196,W,30.21,278.50,030919,,,A*44
$GPGGA,141735.750,4308.5211,N,07727.6225,W,1,06,1.42,161.1,M,-34.4,M,,*5F
$GPRMC,141736.000,A,4308.5214,N,07727.6253,W,30.52,278.97,030919,,,A*45
$GPGGA,141736.250,4308.5217,N,07727.6282,W,1,06,1.42,161.0,M,-34.4,M,,*53
$GPRMC,141736.500,A,4308.5221,N,07727.6311,W,30.61,278.31,030919,,,A*4D
$GPGGA,141736.750,4308.5224,N,07727.6339,W,1,06,1.42,160.5,M,-34.4,M,,*53
$GPRMC,141737.000,A,4308.5227,N,07727.6368,W,30.79,277.18,030919,,,A*4C
$GPGGA,141737.250,4308.5230,N,07727.6397,W,1,06,1.42,160.0,M,-34.4,M,,*53
$GPRMC,141737.500,A,4308.5234,N,07727.6427,W,30.85,277.15,030919,,,A*49
$GPGGA,141737.750,4308.5237,N,07727.6456,W,1,06,1.42,159.4,M,-34.4,M,,*55
$GPRMC,141738.000,A,4308.5240,N,07727.6485,W,30.78,277.00,030919,,,A*4E
$GPGGA,141738.250,4308.5243,N,07727.6514,W,1,06,1.42,159.2,M,-34.4,M,,*5D
$GPRMC,141738.500,A,4308.5245,N,07727.6543,W,30.61,276.23,030919,,,A*4D
$GPGGA,141738.750,4308.5248,N,07727.6573,W,1,06,1.42,159.1,M,-34.4,M,,*51
$GPRMC,141739.000,A,4308.5250,N,07727.6602,W,30.67,275.91,030919,,,A*47
$GPGGA,141739.250,4308.5253,N,07727.6631,W,1,06,1.42,159.0,M,-34.4,M,,*5B
$GPRMC,141739.500,A,4308.5256,N,07727.6660,W,30.49,276.22,030919,,,A*47
$GPGGA,141739.750,4308.5259,N,07727.6689,W,1,06,1.42,158.9,M,-34.4,M,,*5F
$GPRMC,141740.000,A,4308.5262,N,07727.6718,W,30.29,276.33,030919,,,A*43
$GPGGA,141740.250,4308.5264,N,07727.6747,W,1,05,1.44,158.8,M,-34.4,M,,*5D
$GPRMC,141740.500,A,4308.5267,N,07727.6775,W,29.72,276.16,030919,,,A*49
$GPGGA,141740.750,4308.5270,N,07727.6803,W,1,06,1.42,158.6,M,-34.4,M,,*59
$GPRMC,141741.000,A,4308.5272,N,07727.6831,W,29.53,275.83,030919,,,A*4A
$GPGGA,141741.250,4308.5275,N,07727.6860,W,1,06,1.42,158.5,M,-34.4,M,,*5E
$GPRMC,141741.500,A,4308.5277,N,07727.6888,W,29.49,275.57,030919,,,A*4A
$GPGGA,141741.750,4308.5279,N,07727.6915,W,1,06,1.42,158.5,M,-34.4,M,,*54
$GPRMC,141742.000,A,4308.5282,N,07727.6943,W,29.42,275.22,030919,,,A*49
$GPGGA,141742.250,4308.5285,N,07727.6971,W,1,06,1.42,157.8,M,-34.4,M,,*51
$GPRMC,141742.500,A,4308.5287,N,07727.6999,W,29.33,273.82,030919,,,A*44
$GPGGA,141742.750,4308.5289,N,07727.7027,W,1,06,1.42,157.3,M,-34.4,M,,*58
$GPRMC,141743.000,A,4308.5291,N,07727.7055,W,29.59,273.30,030919,,,A*4A
$GPGGA,141743.250,4308.5292,N,07727.7084,W,1,06,1.42,157.0,M,-34.4,M,,*5C
$GPRMC,141743.500,A,4308.5293,N,07727.7112,W,30.00,273.06,030919,,,A*4E
$GPGGA,141743.750,4308.5295,N,07727.7141,W,1,06,1.42,156.9,M,-34.4,M,,*5E
$GPRMC,141744.000,A,4308.5296,N,07727.7169,W,29.95,273.55,030919,,,A*47
$GPGGA,141744.250,4308.5298,N,07727.7197,W,1,06,1.42,156.8,M,-34.4,M,,*5B
$GPRMC,141744.500,A,4308.5299,N,07727.7226,W,29.74,273.86,030919,,,A*44
$GPGGA,141744.750,4308.5301,N,07727.7254,W,1,06,1.42,156.8,M,-34.4,M,,*53
$GPRMC,141745.000,A,4308.5303,N,07727.7283,W,29.84,274.71,030919,,,A*4D
$GPGGA,141745.250,4308.5305,N,07727.7311,W,1,06,1.42,156.8,M,-34.4,M,,*53
$GPRMC,141745.500,A,4308.5306,N,07727.7339,W,29.84,274.17,030919,,,A*4D
$GPGGA,141745.750,4308.5308,N,07727.7367,W,1,06,1.42,156.9,M,-34.4,M,,*5B
$GPRMC,141746.000,A,4308.5309,N,07727.7395,W,29.63,274.06,030919,,,A*4B
$GPGGA,141746.250,4308.5310,N,07727.7423,W,1,06,1.42,157.0,M,-34.4,M,,*5B
$GPRMC,141746.500,A,4308.5311,N,07727.7450,W,29.10,273.27,030919,,,A*49
$GPGGA,141746.750,4308.5313,N,07727.7478,W,1,06,1.42,157.1,M,-34.4,M,,*52
$GPRMC,141747.000,A,4308.5314,N,07727.7505,W,28.70,273.77,030919,,,A*4B
$GPGGA,141747.250,4308.5315,N,07727.7532,W,1,06,1.42,157.3,M,-34.4,M,,*5D
$GPRMC,141747.500,A,4308.5316,N,07727.7558,W,28.43,274.39,030919,,,A*49
$GPGGA,141747.750,4308.5318,N,07727.7585,W,1,06,1.42,157.3,M,-34.4,M,,*59
$GPRMC,141748.000,A,4308.5319,N,07727.7611,W,27.56,274.43,030919,,,A*44
$GPGGA,141748.250,4308.5320,N,07727.7637,W,1,06,1.42,157.4,M,-34.4,M,,*55
$GPRMC,141748.500,A,4308.5322,N,07727.7662,W,27.13,274.79,030919,,,A*45
$GPGGA,141748.750,4308.5323,N,07727.7687,W,1,06,1.42,157.3,M,-34.4,M,,*5F
$GPRMC,141749.000,A,4308.5325,N,07727.7712,W,26.42,275.52,030919,,,A*4D
$GPGGA,141749.250,4308.5326,N,07727.7736,W,1,06,1.42,157.1,M,-34.4,M,,*57
$GPRMC,141749.500,A,4308.5328,N,07727.7759,W,25.01,275.05,030919,,,A*4C
$GPGGA,141749.750,4308.5330,N,07727.7782,W,1,06,1.42,156.9,M,-34.4,M,,*53
$GPRMC,141750.000,A,4308.5331,N,07727.7804,W,23.82,274.84,030919,,,A*4B
$GPGGA,141750.250,4308.5332,N,07727.7825,W,1,06,1.42,156.8,M,-34.4,M,,*5F
$GPRMC,141750.500,A,4308.5334,N,07727.7845,W,22.17,275.56,030919,,,A*4D
$GPGGA,141750.750,4308.5335,N,07727.7865,W,1,06,1.42,156.8,M,-34.4,M,,*59
$GPRMC,141751.000,A,4308.5337,N,07727.7884,W,20.87,276.36,030919,,,A*49
$GPGGA,141751.250,4308.5338,N,07727.7902,W,1,06,1.42,156.7,M,-34.4,M,,*5F
$GPRMC,141751.500,A,4308.5340,N,07727.7920,W,19.56,277.14,030919,,,A*44
$GPGGA,141751.750,4308.5340,N,07727.7937,W,1,06,1.42,156.4,M,-34.4,M,,*50
$GPRMC,141752.000,A,4308.5341,N,07727.7954,W,18.74,275.05,030919,,,A*43
$GPGGA,141752.250,4308.5341,N,07727.7970,W,1,06,1.42,156.1,M,-34.4,M,,*51
$GPRMC,141752.500,A,4308.5342,N,07727.7986,W,17.59,274.20,030919,,,A*4C
$GPGGA,141752.750,4308.5342,N,07727.8002,W,1,06,1.42,155.8,M,-34.4,M,,*5E
$GPRMC,141753.000,A,4308.5343,N,07727.8017,W,16.55,274.26,030919,,,A*4C
$GPGGA,141753.250,4308.5343,N,07727.8031,W,1,06,1.42,155.5,M,-34.4,M,,*56
$GPRMC,141753.750,A,4308.5345,N,07727.8057,W,13.98,276.37,030919,,,A*4A
$GPGGA,141754.000,4308.5346,N,07727.8068,W,1,06,1.42,155.3,M,-34.4,M,,*59
$GPRMC,141754.500,A,4308.5347,N,07727.8088,W,11.01,280.25,030919,,,A*42
$GPGGA,141754.750,4308.5349,N,07727.8096,W,1,06,1.42,155.0,M,-34.4,M,,*56
$GPRMC,141755.250,A,4308.5351,N,07727.8109,W,7.84,287.75,030919,,,A*76
$GPGGA,141755.500,4308.5351,N,07727.8113,W,1,06,1.42,154.6,M,-34.4,M,,*52
$GPRMC,141755.750,A,4308.5352,N,07727.8116,W,4.90,297.06,030919,,,A*7D
$GPGGA,141756.000,4308.5353,N,07727.8119,W,1,06,1.42,154.3,M,-34.4,M,,*59
$GPRMC,141756.250,A,4308.5354,N,07727.8121,W,3.55,306.18,030919,,,A*71
$GPGGA,141756.500,4308.5354,N,07727.8121,W,1,06,1.37,153.8,M,-34.4,M,,*5E
$GPRMC,141756.750,A,4308.5354,N,07727.8122,W,2.11,306.18,030919,,,A*76
$GPGGA,141757.000,4308.5355,N,07727.8124,W,1,06,1.37,153.5,M,-34.4,M,,*53
$GPRMC,141757.250,A,4308.5355,N,07727.8126,W,2.41,306.18,030919,,,A*72
$GPGGA,141757.500,4308.5356,N,07727.8128,W,1,06,1.37,153.1,M,-34.4,M,,*5D
$GPRMC,141757.750,A,4308.5356,N,07727.8132,W,4.04,276.00,030919,,,A*79
$GPGGA,141758.000,4308.5356,N,07727.8136,W,1,06,1.42,152.9,M,-34.4,M,,*53
$GPRMC,141758.250,A,4308.5357,N,07727.8142,W,5.77,270.14,030919,,,A*73
$GPGGA,141758.500,4308.5356,N,07727.8149,W,1,06,1.42,152.8,M,-34.4,M,,*5F
$GPRMC,141758.750,A,4308.5356,N,07727.8158,W,8.67,265.36,030919,,,A*74
$GPGGA,141759.000,4308.5356,N,07727.8167,W,1,06,1.42,152.7,M,-34.4,M,,*58
$GPRMC,141759.250,A,4308.5355,N,07727.8178,W,11.01,263.15,030919,,,A*4E
$GPGGA,141759.500,4308.5355,N,07727.8190,W,1,06,1.42,152.6,M,-34.4,M,,*57
$GPRMC,141759.750,A,4308.5355,N,07727.8203,W,13.35,265.72,030919,,,A*46
$GPGGA,141800.000,4308.5354,N,07727.8217,W,1,06,1.42,152.4,M,-34.4,M,,*5E
$GPRMC,141800.250,A,4308.5354,N,07727.8232,W,15.30,266.67,030919,,,A*47
$GPGGA,141800.500,4308.5354,N,07727.8248,W,1,06,1.42,152.3,M,-34.4,M,,*56
$GPRMC,141800.750,A,4308.5354,N,07727.8265,W,17.14,267.92,030919,,,A*4F
$GPGGA,141801.000,4308.5354,N,07727.8282,W,1,06,1.42,152.2,M,-34.4,M,,*55
$GPRMC,141801.250,A,4308.5354,N,07727.8301,W,18.78,267.72,030919,,,A*43
$GPGGA,141801.500,4308.5354,N,07727.8320,W,1,06,1.42,152.2,M,-34.4,M,,*59
$GPRMC,141801.750,A,4308.5354,N,07727.8339,W,19.98,269.58,030919,,,A*44
$GPGGA,141802.000,4308.5354,N,07727.8359,W,1,06,1.42,152.2,M,-34.4,M,,*51
$GPRMC,141802.250,A,4308.5354,N,07727.8379,W,21.13,269.43,030919,,,A*44
$GPGGA,141802.500,4308.5354,N,07727.8401,W,1,06,1.42,152.2,M,-34.4,M,,*5E
$GPRMC,141802.750,A,4308.5354,N,07727.8423,W,22.44,269.72,030919,,,A*4A
$GPGGA,141803.000,4308.5355,N,07727.8446,W,1,06,1.42,152.3,M,-34.4,M,,*59
$GPRMC,141803.250,A,4308.5355,N,07727.8470,W,23.88,270.09,030919,,,A*4C
$GPGGA,141803.500,4308.5356,N,07727.8494,W,1,06,1.42,152.5,M,-34.4,M,,*56
$GPRMC,141803.750,A,4308.5356,N,07727.8518,W,25.17,270.12,030919,,,A*4F
$GPGGA,141804.000,4308.5356,N,07727.8543,W,1,06,1.42,152.6,M,-34.4,M,,*5C
$GPRMC,141804.250,A,4308.5357,N,07727.8570,W,25.85,270.55,030919,,,A*4A
$GPGGA,141804.500,4308.5358,N,07727.8596,W,1,06,1.42,152.6,M,-34.4,M,,*5F
$GPRMC,141804.750,A,4308.5358,N,07727.8623,W,28.05,270.33,030919,,,A*40
$GPGGA,141805.000,4308.5358,N,07727.8651,W,1,06,1.42,152.6,M,-34.4,M,,*53
$GPRMC,141805.250,A,4308.5358,N,07727.8679,W,29.20,269.62,030919,,,A*41
$GPGGA,141805.500,4308.5358,N,07727.8707,W,1,06,1.42,152.5,M,-34.4,M,,*57
$GPRMC,141805.750,A,4308.5357,N,07727.8736,W,30.13,268.84,030919,,,A*40
$GPGGA,141806.000,4308.5357,N,07727.8765,W,1,06,1.37,152.5,M,-34.4,M,,*58
$GPRMC,141806.250,A,4308.5356,N,07727.8796,W,31.29,268.47,030919,,,A*4A
$GPGGA,141806.500,4308.5357,N,07727.8827,W,1,06,1.42,152.3,M,-34.4,M,,*50
$GPRMC,141806.750,A,4308.5357,N,07727.8859,W,32.61,269.91,030919,,,A*47
$GPGGA,141807.000,4308.5358,N,07727.8891,W,1,06,1.37,152.2,M,-34.4,M,,*55
$GPRMC,141807.250,A,4308.5359,N,07727.8924,W,33.77,270.75,030919,,,A*42
$GPGGA,141807.500,4308.5359,N,07727.8956,W,1,06,1.42,152.1,M,-34.4,M,,*5A
$GPRMC,141807.750,A,4308.5359,N,07727.8989,W,34.72,270.22,030919,,,A*40
$GPGGA,141808.000,4308.5359,N,07727.9023,W,1,06,1.37,151.9,M,-34.4,M,,*53
$GPRMC,141808.250,A,4308.5359,N,07727.9057,W,35.98,269.93,030919,,,A*46
$GPGGA,141808.500,4308.5360,N,07727.9092,W,1,06,1.42,151.8,M,-34.4,M,,*55
$GPRMC,141808.750,A,4308.5359,N,07727.9126,W,36.06,270.16,030919,,,A*45
$GPGGA,141809.000,4308.5359,N,07727.9160,W,1,06,1.42,151.8,M,-34.4,M,,*57
$GPRMC,141809.250,A,4308.5360,N,07727.9195,W,36.08,270.18,030919,,,A*43
$GPGGA,141809.500,4308.5360,N,07727.9229,W,1,06,1.42,151.7,M,-34.4,M,,*59
$GPRMC,141809.750,A,4308.5360,N,07727.9264,W,36.08,270.20,030919,,,A*40
$GPGGA,141810.000,4308.5361,N,07727.9298,W,1,06,1.37,151.5,M,-34.4,M,,*5F
$GPRMC,141810.250,A,4308.5362,N,07727.9333,W,36.12,270.67,030919,,,A*44
$GPGGA,141810.500,4308.5363,N,07727.9367,W,1,06,1.42,151.3,M,-34.4,M,,*5D
$GPRMC,141810.750,A,4308.5364,N,07727.9402,W,36.14,270.74,030919,,,A*46
$GPGGA,141811.000,4308.5364,N,07727.9436,W,1,06,1.37,151.1,M,-34.4,M,,*5D
$GPRMC,141811.250,A,4308.5364,N,07727.9471,W,36.39,270.32,030919,,,A*4B
$GPGGA,141811.500,4308.5364,N,07727.9505,W,1,06,1.42,150.7,M,-34.4,M,,*5C
$GPRMC,141811.750,A,4308.5364,N,07727.9541,W,36.83,269.77,030919,,,A*44
$GPGGA,141812.000,4308.5364,N,07727.9576,W,1,06,1.42,150.2,M,-34.4,M,,*5B
$GPRMC,141812.250,A,4308.5364,N,07727.9612,W,37.08,269.64,030919,,,A*47
$GPGGA,141812.500,4308.5365,N,07727.9649,W,1,06,1.42,149.6,M,-34.4,M,,*5C
$GPRMC,141812.750,A,4308.5367,N,07727.9687,W,38.57,270.76,030919,,,A*43
$GPGGA,141813.000,4308.5369,N,07727.9724,W,1,06,1.42,148.9,M,-34.4,M,,*50
$GPRMC,141813.250,A,4308.5370,N,07727.9762,W,38.91,271.21,030919,,,A*42
$GPGGA,141813.500,4308.5372,N,07727.9800,W,1,06,1.42,148.2,M,-34.4,M,,*5D
$GPRMC,141813.750,A,4308.5373,N,07727.9839,W,40.08,271.29,030919,,,A*42
$GPGGA,141814.000,4308.5373,N,07727.9878,W,1,06,1.37,148.4,M,-34.4,M,,*55
$GPRMC,141814.250,A,4308.5374,N,07727.9917,W,40.40,270.96,030919,,,A*43
$GPGGA,141814.500,4308.5374,N,07727.9956,W,1,06,1.42,147.8,M,-34.4,M,,*5B
$GPRMC,141814.750,A,4308.5375,N,07727.9996,W,41.02,270.78,030919,,,A*49
$GPGGA,141815.000,4308.5376,N,07728.0036,W,1,06,1.42,147.2,M,-34.4,M,,*5E
$GPRMC,141815.250,A,4308.5377,N,07728.0077,W,42.27,270.95,030919,,,A*48
$GPGGA,141815.500,4308.5378,N,07728.0118,W,1,06,1.42,146.5,M,-34.4,M,,*5E
$GPRMC,141815.750,A,4308.5380,N,07728.0159,W,42.99,271.61,030919,,,A*47
$GPGGA,141816.000,4308.5380,N,07728.0201,W,1,06,1.42,145.8,M,-34.4,M,,*5A
$GPRMC,141816.250,A,4308.5381,N,07728.0242,W,43.23,271.23,030919,,,A*4F
$GPGGA,141816.500,4308.5383,N,07728.0285,W,1,06,1.42,145.3,M,-34.4,M,,*5B
$GPRMC,141816.750,A,4308.5384,N,07728.0327,W,43.57,271.33,030919,,,A*4F
$GPGGA,141817.000,4308.5384,N,07728.0370,W,1,06,1.42,144.9,M,-34.4,M,,*58
$GPRMC,141817.250,A,4308.5384,N,07728.0412,W,43.78,270.88,030919,,,A*46
$GPGGA,141817.500,4308.5385,N,07728.0455,W,1,06,1.42,144.7,M,-34.4,M,,*52
$GPRMC,141817.750,A,4308.5386,N,07728.0499,W,44.61,271.30,030919,,,A*4F
$GPGGA,141818.000,4308.5387,N,07728.0542,W,1,06,1.42,144.6,M,-34.4,M,,*5C
$GPRMC,141818.250,A,4308.5389,N,07728.0584,W,44.35,271.51,030919,,,A*41
$GPGGA,141818.500,4308.5390,N,07728.0627,W,1,06,1.42,144.5,M,-34.4,M,,*5C
$GPRMC,141818.750,A,4308.5391,N,07728.0670,W,44.35,271.42,030919,,,A*47
$GPGGA,141819.000,4308.5391,N,07728.0713,W,1,06,1.42,144.6,M,-34.4,M,,*5C
$GPRMC,141819.250,A,4308.5391,N,07728.0756,W,44.36,270.70,030919,,,A*45
$GPGGA,141819.500,4308.5391,N,07728.0798,W,1,06,1.42,144.6,M,-34.4,M,,*5A
$GPRMC,141819.750,A,4308.5391,N,07728.0840,W,44.06,270.17,030919,,,A*4A
$GPGGA,141820.000,4308.5392,N,07728.0883,W,1,06,1.42,144.5,M,-34.4,M,,*50
$GPRMC,141820.250,A,4308.5392,N,07728.0925,W,44.09,270.35,030919,,,A*4B
$GPGGA,141820.500,4308.5392,N,07728.0968,W,1,06,1.42,144.3,M,-34.4,M,,*57
$GPRMC,141820.750,A,4308.5393,N,07728.1011,W,44.44,270.39,030919,,,A*45
$GPGGA,141821.000,4308.5393,N,07728.1054,W,1,06,1.42,144.3,M,-34.4,M,,*55
$GPRMC,141821.250,A,4308.5393,N,07728.1097,W,44.85,270.27,030919,,,A*4D
$GPGGA,141821.500,4308.5394,N,07728.1140,W,1,06,1.42,144.5,M,-34.4,M,,*55
$GPRMC,141821.750,A,4308.5394,N,07728.1183,W,45.10,270.27,030919,,,A*46
$GPGGA,141822.000,4308.5394,N,07728.1226,W,1,06,1.42,144.8,M,-34.4,M,,*5D
$GPRMC,141822.250,A,4308.5394,N,07728.1269,W,45.37,270.04,030919,,,A*43
$GPGGA,141822.500,4308.5395,N,07728.1313,W,1,06,1.42,145.1,M,-34.4,M,,*56
$GPRMC,141822.750,A,4308.5395,N,07728.1357,W,45.55,270.10,030919,,,A*4A
$GPGGA,141823.000,4308.5396,N,07728.1401,W,1,06,1.42,145.4,M,-34.4,M,,*50
$GPRMC,141823.250,A,4308.5397,N,07728.1446,W,45.78,270.48,030919,,,A*49
$GPGGA,141823.500,4308.5397,N,07728.1490,W,1,06,1.42,145.7,M,-34.4,M,,*5F
$GPRMC,141823.750,A,4308.5397,N,07728.1535,W,46.83,270.15,030919,,,A*46
$GPGGA,141824.000,4308.5397,N,07728.1579,W,1,06,1.42,145.9,M,-34.4,M,,*55
$GPRMC,141824.250,A,4308.5397,N,07728.1623,W,46.72,269.91,030919,,,A*4A
$GPGGA,141824.500,4308.5398,N,07728.1668,W,1,06,1.42,145.9,M,-34.4,M,,*5C
$GPRMC,141824.750,A,4308.5399,N,07728.1713,W,46.63,270.64,030919,,,A*41
$GPGGA,141825.000,4308.5399,N,07728.1757,W,1,06,1.42,145.9,M,-34.4,M,,*54
$GPRMC,141825.250,A,4308.5399,N,07728.1802,W,46.56,270.42,030919,,,A*48
$GPGGA,141825.500,4308.5399,N,07728.1847,W,1,06,1.42,146.0,M,-34.4,M,,*55
$GPRMC,141825.750,A,4308.5400,N,07728.1892,W,46.55,270.42,030919,,,A*40
$GPGGA,141826.000,4308.5401,N,07728.1937,W,1,06,1.42,145.9,M,-34.4,M,,*59
$GPRMC,141826.250,A,4308.5402,N,07728.1982,W,46.62,270.79,030919,,,A*48
$GPGGA,141826.500,4308.5403,N,07728.2026,W,1,06,1.42,146.0,M,-34.4,M,,*5E
$GPRMC,141826.750,A,4308.5404,N,07728.2071,W,46.62,271.03,030919,,,A*41
$GPGGA,141827.000,4308.5405,N,07728.2115,W,1,06,1.37,145.9,M,-34.4,M,,*55
$GPRMC,141827.250,A,4308.5405,N,07728.2159,W,46.09,270.84,030919,,,A*4C
$GPGGA,141827.500,4308.5406,N,07728.2203,W,1,06,1.42,145.9,M,-34.4,M,,*55
$GPRMC,141827.750,A,4308.5407,N,07728.2247,W,45.84,271.13,030919,,,A*4E
$GPGGA,141828.000,4308.5408,N,07728.2291,W,1,06,1.42,145.7,M,-34.4,M,,*54
$GPRMC,141828.250,A,4308.5410,N,07728.2335,W,45.85,271.47,030919,,,A*46
$GPGGA,141828.500,4308.5411,N,07728.2379,W,1,06,1.42,145.5,M,-34.4,M,,*5C
$GPRMC,141828.750,A,4308.5413,N,07728.2423,W,45.88,271.37,030919,,,A*4A
$GPGGA,141829.000,4308.5414,N,07728.2467,W,1,06,1.37,145.5,M,-34.4,M,,*57
$GPRMC,141829.250,A,4308.5416,N,07728.2511,W,45.83,271.72,030919,,,A*41
$GPGGA,141829.500,4308.5417,N,07728.2554,W,1,06,1.42,145.3,M,-34.4,M,,*54
$GPRMC,141829.750,A,4308.5418,N,07728.2598,W,45.37,271.35,030919,,,A*47
$GPGGA,141830.000,4308.5419,N,07728.2641,W,1,06,1.42,145.2,M,-34.4,M,,*51
$GPRMC,141830.250,A,4308.5420,N,07728.2684,W,45.31,271.59,030919,,,A*43
$GPGGA,141830.500,4308.5422,N,07728.2727,W,1,06,1.42,144.9,M,-34.4,M,,*57
$GPRMC,141830.750,A,4308.5423,N,07728.2770,W,44.89,271.73,030919,,,A*45
$GPGGA,141831.000,4308.5424,N,07728.2812,W,1,06,1.42,144.9,M,-34.4,M,,*5C
$GPRMC,141831.250,A,4308.5424,N,07728.2855,W,44.65,271.12,030919,,,A*4B
$GPGGA,141831.500,4308.5425,N,07728.2897,W,1,06,1.42,144.9,M,-34.4,M,,*55
$GPRMC,141831.750,A,4308.5426,N,07728.2938,W,44.45,270.81,030919,,,A*4F
$GPGGA,141832.000,4308.5426,N,07728.2979,W,1,06,1.42,144.9,M,-34.4,M,,*51
$GPRMC,141832.250,A,4308.5427,N,07728.3020,W,43.20,271.20,030919,,,A*47
$GPGGA,141832.500,4308.5427,N,07728.3060,W,1,06,1.42,144.9,M,-34.4,M,,*55
$GPRMC,141832.750,A,4308.5428,N,07728.3100,W,42.41,270.73,030919,,,A*4F
$GPGGA,141833.000,4308.5429,N,07728.3141,W,1,06,1.37,144.9,M,-34.4,M,,*5F
$GPRMC,141833.250,A,4308.5430,N,07728.3181,W,42.43,271.39,030919,,,A*46
$GPGGA,141833.500,4308.5430,N,07728.3221,W,1,06,1.42,144.7,M,-34.4,M,,*5B
$GPRMC,141833.750,A,4308.5430,N,07728.3260,W,42.10,270.96,030919,,,A*4D
$GPGGA,141834.000,4308.5431,N,07728.3300,W,1,06,1.42,144.5,M,-34.4,M,,*58
$GPRMC,141834.250,A,4308.5432,N,07728.3339,W,41.56,271.07,030919,,,A*48
$GPGGA,141834.500,4308.5432,N,07728.3379,W,1,06,1.42,144.4,M,-34.4,M,,*51
$GPRMC,141834.750,A,4308.5433,N,07728.3418,W,41.56,271.08,030919,,,A*47
$GPGGA,141835.000,4308.5433,N,07728.3457,W,1,06,1.37,144.6,M,-34.4,M,,*5F
