Vers 81
USE_SERIAL_FEEDBACK=true
DEVELOPMENT_MODE=false
USE_RMC_ONLY=false

$GPRMC,152918.500,A,4308.3390,N,07726.2457,W,0.05,299.02,110919,,,A*7D
$GPGGA,152918.750,4308.3390,N,07726.2456,W,1,04,1.71,306.9,M,-34.4,M,,*5C
$GPRMC,152919.000,A,4308.3390,N,07726.2456,W,0.07,301.54,110919,,,A*79
$GPGGA,152919.250,4308.3390,N,07726.2456,W,1,04,1.71,307.2,M,-34.4,M,,*52
$GPRMC,152919.500,A,4308.3391,N,07726.2455,W,0.08,314.88,110919,,,A*74
$GPGGA,152919.750,4308.3391,N,07726.2455,W,1,04,1.71,307.6,M,-34.4,M,,*51
$GPRMC,152920.000,A,4308.3391,N,07726.2455,W,0.10,322.10,110919,,,A*76
$GPGGA,152920.250,4308.3255,N,07726.2521,W,1,05,1.61,251.2,M,-34.4,M,,*53
$GPRMC,152920.500,A,4308.3206,N,07726.2544,W,0.03,86.26,110919,,,A*47
$GPGGA,152920.750,4308.3139,N,07726.2578,W,1,05,1.61,203.1,M,-34.4,M,,*57
$GPRMC,152921.000,A,4308.3122,N,07726.2586,W,0.04,227.59,110919,,,A*7E
$GPGGA,152921.250,4308.3100,N,07726.2596,W,1,05,1.61,187.8,M,-34.4,M,,*5F
$GPRMC,152921.500,A,4308.3088,N,07726.2602,W,0.08,237.23,110919,,,A*75
$GPGGA,152921.750,4308.3084,N,07726.2604,W,1,05,1.61,181.3,M,-34.4,M,,*52
$GPRMC,152922.000,A,4308.3081,N,07726.2605,W,0.09,221.38,110919,,,A*71
$GPGGA,152922.250,4308.3078,N,07726.2605,W,1,05,1.61,179.9,M,-34.4,M,,*5B
$GPRMC,152922.500,A,4308.3076,N,07726.2606,W,0.14,180.35,110919,,,A*76
$GPGGA,152922.750,4308.3074,N,07726.2606,W,1,05,1.61,179.3,M,-34.4,M,,*5B
$GPRMC,152923.000,A,4308.3072,N,07726.2606,W,0.18,175.14,110919,,,A*73
$GPGGA,152923.250,4308.3071,N,07726.2606,W,1,05,1.61,178.6,M,-34.4,M,,*5E
$GPRMC,152923.500,A,4308.3069,N,07726.2607,W,0.18,180.88,110919,,,A*72
$GPGGA,152923.750,4308.3067,N,07726.2608,W,1,05,1.61,177.1,M,-34.4,M,,*5A
$GPRMC,152924.000,A,4308.3066,N,07726.2609,W,0.08,202.29,110919,,,A*72
$GPGGA,152924.250,4308.3065,N,07726.2609,W,1,05,1.61,176.5,M,-34.4,M,,*5E
$GPRMC,152924.500,A,4308.3063,N,07726.2610,W,0.10,225.23,110919,,,A*7C
$GPGGA,152924.750,4308.3062,N,07726.2610,W,1,05,1.61,175.9,M,-34.4,M,,*5B
$GPRMC,152925.000,A,4308.3061,N,07726.2610,W,0.18,225.70,110919,,,A*74
$GPGGA,152925.250,4308.3061,N,07726.2610,W,1,05,1.61,175.8,M,-34.4,M,,*5D
$GPRMC,152925.500,A,4308.3060,N,07726.2610,W,0.08,219.69,110919,,,A*76
$GPGGA,152925.750,4308.3060,N,07726.2611,W,1,05,1.61,175.7,M,-34.4,M,,*57
$GPRMC,152926.000,A,4308.3060,N,07726.2610,W,0.05,350.22,110919,,,A*7E
$GPGGA,152926.250,4308.3060,N,07726.2610,W,1,06,2.22,175.5,M,-34.4,M,,*55
$GPRMC,152926.500,A,4308.3060,N,07726.2610,W,0.18,358.54,110919,,,A*7E
$GPGGA,152926.750,4308.3059,N,07726.2609,W,1,06,2.21,175.8,M,-34.4,M,,*5C
$GPRMC,152927.000,A,4308.3059,N,07726.2609,W,0.17,40.36,110919,,,A*49
$GPGGA,152927.250,4308.3058,N,07726.2609,W,1,06,1.41,176.1,M,-34.4,M,,*56
$GPRMC,152927.500,A,4308.3057,N,07726.2608,W,0.06,32.17,110919,,,A*45
$GPGGA,152927.750,4308.3057,N,07726.2608,W,1,06,1.41,176.4,M,-34.4,M,,*58
$GPRMC,152928.000,A,4308.3056,N,07726.2608,W,0.05,50.39,110919,,,A*45
$GPGGA,152928.250,4308.3057,N,07726.2607,W,1,06,1.41,176.7,M,-34.4,M,,*5E
$GPRMC,152928.500,A,4308.3057,N,07726.2607,W,0.13,2.53,110919,,,A*72
$GPGGA,152928.750,4308.3056,N,07726.2607,W,1,06,2.21,176.7,M,-34.4,M,,*5F
$GPRMC,152929.000,A,4308.3056,N,07726.2607,W,0.18,2.59,110919,,,A*76
$GPGGA,152929.250,4308.3055,N,07726.2607,W,1,06,2.21,176.6,M,-34.4,M,,*59
$GPRMC,152929.500,A,4308.3055,N,07726.2607,W,0.11,15.17,110919,,,A*45
$GPGGA,152929.750,4308.3055,N,07726.2607,W,1,06,1.41,176.6,M,-34.4,M,,*59
$GPRMC,152930.000,A,4308.3054,N,07726.2607,W,0.06,358.32,110919,,,A*72
$GPGGA,152930.250,4308.3053,N,07726.2607,W,1,06,2.21,176.6,M,-34.4,M,,*57
$GPRMC,152930.500,A,4308.3053,N,07726.2607,W,0.07,305.79,110919,,,A*76
$GPGGA,152930.750,4308.3053,N,07726.2607,W,1,06,1.41,176.5,M,-34.4,M,,*54
$GPRMC,152931.000,A,4308.3054,N,07726.2607,W,0.18,6.40,110919,,,A*71
$GPGGA,152931.250,4308.3055,N,07726.2607,W,1,06,2.21,176.6,M,-34.4,M,,*50
$GPRMC,152931.500,A,4308.3055,N,07726.2606,W,0.28,7.67,110919,,,A*73
$GPGGA,152931.750,4308.3055,N,07726.2606,W,1,06,2.21,176.7,M,-34.4,M,,*55
$GPRMC,152932.000,A,4308.3055,N,07726.2607,W,0.23,348.25,110919,,,A*71
$GPGGA,152932.250,4308.3055,N,07726.2606,W,1,06,2.21,177.0,M,-34.4,M,,*55
$GPRMC,152932.500,A,4308.3055,N,07726.2606,W,0.19,347.56,110919,,,A*77
$GPGGA,152932.750,4308.3056,N,07726.2606,W,1,06,2.21,177.3,M,-34.4,M,,*50
$GPRMC,152933.000,A,4308.3055,N,07726.2606,W,0.14,359.96,110919,,,A*7D
$GPGGA,152933.250,4308.3055,N,07726.2606,W,1,06,2.21,177.2,M,-34.4,M,,*56
$GPRMC,152933.500,A,4308.3055,N,07726.2606,W,0.16,7.13,110919,,,A*7F
$GPGGA,152933.750,4308.3055,N,07726.2605,W,1,06,2.21,177.0,M,-34.4,M,,*52
$GPRMC,152934.000,A,4308.3055,N,07726.2605,W,0.17,24.95,110919,,,A*40
$GPGGA,152934.250,4308.3055,N,07726.2606,W,1,06,1.41,176.9,M,-34.4,M,,*5E
$GPRMC,152934.500,A,4308.3055,N,07726.2606,W,0.14,9.84,110919,,,A*7A
$GPGGA,152934.750,4308.3055,N,07726.2606,W,1,06,2.20,176.9,M,-34.4,M,,*5F
$GPRMC,152935.000,A,4308.3056,N,07726.2606,W,0.25,357.07,110919,,,A*7C
$GPGGA,152935.250,4308.3057,N,07726.2605,W,1,06,2.21,177.0,M,-34.4,M,,*53
$GPRMC,152935.500,A,4308.3057,N,07726.2605,W,0.29,18.72,110919,,,A*4D
$GPGGA,152935.750,4308.3057,N,07726.2605,W,1,06,1.41,176.9,M,-34.4,M,,*5B
$GPRMC,152936.000,A,4308.3056,N,07726.2606,W,0.20,15.77,110919,,,A*48
$GPGGA,152936.250,4308.3056,N,07726.2605,W,1,06,1.41,176.9,M,-34.4,M,,*5C
$GPRMC,152936.500,A,4308.3057,N,07726.2605,W,0.23,28.22,110919,,,A*42
$GPGGA,152936.750,4308.3057,N,07726.2605,W,1,06,1.41,176.9,M,-34.4,M,,*58
$GPRMC,152937.000,A,4308.3057,N,07726.2605,W,0.18,15.73,110919,,,A*44
$GPGGA,152937.250,4308.3057,N,07726.2605,W,1,06,1.41,176.9,M,-34.4,M,,*5C
$GPRMC,152937.500,A,4308.3057,N,07726.2605,W,0.25,10.15,110919,,,A*4A
$GPGGA,152937.750,4308.3057,N,07726.2605,W,1,06,2.20,176.9,M,-34.4,M,,*5D
$GPRMC,152938.000,A,4308.3057,N,07726.2605,W,0.23,359.47,110919,,,A*7F
$GPGGA,152938.250,4308.3058,N,07726.2605,W,1,06,2.20,176.9,M,-34.4,M,,*58
$GPRMC,152938.500,A,4308.3058,N,07726.2605,W,0.20,346.71,110919,,,A*7D
$GPGGA,152938.750,4308.3058,N,07726.2605,W,1,06,2.20,176.9,M,-34.4,M,,*5D
$GPRMC,152939.000,A,4308.3058,N,07726.2605,W,0.20,359.16,110919,,,A*76
$GPGGA,152939.250,4308.3058,N,07726.2605,W,1,06,2.20,176.9,M,-34.4,M,,*59
$GPRMC,152939.500,A,4308.3058,N,07726.2605,W,0.18,11.34,110919,,,A*47
$GPGGA,152939.750,4308.3058,N,07726.2605,W,1,06,2.20,176.9,M,-34.4,M,,*5C
$GPRMC,152940.000,A,4308.3058,N,07726.2605,W,0.16,4.76,110919,,,A*70
$GPGGA,152940.250,4308.3059,N,07726.2605,W,1,06,2.20,176.9,M,-34.4,M,,*56
$GPRMC,152940.500,A,4308.3059,N,07726.2605,W,0.15,50.78,110919,,,A*48
$GPGGA,152940.750,4308.3059,N,07726.2605,W,1,06,1.41,176.9,M,-34.4,M,,*57
$GPRMC,152941.000,A,4308.3059,N,07726.2605,W,0.09,100.56,110919,,,A*79
$GPGGA,152941.250,4308.3059,N,07726.2605,W,1,06,1.41,176.9,M,-34.4,M,,*53
$GPRMC,152941.500,A,4308.3059,N,07726.2605,W,0.04,160.58,110919,,,A*79
$GPGGA,152941.750,4308.3059,N,07726.2605,W,1,06,1.41,176.9,M,-34.4,M,,*56
$GPRMC,152942.000,A,4308.3059,N,07726.2605,W,0.05,167.22,110919,,,A*74
$GPGGA,152942.250,4308.3059,N,07726.2605,W,1,06,1.41,176.9,M,-34.4,M,,*50
$GPRMC,152942.500,A,4308.3058,N,07726.2605,W,0.11,167.39,110919,,,A*7F
$GPGGA,152942.750,4308.3058,N,07726.2605,W,1,06,1.41,176.9,M,-34.4,M,,*54
$GPRMC,152943.000,A,4308.3058,N,07726.2605,W,0.07,221.35,110919,,,A*71
$GPGGA,152943.250,4308.3058,N,07726.2605,W,1,06,1.41,176.9,M,-34.4,M,,*50
$GPRMC,152943.500,A,4308.3058,N,07726.2605,W,0.11,6.44,110919,,,A*72
$GPGGA,152943.750,4308.3058,N,07726.2605,W,1,06,2.20,176.9,M,-34.4,M,,*51
$GPRMC,152944.000,A,4308.3059,N,07726.2605,W,0.02,327.54,110919,,,A*72
$GPGGA,152944.250,4308.3059,N,07726.2605,W,1,06,1.41,176.9,M,-34.4,M,,*56
$GPRMC,152944.500,A,4308.3059,N,07726.2605,W,0.03,345.83,110919,,,A*78
$GPGGA,152944.750,4308.3059,N,07726.2605,W,1,06,2.20,176.8,M,-34.4,M,,*56
$GPRMC,152945.000,A,4308.3059,N,07726.2605,W,0.04,51.96,110919,,,A*49
$GPGGA,152945.250,4308.3059,N,07726.2605,W,1,06,1.41,176.8,M,-34.4,M,,*56
$GPRMC,152945.500,A,4308.3059,N,07726.2605,W,0.15,351.55,110919,,,A*70
$GPGGA,152945.750,4308.3059,N,07726.2605,W,1,06,2.19,176.8,M,-34.4,M,,*5D
$GPRMC,152946.000,A,4308.3059,N,07726.2605,W,0.12,356.50,110919,,,A*73
$GPGGA,152946.250,4308.3059,N,07726.2605,W,1,06,2.19,176.8,M,-34.4,M,,*5B
$GPRMC,152946.500,A,4308.3059,N,07726.2605,W,0.20,7.56,110919,,,A*76
$GPGGA,152946.750,4308.3059,N,07726.2605,W,1,06,2.19,176.8,M,-34.4,M,,*5E
$GPRMC,152947.000,A,4308.3059,N,07726.2605,W,0.50,1.28,110919,,,A*7A
$GPGGA,152947.250,4308.3060,N,07726.2605,W,1,06,2.19,176.8,M,-34.4,M,,*50
$GPRMC,152947.500,A,4308.3061,N,07726.2605,W,0.71,352.30,110919,,,A*7B
$GPGGA,152947.750,4308.3062,N,07726.2605,W,1,06,2.19,176.6,M,-34.4,M,,*59
$GPRMC,152948.000,A,4308.3064,N,07726.2605,W,1.04,356.13,110919,,,A*72
$GPGGA,152948.250,4308.3066,N,07726.2605,W,1,06,2.19,176.3,M,-34.4,M,,*52
$GPRMC,152948.500,A,4308.3068,N,07726.2605,W,1.35,0.96,110919,,,A*74
$GPGGA,152948.750,4308.3070,N,07726.2605,W,1,06,2.19,176.0,M,-34.4,M,,*53
$GPRMC,152949.000,A,4308.3072,N,07726.2605,W,1.62,0.56,110919,,,A*75
$GPGGA,152949.250,4308.3074,N,07726.2605,W,1,06,2.19,175.7,M,-34.4,M,,*57
$GPRMC,152949.500,A,4308.3075,N,07726.2605,W,2.15,357.31,110919,,,A*74
$GPGGA,152949.750,4308.3077,N,07726.2605,W,1,06,2.19,175.4,M,-34.4,M,,*52
$GPRMC,152950.000,A,4308.3079,N,07726.2606,W,2.89,353.73,110919,,,A*71
$GPGGA,152950.250,4308.3080,N,07726.2607,W,1,07,1.59,174.7,M,-34.4,M,,*51
$GPRMC,152950.500,A,4308.3081,N,07726.2608,W,3.56,356.16,110919,,,A*78
$GPGGA,152950.750,4308.3082,N,07726.2610,W,1,07,1.59,173.7,M,-34.4,M,,*57
$GPRMC,152951.000,A,4308.3083,N,07726.2611,W,3.62,348.39,110919,,,A*73
$GPGGA,152951.250,4308.3084,N,07726.2613,W,1,07,1.59,172.6,M,-34.4,M,,*56
$GPRMC,152951.500,A,4308.3085,N,07726.2615,W,3.59,346.00,110919,,,A*78
$GPGGA,152951.750,4308.3086,N,07726.2617,W,1,07,1.59,171.5,M,-34.4,M,,*55
$GPRMC,152952.000,A,4308.3087,N,07726.2619,W,3.87,345.52,110919,,,A*77
$GPGGA,152952.250,4308.3088,N,07726.2621,W,1,07,1.59,170.4,M,-34.4,M,,*58
$GPRMC,152952.500,A,4308.3090,N,07726.2622,W,4.09,345.99,110919,,,A*7A
$GPGGA,152952.750,4308.3091,N,07726.2624,W,1,07,1.59,169.3,M,-34.4,M,,*5F
$GPRMC,152953.000,A,4308.3092,N,07726.2625,W,3.90,349.55,110919,,,A*70
$GPGGA,152953.250,4308.3094,N,07726.2626,W,1,07,1.59,168.5,M,-34.4,M,,*5B
$GPRMC,152953.500,A,4308.3096,N,07726.2627,W,3.81,353.38,110919,,,A*73
$GPGGA,152953.750,4308.3099,N,07726.2628,W,1,07,1.59,168.0,M,-34.4,M,,*58
$GPRMC,152954.000,A,4308.3102,N,07726.2628,W,4.43,358.64,110919,,,A*79
$GPGGA,152954.250,4308.3104,N,07726.2628,W,1,07,1.59,167.6,M,-34.4,M,,*56
$GPRMC,152954.500,A,4308.3108,N,07726.2627,W,4.57,6.77,110919,,,A*76
$GPGGA,152954.750,4308.3111,N,07726.2626,W,1,07,1.59,167.4,M,-34.4,M,,*5B
$GPRMC,152955.000,A,4308.3114,N,07726.2626,W,4.75,8.72,110919,,,A*75
$GPGGA,152955.250,4308.3118,N,07726.2625,W,1,07,1.59,167.3,M,-34.4,M,,*52
$GPRMC,152955.500,A,4308.3121,N,07726.2624,W,4.84,11.49,110919,,,A*4A
$GPGGA,152955.750,4308.3124,N,07726.2623,W,1,07,1.59,167.2,M,-34.4,M,,*5F
$GPRMC,152956.000,A,4308.3127,N,07726.2622,W,4.47,16.23,110919,,,A*48
$GPGGA,152956.250,4308.3130,N,07726.2621,W,1,07,1.59,167.1,M,-34.4,M,,*5D
$GPRMC,152956.500,A,4308.3133,N,07726.2620,W,4.63,16.55,110919,,,A*4D
$GPGGA,152956.750,4308.3135,N,07726.2619,W,1,07,1.59,166.9,M,-34.4,M,,*5F
$GPRMC,152957.000,A,4308.3138,N,07726.2617,W,4.41,21.94,110919,,,A*4F
$GPGGA,152957.250,4308.3140,N,07726.2616,W,1,07,1.59,166.3,M,-34.4,M,,*5C
$GPRMC,152957.500,A,4308.3142,N,07726.2615,W,3.68,25.44,110919,,,A*40
$GPGGA,152957.750,4308.3144,N,07726.2613,W,1,07,1.35,165.6,M,-34.4,M,,*54
$GPRMC,152958.000,A,4308.3145,N,07726.2612,W,3.63,33.20,110919,,,A*44
$GPGGA,152958.250,4308.3146,N,07726.2610,W,1,07,1.35,165.0,M,-34.4,M,,*59
$GPRMC,152958.500,A,4308.3147,N,07726.2609,W,3.39,35.18,110919,,,A*4B
$GPGGA,152958.750,4308.3148,N,07726.2607,W,1,07,1.35,164.5,M,-34.4,M,,*50
$GPRMC,152959.000,A,4308.3149,N,07726.2606,W,2.97,38.93,110919,,,A*45
$GPGGA,152959.250,4308.3150,N,07726.2604,W,1,07,1.35,164.2,M,-34.4,M,,*59
$GPRMC,152959.500,A,4308.3150,N,07726.2602,W,2.60,51.21,110919,,,A*42
$GPGGA,152959.750,4308.3150,N,07726.2600,W,1,07,1.35,163.9,M,-34.4,M,,*54
$GPRMC,153000.000,A,4308.3151,N,07726.2598,W,2.33,55.20,110919,,,A*41
$GPGGA,153000.250,4308.3151,N,07726.2596,W,1,07,1.35,163.8,M,-34.4,M,,*59
$GPRMC,153000.500,A,4308.3152,N,07726.2595,W,2.29,58.91,110919,,,A*46
$GPGGA,153000.750,4308.3152,N,07726.2593,W,1,07,1.35,163.6,M,-34.4,M,,*54
$GPRMC,153001.000,A,4308.3152,N,07726.2592,W,1.82,59.85,110919,,,A*43
$GPGGA,153001.250,4308.3151,N,07726.2590,W,1,07,1.35,163.4,M,-34.4,M,,*52
$GPRMC,153001.500,A,4308.3151,N,07726.2590,W,0.96,90.85,110919,,,A*46
$GPGGA,153001.750,4308.3151,N,07726.2590,W,1,07,1.35,163.2,M,-34.4,M,,*51
$GPRMC,153002.000,A,4308.3151,N,07726.2592,W,0.22,132.58,110919,,,A*74
$GPGGA,153002.250,4308.3152,N,07726.2594,W,1,07,1.35,162.9,M,-34.4,M,,*5A
$GPRMC,153002.500,A,4308.3152,N,07726.2596,W,0.61,258.70,110919,,,A*74
$GPGGA,153002.750,4308.3151,N,07726.2599,W,1,07,1.35,162.7,M,-34.4,M,,*5F
$GPRMC,153003.000,A,4308.3151,N,07726.2603,W,1.60,257.45,110919,,,A*75
$GPGGA,153003.250,4308.3150,N,07726.2608,W,1,07,1.35,162.6,M,-34.4,M,,*50
$GPRMC,153003.500,A,4308.3151,N,07726.2611,W,2.35,258.25,110919,,,A*79
$GPGGA,153003.750,4308.3149,N,07726.2617,W,1,07,1.35,162.3,M,-34.4,M,,*56
$GPRMC,153004.000,A,4308.3150,N,07726.2623,W,5.80,259.47,110919,,,A*77
$GPGGA,153004.250,4308.3153,N,07726.2632,W,1,07,1.59,162.1,M,-34.4,M,,*50
$GPRMC,153004.500,A,4308.3154,N,07726.2640,W,7.95,269.81,110919,,,A*7C
$GPGGA,153004.750,4308.3154,N,07726.2649,W,1,07,1.59,162.0,M,-34.4,M,,*5F
$GPRMC,153005.000,A,4308.3154,N,07726.2658,W,9.14,271.71,110919,,,A*70
$GPGGA,153005.250,4308.3155,N,07726.2668,W,1,07,1.59,161.8,M,-34.4,M,,*52
$GPRMC,153005.500,A,4308.3155,N,07726.2678,W,10.10,272.83,110919,,,A*44
$GPGGA,153005.750,4308.3155,N,07726.2689,W,1,07,1.35,161.5,M,-34.4,M,,*5F
$GPRMC,153006.000,A,4308.3155,N,07726.2701,W,11.29,272.97,110919,,,A*43
$GPGGA,153006.250,4308.3155,N,07726.2713,W,1,07,1.59,161.1,M,-34.4,M,,*55
$GPRMC,153006.500,A,4308.3156,N,07726.2725,W,11.96,273.55,110919,,,A*48
$GPGGA,153006.750,4308.3156,N,07726.2737,W,1,07,1.59,160.9,M,-34.4,M,,*5C
$GPRMC,153007.000,A,4308.3157,N,07726.2750,W,12.83,275.78,110919,,,A*41
$GPGGA,153007.250,4308.3160,N,07726.2763,W,1,07,1.59,160.3,M,-34.4,M,,*56
$GPRMC,153007.500,A,4308.3162,N,07726.2777,W,13.16,279.47,110919,,,A*4A
$GPGGA,153007.750,4308.3164,N,07726.2790,W,1,07,1.59,159.6,M,-34.4,M,,*54
$GPRMC,153008.000,A,4308.3165,N,07726.2803,W,13.83,280.02,110919,,,A*40
$GPGGA,153008.250,4308.3167,N,07726.2817,W,1,07,1.59,159.0,M,-34.4,M,,*5B
$GPRMC,153008.500,A,4308.3169,N,07726.2831,W,14.29,280.76,110919,,,A*4C
$GPGGA,153008.750,4308.3172,N,07726.2845,W,1,07,1.35,159.0,M,-34.4,M,,*57
$GPRMC,153009.000,A,4308.3176,N,07726.2860,W,15.13,283.22,110919,,,A*48
$GPGGA,153009.250,4308.3180,N,07726.2875,W,1,07,1.58,159.0,M,-34.4,M,,*56
$GPRMC,153009.500,A,4308.3184,N,07726.2890,W,15.71,285.02,110919,,,A*4F
$GPGGA,153009.750,4308.3187,N,07726.2905,W,1,07,1.35,159.0,M,-34.4,M,,*59
$GPRMC,153010.000,A,4308.3192,N,07726.2920,W,16.25,286.28,110919,,,A*46
$GPGGA,153010.250,4308.3196,N,07726.2936,W,1,07,1.35,159.1,M,-34.4,M,,*55
$GPRMC,153010.500,A,4308.3201,N,07726.2952,W,16.97,287.95,110919,,,A*41
$GPGGA,153010.750,4308.3207,N,07726.2968,W,1,07,1.35,159.2,M,-34.4,M,,*53
$GPRMC,153011.000,A,4308.3212,N,07726.2985,W,17.66,289.60,110919,,,A*46
$GPGGA,153011.250,4308.3218,N,07726.3002,W,1,06,1.66,159.2,M,-34.4,M,,*5A
$GPRMC,153011.500,A,4308.3224,N,07726.3019,W,18.47,290.61,110919,,,A*4E
$GPGGA,153011.750,4308.3230,N,07726.3037,W,1,06,1.66,159.3,M,-34.4,M,,*52
$GPRMC,153012.000,A,4308.3235,N,07726.3054,W,19.18,291.21,110919,,,A*4F
$GPGGA,153012.250,4308.3242,N,07726.3073,W,1,06,1.66,159.3,M,-34.4,M,,*51
$GPRMC,153012.500,A,4308.3248,N,07726.3092,W,20.00,291.68,110919,,,A*44
$GPGGA,153012.750,4308.3255,N,07726.3112,W,1,07,1.35,159.4,M,-34.4,M,,*54
$GPRMC,153013.000,A,4308.3263,N,07726.3131,W,20.92,292.48,110919,,,A*4B
$GPGGA,153013.250,4308.3271,N,07726.3151,W,1,07,1.35,159.6,M,-34.4,M,,*53
$GPRMC,153013.500,A,4308.3279,N,07726.3171,W,21.53,293.48,110919,,,A*4C
$GPGGA,153013.750,4308.3287,N,07726.3191,W,1,06,1.66,159.7,M,-34.4,M,,*55
$GPRMC,153014.000,A,4308.3295,N,07726.3212,W,22.23,294.37,110919,,,A*41
$GPGGA,153014.250,4308.3304,N,07726.3233,W,1,06,1.66,159.8,M,-34.4,M,,*59
$GPRMC,153014.500,A,4308.3313,N,07726.3254,W,23.01,295.12,110919,,,A*4E
$GPGGA,153014.750,4308.3322,N,07726.3274,W,1,07,1.35,159.9,M,-34.4,M,,*5D
$GPRMC,153015.000,A,4308.3331,N,07726.3295,W,23.37,296.01,110919,,,A*43
$GPGGA,153015.250,4308.3341,N,07726.3316,W,1,07,1.58,160.0,M,-34.4,M,,*51
$GPRMC,153015.500,A,4308.3351,N,07726.3336,W,23.66,297.48,110919,,,A*40
$GPGGA,153015.750,4308.3361,N,07726.3357,W,1,07,1.35,160.1,M,-34.4,M,,*59
$GPRMC,153016.000,A,4308.3371,N,07726.3377,W,23.91,298.85,110919,,,A*47
$GPGGA,153016.250,4308.3381,N,07726.3397,W,1,07,1.58,160.3,M,-34.4,M,,*54
$GPRMC,153016.500,A,4308.3391,N,07726.3418,W,24.11,300.14,110919,,,A*45
$GPGGA,153016.750,4308.3403,N,07726.3438,W,1,07,1.58,160.4,M,-34.4,M,,*59
$GPRMC,153017.000,A,4308.3414,N,07726.3458,W,24.11,302.71,110919,,,A*4E
$GPGGA,153017.250,4308.3424,N,07726.3478,W,1,07,1.58,160.4,M,-34.4,M,,*5C
$GPRMC,153017.500,A,4308.3434,N,07726.3497,W,24.11,304.08,110919,,,A*42
$GPGGA,153017.750,4308.3443,N,07726.3517,W,1,07,1.58,160.4,M,-34.4,M,,*50
$GPRMC,153018.000,A,4308.3451,N,07726.3535,W,23.69,305.19,110919,,,A*4B
$GPGGA,153018.250,4308.3461,N,07726.3554,W,1,07,1.58,160.5,M,-34.4,M,,*5C
$GPRMC,153018.500,A,4308.3472,N,07726.3571,W,23.06,307.97,110919,,,A*42
$GPGGA,153018.750,4308.3483,N,07726.3588,W,1,07,1.58,160.7,M,-34.4,M,,*56
$GPRMC,153019.000,A,4308.3495,N,07726.3604,W,22.66,311.75,110919,,,A*42
$GPGGA,153019.250,4308.3507,N,07726.3619,W,1,07,1.58,160.9,M,-34.4,M,,*5A
$GPRMC,153019.500,A,4308.3519,N,07726.3635,W,22.72,314.81,110919,,,A*4B
$GPGGA,153019.750,4308.3532,N,07726.3649,W,1,07,1.35,160.9,M,-34.4,M,,*57
$GPRMC,153020.000,A,4308.3545,N,07726.3663,W,22.70,320.06,110919,,,A*44
$GPGGA,153020.250,4308.3560,N,07726.3676,W,1,07,1.58,160.9,M,-34.4,M,,*58
$GPRMC,153020.500,A,4308.3574,N,07726.3689,W,23.01,324.48,110919,,,A*4E
$GPGGA,153020.750,4308.3590,N,07726.3701,W,1,07,1.35,160.9,M,-34.4,M,,*58
$GPRMC,153021.000,A,4308.3604,N,07726.3712,W,22.64,328.62,110919,,,A*4B
$GPGGA,153021.250,4308.3620,N,07726.3723,W,1,07,1.35,160.9,M,-34.4,M,,*54
$GPRMC,153021.500,A,4308.3634,N,07726.3733,W,22.44,331.65,110919,,,A*43
$GPGGA,153021.750,4308.3649,N,07726.3741,W,1,07,1.35,160.9,M,-34.4,M,,*5A
$GPRMC,153022.000,A,4308.3664,N,07726.3748,W,22.15,337.36,110919,,,A*48
$GPGGA,153022.250,4308.3680,N,07726.3755,W,1,07,1.58,161.0,M,-34.4,M,,*5F
$GPRMC,153022.500,A,4308.3695,N,07726.3763,W,22.20,339.72,110919,,,A*42
$GPGGA,153022.750,4308.3710,N,07726.3770,W,1,07,1.35,160.9,M,-34.4,M,,*56
$GPRMC,153023.000,A,4308.3726,N,07726.3775,W,22.40,343.01,110919,,,A*47
$GPGGA,153023.250,4308.3741,N,07726.3780,W,1,07,1.35,160.9,M,-34.4,M,,*59
$GPRMC,153023.500,A,4308.3757,N,07726.3785,W,22.32,345.32,110919,,,A*48
$GPGGA,153023.750,4308.3773,N,07726.3789,W,1,07,1.58,160.9,M,-34.4,M,,*5F
$GPRMC,153024.000,A,4308.3792,N,07726.3792,W,22.90,349.87,110919,,,A*4F
$GPGGA,153024.250,4308.3810,N,07726.3794,W,1,07,1.58,161.1,M,-34.4,M,,*52
$GPRMC,153024.500,A,4308.3828,N,07726.3797,W,23.48,352.59,110919,,,A*4C
$GPGGA,153024.750,4308.3845,N,07726.3799,W,1,07,1.58,161.2,M,-34.4,M,,*59
$GPRMC,153025.000,A,4308.3862,N,07726.3799,W,23.88,357.12,110919,,,A*4E
$GPGGA,153025.250,4308.3880,N,07726.3798,W,1,07,1.58,161.1,M,-34.4,M,,*56
$GPRMC,153025.500,A,4308.3898,N,07726.3796,W,24.46,1.54,110919,,,A*46
$GPGGA,153025.750,4308.3916,N,07726.3793,W,1,07,1.58,161.1,M,-34.4,M,,*56
$GPRMC,153026.000,A,4308.3934,N,07726.3791,W,25.01,4.74,110919,,,A*45
$GPGGA,153026.250,4308.3952,N,07726.3788,W,1,07,1.58,161.1,M,-34.4,M,,*5A
$GPRMC,153026.500,A,4308.3970,N,07726.3785,W,25.26,6.43,110919,,,A*46
$GPGGA,153026.750,4308.3989,N,07726.3782,W,1,07,1.35,161.2,M,-34.4,M,,*5B
$GPRMC,153027.000,A,4308.4007,N,07726.3778,W,25.67,7.96,110919,,,A*42
$GPGGA,153027.250,4308.4027,N,07726.3774,W,1,06,1.66,161.3,M,-34.4,M,,*5A
$GPRMC,153027.500,A,4308.4046,N,07726.3770,W,26.25,8.66,110919,,,A*4F
$GPGGA,153027.750,4308.4065,N,07726.3766,W,1,06,1.66,161.4,M,-34.4,M,,*5D
$GPRMC,153028.000,A,4308.4085,N,07726.3762,W,26.75,9.04,110919,,,A*49
$GPGGA,153028.250,4308.4105,N,07726.3758,W,1,06,1.65,161.5,M,-34.4,M,,*5F
$GPRMC,153028.500,A,4308.4124,N,07726.3754,W,27.14,8.80,110919,,,A*48
$GPGGA,153028.750,4308.4143,N,07726.3750,W,1,06,1.65,161.6,M,-34.4,M,,*53
$GPRMC,153029.000,A,4308.4162,N,07726.3746,W,27.18,8.86,110919,,,A*47
$GPGGA,153029.250,4308.4180,N,07726.3742,W,1,06,1.65,161.6,M,-34.4,M,,*5B
$GPRMC,153029.500,A,4308.4199,N,07726.3738,W,27.27,9.36,110919,,,A*49
$GPGGA,153029.750,4308.4217,N,07726.3733,W,1,06,1.65,161.7,M,-34.4,M,,*54
$GPRMC,153030.000,A,4308.4235,N,07726.3728,W,27.18,10.32,110919,,,A*70
$GPGGA,153030.250,4308.4252,N,07726.3723,W,1,06,1.65,161.7,M,-34.4,M,,*59
$GPRMC,153030.500,A,4308.4269,N,07726.3718,W,26.06,11.15,110919,,,A*75
$GPGGA,153030.750,4308.4286,N,07726.3713,W,1,06,1.65,161.7,M,-34.4,M,,*56
$GPRMC,153031.000,A,4308.4303,N,07726.3707,W,25.38,12.25,110919,,,A*7C
$GPGGA,153031.250,4308.4319,N,07726.3702,W,1,06,1.65,161.8,M,-34.4,M,,*5A
$GPRMC,153031.500,A,4308.4336,N,07726.3697,W,24.75,12.83,110919,,,A*73
$GPGGA,153031.750,4308.4352,N,07726.3692,W,1,06,1.74,162.0,M,-34.4,M,,*53
$GPRMC,153032.000,A,4308.4369,N,07726.3687,W,24.22,13.30,110919,,,A*75
$GPGGA,153032.250,4308.4384,N,07726.3682,W,1,07,1.58,162.1,M,-34.4,M,,*51
$GPRMC,153032.500,A,4308.4400,N,07726.3677,W,23.40,13.42,110919,,,A*71
$GPGGA,153032.750,4308.4415,N,07726.3672,W,1,07,1.58,162.2,M,-34.4,M,,*57
$GPRMC,153033.000,A,4308.4430,N,07726.3667,W,22.68,13.49,110919,,,A*77
$GPGGA,153033.250,4308.4445,N,07726.3663,W,1,07,1.58,162.3,M,-34.4,M,,*57
$GPRMC,153033.500,A,4308.4459,N,07726.3658,W,21.87,13.32,110919,,,A*7F
$GPGGA,153033.750,4308.4472,N,07726.3653,W,1,07,1.58,162.5,M,-34.4,M,,*53
$GPRMC,153034.000,A,4308.4482,N,07726.3649,W,19.83,15.01,110919,,,A*72
$GPGGA,153034.250,4308.4493,N,07726.3645,W,1,07,1.35,162.7,M,-34.4,M,,*50
$GPRMC,153034.500,A,4308.4503,N,07726.3641,W,18.28,15.09,110919,,,A*7F
$GPGGA,153034.750,4308.4511,N,07726.3637,W,1,07,1.35,162.9,M,-34.4,M,,*55
$GPRMC,153035.000,A,4308.4519,N,07726.3633,W,15.98,17.04,110919,,,A*7C
$GPGGA,153035.250,4308.4526,N,07726.3631,W,1,07,1.35,163.1,M,-34.4,M,,*5A
$GPRMC,153035.500,A,4308.4534,N,07726.3629,W,14.06,14.48,110919,,,A*70
$GPGGA,153035.750,4308.4539,N,07726.3630,W,1,07,1.58,163.2,M,-34.4,M,,*58
$GPRMC,153036.000,A,4308.4545,N,07726.3629,W,12.00,10.07,110919,,,A*7F
$GPGGA,153036.250,4308.4550,N,07726.3629,W,1,07,1.58,163.3,M,-34.4,M,,*58
$GPRMC,153036.500,A,4308.4555,N,07726.3629,W,10.35,5.80,110919,,,A*44
$GPGGA,153036.750,4308.4560,N,07726.3630,W,1,07,1.58,163.4,M,-34.4,M,,*51
$GPRMC,153037.000,A,4308.4562,N,07726.3630,W,8.38,359.30,110919,,,A*79
$GPGGA,153037.250,4308.4566,N,07726.3631,W,1,07,1.58,163.5,M,-34.4,M,,*53
$GPRMC,153037.500,A,4308.4570,N,07726.3631,W,7.57,357.77,110919,,,A*75
$GPGGA,153037.750,4308.4571,N,07726.3630,W,1,07,1.58,163.6,M,-34.4,M,,*52
$GPRMC,153038.000,A,4308.4574,N,07726.3629,W,6.64,356.05,110919,,,A*77
$GPGGA,153038.250,4308.4577,N,07726.3630,W,1,07,1.58,163.7,M,-34.4,M,,*5F
$GPRMC,153038.500,A,4308.4581,N,07726.3630,W,6.57,351.20,110919,,,A*70
$GPGGA,153038.750,4308.4586,N,07726.3631,W,1,07,1.58,163.9,M,-34.4,M,,*5B
$GPRMC,153039.000,A,4308.4589,N,07726.3633,W,6.95,342.34,110919,,,A*76
$GPGGA,153039.250,4308.4593,N,07726.3636,W,1,07,1.58,164.0,M,-34.4,M,,*52
$GPRMC,153039.500,A,4308.4596,N,07726.3641,W,7.17,334.88,110919,,,A*75
$GPGGA,153039.750,4308.4600,N,07726.3646,W,1,07,1.58,164.1,M,-34.4,M,,*58
$GPRMC,153040.000,A,4308.4604,N,07726.3650,W,7.50,324.84,110919,,,A*78
$GPGGA,153040.250,4308.4606,N,07726.3655,W,1,07,1.58,164.2,M,-34.4,M,,*54
$GPRMC,153040.500,A,4308.4609,N,07726.3660,W,7.91,316.10,110919,,,A*72
$GPGGA,153040.750,4308.4612,N,07726.3667,W,1,07,1.58,164.2,M,-34.4,M,,*55
$GPRMC,153041.000,A,4308.4616,N,07726.3675,W,9.22,306.96,110919,,,A*75
$GPGGA,153041.250,4308.4619,N,07726.3683,W,1,07,1.57,164.2,M,-34.4,M,,*5F
$GPRMC,153041.500,A,4308.4623,N,07726.3693,W,10.62,300.98,110919,,,A*4A
$GPGGA,153041.750,4308.4626,N,07726.3703,W,1,06,1.73,164.2,M,-34.4,M,,*58
$GPRMC,153042.000,A,4308.4629,N,07726.3715,W,12.22,293.07,110919,,,A*42
$GPGGA,153042.250,4308.4631,N,07726.3727,W,1,07,1.58,164.1,M,-34.4,M,,*55
$GPRMC,153042.500,A,4308.4632,N,07726.3739,W,13.06,288.08,110919,,,A*41
$GPGGA,153042.750,4308.4633,N,07726.3753,W,1,07,1.35,163.9,M,-34.4,M,,*55
$GPRMC,153043.000,A,4308.4635,N,07726.3766,W,14.61,283.83,110919,,,A*46
$GPGGA,153043.250,4308.4636,N,07726.3780,W,1,07,1.57,163.7,M,-34.4,M,,*50
$GPRMC,153043.500,A,4308.4637,N,07726.3794,W,15.32,281.73,110919,,,A*46
$GPGGA,153043.750,4308.4638,N,07726.3808,W,1,07,1.35,163.7,M,-34.4,M,,*50
$GPRMC,153044.000,A,4308.4640,N,07726.3823,W,15.83,279.87,110919,,,A*41
$GPGGA,153044.250,4308.4641,N,07726.3838,W,1,07,1.57,163.6,M,-34.4,M,,*5A
$GPRMC,153044.500,A,4308.4643,N,07726.3853,W,15.84,279.30,110919,,,A*4B
$GPGGA,153044.750,4308.4643,N,07726.3868,W,1,07,1.57,163.6,M,-34.4,M,,*58
$GPRMC,153045.000,A,4308.4644,N,07726.3883,W,15.74,277.80,110919,,,A*4F
$GPGGA,153045.250,4308.4644,N,07726.3897,W,1,07,1.57,163.7,M,-34.4,M,,*5A
$GPRMC,153045.500,A,4308.4645,N,07726.3912,W,15.63,276.52,110919,,,A*4A
$GPGGA,153045.750,4308.4645,N,07726.3928,W,1,07,1.57,163.7,M,-34.4,M,,*5B
$GPRMC,153046.000,A,4308.4647,N,07726.3943,W,15.50,276.55,110919,,,A*4D
$GPGGA,153046.250,4308.4648,N,07726.3958,W,1,07,1.57,163.7,M,-34.4,M,,*57
$GPRMC,153046.500,A,4308.4649,N,07726.3973,W,15.29,276.93,110919,,,A*41
$GPGGA,153046.750,4308.4651,N,07726.3988,W,1,07,1.35,163.7,M,-34.4,M,,*53
$GPRMC,153047.000,A,4308.4652,N,07726.4003,W,15.25,277.19,110919,,,A*49
$GPGGA,153047.250,4308.4653,N,07726.4018,W,1,07,1.57,163.8,M,-34.4,M,,*59
$GPRMC,153047.500,A,4308.4655,N,07726.4033,W,15.29,277.24,110919,,,A*4A
$GPGGA,153047.750,4308.4657,N,07726.4049,W,1,07,1.57,163.8,M,-34.4,M,,*5C
$GPRMC,153048.000,A,4308.4660,N,07726.4063,W,15.32,278.80,110919,,,A*48
$GPGGA,153048.250,4308.4661,N,07726.4078,W,1,07,1.57,163.7,M,-34.4,M,,*5E
$GPRMC,153048.500,A,4308.4662,N,07726.4093,W,15.35,279.47,110919,,,A*4D
$GPGGA,153048.750,4308.4664,N,07726.4108,W,1,07,1.57,163.5,M,-34.4,M,,*5A
$GPRMC,153049.000,A,4308.4665,N,07726.4123,W,15.32,280.42,110919,,,A*40
$GPGGA,153049.250,4308.4666,N,07726.4137,W,1,07,1.57,163.5,M,-34.4,M,,*50
$GPRMC,153049.500,A,4308.4668,N,07726.4152,W,15.25,279.99,110919,,,A*48
$GPGGA,153049.750,4308.4669,N,07726.4166,W,1,07,1.57,163.5,M,-34.4,M,,*5E
$GPRMC,153050.000,A,4308.4671,N,07726.4180,W,14.96,279.73,110919,,,A*4F
$GPGGA,153050.250,4308.4672,N,07726.4194,W,1,07,1.57,163.6,M,-34.4,M,,*57
$GPRMC,153050.500,A,4308.4673,N,07726.4208,W,14.65,279.57,110919,,,A*41
$GPGGA,153050.750,4308.4675,N,07726.4222,W,1,07,1.57,163.6,M,-34.4,M,,*5B
$GPRMC,153051.000,A,4308.4676,N,07726.4235,W,14.33,279.98,110919,,,A*4E
$GPGGA,153051.250,4308.4678,N,07726.4249,W,1,07,1.57,163.6,M,-34.4,M,,*5F
$GPRMC,153051.500,A,4308.4679,N,07726.4262,W,14.07,280.46,110919,,,A*44
$GPGGA,153051.750,4308.4681,N,07726.4274,W,1,07,1.57,163.6,M,-34.4,M,,*52
$GPRMC,153052.000,A,4308.4683,N,07726.4287,W,13.49,281.43,110919,,,A*45
$GPGGA,153052.250,4308.4685,N,07726.4300,W,1,07,1.57,163.7,M,-34.4,M,,*53
$GPRMC,153052.500,A,4308.4686,N,07726.4312,W,12.80,282.09,110919,,,A*41
$GPGGA,153052.750,4308.4688,N,07726.4323,W,1,07,1.57,163.7,M,-34.4,M,,*5A
$GPRMC,153053.000,A,4308.4689,N,07726.4334,W,11.41,283.93,110919,,,A*42
$GPGGA,153053.250,4308.4690,N,07726.4343,W,1,07,1.57,163.6,M,-34.4,M,,*50
$GPRMC,153053.500,A,4308.4692,N,07726.4353,W,10.09,285.19,110919,,,A*45
$GPGGA,153053.750,4308.4692,N,07726.4361,W,1,07,1.57,163.5,M,-34.4,M,,*54
$GPRMC,153054.000,A,4308.4692,N,07726.4367,W,7.85,285.65,110919,,,A*79
$GPGGA,153054.250,4308.4693,N,07726.4374,W,1,07,1.57,163.5,M,-34.4,M,,*53
$GPRMC,153054.500,A,4308.4693,N,07726.4380,W,6.54,288.06,110919,,,A*71
$GPGGA,153054.750,4308.4694,N,07726.4385,W,1,07,1.57,163.4,M,-34.4,M,,*5E
$GPRMC,153055.000,A,4308.4695,N,07726.4390,W,5.10,292.87,110919,,,A*73
$GPGGA,153055.250,4308.4696,N,07726.4394,W,1,07,1.57,163.3,M,-34.4,M,,*5F
$GPRMC,153055.500,A,4308.4697,N,07726.4398,W,4.30,295.53,110919,,,A*71
$GPGGA,153055.750,4308.4698,N,07726.4401,W,1,07,1.57,163.2,M,-34.4,M,,*5E
$GPRMC,153056.000,A,4308.4699,N,07726.4403,W,3.17,306.28,110919,,,A*79
$GPGGA,153056.250,4308.4700,N,07726.4405,W,1,07,1.34,163.1,M,-34.4,M,,*5A
$GPRMC,153056.500,A,4308.4701,N,07726.4407,W,2.29,306.28,110919,,,A*74
$GPGGA,153056.750,4308.4701,N,07726.4407,W,1,07,1.34,162.9,M,-34.4,M,,*55
$GPRMC,153057.000,A,4308.4702,N,07726.4408,W,1.48,306.28,110919,,,A*78
$GPGGA,153057.250,4308.4702,N,07726.4408,W,1,07,1.57,162.7,M,-34.4,M,,*56
$GPRMC,153057.500,A,4308.4703,N,07726.4408,W,1.31,306.28,110919,,,A*72
$GPGGA,153057.750,4308.4703,N,07726.4407,W,1,07,1.57,162.4,M,-34.4,M,,*5E
$GPRMC,153058.000,A,4308.4704,N,07726.4407,W,1.32,306.28,110919,,,A*73
$GPGGA,153058.250,4308.4703,N,07726.4408,W,1,07,1.57,162.0,M,-34.4,M,,*5F
$GPRMC,153058.500,A,4308.4704,N,07726.4408,W,1.30,306.28,110919,,,A*7B
$GPGGA,153058.750,4308.4704,N,07726.4407,W,1,07,1.57,161.7,M,-34.4,M,,*56
$GPRMC,153059.000,A,4308.4704,N,07726.4407,W,1.27,306.28,110919,,,A*76
$GPGGA,153059.250,4308.4704,N,07726.4407,W,1,07,1.57,161.4,M,-34.4,M,,*51
$GPRMC,153059.500,A,4308.4704,N,07726.4407,W,1.18,306.28,110919,,,A*7F
$GPGGA,153059.750,4308.4704,N,07726.4406,W,1,07,1.57,161.1,M,-34.4,M,,*50
$GPRMC,153100.000,A,4308.4703,N,07726.4405,W,0.94,306.28,110919,,,A*77
$GPGGA,153100.250,4308.4704,N,07726.4405,W,1,07,1.57,160.9,M,-34.4,M,,*52
$GPRMC,153100.500,A,4308.4704,N,07726.4405,W,0.85,306.28,110919,,,A*75
$GPGGA,153100.750,4308.4705,N,07726.4405,W,1,07,1.57,160.8,M,-34.4,M,,*57
$GPRMC,153101.000,A,4308.4706,N,07726.4405,W,0.76,306.28,110919,,,A*7F
$GPGGA,153101.250,4308.4706,N,07726.4405,W,1,07,1.57,160.7,M,-34.4,M,,*5F
$GPRMC,153101.500,A,4308.4707,N,07726.4405,W,0.73,306.28,110919,,,A*7E
$GPGGA,153101.750,4308.4707,N,07726.4405,W,1,07,1.57,160.6,M,-34.4,M,,*5A
$GPRMC,153102.000,A,4308.4708,N,07726.4406,W,0.61,306.28,110919,,,A*77
$GPGGA,153102.250,4308.4708,N,07726.4406,W,1,07,1.57,160.4,M,-34.4,M,,*52
$GPRMC,153102.500,A,4308.4708,N,07726.4406,W,0.52,306.28,110919,,,A*72
$GPGGA,153102.750,4308.4709,N,07726.4406,W,1,07,1.57,160.4,M,-34.4,M,,*56
$GPRMC,153103.000,A,4308.4709,N,07726.4406,W,0.55,306.28,110919,,,A*70
$GPGGA,153103.250,4308.4709,N,07726.4406,W,1,07,1.34,160.3,M,-34.4,M,,*50
$GPRMC,153103.500,A,4308.4710,N,07726.4406,W,0.60,306.28,110919,,,A*7B
$GPGGA,153103.750,4308.4710,N,07726.4407,W,1,07,1.34,160.3,M,-34.4,M,,*5C
$GPRMC,153104.000,A,4308.4710,N,07726.4407,W,0.60,306.28,110919,,,A*78
$GPGGA,153104.250,4308.4711,N,07726.4407,W,1,07,1.34,160.2,M,-34.4,M,,*5E
$GPRMC,153104.500,A,4308.4711,N,07726.4407,W,0.53,306.28,110919,,,A*7C
$GPGGA,153104.750,4308.4711,N,07726.4408,W,1,07,1.34,160.2,M,-34.4,M,,*54
$GPRMC,153105.000,A,4308.4711,N,07726.4408,W,0.57,306.28,110919,,,A*73
$GPGGA,153105.250,4308.4712,N,07726.4409,W,1,07,1.34,160.1,M,-34.4,M,,*51
$GPRMC,153105.500,A,4308.4712,N,07726.4409,W,0.68,306.28,110919,,,A*78
$GPGGA,153105.750,4308.4712,N,07726.4410,W,1,07,1.34,160.1,M,-34.4,M,,*5C
$GPRMC,153106.000,A,4308.4712,N,07726.4410,W,0.84,285.57,110919,,,A*76
$GPGGA,153106.250,4308.4712,N,07726.4411,W,1,07,1.34,160.1,M,-34.4,M,,*5B
$GPRMC,153106.500,A,4308.4712,N,07726.4412,W,0.91,285.07,110919,,,A*70
$GPGGA,153106.750,4308.4713,N,07726.4413,W,1,07,1.34,160.1,M,-34.4,M,,*5D
$GPRMC,153107.000,A,4308.4713,N,07726.4414,W,0.92,284.72,110919,,,A*73
$GPGGA,153107.250,4308.4713,N,07726.4415,W,1,07,1.34,160.0,M,-34.4,M,,*5E
$GPRMC,153107.500,A,4308.4713,N,07726.4415,W,0.87,285.44,110919,,,A*77
$GPGGA,153107.750,4308.4713,N,07726.4416,W,1,07,1.34,160.0,M,-34.4,M,,*58
$GPRMC,153108.000,A,4308.4713,N,07726.4417,W,0.69,293.60,110919,,,A*7E
$GPGGA,153108.250,4308.4714,N,07726.4417,W,1,07,1.34,160.0,M,-34.4,M,,*54
$GPRMC,153108.500,A,4308.4714,N,07726.4418,W,0.51,309.46,110919,,,A*7E
$GPGGA,153108.750,4308.4714,N,07726.4418,W,1,07,1.34,160.0,M,-34.4,M,,*5E
$GPRMC,153109.000,A,4308.4714,N,07726.4418,W,0.40,310.92,110919,,,A*7B
$GPGGA,153109.250,4308.4714,N,07726.4419,W,1,07,1.57,159.9,M,-34.4,M,,*5D
$GPRMC,153109.500,A,4308.4715,N,07726.4419,W,0.39,314.60,110919,,,A*79
$GPGGA,153109.750,4308.4715,N,07726.4419,W,1,07,1.57,159.9,M,-34.4,M,,*59
$GPRMC,153110.000,A,4308.4715,N,07726.4419,W,0.42,318.91,110919,,,A*7A
$GPGGA,153110.250,4308.4716,N,07726.4419,W,1,07,1.57,159.9,M,-34.4,M,,*57
$GPRMC,153110.500,A,4308.4716,N,07726.4419,W,0.41,323.52,110919,,,A*78
$GPGGA,153110.750,4308.4716,N,07726.4419,W,1,07,1.57,159.8,M,-34.4,M,,*53
$GPRMC,153111.000,A,4308.4716,N,07726.4419,W,0.37,327.59,110919,,,A*72
$GPGGA,153111.250,4308.4717,N,07726.4419,W,1,07,1.57,159.8,M,-34.4,M,,*56
$GPRMC,153111.500,A,4308.4717,N,07726.4419,W,0.33,330.96,110919,,,A*77
$GPGGA,153111.750,4308.4717,N,07726.4419,W,1,07,1.57,159.8,M,-34.4,M,,*53
$GPRMC,153112.000,A,4308.4717,N,07726.4419,W,0.34,334.10,110919,,,A*7C
$GPGGA,153112.250,4308.4718,N,07726.4419,W,1,07,1.57,159.8,M,-34.4,M,,*5A
$GPRMC,153112.500,A,4308.4718,N,07726.4418,W,0.32,336.98,110919,,,A*73
$GPGGA,153112.750,4308.4718,N,07726.4418,W,1,07,1.57,159.7,M,-34.4,M,,*51
$GPRMC,153113.000,A,4308.4718,N,07726.4418,W,0.28,339.33,110919,,,A*72
$GPGGA,153113.250,4308.4718,N,07726.4418,W,1,07,1.57,159.7,M,-34.4,M,,*55
$GPRMC,153113.500,A,4308.4719,N,07726.4418,W,0.26,340.39,110919,,,A*7C
$GPGGA,153113.750,4308.4719,N,07726.4418,W,1,07,1.57,159.7,M,-34.4,M,,*51
$GPRMC,153114.000,A,4308.4719,N,07726.4418,W,0.22,340.39,110919,,,A*7A
$GPGGA,153114.250,4308.4719,N,07726.4418,W,1,07,1.57,159.7,M,-34.4,M,,*53
$GPRMC,153114.500,A,4308.4719,N,07726.4418,W,0.21,340.39,110919,,,A*7C
$GPGGA,153114.750,4308.4719,N,07726.4418,W,1,07,1.57,159.7,M,-34.4,M,,*56
$GPRMC,153115.000,A,4308.4719,N,07726.4418,W,0.15,340.39,110919,,,A*7F
$GPGGA,153115.250,4308.4720,N,07726.4418,W,1,07,1.56,159.6,M,-34.4,M,,*58
$GPRMC,153115.500,A,4308.4720,N,07726.4418,W,0.10,340.39,110919,,,A*75
$GPGGA,153115.750,4308.4720,N,07726.4418,W,1,07,1.56,159.6,M,-34.4,M,,*5D
$GPRMC,153116.000,A,4308.4720,N,07726.4418,W,0.10,340.39,110919,,,A*73
$GPGGA,153116.250,4308.4720,N,07726.4418,W,1,07,1.56,159.6,M,-34.4,M,,*5B
$GPRMC,153116.500,A,4308.4720,N,07726.4418,W,0.11,340.39,110919,,,A*77
$GPGGA,153116.750,4308.4720,N,07726.4418,W,1,07,1.56,159.6,M,-34.4,M,,*5E
$GPRMC,153117.000,A,4308.4720,N,07726.4417,W,0.12,340.39,110919,,,A*7F
$GPGGA,153117.250,4308.4720,N,07726.4417,W,1,07,1.56,159.5,M,-34.4,M,,*56
$GPRMC,153117.500,A,4308.4720,N,07726.4417,W,0.14,340.39,110919,,,A*7C
$GPGGA,153117.750,4308.4720,N,07726.4417,W,1,07,1.56,159.5,M,-34.4,M,,*53
$GPRMC,153118.000,A,4308.4720,N,07726.4417,W,0.15,340.39,110919,,,A*77
$GPGGA,153118.250,4308.4720,N,07726.4417,W,1,07,1.56,159.5,M,-34.4,M,,*59
$GPRMC,153118.500,A,4308.4719,N,07726.4417,W,0.16,340.39,110919,,,A*7B
$GPGGA,153118.750,4308.4719,N,07726.4417,W,1,07,1.56,159.5,M,-34.4,M,,*56
$GPRMC,153119.000,A,4308.4719,N,07726.4416,W,0.20,340.39,110919,,,A*7B
$GPGGA,153119.250,4308.4719,N,07726.4416,W,1,07,1.56,159.5,M,-34.4,M,,*53
$GPRMC,153119.500,A,4308.4719,N,07726.4416,W,0.21,340.39,110919,,,A*7F
$GPGGA,153119.750,4308.4719,N,07726.4416,W,1,07,1.56,159.4,M,-34.4,M,,*57
$GPRMC,153120.000,A,4308.4719,N,07726.4416,W,0.24,340.39,110919,,,A*75
$GPGGA,153120.250,4308.4719,N,07726.4415,W,1,07,1.56,159.4,M,-34.4,M,,*5B
$GPRMC,153120.500,A,4308.4719,N,07726.4415,W,0.28,340.39,110919,,,A*7F
$GPGGA,153120.750,4308.4719,N,07726.4415,W,1,07,1.56,159.4,M,-34.4,M,,*5E
$GPRMC,153121.000,A,4308.4719,N,07726.4415,W,0.29,340.39,110919,,,A*7A
$GPGGA,153121.250,4308.4718,N,07726.4414,W,1,07,1.56,159.4,M,-34.4,M,,*5A
$GPRMC,153121.500,A,4308.4718,N,07726.4414,W,0.31,340.39,110919,,,A*76
$GPGGA,153121.750,4308.4718,N,07726.4414,W,1,07,1.56,159.3,M,-34.4,M,,*58
$GPRMC,153122.000,A,4308.4718,N,07726.4414,W,0.31,340.39,110919,,,A*70
$GPGGA,153122.250,4308.4718,N,07726.4413,W,1,07,1.56,159.3,M,-34.4,M,,*59
$GPRMC,153122.500,A,4308.4718,N,07726.4413,W,0.32,340.39,110919,,,A*71
$GPGGA,153122.750,4308.4718,N,07726.4413,W,1,07,1.56,159.3,M,-34.4,M,,*5C
$GPRMC,153123.000,A,4308.4718,N,07726.4413,W,0.32,340.39,110919,,,A*75
$GPGGA,153123.250,4308.4717,N,07726.4412,W,1,07,1.56,159.3,M,-34.4,M,,*56
$GPRMC,153123.500,A,4308.4717,N,07726.4412,W,0.32,340.39,110919,,,A*7E
$GPGGA,153123.750,4308.4717,N,07726.4412,W,1,07,1.56,159.3,M,-34.4,M,,*53
$GPRMC,153124.000,A,4308.4717,N,07726.4412,W,0.31,340.39,110919,,,A*7F
$GPGGA,153124.250,4308.4717,N,07726.4412,W,1,07,1.56,159.2,M,-34.4,M,,*50
$GPRMC,153124.500,A,4308.4717,N,07726.4411,W,0.32,340.39,110919,,,A*7A
$GPGGA,153124.750,4308.4716,N,07726.4411,W,1,07,1.56,159.2,M,-34.4,M,,*57
$GPRMC,153125.000,A,4308.4716,N,07726.4411,W,0.32,340.39,110919,,,A*7F
$GPGGA,153125.250,4308.4716,N,07726.4411,W,1,07,1.56,159.2,M,-34.4,M,,*53
$GPRMC,153125.500,A,4308.4716,N,07726.4411,W,0.31,340.39,110919,,,A*79
$GPGGA,153125.750,4308.4716,N,07726.4410,W,1,07,1.56,159.2,M,-34.4,M,,*57
$GPRMC,153126.000,A,4308.4715,N,07726.4410,W,0.32,340.39,110919,,,A*7E
$GPGGA,153126.250,4308.4715,N,07726.4410,W,1,07,1.56,159.2,M,-34.4,M,,*52
$GPRMC,153126.500,A,4308.4715,N,07726.4410,W,0.31,340.39,110919,,,A*78
$GPGGA,153126.750,4308.4715,N,07726.4410,W,1,07,1.56,159.1,M,-34.4,M,,*54
$GPRMC,153127.000,A,4308.4715,N,07726.4410,W,0.00,340.39,110919,,,A*7E
$GPGGA,153127.250,4308.4715,N,07726.4410,W,1,07,1.56,159.1,M,-34.4,M,,*50
$GPRMC,153127.500,A,4308.4715,N,07726.4410,W,0.02,340.39,110919,,,A*79
$GPGGA,153127.750,4308.4715,N,07726.4410,W,1,07,1.56,159.1,M,-34.4,M,,*55
$GPRMC,153128.000,A,4308.4715,N,07726.4410,W,0.00,340.39,110919,,,A*71
$GPGGA,153128.250,4308.4715,N,07726.4410,W,1,07,1.56,159.1,M,-34.4,M,,*5F
$GPRMC,153128.500,A,4308.4715,N,07726.4410,W,0.00,340.39,110919,,,A*74
$GPGGA,153128.750,4308.4715,N,07726.4410,W,1,07,1.56,159.1,M,-34.4,M,,*5A
$GPRMC,153129.000,A,4308.4715,N,07726.4410,W,0.04,340.39,110919,,,A*74
$GPGGA,153129.250,4308.4715,N,07726.4410,W,1,07,1.56,159.1,M,-34.4,M,,*5E
$GPRMC,153129.500,A,4308.4715,N,07726.4410,W,0.08,340.39,110919,,,A*7D
$GPGGA,153129.750,4308.4715,N,07726.4410,W,1,07,1.56,159.1,M,-34.4,M,,*5B
$GPRMC,153130.000,A,4308.4715,N,07726.4410,W,0.00,340.39,110919,,,A*78
$GPGGA,153130.250,4308.4715,N,07726.4410,W,1,07,1.56,159.1,M,-34.4,M,,*56
$GPRMC,153130.500,A,4308.4715,N,07726.4410,W,0.00,340.39,110919,,,A*7D
$GPGGA,153130.750,4308.4715,N,07726.4410,W,1,07,1.56,159.1,M,-34.4,M,,*53
$GPRMC,153131.000,A,4308.4715,N,07726.4410,W,0.00,340.39,110919,,,A*79
$GPGGA,153131.250,4308.4715,N,07726.4410,W,1,07,1.56,159.1,M,-34.4,M,,*57
$GPRMC,153131.500,A,4308.4715,N,07726.4410,W,0.00,340.39,110919,,,A*7C
$GPGGA,153131.750,4308.4715,N,07726.4410,W,1,07,1.56,159.1,M,-34.4,M,,*52
$GPRMC,153132.000,A,4308.4715,N,07726.4410,W,0.00,340.39,110919,,,A*7A
$GPGGA,153132.250,4308.4715,N,07726.4410,W,1,07,1.56,159.1,M,-34.4,M,,*54
$GPRMC,153132.500,A,4308.4715,N,07726.4410,W,0.02,340.39,110919,,,A*7D
$GPGGA,153132.750,4308.4715,N,07726.4410,W,1,07,1.56,159.1,M,-34.4,M,,*51
$GPRMC,153133.000,A,4308.4715,N,07726.4410,W,0.03,340.39,110919,,,A*78
$GPGGA,153133.250,4308.4715,N,07726.4410,W,1,07,1.56,159.1,M,-34.4,M,,*55
$GPRMC,153133.500,A,4308.4715,N,07726.4410,W,0.05,340.39,110919,,,A*7B
$GPGGA,153133.750,4308.4715,N,07726.4410,W,1,07,1.56,159.1,M,-34.4,M,,*50
$GPRMC,153134.000,A,4308.4715,N,07726.4410,W,0.00,340.39,110919,,,A*7C
$GPGGA,153134.250,4308.4715,N,07726.4410,W,1,07,1.56,159.1,M,-34.4,M,,*52
$GPRMC,153134.500,A,4308.4715,N,07726.4410,W,0.00,340.39,110919,,,A*79
$GPGGA,153134.750,4308.4715,N,07726.4410,W,1,07,1.56,159.1,M,-34.4,M,,*57
$GPRMC,153135.000,A,4308.4715,N,07726.4410,W,0.00,340.39,110919,,,A*7D
$GPGGA,153135.250,4308.4715,N,07726.4410,W,1,07,1.56,159.1,M,-34.4,M,,*53
$GPRMC,153135.500,A,4308.4715,N,07726.4410,W,0.00,340.39,110919,,,A*78
$GPGGA,153135.750,4308.4715,N,07726.4410,W,1,07,1.56,159.1,M,-34.4,M,,*56
$GPRMC,153136.000,A,4308.4715,N,07726.4410,W,0.00,340.39,110919,,,A*7E
$GPGGA,153136.250,4308.4715,N,07726.4410,W,1,07,1.56,159.1,M,-34.4,M,,*50
$GPRMC,153136.500,A,4308.4715,N,07726.4410,W,0.01,340.39,110919,,,A*7A
$GPGGA,153136.750,4308.4715,N,07726.4410,W,1,07,1.56,159.1,M,-34.4,M,,*55
$GPRMC,153137.000,A,4308.4715,N,07726.4410,W,0.00,340.39,110919,,,A*7F
$GPGGA,153137.250,4308.4715,N,07726.4410,W,1,07,1.56,159.1,M,-34.4,M,,*51
$GPRMC,153137.500,A,4308.4715,N,07726.4410,W,0.00,340.39,110919,,,A*7A
$GPGGA,153137.750,4308.4715,N,07726.4410,W,1,07,1.56,159.1,M,-34.4,M,,*54
$GPRMC,153138.000,A,4308.4715,N,07726.4410,W,0.00,340.39,110919,,,A*70
$GPGGA,153138.250,4308.4715,N,07726.4410,W,1,07,1.56,159.1,M,-34.4,M,,*5E
$GPRMC,153138.500,A,4308.4715,N,07726.4410,W,0.03,340.39,110919,,,A*76
$GPGGA,153138.750,4308.4715,N,07726.4410,W,1,07,1.56,159.1,M,-34.4,M,,*5B
$GPRMC,153139.000,A,4308.4715,N,07726.4410,W,0.05,340.39,110919,,,A*74
$GPGGA,153139.250,4308.4715,N,07726.4410,W,1,07,1.56,159.1,M,-34.4,M,,*5F
$GPRMC,153139.500,A,4308.4714,N,07726.4410,W,0.08,340.39,110919,,,A*7D
$GPGGA,153139.750,4308.4714,N,07726.4410,W,1,07,1.56,159.1,M,-34.4,M,,*5B
$GPRMC,153140.000,A,4308.4714,N,07726.4410,W,0.10,340.39,110919,,,A*7F
$GPGGA,153140.250,4308.4714,N,07726.4410,W,1,07,1.56,159.1,M,-34.4,M,,*50
$GPRMC,153140.500,A,4308.4714,N,07726.4410,W,0.12,340.39,110919,,,A*78
$GPGGA,153140.750,4308.4714,N,07726.4410,W,1,07,1.56,159.1,M,-34.4,M,,*55
$GPRMC,153141.000,A,4308.4714,N,07726.4410,W,0.14,340.39,110919,,,A*7A
$GPGGA,153141.250,4308.4714,N,07726.4410,W,1,07,1.56,159.1,M,-34.4,M,,*51
$GPRMC,153141.500,A,4308.4714,N,07726.4410,W,0.14,340.39,110919,,,A*7F
$GPGGA,153141.750,4308.4714,N,07726.4410,W,1,07,1.56,159.1,M,-34.4,M,,*54
$GPRMC,153142.000,A,4308.4713,N,07726.4410,W,0.15,340.39,110919,,,A*7F
$GPGGA,153142.250,4308.4713,N,07726.4410,W,1,07,1.56,159.1,M,-34.4,M,,*55
$GPRMC,153142.500,A,4308.4713,N,07726.4410,W,0.17,340.39,110919,,,A*78
$GPGGA,153142.750,4308.4713,N,07726.4410,W,1,07,1.56,159.1,M,-34.4,M,,*50
$GPRMC,153143.000,A,4308.4713,N,07726.4410,W,0.18,340.39,110919,,,A*73
$GPGGA,153143.250,4308.4713,N,07726.4410,W,1,07,1.56,159.1,M,-34.4,M,,*54
$GPRMC,153143.500,A,4308.4713,N,07726.4410,W,0.19,340.39,110919,,,A*77
$GPGGA,153143.750,4308.4713,N,07726.4410,W,1,07,1.56,159.1,M,-34.4,M,,*51
$GPRMC,153144.000,A,4308.4712,N,07726.4410,W,0.20,340.39,110919,,,A*7E
$GPGGA,153144.250,4308.4712,N,07726.4410,W,1,07,1.56,159.1,M,-34.4,M,,*52
$GPRMC,153144.500,A,4308.4712,N,07726.4410,W,0.21,340.39,110919,,,A*7A
$GPGGA,153144.750,4308.4712,N,07726.4410,W,1,07,1.56,159.1,M,-34.4,M,,*57
$GPRMC,153145.000,A,4308.4712,N,07726.4410,W,0.22,340.39,110919,,,A*7D
$GPGGA,153145.250,4308.4712,N,07726.4410,W,1,07,1.56,159.1,M,-34.4,M,,*53
$GPRMC,153145.500,A,4308.4711,N,07726.4410,W,0.22,340.39,110919,,,A*7B
$GPGGA,153145.750,4308.4711,N,07726.4410,W,1,07,1.55,159.1,M,-34.4,M,,*56
$GPRMC,153146.000,A,4308.4711,N,07726.4410,W,0.22,175.64,110919,,,A*71
$GPGGA,153146.250,4308.4711,N,07726.4410,W,1,07,1.55,159.1,M,-34.4,M,,*50
$GPRMC,153146.500,A,4308.4711,N,07726.4410,W,0.23,178.64,110919,,,A*78
$GPGGA,153146.750,4308.4711,N,07726.4410,W,1,07,1.56,159.1,M,-34.4,M,,*56
$GPRMC,153147.000,A,4308.4710,N,07726.4410,W,0.23,177.03,110919,,,A*73
$GPGGA,153147.250,4308.4710,N,07726.4410,W,1,07,1.56,159.1,M,-34.4,M,,*53
$GPRMC,153147.500,A,4308.4710,N,07726.4410,W,0.23,174.50,110919,,,A*73
$GPGGA,153147.750,4308.4710,N,07726.4410,W,1,07,1.55,159.1,M,-34.4,M,,*55
$GPRMC,153148.000,A,4308.4710,N,07726.4410,W,0.23,174.55,110919,,,A*7C
$GPGGA,153148.250,4308.4710,N,07726.4410,W,1,07,1.55,159.1,M,-34.4,M,,*5F
$GPRMC,153148.500,A,4308.4709,N,07726.4410,W,0.22,174.42,110919,,,A*76
$GPGGA,153148.750,4308.4709,N,07726.4410,W,1,07,1.55,159.1,M,-34.4,M,,*52
$GPRMC,153149.000,A,4308.4709,N,07726.4410,W,0.22,175.19,110919,,,A*7D
$GPGGA,153149.250,4308.4709,N,07726.4410,W,1,07,1.55,159.1,M,-34.4,M,,*56
$GPRMC,153149.500,A,4308.4709,N,07726.4410,W,0.26,179.03,110919,,,A*7B
$GPGGA,153149.750,4308.4709,N,07726.4410,W,1,07,1.55,159.1,M,-34.4,M,,*53
$GPRMC,153150.000,A,4308.4709,N,07726.4411,W,0.50,245.58,110919,,,A*74
$GPGGA,153150.250,4308.4708,N,07726.4411,W,1,07,1.33,159.1,M,-34.4,M,,*5E
$GPRMC,153150.500,A,4308.4708,N,07726.4412,W,2.18,257.73,110919,,,A*77
$GPGGA,153150.750,4308.4709,N,07726.4418,W,1,07,1.33,159.1,M,-34.4,M,,*53
$GPRMC,153151.000,A,4308.4710,N,07726.4426,W,6.57,272.66,110919,,,A*71
$GPGGA,153151.250,4308.4712,N,07726.4437,W,1,07,1.55,159.1,M,-34.4,M,,*50
$GPRMC,153151.500,A,4308.4712,N,07726.4447,W,10.17,275.13,110919,,,A*47
$GPGGA,153151.750,4308.4713,N,07726.4460,W,1,07,1.55,159.1,M,-34.4,M,,*56
$GPRMC,153152.000,A,4308.4716,N,07726.4473,W,13.16,277.85,110919,,,A*4D
$GPGGA,153152.250,4308.4717,N,07726.4488,W,1,07,1.55,159.1,M,-34.4,M,,*52
$GPRMC,153152.500,A,4308.4718,N,07726.4503,W,14.68,277.94,110919,,,A*4E
$GPGGA,153152.750,4308.4721,N,07726.4518,W,1,07,1.55,158.9,M,-34.4,M,,*53
$GPRMC,153153.000,A,4308.4722,N,07726.4534,W,16.01,279.91,110919,,,A*41
$GPGGA,153153.250,4308.4724,N,07726.4551,W,1,07,1.33,158.7,M,-34.4,M,,*51
$GPRMC,153153.500,A,4308.4725,N,07726.4568,W,16.99,278.84,110919,,,A*4E
$GPGGA,153153.750,4308.4727,N,07726.4586,W,1,07,1.55,158.5,M,-34.4,M,,*5F
$GPRMC,153154.000,A,4308.4728,N,07726.4605,W,18.17,278.51,110919,,,A*49
$GPGGA,153154.250,4308.4729,N,07726.4623,W,1,07,1.55,158.4,M,-34.4,M,,*5E
$GPRMC,153154.500,A,4308.4731,N,07726.4642,W,18.89,277.66,110919,,,A*4B
$GPGGA,153154.750,4308.4732,N,07726.4661,W,1,07,1.55,158.3,M,-34.4,M,,*50
$GPRMC,153155.000,A,4308.4733,N,07726.4681,W,19.90,277.18,110919,,,A*42
$GPGGA,153155.250,4308.4735,N,07726.4701,W,1,07,1.55,158.3,M,-34.4,M,,*54
$GPRMC,153155.500,A,4308.4737,N,07726.4722,W,20.77,276.96,110919,,,A*4F
$GPGGA,153155.750,4308.4738,N,07726.4743,W,1,07,1.55,158.2,M,-34.4,M,,*5B
$GPRMC,153156.000,A,4308.4739,N,07726.4764,W,21.81,276.02,110919,,,A*40
$GPGGA,153156.250,4308.4740,N,07726.4786,W,1,08,1.23,158.1,M,-34.4,M,,*56
$GPRMC,153156.500,A,4308.4743,N,07726.4809,W,22.84,277.71,110919,,,A*4F
$GPGGA,153156.750,4308.4744,N,07726.4832,W,1,08,1.23,158.0,M,-34.4,M,,*56
$GPRMC,153157.000,A,4308.4746,N,07726.4855,W,23.69,278.28,110919,,,A*46
$GPGGA,153157.250,4308.4747,N,07726.4878,W,1,08,1.22,157.9,M,-34.4,M,,*58
$GPRMC,153157.500,A,4308.4748,N,07726.4902,W,24.13,278.06,110919,,,A*48
$GPGGA,153157.750,4308.4750,N,07726.4926,W,1,08,1.22,157.8,M,-34.4,M,,*50
$GPRMC,153158.000,A,4308.4751,N,07726.4949,W,24.61,277.85,110919,,,A*44
$GPGGA,153158.250,4308.4752,N,07726.4973,W,1,08,1.22,157.6,M,-34.4,M,,*56
$GPRMC,153158.500,A,4308.4754,N,07726.4997,W,25.08,277.78,110919,,,A*4B
$GPGGA,153158.750,4308.4755,N,07726.5022,W,1,08,1.22,157.4,M,-34.4,M,,*5A
$GPRMC,153159.000,A,4308.4756,N,07726.5047,W,25.75,276.97,110919,,,A*42
$GPGGA,153159.250,4308.4757,N,07726.5072,W,1,08,1.22,157.3,M,-34.4,M,,*5E
$GPRMC,153159.500,A,4308.4757,N,07726.5097,W,26.38,276.46,110919,,,A*4D
$GPGGA,153159.750,4308.4758,N,07726.5123,W,1,08,1.22,157.1,M,-34.4,M,,*53
$GPRMC,153200.000,A,4308.4759,N,07726.5149,W,26.59,275.92,110919,,,A*46
$GPGGA,153200.250,4308.4760,N,07726.5175,W,1,08,1.22,156.9,M,-34.4,M,,*58
$GPRMC,153200.500,A,4308.4761,N,07726.5201,W,27.45,275.68,110919,,,A*4E
$GPGGA,153200.750,4308.4762,N,07726.5228,W,1,08,1.22,156.8,M,-34.4,M,,*55
$GPRMC,153201.000,A,4308.4763,N,07726.5255,W,28.08,275.18,110919,,,A*48
$GPGGA,153201.250,4308.4763,N,07726.5282,W,1,08,1.22,156.7,M,-34.4,M,,*5F
$GPRMC,153201.500,A,4308.4764,N,07726.5309,W,28.65,274.97,110919,,,A*4F
$GPGGA,153201.750,4308.4765,N,07726.5337,W,1,08,1.22,156.6,M,-34.4,M,,*52
$GPRMC,153202.000,A,4308.4767,N,07726.5365,W,29.35,275.13,110919,,,A*49
$GPGGA,153202.250,4308.4768,N,07726.5393,W,1,08,1.22,156.6,M,-34.4,M,,*57
$GPRMC,153202.500,A,4308.4769,N,07726.5422,W,29.78,274.89,110919,,,A*4D
$GPGGA,153202.750,4308.4771,N,07726.5451,W,1,08,1.22,156.5,M,-34.4,M,,*50
$GPRMC,153203.000,A,4308.4772,N,07726.5480,W,30.31,274.81,110919,,,A*46
$GPGGA,153203.250,4308.4773,N,07726.5509,W,1,08,1.22,156.5,M,-34.4,M,,*5A
$GPRMC,153203.500,A,4308.4775,N,07726.5539,W,30.51,274.85,110919,,,A*45
$GPGGA,153203.750,4308.4776,N,07726.5568,W,1,08,1.22,156.5,M,-34.4,M,,*5D
$GPRMC,153204.000,A,4308.4777,N,07726.5598,W,30.79,274.64,110919,,,A*4B
$GPGGA,153204.250,4308.4778,N,07726.5629,W,1,08,1.22,156.3,M,-34.4,M,,*51
$GPRMC,153204.500,A,4308.4779,N,07726.5660,W,31.04,273.60,110919,,,A*4C
$GPGGA,153204.750,4308.4779,N,07726.5692,W,1,08,1.22,156.2,M,-34.4,M,,*54
$GPRMC,153205.000,A,4308.4780,N,07726.5723,W,33.03,272.95,110919,,,A*46
$GPGGA,153205.250,4308.4780,N,07726.5755,W,1,08,1.22,156.1,M,-34.4,M,,*5F
$GPRMC,153205.500,A,4308.4781,N,07726.5787,W,33.27,273.29,110919,,,A*4C
$GPGGA,153205.750,4308.4782,N,07726.5819,W,1,08,1.22,156.0,M,-34.4,M,,*5E
$GPRMC,153206.000,A,4308.4783,N,07726.5851,W,33.52,274.03,110919,,,A*41
$GPGGA,153206.250,4308.4785,N,07726.5883,W,1,08,1.22,155.8,M,-34.4,M,,*57
$GPRMC,153206.500,A,4308.4786,N,07726.5916,W,33.86,273.89,110919,,,A*4F
$GPGGA,153206.750,4308.4786,N,07726.5949,W,1,08,1.22,155.7,M,-34.4,M,,*59
$GPRMC,153207.000,A,4308.4787,N,07726.5982,W,34.01,273.63,110919,,,A*4B
$GPGGA,153207.250,4308.4788,N,07726.6015,W,1,08,1.22,155.6,M,-34.4,M,,*51
$GPRMC,153207.500,A,4308.4789,N,07726.6048,W,34.65,273.54,110919,,,A*4A
$GPGGA,153207.750,4308.4790,N,07726.6082,W,1,08,1.22,155.6,M,-34.4,M,,*53
$GPRMC,153208.000,A,4308.4790,N,07726.6117,W,35.19,273.15,110919,,,A*4C
$GPGGA,153208.250,4308.4791,N,07726.6152,W,1,08,1.22,155.5,M,-34.4,M,,*57
$GPRMC,153208.500,A,4308.4792,N,07726.6187,W,35.55,272.53,110919,,,A*49
$GPGGA,153208.750,4308.4792,N,07726.6222,W,1,08,1.22,155.6,M,-34.4,M,,*56
$GPRMC,153209.000,A,4308.4793,N,07726.6258,W,35.81,271.82,110919,,,A*4B
$GPGGA,153209.250,4308.4792,N,07726.6294,W,1,08,1.22,155.6,M,-34.4,M,,*5F
$GPRMC,153209.500,A,4308.4792,N,07726.6331,W,36.30,270.77,110919,,,A*43
$GPGGA,153209.750,4308.4791,N,07726.6367,W,1,08,1.22,155.7,M,-34.4,M,,*55
$GPRMC,153210.000,A,4308.4791,N,07726.6403,W,36.50,269.80,110919,,,A*4D
$GPGGA,153210.250,4308.4791,N,07726.6440,W,1,08,1.22,155.8,M,-34.4,M,,*55
$GPRMC,153210.500,A,4308.4790,N,07726.6476,W,36.75,269.51,110919,,,A*40
$GPGGA,153210.750,4308.4789,N,07726.6513,W,1,08,1.22,155.9,M,-34.4,M,,*5F
$GPRMC,153211.000,A,4308.4788,N,07726.6549,W,36.96,269.11,110919,,,A*49
$GPGGA,153211.250,4308.4787,N,07726.6586,W,1,08,1.22,155.9,M,-34.4,M,,*59
$GPRMC,153211.500,A,4308.4785,N,07726.6623,W,37.07,268.38,110919,,,A*4D
$GPGGA,153211.750,4308.4784,N,07726.6659,W,1,08,1.22,156.0,M,-34.4,M,,*54
$GPRMC,153212.000,A,4308.4782,N,07726.6697,W,37.31,267.68,110919,,,A*4C
$GPGGA,153212.250,4308.4780,N,07726.6734,W,1,08,1.22,156.1,M,-34.4,M,,*5D
$GPRMC,153212.500,A,4308.4778,N,07726.6771,W,37.67,267.09,110919,,,A*41
$GPGGA,153212.750,4308.4776,N,07726.6808,W,1,08,1.22,156.1,M,-34.4,M,,*51
$GPRMC,153213.000,A,4308.4774,N,07726.6845,W,37.90,266.47,110919,,,A*42
$GPGGA,153213.250,4308.4772,N,07726.6883,W,1,08,1.22,156.3,M,-34.4,M,,*50
$GPRMC,153213.500,A,4308.4770,N,07726.6920,W,38.15,266.19,110919,,,A*48
$GPGGA,153213.750,4308.4768,N,07726.6957,W,1,08,1.22,156.3,M,-34.4,M,,*56
$GPRMC,153214.000,A,4308.4766,N,07726.6994,W,38.19,265.93,110919,,,A*4F
$GPGGA,153214.250,4308.4764,N,07726.7031,W,1,08,1.22,156.3,M,-34.4,M,,*50
$GPRMC,153214.500,A,4308.4762,N,07726.7068,W,38.29,265.71,110919,,,A*4A
$GPGGA,153214.750,4308.4760,N,07726.7105,W,1,08,1.22,156.3,M,-34.4,M,,*57
$GPRMC,153215.000,A,4308.4757,N,07726.7143,W,38.68,265.55,110919,,,A*43
$GPGGA,153215.250,4308.4755,N,07726.7181,W,1,08,1.22,156.3,M,-34.4,M,,*59
$GPRMC,153215.500,A,4308.4753,N,07726.7219,W,39.06,265.48,110919,,,A*4B
$GPGGA,153215.750,4308.4750,N,07726.7257,W,1,08,1.22,156.3,M,-34.4,M,,*51
$GPRMC,153216.000,A,4308.4748,N,07726.7295,W,39.47,265.06,110919,,,A*4C
$GPGGA,153216.250,4308.4745,N,07726.7333,W,1,08,1.22,156.4,M,-34.4,M,,*57
$GPRMC,153216.500,A,4308.4743,N,07726.7371,W,39.58,265.01,110919,,,A*40
$GPGGA,153216.750,4308.4740,N,07726.7409,W,1,08,1.13,156.5,M,-34.4,M,,*5A
$GPRMC,153217.000,A,4308.4737,N,07726.7447,W,39.68,264.95,110919,,,A*4A
$GPGGA,153217.250,4308.4735,N,07726.7485,W,1,08,1.22,156.6,M,-34.4,M,,*59
$GPRMC,153217.500,A,4308.4732,N,07726.7523,W,39.54,265.17,110919,,,A*4D
$GPGGA,153217.750,4308.4730,N,07726.7560,W,1,08,1.22,156.7,M,-34.4,M,,*52
$GPRMC,153218.000,A,4308.4729,N,07726.7597,W,38.98,265.63,110919,,,A*40
$GPGGA,153218.250,4308.4726,N,07726.7634,W,1,08,1.22,156.8,M,-34.4,M,,*52
$GPRMC,153218.500,A,4308.4724,N,07726.7671,W,38.86,265.57,110919,,,A*4B
$GPGGA,153218.750,4308.4722,N,07726.7708,W,1,08,1.13,156.9,M,-34.4,M,,*5E
$GPRMC,153219.000,A,4308.4720,N,07726.7744,W,38.06,265.34,110919,,,A*41
$GPGGA,153219.250,4308.4717,N,07726.7780,W,1,08,1.22,157.1,M,-34.4,M,,*57
$GPRMC,153219.500,A,4308.4715,N,07726.7815,W,37.66,265.62,110919,,,A*43
$GPGGA,153219.750,4308.4713,N,07726.7851,W,1,08,1.13,157.3,M,-34.4,M,,*55
$GPRMC,153220.000,A,4308.4710,N,07726.7886,W,37.19,265.62,110919,,,A*4B
$GPGGA,153220.250,4308.4708,N,07726.7921,W,1,08,1.22,157.3,M,-34.4,M,,*54
$GPRMC,153220.500,A,4308.4705,N,07726.7956,W,37.01,265.31,110919,,,A*49
$GPGGA,153220.750,4308.4702,N,07726.7991,W,1,08,1.13,157.4,M,-34.4,M,,*55
$GPRMC,153221.000,A,4308.4699,N,07726.8026,W,37.11,265.25,110919,,,A*4C
$GPGGA,153221.250,4308.4696,N,07726.8061,W,1,08,1.22,157.4,M,-34.4,M,,*56
$GPRMC,153221.500,A,4308.4693,N,07726.8096,W,37.28,264.87,110919,,,A*4B
$GPGGA,153221.750,4308.4690,N,07726.8131,W,1,08,1.22,157.4,M,-34.4,M,,*51
$GPRMC,153222.000,A,4308.4687,N,07726.8166,W,37.32,265.13,110919,,,A*41
$GPGGA,153222.250,4308.4685,N,07726.8201,W,1,08,1.22,157.2,M,-34.4,M,,*55
$GPRMC,153222.500,A,4308.4682,N,07726.8236,W,37.25,265.30,110919,,,A*40
$GPGGA,153222.750,4308.4680,N,07726.8272,W,1,08,1.22,157.1,M,-34.4,M,,*52
$GPRMC,153223.000,A,4308.4678,N,07726.8307,W,37.25,265.60,110919,,,A*47
$GPGGA,153223.250,4308.4677,N,07726.8342,W,1,08,1.22,156.7,M,-34.4,M,,*5B
$GPRMC,153223.500,A,4308.4674,N,07726.8377,W,37.24,265.83,110919,,,A*45
$GPGGA,153223.750,4308.4672,N,07726.8413,W,1,08,1.22,156.5,M,-34.4,M,,*5A
$GPRMC,153224.000,A,4308.4670,N,07726.8449,W,37.32,265.89,110919,,,A*44
$GPGGA,153224.250,4308.4668,N,07726.8484,W,1,08,1.22,156.1,M,-34.4,M,,*59
$GPRMC,153224.500,A,4308.4667,N,07726.8520,W,37.38,266.02,110919,,,A*43
$GPGGA,153224.750,4308.4666,N,07726.8555,W,1,08,1.22,155.6,M,-34.4,M,,*5B
$GPRMC,153225.000,A,4308.4664,N,07726.8591,W,37.45,265.55,110919,,,A*45
$GPGGA,153225.250,4308.4663,N,07726.8627,W,1,08,1.22,155.1,M,-34.4,M,,*5B
$GPRMC,153225.500,A,4308.4661,N,07726.8663,W,38.04,265.34,110919,,,A*46
$GPGGA,153225.750,4308.4659,N,07726.8699,W,1,08,1.22,154.7,M,-34.4,M,,*55
$GPRMC,153226.000,A,4308.4657,N,07726.8736,W,38.21,265.28,110919,,,A*4E
$GPGGA,153226.250,4308.4655,N,07726.8772,W,1,08,1.22,154.3,M,-34.4,M,,*5F
$GPRMC,153226.500,A,4308.4653,N,07726.8808,W,38.20,265.39,110919,,,A*4C
$GPGGA,153226.750,4308.4651,N,07726.8845,W,1,08,1.22,154.0,M,-34.4,M,,*56
$GPRMC,153227.000,A,4308.4649,N,07726.8881,W,37.93,265.29,110919,,,A*44
$GPGGA,153227.250,4308.4646,N,07726.8917,W,1,08,1.22,153.7,M,-34.4,M,,*52
$GPRMC,153227.500,A,4308.4644,N,07726.8953,W,37.86,265.38,110919,,,A*46
$GPGGA,153227.750,4308.4642,N,07726.8989,W,1,08,1.22,153.4,M,-34.4,M,,*57
$GPRMC,153228.000,A,4308.4639,N,07726.9025,W,37.56,265.35,110919,,,A*4F
$GPGGA,153228.250,4308.4637,N,07726.9060,W,1,08,1.22,153.2,M,-34.4,M,,*56
$GPRMC,153228.500,A,4308.4635,N,07726.9096,W,37.30,265.23,110919,,,A*49
$GPGGA,153228.750,4308.4632,N,07726.9131,W,1,08,1.22,153.0,M,-34.4,M,,*51
$GPRMC,153229.000,A,4308.4630,N,07726.9166,W,37.17,264.78,110919,,,A*4C
$GPGGA,153229.250,4308.4627,N,07726.9201,W,1,08,1.22,152.7,M,-34.4,M,,*57
$GPRMC,153229.500,A,4308.4625,N,07726.9236,W,36.93,264.89,110919,,,A*48
$GPGGA,153229.750,4308.4622,N,07726.9271,W,1,08,1.22,152.4,M,-34.4,M,,*53
$GPRMC,153230.000,A,4308.4620,N,07726.9306,W,36.69,264.72,110919,,,A*43
$GPGGA,153230.250,4308.4617,N,07726.9340,W,1,08,1.22,152.1,M,-34.4,M,,*5E
$GPRMC,153230.500,A,4308.4615,N,07726.9375,W,36.39,265.11,110919,,,A*45
$GPGGA,153230.750,4308.4613,N,07726.9409,W,1,08,1.22,151.7,M,-34.4,M,,*50
$GPRMC,153231.000,A,4308.4610,N,07726.9444,W,36.30,264.92,110919,,,A*42
$GPGGA,153231.250,4308.4608,N,07726.9478,W,1,08,1.22,151.5,M,-34.4,M,,*5A
$GPRMC,153231.500,A,4308.4605,N,07726.9512,W,36.25,264.76,110919,,,A*4F
$GPGGA,153231.750,4308.4603,N,07726.9546,W,1,08,1.22,151.2,M,-34.4,M,,*5F
$GPRMC,153232.000,A,4308.4600,N,07726.9581,W,36.24,265.08,110919,,,A*4F
$GPGGA,153232.250,4308.4598,N,07726.9615,W,1,08,1.22,150.9,M,-34.4,M,,*57
$GPRMC,153232.500,A,4308.4596,N,07726.9649,W,36.23,265.14,110919,,,A*4B
$GPGGA,153232.750,4308.4594,N,07726.9683,W,1,08,1.22,150.5,M,-34.4,M,,*5D
$GPRMC,153233.000,A,4308.4591,N,07726.9717,W,36.18,265.68,110919,,,A*41
$GPGGA,153233.250,4308.4589,N,07726.9751,W,1,08,1.22,150.2,M,-34.4,M,,*5C
$GPRMC,153233.500,A,4308.4587,N,07726.9786,W,36.21,266.00,110919,,,A*4C
$GPGGA,153233.750,4308.4585,N,07726.9820,W,1,08,1.22,150.0,M,-34.4,M,,*5E
$GPRMC,153234.000,A,4308.4583,N,07726.9854,W,36.29,266.21,110919,,,A*41
$GPGGA,153234.250,4308.4581,N,07726.9888,W,1,08,1.22,149.6,M,-34.4,M,,*54
$GPRMC,153234.500,A,4308.4579,N,07726.9923,W,36.40,266.10,110919,,,A*4D
$GPGGA,153234.750,4308.4577,N,07726.9957,W,1,08,1.22,149.3,M,-34.4,M,,*5E
$GPRMC,153235.000,A,4308.4575,N,07726.9992,W,36.74,266.13,110919,,,A*4B
$GPGGA,153235.250,4308.4573,N,07727.0027,W,1,08,1.22,149.0,M,-34.4,M,,*5B
$GPRMC,153235.500,A,4308.4571,N,07727.0062,W,37.02,265.54,110919,,,A*44
$GPGGA,153235.750,4308.4569,N,07727.0096,W,1,08,1.22,148.7,M,-34.4,M,,*59
$GPRMC,153236.000,A,4308.4567,N,07727.0131,W,37.07,265.48,110919,,,A*4A
$GPGGA,153236.250,4308.4565,N,07727.0166,W,1,08,1.22,148.3,M,-34.4,M,,*59
$GPRMC,153236.500,A,4308.4563,N,07727.0202,W,37.30,265.72,110919,,,A*45
$GPGGA,153236.750,4308.4561,N,07727.0237,W,1,08,1.22,147.9,M,-34.4,M,,*5A
$GPRMC,153237.000,A,4308.4559,N,07727.0273,W,37.78,265.99,110919,,,A*47
$GPGGA,153237.250,4308.4557,N,07727.0309,W,1,08,1.22,147.4,M,-34.4,M,,*5A
$GPRMC,153237.500,A,4308.4556,N,07727.0344,W,37.54,266.70,110919,,,A*42
$GPGGA,153237.750,4308.4555,N,07727.0380,W,1,08,1.22,147.0,M,-34.4,M,,*58
$GPRMC,153238.000,A,4308.4554,N,07727.0416,W,37.48,267.93,110919,,,A*4B
$GPGGA,153238.250,4308.4553,N,07727.0452,W,1,08,1.22,146.8,M,-34.4,M,,*55
$GPRMC,153238.500,A,4308.4553,N,07727.0488,W,37.47,269.17,110919,,,A*43
$GPGGA,153238.750,4308.4553,N,07727.0524,W,1,08,1.22,146.7,M,-34.4,M,,*5F
$GPRMC,153239.000,A,4308.4553,N,07727.0560,W,37.91,270.05,110919,,,A*40
$GPGGA,153239.250,4308.4554,N,07727.0597,W,1,08,1.22,146.5,M,-34.4,M,,*56
$GPRMC,153239.500,A,4308.4554,N,07727.0633,W,37.92,270.90,110919,,,A*48
$GPGGA,153239.750,4308.4555,N,07727.0669,W,1,08,1.22,146.4,M,-34.4,M,,*51
$GPRMC,153240.000,A,4308.4556,N,07727.0706,W,38.01,271.71,110919,,,A*4D
$GPGGA,153240.250,4308.4557,N,07727.0742,W,1,08,1.22,146.5,M,-34.4,M,,*51
$GPRMC,153240.500,A,4308.4559,N,07727.0777,W,37.97,273.16,110919,,,A*42
$GPGGA,153240.750,4308.4561,N,07727.0814,W,1,08,1.22,146.5,M,-34.4,M,,*5D
$GPRMC,153241.000,A,4308.4563,N,07727.0850,W,37.90,274.36,110919,,,A*47
$GPGGA,153241.250,4308.4566,N,07727.0887,W,1,08,1.21,146.6,M,-34.4,M,,*54
$GPRMC,153241.500,A,4308.4569,N,07727.0923,W,37.89,275.83,110919,,,A*4A
$GPGGA,153241.750,4308.4571,N,07727.0959,W,1,08,1.22,146.6,M,-34.4,M,,*56
$GPRMC,153242.000,A,4308.4574,N,07727.0995,W,38.11,276.98,110919,,,A*4A
$GPGGA,153242.250,4308.4577,N,07727.1031,W,1,08,1.22,147.0,M,-34.4,M,,*57
$GPRMC,153242.500,A,4308.4580,N,07727.1067,W,38.18,277.49,110919,,,A*45
$GPGGA,153242.750,4308.4584,N,07727.1103,W,1,08,1.22,147.2,M,-34.4,M,,*5C
$GPRMC,153243.000,A,4308.4587,N,07727.1139,W,38.20,278.06,110919,,,A*43
$GPGGA,153243.250,4308.4590,N,07727.1175,W,1,08,1.22,147.6,M,-34.4,M,,*58
$GPRMC,153243.500,A,4308.4593,N,07727.1211,W,38.05,278.23,110919,,,A*4A
$GPGGA,153243.750,4308.4597,N,07727.1246,W,1,08,1.21,148.0,M,-34.4,M,,*53
$GPRMC,153244.000,A,4308.4601,N,07727.1282,W,38.12,278.88,110919,,,A*4D
$GPGGA,153244.250,4308.4605,N,07727.1318,W,1,08,1.21,148.0,M,-34.4,M,,*53
$GPRMC,153244.500,A,4308.4609,N,07727.1354,W,38.15,279.43,110919,,,A*4B
