Vers 81
USE_SERIAL_FEEDBACK=true
DEVELOPMENT_MODE=false
USE_RMC_ONLY=false

$GPRMC,174536.250,A,4307.8934,N,07729.5004,W,0.03,149.48,290919,,,A*7C
$GPGGA,174536.500,4307.8933,N,07729.5003,W,1,05,1.52,87.8,M,-34.4,M,,*6F
$GPRMC,174536.750,A,4307.8933,N,07729.5003,W,0.03,330.02,290919,,,A*7B
$GPGGA,174537.000,4307.8933,N,07729.5003,W,1,05,1.52,87.8,M,-34.4,M,,*6B
$GPRMC,174537.250,A,4307.8933,N,07729.5003,W,0.00,106.48,290919,,,A*75
$GPGGA,174537.500,4307.8933,N,07729.5003,W,1,05,1.52,87.9,M,-34.4,M,,*6F
$GPRMC,174537.750,A,4307.8933,N,07729.5003,W,0.01,104.46,290919,,,A*7D
$GPGGA,174538.000,4307.8932,N,07729.5003,W,1,05,1.52,88.0,M,-34.4,M,,*62
$GPRMC,174538.250,A,4307.8932,N,07729.5003,W,0.06,47.70,290919,,,A*42
$GPGGA,174538.500,4307.8932,N,07729.5002,W,1,05,1.52,88.0,M,-34.4,M,,*66
$GPRMC,174538.750,A,4307.8932,N,07729.5003,W,0.02,14.89,290919,,,A*43
$GPGGA,174539.000,4307.8932,N,07729.5003,W,1,05,1.54,88.0,M,-34.4,M,,*65
$GPRMC,174539.250,A,4307.8932,N,07729.5003,W,0.03,179.63,290919,,,A*78
$GPGGA,174539.500,4307.8932,N,07729.5003,W,1,05,1.52,88.0,M,-34.4,M,,*66
$GPRMC,174539.750,A,4307.8932,N,07729.5003,W,0.01,69.96,290919,,,A*45
$GPGGA,174540.000,4307.8932,N,07729.5003,W,1,05,1.52,88.1,M,-34.4,M,,*6C
$GPRMC,174540.250,A,4307.8932,N,07729.5003,W,0.01,149.42,290919,,,A*74
$GPGGA,174540.500,4307.8932,N,07729.5004,W,1,05,1.52,88.3,M,-34.4,M,,*6C
$GPRMC,174540.750,A,4307.8932,N,07729.5004,W,0.03,112.42,290919,,,A*7A
$GPGGA,174541.000,4307.8932,N,07729.5004,W,1,05,1.52,88.4,M,-34.4,M,,*6F
$GPRMC,174541.250,A,4307.8932,N,07729.5004,W,0.03,285.32,290919,,,A*74
$GPGGA,174541.500,4307.8932,N,07729.5004,W,1,05,1.52,88.5,M,-34.4,M,,*6B
$GPRMC,174541.750,A,4307.8932,N,07729.5004,W,0.02,164.07,290919,,,A*7A
$GPGGA,174542.000,4307.8932,N,07729.5004,W,1,05,1.52,88.7,M,-34.4,M,,*6F
$GPRMC,174542.250,A,4307.8933,N,07729.5004,W,0.00,0.00,290919,,,A*7B
$GPGGA,174542.500,4307.8933,N,07729.5004,W,1,05,1.54,88.8,M,-34.4,M,,*62
$GPRMC,174542.750,A,4307.8933,N,07729.5004,W,0.01,310.85,290919,,,A*70
$GPGGA,174543.000,4307.8933,N,07729.5004,W,1,05,1.52,88.8,M,-34.4,M,,*60
$GPRMC,174543.250,A,4307.8933,N,07729.5004,W,0.04,311.30,290919,,,A*7E
$GPGGA,174543.500,4307.8933,N,07729.5004,W,1,05,1.52,88.8,M,-34.4,M,,*65
$GPRMC,174543.750,A,4307.8933,N,07729.5004,W,0.01,113.62,290919,,,A*79
$GPGGA,174544.000,4307.8933,N,07729.5004,W,1,05,1.52,88.9,M,-34.4,M,,*66
$GPRMC,174544.250,A,4307.8933,N,07729.5004,W,0.03,304.34,290919,,,A*7E
$GPGGA,174544.500,4307.8933,N,07729.5003,W,1,05,1.52,88.9,M,-34.4,M,,*64
$GPRMC,174544.750,A,4307.8933,N,07729.5003,W,0.05,38.40,290919,,,A*45
$GPGGA,174545.000,4307.8933,N,07729.5003,W,1,05,1.52,88.8,M,-34.4,M,,*61
$GPRMC,174545.250,A,4307.8934,N,07729.5004,W,0.01,326.78,290919,,,A*72
$GPGGA,174545.500,4307.8934,N,07729.5004,W,1,05,1.52,88.9,M,-34.4,M,,*65
$GPRMC,174545.750,A,4307.8934,N,07729.5004,W,0.01,52.13,290919,,,A*4A
$GPGGA,174546.000,4307.8934,N,07729.5004,W,1,05,1.52,88.9,M,-34.4,M,,*63
$GPRMC,174546.250,A,4307.8934,N,07729.5004,W,0.03,159.44,290919,,,A*76
$GPGGA,174546.500,4307.8934,N,07729.5004,W,1,05,1.52,89.0,M,-34.4,M,,*6E
$GPRMC,174546.750,A,4307.8934,N,07729.5004,W,0.03,175.55,290919,,,A*7D
$GPGGA,174547.000,4307.8934,N,07729.5004,W,1,05,1.52,89.0,M,-34.4,M,,*6A
$GPRMC,174547.250,A,4307.8934,N,07729.5004,W,0.04,15.39,290919,,,A*43
$GPGGA,174547.500,4307.8934,N,07729.5004,W,1,05,1.52,89.0,M,-34.4,M,,*6F
$GPRMC,174547.750,A,4307.8934,N,07729.5004,W,0.01,267.68,290919,,,A*70
$GPGGA,174548.000,4307.8934,N,07729.5004,W,1,05,1.52,89.0,M,-34.4,M,,*65
$GPRMC,174548.250,A,4307.8934,N,07729.5004,W,0.02,119.04,290919,,,A*79
$GPGGA,174548.500,4307.8934,N,07729.5004,W,1,05,1.52,88.9,M,-34.4,M,,*68
$GPRMC,174548.750,A,4307.8934,N,07729.5004,W,0.04,71.95,290919,,,A*4D
$GPGGA,174549.000,4307.8934,N,07729.5004,W,1,05,1.52,88.9,M,-34.4,M,,*6C
$GPRMC,174549.250,A,4307.8934,N,07729.5004,W,0.01,54.87,290919,,,A*48
$GPGGA,174549.500,4307.8934,N,07729.5004,W,1,05,1.52,88.8,M,-34.4,M,,*68
$GPRMC,174549.750,A,4307.8934,N,07729.5004,W,0.02,334.28,290919,,,A*7E
$GPGGA,174550.000,4307.8934,N,07729.5003,W,1,05,1.52,88.8,M,-34.4,M,,*62
$GPRMC,174550.250,A,4307.8935,N,07729.5003,W,0.01,182.81,290919,,,A*7A
$GPGGA,174550.500,4307.8935,N,07729.5003,W,1,06,1.21,88.7,M,-34.4,M,,*6E
$GPRMC,174550.750,A,4307.8935,N,07729.5003,W,0.01,297.88,290919,,,A*71
$GPGGA,174551.000,4307.8936,N,07729.5004,W,1,06,1.21,88.6,M,-34.4,M,,*6F
$GPRMC,174551.250,A,4307.8936,N,07729.5004,W,0.04,214.66,290919,,,A*7F
$GPGGA,174551.500,4307.8937,N,07729.5004,W,1,06,1.21,88.6,M,-34.4,M,,*6B
$GPRMC,174551.750,A,4307.8937,N,07729.5004,W,0.04,137.38,290919,,,A*72
$GPGGA,174552.000,4307.8938,N,07729.5004,W,1,06,1.21,88.6,M,-34.4,M,,*62
$GPRMC,174552.250,A,4307.8938,N,07729.5004,W,0.06,39.21,290919,,,A*4E
$GPGGA,174552.500,4307.8938,N,07729.5004,W,1,06,1.21,88.6,M,-34.4,M,,*67
$GPRMC,174552.750,A,4307.8938,N,07729.5004,W,0.00,80.18,290919,,,A*45
$GPGGA,174553.000,4307.8939,N,07729.5004,W,1,06,1.21,88.5,M,-34.4,M,,*61
$GPRMC,174553.250,A,4307.8939,N,07729.5003,W,0.03,27.13,290919,,,A*42
$GPGGA,174553.500,4307.8939,N,07729.5003,W,1,06,1.21,88.5,M,-34.4,M,,*63
$GPRMC,174553.750,A,4307.8939,N,07729.5003,W,0.01,95.34,290919,,,A*49
$GPGGA,174554.000,4307.8940,N,07729.5003,W,1,06,1.21,88.4,M,-34.4,M,,*6E
$GPRMC,174554.250,A,4307.8940,N,07729.5003,W,0.04,359.33,290919,,,A*74
$GPGGA,174554.500,4307.8940,N,07729.5003,W,1,06,1.23,88.4,M,-34.4,M,,*69
$GPRMC,174554.750,A,4307.8940,N,07729.5003,W,0.04,262.65,290919,,,A*7B
$GPGGA,174555.000,4307.8941,N,07729.5003,W,1,06,1.21,88.4,M,-34.4,M,,*6E
$GPRMC,174555.250,A,4307.8941,N,07729.5003,W,0.04,53.42,290919,,,A*4B
$GPGGA,174555.500,4307.8941,N,07729.5003,W,1,06,1.21,88.4,M,-34.4,M,,*6B
$GPRMC,174555.750,A,4307.8941,N,07729.5003,W,0.02,298.12,290919,,,A*78
$GPGGA,174556.000,4307.8941,N,07729.5003,W,1,06,1.21,88.4,M,-34.4,M,,*6D
$GPRMC,174556.250,A,4307.8942,N,07729.5003,W,0.02,253.67,290919,,,A*78
$GPGGA,174556.500,4307.8942,N,07729.5002,W,1,06,1.21,88.3,M,-34.4,M,,*6D
$GPRMC,174556.750,A,4307.8942,N,07729.5002,W,0.01,61.11,290919,,,A*4D
$GPGGA,174557.000,4307.8942,N,07729.5002,W,1,06,1.21,88.3,M,-34.4,M,,*69
$GPRMC,174557.250,A,4307.8943,N,07729.5002,W,0.02,121.31,290919,,,A*7C
$GPGGA,174557.500,4307.8943,N,07729.5002,W,1,06,1.21,88.3,M,-34.4,M,,*6D
$GPRMC,174557.750,A,4307.8943,N,07729.5002,W,0.01,284.55,290919,,,A*74
$GPGGA,174558.000,4307.8943,N,07729.5002,W,1,06,1.21,88.3,M,-34.4,M,,*67
$GPRMC,174558.250,A,4307.8944,N,07729.5002,W,0.00,329.51,290919,,,A*7A
$GPGGA,174558.500,4307.8944,N,07729.5002,W,1,06,1.21,88.3,M,-34.4,M,,*65
$GPRMC,174558.750,A,4307.8944,N,07729.5002,W,0.02,20.49,290919,,,A*4E
$GPGGA,174559.000,4307.8944,N,07729.5002,W,1,06,1.21,88.3,M,-34.4,M,,*61
$GPRMC,174559.250,A,4307.8944,N,07729.5002,W,0.02,143.59,290919,,,A*7F
$GPGGA,174559.500,4307.8945,N,07729.5002,W,1,06,1.21,88.3,M,-34.4,M,,*65
$GPRMC,174559.750,A,4307.8945,N,07729.5002,W,0.01,251.36,290919,,,A*71
$GPGGA,174600.000,4307.8945,N,07729.5002,W,1,06,1.21,88.3,M,-34.4,M,,*6F
$GPRMC,174600.250,A,4307.8945,N,07729.5002,W,0.02,267.10,290919,,,A*79
$GPGGA,174600.500,4307.8945,N,07729.5001,W,1,06,1.21,88.3,M,-34.4,M,,*69
$GPRMC,174600.750,A,4307.8945,N,07729.5001,W,0.04,176.64,290919,,,A*79
$GPGGA,174601.000,4307.8945,N,07729.5001,W,1,06,1.21,88.3,M,-34.4,M,,*6D
$GPRMC,174601.250,A,4307.8946,N,07729.5001,W,0.03,45.67,290919,,,A*4B
$GPGGA,174601.500,4307.8946,N,07729.5001,W,1,06,1.21,88.3,M,-34.4,M,,*6B
$GPRMC,174601.750,A,4307.8946,N,07729.5001,W,0.02,30.36,290919,,,A*49
$GPGGA,174602.000,4307.8946,N,07729.5001,W,1,06,1.21,88.3,M,-34.4,M,,*6D
$GPRMC,174602.250,A,4307.8946,N,07729.5001,W,0.01,256.55,290919,,,A*7B
$GPGGA,174602.500,4307.8946,N,07729.5001,W,1,06,1.21,88.3,M,-34.4,M,,*68
$GPRMC,174602.750,A,4307.8946,N,07729.5001,W,0.03,118.13,290919,,,A*77
$GPGGA,174603.000,4307.8946,N,07729.5001,W,1,06,1.21,88.2,M,-34.4,M,,*6D
$GPRMC,174603.250,A,4307.8946,N,07729.5001,W,0.02,335.04,290919,,,A*79
$GPGGA,174603.500,4307.8947,N,07729.5001,W,1,06,1.21,88.2,M,-34.4,M,,*69
$GPRMC,174603.750,A,4307.8947,N,07729.5001,W,0.01,10.19,290919,,,A*46
$GPGGA,174604.000,4307.8947,N,07729.5001,W,1,06,1.23,88.2,M,-34.4,M,,*69
$GPRMC,174604.250,A,4307.8947,N,07729.5000,W,0.04,115.29,290919,,,A*77
$GPGGA,174604.500,4307.8947,N,07729.5000,W,1,06,1.21,88.2,M,-34.4,M,,*6F
$GPRMC,174604.750,A,4307.8947,N,07729.5000,W,0.01,332.99,290919,,,A*7B
$GPGGA,174605.000,4307.8947,N,07729.5000,W,1,06,1.21,88.1,M,-34.4,M,,*68
$GPRMC,174605.250,A,4307.8947,N,07729.5000,W,0.06,43.38,290919,,,A*46
$GPGGA,174605.500,4307.8947,N,07729.5000,W,1,06,1.21,88.1,M,-34.4,M,,*6D
$GPRMC,174605.750,A,4307.8947,N,07729.5000,W,0.04,240.05,290919,,,A*7E
$GPGGA,174606.000,4307.8947,N,07729.5000,W,1,06,1.21,88.1,M,-34.4,M,,*6B
$GPRMC,174606.250,A,4307.8947,N,07729.5000,W,0.02,190.48,290919,,,A*79
$GPGGA,174606.500,4307.8947,N,07729.5000,W,1,06,1.21,88.1,M,-34.4,M,,*6E
$GPRMC,174606.750,A,4307.8947,N,07729.5000,W,0.04,54.87,290919,,,A*40
$GPGGA,174607.000,4307.8947,N,07729.5000,W,1,06,1.21,88.1,M,-34.4,M,,*6A
$GPRMC,174607.250,A,4307.8947,N,07729.5000,W,0.05,204.81,290919,,,A*74
$GPGGA,174607.500,4307.8947,N,07729.5000,W,1,06,1.21,88.1,M,-34.4,M,,*6F
$GPRMC,174607.750,A,4307.8947,N,07729.5000,W,0.00,149.36,290919,,,A*72
$GPGGA,174608.000,4307.8947,N,07729.5000,W,1,06,1.21,88.1,M,-34.4,M,,*65
$GPRMC,174608.250,A,4307.8947,N,07729.5000,W,0.03,237.90,290919,,,A*7D
$GPGGA,174608.500,4307.8947,N,07729.5000,W,1,06,1.21,88.1,M,-34.4,M,,*60
$GPRMC,174608.750,A,4307.8947,N,07729.5000,W,0.04,153.05,290919,,,A*72
$GPGGA,174609.000,4307.8947,N,07729.5000,W,1,06,1.21,88.1,M,-34.4,M,,*64
$GPRMC,174609.250,A,4307.8947,N,07729.5000,W,0.02,58.28,290919,,,A*45
$GPGGA,174609.500,4307.8947,N,07729.5000,W,1,06,1.21,88.1,M,-34.4,M,,*61
$GPRMC,174609.750,A,4307.8947,N,07729.5000,W,0.04,141.26,290919,,,A*71
$GPGGA,174610.000,4307.8947,N,07729.5000,W,1,06,1.21,88.1,M,-34.4,M,,*6C
$GPRMC,174610.250,A,4307.8947,N,07729.5000,W,0.03,214.22,290919,,,A*7C
$GPGGA,174610.500,4307.8947,N,07729.5000,W,1,06,1.21,88.1,M,-34.4,M,,*69
$GPRMC,174610.750,A,4307.8947,N,07729.5000,W,0.03,215.08,290919,,,A*70
$GPGGA,174611.000,4307.8947,N,07729.5000,W,1,06,1.21,88.1,M,-34.4,M,,*6D
$GPRMC,174611.250,A,4307.8947,N,07729.5000,W,0.00,52.51,290919,,,A*4A
$GPGGA,174611.500,4307.8947,N,07729.5000,W,1,06,1.21,88.1,M,-34.4,M,,*68
$GPRMC,174611.750,A,4307.8947,N,07729.5000,W,0.02,6.74,290919,,,A*7B
$GPGGA,174612.000,4307.8947,N,07729.5000,W,1,06,1.23,88.1,M,-34.4,M,,*6C
$GPRMC,174612.250,A,4307.8947,N,07729.5000,W,0.02,1.27,290919,,,A*7C
$GPGGA,174612.500,4307.8947,N,07729.5000,W,1,06,1.23,88.1,M,-34.4,M,,*69
$GPRMC,174612.750,A,4307.8947,N,07729.5000,W,0.01,105.22,290919,,,A*7A
$GPGGA,174613.000,4307.8947,N,07729.5000,W,1,06,1.21,88.1,M,-34.4,M,,*6F
$GPRMC,174613.250,A,4307.8947,N,07729.5000,W,0.01,83.18,290919,,,A*48
$GPGGA,174613.500,4307.8947,N,07729.5000,W,1,06,1.21,88.1,M,-34.4,M,,*6A
$GPRMC,174613.750,A,4307.8947,N,07729.5000,W,0.02,9.33,290919,,,A*75
$GPGGA,174614.000,4307.8947,N,07729.5000,W,1,06,1.23,88.1,M,-34.4,M,,*6A
$GPRMC,174614.250,A,4307.8947,N,07729.5000,W,0.02,32.01,290919,,,A*4E
$GPGGA,174614.500,4307.8947,N,07729.5000,W,1,06,1.23,88.1,M,-34.4,M,,*6F
$GPRMC,174614.750,A,4307.8947,N,07729.5000,W,0.00,345.22,290919,,,A*7B
$GPGGA,174615.000,4307.8947,N,07729.5000,W,1,06,1.23,88.1,M,-34.4,M,,*6B
$GPRMC,174615.250,A,4307.8947,N,07729.5000,W,0.00,232.94,290919,,,A*73
$GPGGA,174615.500,4307.8947,N,07729.5000,W,1,06,1.23,88.1,M,-34.4,M,,*6E
$GPRMC,174615.750,A,4307.8947,N,07729.5000,W,0.00,288.12,290919,,,A*79
$GPGGA,174616.000,4307.8947,N,07729.5000,W,1,06,1.23,88.1,M,-34.4,M,,*68
$GPRMC,174616.250,A,4307.8947,N,07729.5000,W,0.00,5.82,290919,,,A*71
$GPGGA,174616.500,4307.8947,N,07729.5000,W,1,06,1.23,88.1,M,-34.4,M,,*6D
$GPRMC,174616.750,A,4307.8947,N,07729.5000,W,0.00,248.20,290919,,,A*77
$GPGGA,174617.000,4307.8947,N,07729.5000,W,1,06,1.23,88.1,M,-34.4,M,,*69
$GPRMC,174617.250,A,4307.8947,N,07729.5000,W,0.01,85.27,290919,,,A*46
$GPGGA,174617.500,4307.8947,N,07729.5000,W,1,06,1.23,88.1,M,-34.4,M,,*6C
$GPRMC,174617.750,A,4307.8947,N,07729.5000,W,0.00,72.25,290919,,,A*48
$GPGGA,174618.000,4307.8947,N,07729.5000,W,1,06,1.23,88.1,M,-34.4,M,,*66
$GPRMC,174618.250,A,4307.8947,N,07729.5000,W,0.01,211.17,290919,,,A*75
$GPGGA,174618.500,4307.8947,N,07729.5000,W,1,06,1.23,88.1,M,-34.4,M,,*63
$GPRMC,174618.750,A,4307.8947,N,07729.5000,W,0.00,138.26,290919,,,A*7B
$GPGGA,174619.000,4307.8947,N,07729.5000,W,1,06,1.23,88.1,M,-34.4,M,,*67
$GPRMC,174619.250,A,4307.8947,N,07729.5000,W,0.01,129.36,290919,,,A*7F
$GPGGA,174619.500,4307.8947,N,07729.5000,W,1,06,1.23,88.1,M,-34.4,M,,*62
$GPRMC,174619.750,A,4307.8947,N,07729.5000,W,0.00,91.31,290919,,,A*4E
$GPGGA,174620.000,4307.8947,N,07729.5000,W,1,06,1.23,88.1,M,-34.4,M,,*6D
$GPRMC,174620.250,A,4307.8947,N,07729.5000,W,0.01,176.93,290919,,,A*70
$GPGGA,174620.500,4307.8947,N,07729.5000,W,1,06,1.23,88.1,M,-34.4,M,,*68
$GPRMC,174620.750,A,4307.8947,N,07729.5000,W,0.00,67.15,290919,,,A*4B
$GPGGA,174621.000,4307.8947,N,07729.5000,W,1,06,1.23,88.1,M,-34.4,M,,*6C
$GPRMC,174621.250,A,4307.8947,N,07729.5000,W,0.00,0.00,290919,,,A*7A
$GPGGA,174621.500,4307.8947,N,07729.5000,W,1,06,1.23,88.1,M,-34.4,M,,*69
$GPRMC,174621.750,A,4307.8947,N,07729.5000,W,0.01,85.93,290919,,,A*49
$GPGGA,174622.000,4307.8947,N,07729.5000,W,1,06,1.23,88.1,M,-34.4,M,,*6F
$GPRMC,174622.250,A,4307.8947,N,07729.5000,W,0.00,74.88,290919,,,A*4A
$GPGGA,174622.500,4307.8947,N,07729.5000,W,1,06,1.23,88.1,M,-34.4,M,,*6A
$GPRMC,174622.750,A,4307.8947,N,07729.5000,W,0.01,146.85,290919,,,A*73
$GPGGA,174623.000,4307.8947,N,07729.5000,W,1,06,1.23,88.1,M,-34.4,M,,*6E
$GPRMC,174623.250,A,4307.8947,N,07729.5000,W,0.01,239.82,290919,,,A*7B
$GPGGA,174623.500,4307.8947,N,07729.5000,W,1,06,1.23,88.1,M,-34.4,M,,*6B
$GPRMC,174623.750,A,4307.8947,N,07729.5000,W,0.00,284.04,290919,,,A*77
$GPGGA,174624.000,4307.8947,N,07729.5000,W,1,06,1.23,88.1,M,-34.4,M,,*69
$GPRMC,174624.250,A,4307.8947,N,07729.5000,W,0.00,274.49,290919,,,A*73
$GPGGA,174624.500,4307.8947,N,07729.5000,W,1,06,1.23,88.1,M,-34.4,M,,*6C
$GPRMC,174624.750,A,4307.8947,N,07729.5000,W,0.00,63.87,290919,,,A*40
$GPGGA,174625.000,4307.8947,N,07729.5000,W,1,06,1.23,88.1,M,-34.4,M,,*68
$GPRMC,174625.250,A,4307.8947,N,07729.5000,W,0.01,97.03,290919,,,A*42
$GPGGA,174625.500,4307.8947,N,07729.5000,W,1,06,1.23,88.1,M,-34.4,M,,*6D
$GPRMC,174625.750,A,4307.8947,N,07729.5000,W,0.01,350.76,290919,,,A*7D
$GPGGA,174626.000,4307.8947,N,07729.5000,W,1,06,1.23,88.1,M,-34.4,M,,*6B
$GPRMC,174626.250,A,4307.8947,N,07729.5000,W,0.01,61.46,290919,,,A*49
$GPGGA,174626.500,4307.8947,N,07729.5000,W,1,06,1.23,88.1,M,-34.4,M,,*6E
$GPRMC,174626.750,A,4307.8947,N,07729.5000,W,0.00,188.77,290919,,,A*79
$GPGGA,174627.000,4307.8947,N,07729.5000,W,1,06,1.23,88.1,M,-34.4,M,,*6A
$GPRMC,174627.250,A,4307.8947,N,07729.5000,W,0.00,0.00,290919,,,A*7C
$GPGGA,174627.500,4307.8947,N,07729.5000,W,1,06,1.23,88.1,M,-34.4,M,,*6F
$GPRMC,174627.750,A,4307.8947,N,07729.5000,W,0.00,142.52,290919,,,A*79
$GPGGA,174628.000,4307.8947,N,07729.5000,W,1,06,1.23,88.1,M,-34.4,M,,*65
$GPRMC,174628.250,A,4307.8947,N,07729.5000,W,0.01,167.97,290919,,,A*7C
$GPGGA,174628.500,4307.8947,N,07729.5000,W,1,06,1.23,88.1,M,-34.4,M,,*60
$GPRMC,174628.750,A,4307.8947,N,07729.5000,W,0.00,64.87,290919,,,A*4B
$GPGGA,174629.000,4307.8947,N,07729.5000,W,1,06,1.23,88.1,M,-34.4,M,,*64
$GPRMC,174629.250,A,4307.8947,N,07729.5000,W,0.01,218.36,290919,,,A*7D
$GPGGA,174629.500,4307.8947,N,07729.5000,W,1,06,1.23,88.1,M,-34.4,M,,*61
$GPRMC,174629.750,A,4307.8947,N,07729.5000,W,0.00,205.73,290919,,,A*74
$GPGGA,174630.000,4307.8947,N,07729.5000,W,1,06,1.23,88.1,M,-34.4,M,,*6C
$GPRMC,174630.250,A,4307.8947,N,07729.5000,W,0.01,190.40,290919,,,A*77
$GPGGA,174630.500,4307.8947,N,07729.5000,W,1,06,1.23,88.1,M,-34.4,M,,*69
$GPRMC,174630.750,A,4307.8947,N,07729.5000,W,0.00,17.06,290919,,,A*4F
$GPGGA,174631.000,4307.8947,N,07729.5000,W,1,06,1.23,88.1,M,-34.4,M,,*6D
$GPRMC,174631.250,A,4307.8947,N,07729.5000,W,0.01,229.15,290919,,,A*77
$GPGGA,174631.500,4307.8947,N,07729.5000,W,1,06,1.23,88.1,M,-34.4,M,,*68
$GPRMC,174631.750,A,4307.8947,N,07729.5000,W,0.01,356.02,290919,,,A*7D
$GPGGA,174632.000,4307.8947,N,07729.5000,W,1,06,1.23,88.1,M,-34.4,M,,*6E
$GPRMC,174632.250,A,4307.8947,N,07729.5000,W,0.01,162.49,290919,,,A*71
$GPGGA,174632.500,4307.8947,N,07729.5000,W,1,07,1.08,88.1,M,-34.4,M,,*63
$GPRMC,174632.750,A,4307.8947,N,07729.5000,W,0.01,232.76,290919,,,A*7E
$GPGGA,174633.000,4307.8947,N,07729.5000,W,1,07,1.08,88.1,M,-34.4,M,,*67
$GPRMC,174633.250,A,4307.8947,N,07729.5000,W,0.00,31.88,290919,,,A*4B
$GPGGA,174633.500,4307.8947,N,07729.5000,W,1,07,1.08,88.1,M,-34.4,M,,*62
$GPRMC,174633.750,A,4307.8947,N,07729.5000,W,0.01,261.72,290919,,,A*7D
$GPGGA,174634.000,4307.8947,N,07729.5000,W,1,07,1.08,88.1,M,-34.4,M,,*60
$GPRMC,174634.250,A,4307.8947,N,07729.5000,W,0.01,76.28,290919,,,A*44
$GPGGA,174634.500,4307.8947,N,07729.5000,W,1,07,1.08,88.1,M,-34.4,M,,*65
$GPRMC,174634.750,A,4307.8947,N,07729.5000,W,0.00,50.39,290919,,,A*44
$GPGGA,174635.000,4307.8947,N,07729.5000,W,1,07,1.08,88.1,M,-34.4,M,,*61
$GPRMC,174635.250,A,4307.8947,N,07729.5000,W,0.00,23.11,290919,,,A*4E
$GPGGA,174635.500,4307.8947,N,07729.5000,W,1,07,1.08,88.1,M,-34.4,M,,*64
$GPRMC,174635.750,A,4307.8947,N,07729.5000,W,0.00,151.99,290919,,,A*7F
$GPGGA,174636.000,4307.8947,N,07729.5000,W,1,07,1.08,88.1,M,-34.4,M,,*62
$GPRMC,174636.250,A,4307.8947,N,07729.5000,W,0.01,234.32,290919,,,A*79
$GPGGA,174636.500,4307.8947,N,07729.5000,W,1,07,1.08,88.1,M,-34.4,M,,*67
$GPRMC,174636.750,A,4307.8947,N,07729.5000,W,0.00,0.00,290919,,,A*79
$GPGGA,174637.000,4307.8947,N,07729.5000,W,1,07,1.08,88.1,M,-34.4,M,,*63
$GPRMC,174637.250,A,4307.8947,N,07729.5000,W,0.00,73.02,290919,,,A*4B
$GPGGA,174637.500,4307.8947,N,07729.5000,W,1,07,1.08,88.1,M,-34.4,M,,*66
$GPRMC,174637.750,A,4307.8947,N,07729.5000,W,0.01,167.51,290919,,,A*7D
$GPGGA,174638.000,4307.8947,N,07729.5000,W,1,07,1.08,88.1,M,-34.4,M,,*6C
$GPRMC,174638.250,A,4307.8947,N,07729.5000,W,0.01,111.88,290919,,,A*72
$GPGGA,174638.500,4307.8947,N,07729.5000,W,1,07,1.08,88.1,M,-34.4,M,,*69
$GPRMC,174638.750,A,4307.8947,N,07729.5000,W,0.00,186.08,290919,,,A*70
$GPGGA,174639.000,4307.8947,N,07729.5000,W,1,07,1.08,88.1,M,-34.4,M,,*6D
$GPRMC,174639.250,A,4307.8947,N,07729.5000,W,0.00,305.67,290919,,,A*74
$GPGGA,174639.500,4307.8947,N,07729.5000,W,1,07,1.08,88.1,M,-34.4,M,,*68
$GPRMC,174639.750,A,4307.8947,N,07729.5000,W,0.00,281.51,290919,,,A*79
$GPGGA,174640.000,4307.8947,N,07729.5000,W,1,07,1.08,88.1,M,-34.4,M,,*63
$GPRMC,174640.250,A,4307.8947,N,07729.5000,W,0.00,187.23,290919,,,A*72
$GPGGA,174640.500,4307.8947,N,07729.5000,W,1,07,1.08,88.1,M,-34.4,M,,*66
$GPRMC,174640.750,A,4307.8947,N,07729.5000,W,0.00,343.99,290919,,,A*7C
$GPGGA,174641.000,4307.8947,N,07729.5000,W,1,07,1.08,88.1,M,-34.4,M,,*62
$GPRMC,174641.250,A,4307.8947,N,07729.5000,W,0.00,28.00,290919,,,A*46
$GPGGA,174641.500,4307.8947,N,07729.5000,W,1,07,1.08,88.1,M,-34.4,M,,*67
$GPRMC,174641.750,A,4307.8947,N,07729.5000,W,0.00,161.85,290919,,,A*72
$GPGGA,174642.000,4307.8947,N,07729.5000,W,1,07,1.08,88.1,M,-34.4,M,,*61
$GPRMC,174642.250,A,4307.8947,N,07729.5000,W,0.00,229.40,290919,,,A*72
$GPGGA,174642.500,4307.8947,N,07729.5000,W,1,07,1.08,88.1,M,-34.4,M,,*64
$GPRMC,174642.750,A,4307.8947,N,07729.5000,W,0.01,90.58,290919,,,A*4F
$GPGGA,174643.000,4307.8947,N,07729.5000,W,1,07,1.08,88.1,M,-34.4,M,,*60
$GPRMC,174643.250,A,4307.8947,N,07729.5000,W,0.05,42.86,290919,,,A*43
$GPGGA,174643.500,4307.8947,N,07729.5000,W,1,07,1.08,88.1,M,-34.4,M,,*65
$GPRMC,174643.750,A,4307.8947,N,07729.5000,W,0.07,38.89,290919,,,A*46
$GPGGA,174644.000,4307.8947,N,07729.5000,W,1,07,1.08,88.1,M,-34.4,M,,*67
$GPRMC,174644.250,A,4307.8947,N,07729.5000,W,0.09,38.94,290919,,,A*46
$GPGGA,174644.500,4307.8947,N,07729.5000,W,1,07,1.08,88.1,M,-34.4,M,,*62
$GPRMC,174644.750,A,4307.8947,N,07729.5000,W,0.13,40.76,290919,,,A*4B
$GPGGA,174645.000,4307.8947,N,07729.5000,W,1,07,1.08,88.1,M,-34.4,M,,*66
$GPRMC,174645.250,A,4307.8947,N,07729.5000,W,0.86,35.82,290919,,,A*4A
$GPGGA,174645.500,4307.8948,N,07729.4999,W,1,07,1.05,88.1,M,-34.4,M,,*69
$GPRMC,174645.750,A,4307.8949,N,07729.4999,W,1.06,33.70,290919,,,A*4B
$GPGGA,174646.000,4307.8949,N,07729.4998,W,1,07,1.05,88.1,M,-34.4,M,,*6F
$GPRMC,174646.250,A,4307.8950,N,07729.4998,W,0.95,31.35,290919,,,A*4C
$GPGGA,174646.500,4307.8951,N,07729.4997,W,1,07,1.05,88.0,M,-34.4,M,,*6D
$GPRMC,174646.750,A,4307.8952,N,07729.4996,W,1.32,25.84,290919,,,A*46
$GPGGA,174647.000,4307.8953,N,07729.4996,W,1,07,1.05,88.0,M,-34.4,M,,*6A
$GPRMC,174647.250,A,4307.8954,N,07729.4995,W,1.75,20.06,290919,,,A*4B
$GPGGA,174647.500,4307.8955,N,07729.4995,W,1,07,1.05,88.0,M,-34.4,M,,*6A
$GPRMC,174647.750,A,4307.8957,N,07729.4995,W,2.25,3.86,290919,,,A*72
$GPGGA,174648.000,4307.8959,N,07729.4995,W,1,07,1.08,88.0,M,-34.4,M,,*61
$GPRMC,174648.250,A,4307.8961,N,07729.4994,W,2.97,2.45,290919,,,A*7B
$GPGGA,174648.500,4307.8964,N,07729.4994,W,1,07,1.08,88.0,M,-34.4,M,,*6B
$GPRMC,174648.750,A,4307.8966,N,07729.4995,W,3.57,355.66,290919,,,A*75
$GPGGA,174649.000,4307.8968,N,07729.4996,W,1,07,1.08,88.1,M,-34.4,M,,*60
$GPRMC,174649.250,A,4307.8971,N,07729.4997,W,3.72,342.11,290919,,,A*74
$GPGGA,174649.500,4307.8974,N,07729.4999,W,1,07,1.05,88.1,M,-34.4,M,,*6A
$GPRMC,174649.750,A,4307.8976,N,07729.5002,W,4.52,328.97,290919,,,A*75
$GPGGA,174650.000,4307.8979,N,07729.5005,W,1,07,1.08,88.1,M,-34.4,M,,*6A
$GPRMC,174650.250,A,4307.8981,N,07729.5008,W,4.94,316.75,290919,,,A*71
$GPGGA,174650.500,4307.8983,N,07729.5012,W,1,07,1.08,88.1,M,-34.4,M,,*6C
$GPRMC,174650.750,A,4307.8986,N,07729.5017,W,5.55,310.87,290919,,,A*7A
$GPGGA,174651.000,4307.8989,N,07729.5021,W,1,07,1.08,88.2,M,-34.4,M,,*61
$GPRMC,174651.250,A,4307.8992,N,07729.5025,W,6.08,311.47,290919,,,A*7C
$GPGGA,174651.500,4307.8996,N,07729.5030,W,1,07,1.08,88.2,M,-34.4,M,,*6A
$GPRMC,174651.750,A,4307.8998,N,07729.5035,W,6.32,309.91,290919,,,A*79
$GPGGA,174652.000,4307.9001,N,07729.5040,W,1,07,1.08,88.2,M,-34.4,M,,*6D
$GPRMC,174652.250,A,4307.9004,N,07729.5044,W,6.01,309.72,290919,,,A*79
$GPGGA,174652.500,4307.9006,N,07729.5048,W,1,07,1.08,88.2,M,-34.4,M,,*67
$GPRMC,174652.750,A,4307.9009,N,07729.5053,W,5.94,314.69,290919,,,A*7E
$GPGGA,174653.000,4307.9012,N,07729.5057,W,1,07,1.08,88.2,M,-34.4,M,,*68
$GPRMC,174653.250,A,4307.9015,N,07729.5060,W,5.40,316.36,290919,,,A*76
$GPGGA,174653.500,4307.9017,N,07729.5064,W,1,07,1.08,88.3,M,-34.4,M,,*69
$GPRMC,174653.750,A,4307.9020,N,07729.5068,W,5.33,316.78,290919,,,A*73
$GPGGA,174654.000,4307.9022,N,07729.5072,W,1,07,1.08,88.3,M,-34.4,M,,*6A
$GPRMC,174654.250,A,4307.9024,N,07729.5075,W,5.06,314.38,290919,,,A*79
$GPGGA,174654.500,4307.9026,N,07729.5079,W,1,07,1.08,88.4,M,-34.4,M,,*67
$GPRMC,174654.750,A,4307.9028,N,07729.5082,W,4.21,314.64,290919,,,A*75
$GPGGA,174655.000,4307.9029,N,07729.5084,W,1,07,1.08,88.4,M,-34.4,M,,*6E
$GPRMC,174655.250,A,4307.9031,N,07729.5087,W,3.98,314.94,290919,,,A*76
$GPGGA,174655.500,4307.9032,N,07729.5089,W,1,07,1.08,88.4,M,-34.4,M,,*6C
$GPRMC,174655.750,A,4307.9033,N,07729.5092,W,3.12,313.85,290919,,,A*70
$GPGGA,174656.000,4307.9034,N,07729.5093,W,1,07,1.05,88.5,M,-34.4,M,,*6B
$GPRMC,174656.250,A,4307.9035,N,07729.5095,W,2.27,316.64,290919,,,A*7A
$GPGGA,174656.500,4307.9035,N,07729.5096,W,1,07,1.05,88.5,M,-34.4,M,,*6A
$GPRMC,174656.750,A,4307.9036,N,07729.5096,W,1.49,332.97,290919,,,A*7E
$GPGGA,174657.000,4307.9035,N,07729.5097,W,1,07,1.05,88.6,M,-34.4,M,,*6C
$GPRMC,174657.250,A,4307.9035,N,07729.5097,W,0.45,331.03,290919,,,A*7B
$GPGGA,174657.500,4307.9034,N,07729.5096,W,1,07,1.05,88.5,M,-34.4,M,,*6A
$GPRMC,174657.750,A,4307.9033,N,07729.5096,W,0.10,67.79,290919,,,A*44
$GPGGA,174658.000,4307.9033,N,07729.5096,W,1,07,1.05,88.5,M,-34.4,M,,*67
$GPRMC,174658.250,A,4307.9033,N,07729.5096,W,0.06,75.32,290919,,,A*45
$GPGGA,174658.500,4307.9033,N,07729.5096,W,1,07,1.05,88.5,M,-34.4,M,,*62
$GPRMC,174658.750,A,4307.9033,N,07729.5097,W,0.21,320.66,290919,,,A*76
$GPGGA,174659.000,4307.9034,N,07729.5098,W,1,07,1.05,88.5,M,-34.4,M,,*6F
$GPRMC,174659.250,A,4307.9034,N,07729.5099,W,0.64,321.03,290919,,,A*78
$GPGGA,174659.500,4307.9035,N,07729.5101,W,1,07,1.05,88.5,M,-34.4,M,,*6A
$GPRMC,174659.750,A,4307.9037,N,07729.5104,W,1.27,314.50,290919,,,A*7D
$GPGGA,174700.000,4307.9038,N,07729.5106,W,1,07,1.05,88.5,M,-34.4,M,,*68
$GPRMC,174700.250,A,4307.9039,N,07729.5108,W,2.22,310.83,290919,,,A*7B
$GPGGA,174700.500,4307.9041,N,07729.5110,W,1,07,1.05,88.5,M,-34.4,M,,*64
$GPRMC,174700.750,A,4307.9042,N,07729.5113,W,3.02,302.36,290919,,,A*76
$GPGGA,174701.000,4307.9043,N,07729.5116,W,1,07,1.05,88.5,M,-34.4,M,,*64
$GPRMC,174701.250,A,4307.9046,N,07729.5118,W,3.54,318.77,290919,,,A*70
$GPGGA,174701.500,4307.9048,N,07729.5120,W,1,07,1.05,88.5,M,-34.4,M,,*6F
$GPRMC,174701.750,A,4307.9051,N,07729.5121,W,3.97,335.64,290919,,,A*7B
$GPGGA,174702.000,4307.9053,N,07729.5123,W,1,07,1.08,88.5,M,-34.4,M,,*6D
$GPRMC,174702.250,A,4307.9056,N,07729.5124,W,4.29,342.78,290919,,,A*70
$GPGGA,174702.500,4307.9059,N,07729.5124,W,1,07,1.08,88.5,M,-34.4,M,,*65
$GPRMC,174702.750,A,4307.9062,N,07729.5124,W,4.33,356.55,290919,,,A*73
$GPGGA,174703.000,4307.9065,N,07729.5123,W,1,07,1.08,88.5,M,-34.4,M,,*69
$GPRMC,174703.250,A,4307.9067,N,07729.5122,W,4.69,10.13,290919,,,A*48
$GPGGA,174703.500,4307.9071,N,07729.5121,W,1,07,1.08,88.6,M,-34.4,M,,*68
$GPRMC,174703.750,A,4307.9074,N,07729.5119,W,5.61,19.29,290919,,,A*4E
$GPGGA,174704.000,4307.9077,N,07729.5117,W,1,07,1.08,88.6,M,-34.4,M,,*69
$GPRMC,174704.250,A,4307.9081,N,07729.5114,W,5.47,30.32,290919,,,A*4E
$GPGGA,174704.500,4307.9084,N,07729.5110,W,1,07,1.08,88.6,M,-34.4,M,,*67
$GPRMC,174704.750,A,4307.9087,N,07729.5107,W,6.04,37.21,290919,,,A*4E
$GPGGA,174705.000,4307.9090,N,07729.5103,W,1,07,1.08,88.6,M,-34.4,M,,*64
$GPRMC,174705.250,A,4307.9094,N,07729.5098,W,6.87,40.11,290919,,,A*47
$GPGGA,174705.500,4307.9097,N,07729.5094,W,1,07,1.08,88.6,M,-34.4,M,,*69
$GPRMC,174705.750,A,4307.9102,N,07729.5089,W,7.64,40.33,290919,,,A*40
$GPGGA,174706.000,4307.9106,N,07729.5084,W,1,07,1.08,88.5,M,-34.4,M,,*64
$GPRMC,174706.250,A,4307.9111,N,07729.5080,W,7.99,37.40,290919,,,A*4B
$GPGGA,174706.500,4307.9116,N,07729.5075,W,1,07,1.08,88.5,M,-34.4,M,,*6E
$GPRMC,174706.750,A,4307.9121,N,07729.5070,W,8.93,36.88,290919,,,A*42
$GPGGA,174707.000,4307.9126,N,07729.5064,W,1,07,1.08,88.6,M,-34.4,M,,*6A
$GPRMC,174707.250,A,4307.9132,N,07729.5059,W,9.80,36.22,290919,,,A*4C
$GPGGA,174707.500,4307.9138,N,07729.5053,W,1,07,1.08,88.6,M,-34.4,M,,*64
$GPRMC,174707.750,A,4307.9144,N,07729.5045,W,10.27,35.63,290919,,,A*76
$GPGGA,174708.000,4307.9151,N,07729.5038,W,1,07,1.08,88.5,M,-34.4,M,,*6F
$GPRMC,174708.250,A,4307.9158,N,07729.5032,W,10.75,35.23,290919,,,A*72
$GPGGA,174708.500,4307.9164,N,07729.5025,W,1,07,1.08,88.4,M,-34.4,M,,*61
$GPRMC,174708.750,A,4307.9171,N,07729.5019,W,11.39,34.88,290919,,,A*7C
$GPGGA,174709.000,4307.9178,N,07729.5012,W,1,07,1.08,88.3,M,-34.4,M,,*6B
$GPRMC,174709.250,A,4307.9186,N,07729.5006,W,11.86,35.12,290919,,,A*78
$GPGGA,174709.500,4307.9193,N,07729.4999,W,1,07,1.08,88.3,M,-34.4,M,,*60
$GPRMC,174709.750,A,4307.9199,N,07729.4992,W,12.06,35.84,290919,,,A*72
$GPGGA,174710.000,4307.9206,N,07729.4985,W,1,07,1.08,88.1,M,-34.4,M,,*6D
$GPRMC,174710.250,A,4307.9212,N,07729.4978,W,11.35,36.39,290919,,,A*7D
$GPGGA,174710.500,4307.9219,N,07729.4972,W,1,07,1.08,88.0,M,-34.4,M,,*6F
$GPRMC,174710.750,A,4307.9225,N,07729.4965,W,11.01,37.09,290919,,,A*75
$GPGGA,174711.000,4307.9231,N,07729.4959,W,1,07,1.08,88.0,M,-34.4,M,,*68
$GPRMC,174711.250,A,4307.9237,N,07729.4953,W,10.82,37.29,290919,,,A*7F
$GPGGA,174711.500,4307.9243,N,07729.4947,W,1,07,1.08,88.1,M,-34.4,M,,*66
$GPRMC,174711.750,A,4307.9249,N,07729.4942,W,10.77,36.80,290919,,,A*7B
$GPGGA,174712.000,4307.9255,N,07729.4936,W,1,07,1.08,88.2,M,-34.4,M,,*62
$GPRMC,174712.250,A,4307.9261,N,07729.4930,W,10.54,36.31,290919,,,A*79
$GPGGA,174712.500,4307.9267,N,07729.4924,W,1,07,1.08,88.3,M,-34.4,M,,*64
$GPRMC,174712.750,A,4307.9273,N,07729.4918,W,10.64,36.99,290919,,,A*74
$GPGGA,174713.000,4307.9280,N,07729.4912,W,1,07,1.08,88.4,M,-34.4,M,,*6B
$GPRMC,174713.250,A,4307.9286,N,07729.4906,W,10.64,37.00,290919,,,A*74
$GPGGA,174713.500,4307.9292,N,07729.4900,W,1,07,1.08,88.5,M,-34.4,M,,*6F
$GPRMC,174713.750,A,4307.9297,N,07729.4895,W,10.32,36.03,290919,,,A*7B
$GPGGA,174714.000,4307.9303,N,07729.4889,W,1,07,1.08,88.6,M,-34.4,M,,*67
$GPRMC,174714.250,A,4307.9309,N,07729.4884,W,10.06,34.82,290919,,,A*73
$GPGGA,174714.500,4307.9315,N,07729.4879,W,1,07,1.08,88.7,M,-34.4,M,,*6B
$GPRMC,174714.750,A,4307.9321,N,07729.4874,W,9.86,32.60,290919,,,A*49
$GPGGA,174715.000,4307.9327,N,07729.4869,W,1,07,1.08,88.8,M,-34.4,M,,*60
$GPRMC,174715.250,A,4307.9333,N,07729.4864,W,9.77,31.87,290919,,,A*4B
$GPGGA,174715.500,4307.9339,N,07729.4859,W,1,07,1.08,88.9,M,-34.4,M,,*68
$GPRMC,174715.750,A,4307.9347,N,07729.4853,W,9.79,31.42,290919,,,A*4E
$GPGGA,174716.000,4307.9354,N,07729.4847,W,1,07,1.08,89.0,M,-34.4,M,,*62
$GPRMC,174716.250,A,4307.9361,N,07729.4841,W,9.83,31.14,290919,,,A*49
$GPGGA,174716.500,4307.9368,N,07729.4835,W,1,07,1.08,89.2,M,-34.4,M,,*6F
$GPRMC,174716.750,A,4307.9375,N,07729.4829,W,10.02,31.08,290919,,,A*7B
$GPGGA,174717.000,4307.9380,N,07729.4823,W,1,07,1.08,89.3,M,-34.4,M,,*6B
$GPRMC,174717.250,A,4307.9386,N,07729.4817,W,9.55,31.24,290919,,,A*4A
$GPGGA,174717.500,4307.9391,N,07729.4811,W,1,07,1.08,89.4,M,-34.4,M,,*68
$GPRMC,174717.750,A,4307.9397,N,07729.4806,W,9.08,30.37,290919,,,A*44
$GPGGA,174718.000,4307.9402,N,07729.4801,W,1,07,1.08,89.5,M,-34.4,M,,*6F
$GPRMC,174718.250,A,4307.9406,N,07729.4796,W,8.18,30.17,290919,,,A*45
$GPGGA,174718.500,4307.9409,N,07729.4792,W,1,07,1.08,89.8,M,-34.4,M,,*69
$GPRMC,174718.750,A,4307.9413,N,07729.4788,W,6.78,32.27,290919,,,A*42
$GPGGA,174719.000,4307.9417,N,07729.4785,W,1,07,1.08,89.9,M,-34.4,M,,*65
$GPRMC,174719.250,A,4307.9421,N,07729.4782,W,5.78,30.16,290919,,,A*4E
$GPGGA,174719.500,4307.9424,N,07729.4779,W,1,07,1.08,89.8,M,-34.4,M,,*62
$GPRMC,174719.750,A,4307.9427,N,07729.4777,W,4.37,28.27,290919,,,A*46
$GPGGA,174720.000,4307.9429,N,07729.4775,W,1,07,1.08,89.8,M,-34.4,M,,*6C
$GPRMC,174720.250,A,4307.9432,N,07729.4774,W,3.46,27.33,290919,,,A*45
$GPGGA,174720.500,4307.9434,N,07729.4773,W,1,07,1.05,89.8,M,-34.4,M,,*6E
$GPRMC,174720.750,A,4307.9436,N,07729.4772,W,2.74,27.84,290919,,,A*4E
$GPGGA,174721.000,4307.9437,N,07729.4771,W,1,07,1.05,89.7,M,-34.4,M,,*64
$GPRMC,174721.250,A,4307.9439,N,07729.4770,W,2.47,27.84,290919,,,A*47
$GPGGA,174721.500,4307.9440,N,07729.4769,W,1,07,1.05,89.7,M,-34.4,M,,*68
$GPRMC,174721.750,A,4307.9441,N,07729.4768,W,1.92,27.84,290919,,,A*4F
$GPGGA,174722.000,4307.9442,N,07729.4768,W,1,07,1.05,89.6,M,-34.4,M,,*6C
$GPRMC,174722.250,A,4307.9443,N,07729.4767,W,1.61,27.84,290919,,,A*48
$GPGGA,174722.500,4307.9443,N,07729.4766,W,1,07,1.05,89.5,M,-34.4,M,,*65
$GPRMC,174722.750,A,4307.9443,N,07729.4766,W,1.25,27.84,290919,,,A*4C
$GPGGA,174723.000,4307.9443,N,07729.4766,W,1,07,1.05,89.5,M,-34.4,M,,*61
$GPRMC,174723.250,A,4307.9443,N,07729.4766,W,1.00,27.84,290919,,,A*4F
$GPGGA,174723.500,4307.9443,N,07729.4766,W,1,07,1.05,89.6,M,-34.4,M,,*67
$GPRMC,174723.750,A,4307.9443,N,07729.4766,W,0.77,27.84,290919,,,A*4B
$GPGGA,174724.000,4307.9442,N,07729.4766,W,1,07,1.05,89.7,M,-34.4,M,,*65
$GPRMC,174724.250,A,4307.9442,N,07729.4766,W,0.58,64.55,290919,,,A*4E
$GPGGA,174724.500,4307.9442,N,07729.4766,W,1,07,1.05,89.8,M,-34.4,M,,*6F
$GPRMC,174724.750,A,4307.9441,N,07729.4766,W,0.44,79.32,290919,,,A*48
$GPGGA,174725.000,4307.9441,N,07729.4766,W,1,07,1.05,89.7,M,-34.4,M,,*67
$GPRMC,174725.250,A,4307.9441,N,07729.4765,W,0.32,81.47,290919,,,A*4B
$GPGGA,174725.500,4307.9441,N,07729.4765,W,1,07,1.05,89.8,M,-34.4,M,,*6E
$GPRMC,174725.750,A,4307.9441,N,07729.4765,W,0.28,84.32,290919,,,A*42
$GPGGA,174726.000,4307.9440,N,07729.4764,W,1,07,1.05,89.8,M,-34.4,M,,*68
$GPRMC,174726.250,A,4307.9440,N,07729.4764,W,0.26,86.64,290919,,,A*4B
$GPGGA,174726.500,4307.9440,N,07729.4764,W,1,07,1.05,89.8,M,-34.4,M,,*6D
$GPRMC,174726.750,A,4307.9440,N,07729.4764,W,0.32,87.50,290919,,,A*4D
$GPGGA,174727.000,4307.9440,N,07729.4763,W,1,07,1.05,89.9,M,-34.4,M,,*6F
$GPRMC,174727.250,A,4307.9440,N,07729.4763,W,0.48,85.20,290919,,,A*46
$GPGGA,174727.500,4307.9440,N,07729.4763,W,1,07,1.05,89.9,M,-34.4,M,,*6A
$GPRMC,174727.750,A,4307.9441,N,07729.4762,W,0.62,81.59,290919,,,A*41
$GPGGA,174728.000,4307.9441,N,07729.4762,W,1,07,1.05,89.9,M,-34.4,M,,*60
$GPRMC,174728.250,A,4307.9441,N,07729.4761,W,0.72,77.34,290919,,,A*4B
$GPGGA,174728.500,4307.9441,N,07729.4760,W,1,07,1.05,89.9,M,-34.4,M,,*67
$GPRMC,174728.750,A,4307.9442,N,07729.4760,W,0.82,72.81,290919,,,A*48
$GPGGA,174729.000,4307.9442,N,07729.4759,W,1,07,1.05,89.9,M,-34.4,M,,*6A
$GPRMC,174729.250,A,4307.9442,N,07729.4759,W,0.87,68.43,290919,,,A*46
$GPGGA,174729.500,4307.9443,N,07729.4758,W,1,07,1.08,90.0,M,-34.4,M,,*63
$GPRMC,174729.750,A,4307.9443,N,07729.4757,W,0.89,64.56,290919,,,A*4A
$GPGGA,174730.000,4307.9444,N,07729.4757,W,1,07,1.08,90.0,M,-34.4,M,,*66
$GPRMC,174730.250,A,4307.9444,N,07729.4756,W,0.91,61.08,290919,,,A*46
$GPGGA,174730.500,4307.9444,N,07729.4755,W,1,07,1.08,90.0,M,-34.4,M,,*61
$GPRMC,174730.750,A,4307.9445,N,07729.4755,W,0.90,58.25,290919,,,A*45
$GPGGA,174731.000,4307.9445,N,07729.4754,W,1,07,1.08,90.0,M,-34.4,M,,*65
$GPRMC,174731.250,A,4307.9446,N,07729.4754,W,0.88,56.03,290919,,,A*40
$GPGGA,174731.500,4307.9446,N,07729.4753,W,1,07,1.08,90.1,M,-34.4,M,,*65
$GPRMC,174731.750,A,4307.9447,N,07729.4753,W,0.84,54.50,290919,,,A*4B
$GPGGA,174732.000,4307.9447,N,07729.4752,W,1,07,1.08,90.1,M,-34.4,M,,*63
$GPRMC,174732.250,A,4307.9447,N,07729.4751,W,0.81,53.52,290919,,,A*4F
$GPGGA,174732.500,4307.9448,N,07729.4751,W,1,07,1.08,90.1,M,-34.4,M,,*6A
$GPRMC,174732.750,A,4307.9448,N,07729.4750,W,0.75,52.53,290919,,,A*4F
$GPGGA,174733.000,4307.9448,N,07729.4750,W,1,07,1.08,90.1,M,-34.4,M,,*6F
$GPRMC,174733.250,A,4307.9449,N,07729.4749,W,0.69,51.39,290919,,,A*40
$GPGGA,174733.500,4307.9449,N,07729.4749,W,1,07,1.08,90.2,M,-34.4,M,,*60
$GPRMC,174733.750,A,4307.9450,N,07729.4749,W,0.63,50.14,290919,,,A*49
$GPGGA,174734.000,4307.9450,N,07729.4748,W,1,07,1.08,90.2,M,-34.4,M,,*6B
$GPRMC,174734.250,A,4307.9450,N,07729.4748,W,0.58,48.70,290919,,,A*49
$GPGGA,174734.500,4307.9451,N,07729.4748,W,1,07,1.08,90.2,M,-34.4,M,,*6F
$GPRMC,174734.750,A,4307.9451,N,07729.4747,W,0.51,47.35,290919,,,A*45
$GPGGA,174735.000,4307.9451,N,07729.4747,W,1,07,1.08,90.2,M,-34.4,M,,*64
$GPRMC,174735.250,A,4307.9451,N,07729.4747,W,0.45,46.08,290919,,,A*4B
$GPGGA,174735.500,4307.9452,N,07729.4747,W,1,07,1.08,90.3,M,-34.4,M,,*63
$GPRMC,174735.750,A,4307.9452,N,07729.4746,W,0.39,44.67,290919,,,A*4C
$GPGGA,174736.000,4307.9452,N,07729.4746,W,1,07,1.08,90.3,M,-34.4,M,,*64
$GPRMC,174736.250,A,4307.9452,N,07729.4746,W,0.35,43.24,290919,,,A*46
$GPGGA,174736.500,4307.9453,N,07729.4746,W,1,07,1.08,90.3,M,-34.4,M,,*60
$GPRMC,174736.750,A,4307.9453,N,07729.4746,W,0.32,41.87,290919,,,A*4E
$GPGGA,174737.000,4307.9453,N,07729.4746,W,1,07,1.08,90.3,M,-34.4,M,,*64
$GPRMC,174737.250,A,4307.9453,N,07729.4746,W,0.28,40.60,290919,,,A*49
$GPGGA,174737.500,4307.9453,N,07729.4746,W,1,07,1.08,90.4,M,-34.4,M,,*66
$GPRMC,174737.750,A,4307.9454,N,07729.4746,W,0.23,39.47,290919,,,A*4B
$GPGGA,174738.000,4307.9454,N,07729.4745,W,1,07,1.08,90.4,M,-34.4,M,,*68
$GPRMC,174738.250,A,4307.9454,N,07729.4745,W,0.19,38.45,290919,,,A*48
$GPGGA,174738.500,4307.9454,N,07729.4745,W,1,07,1.08,90.4,M,-34.4,M,,*6D
$GPRMC,174738.750,A,4307.9454,N,07729.4745,W,0.17,37.27,290919,,,A*48
$GPGGA,174739.000,4307.9454,N,07729.4745,W,1,07,1.08,90.5,M,-34.4,M,,*68
$GPRMC,174739.250,A,4307.9454,N,07729.4745,W,0.16,36.02,290919,,,A*4B
$GPGGA,174739.500,4307.9454,N,07729.4745,W,1,07,1.08,90.5,M,-34.4,M,,*6D
$GPRMC,174739.750,A,4307.9454,N,07729.4745,W,0.15,34.68,290919,,,A*43
$GPGGA,174740.000,4307.9455,N,07729.4745,W,1,07,1.08,90.5,M,-34.4,M,,*67
$GPRMC,174740.250,A,4307.9455,N,07729.4745,W,0.14,33.35,290919,,,A*47
$GPGGA,174740.500,4307.9455,N,07729.4745,W,1,07,1.08,90.5,M,-34.4,M,,*62
$GPRMC,174740.750,A,4307.9455,N,07729.4745,W,0.13,32.36,290919,,,A*47
$GPGGA,174741.000,4307.9455,N,07729.4745,W,1,07,1.08,90.6,M,-34.4,M,,*65
$GPRMC,174741.250,A,4307.9455,N,07729.4745,W,0.11,31.35,290919,,,A*41
$GPGGA,174741.500,4307.9455,N,07729.4745,W,1,07,1.08,90.6,M,-34.4,M,,*60
$GPRMC,174741.750,A,4307.9455,N,07729.4745,W,0.12,30.21,290919,,,A*43
$GPGGA,174742.000,4307.9455,N,07729.4745,W,1,07,1.08,90.6,M,-34.4,M,,*66
$GPRMC,174742.250,A,4307.9455,N,07729.4745,W,0.08,29.57,290919,,,A*47
$GPGGA,174742.500,4307.9455,N,07729.4745,W,1,07,1.08,90.7,M,-34.4,M,,*62
$GPRMC,174742.750,A,4307.9455,N,07729.4745,W,0.10,29.52,290919,,,A*4E
$GPGGA,174743.000,4307.9455,N,07729.4745,W,1,07,1.08,90.7,M,-34.4,M,,*66
$GPRMC,174743.250,A,4307.9455,N,07729.4745,W,0.20,31.54,290919,,,A*46
$GPGGA,174743.500,4307.9456,N,07729.4745,W,1,07,1.05,90.7,M,-34.4,M,,*6D
$GPRMC,174743.750,A,4307.9456,N,07729.4744,W,0.74,36.91,290919,,,A*4E
$GPGGA,174744.000,4307.9456,N,07729.4744,W,1,07,1.04,90.8,M,-34.4,M,,*60
$GPRMC,174744.250,A,4307.9457,N,07729.4743,W,2.00,39.75,290919,,,A*4E
$GPGGA,174744.500,4307.9458,N,07729.4740,W,1,07,1.04,90.8,M,-34.4,M,,*6F
$GPRMC,174744.750,A,4307.9458,N,07729.4736,W,4.59,59.85,290919,,,A*45
$GPGGA,174745.000,4307.9459,N,07729.4731,W,1,07,1.08,90.9,M,-34.4,M,,*61
$GPRMC,174745.250,A,4307.9460,N,07729.4726,W,5.54,69.86,290919,,,A*47
$GPGGA,174745.500,4307.9461,N,07729.4720,W,1,07,1.08,90.9,M,-34.4,M,,*6F
$GPRMC,174745.750,A,4307.9461,N,07729.4714,W,6.76,81.14,290919,,,A*4C
$GPGGA,174746.000,4307.9462,N,07729.4707,W,1,07,1.08,91.0,M,-34.4,M,,*67
$GPRMC,174746.250,A,4307.9462,N,07729.4699,W,7.98,86.83,290919,,,A*45
$GPGGA,174746.500,4307.9461,N,07729.4689,W,1,07,1.08,91.0,M,-34.4,M,,*66
$GPRMC,174746.750,A,4307.9459,N,07729.4679,W,10.05,98.18,290919,,,A*79
$GPGGA,174747.000,4307.9457,N,07729.4668,W,1,07,1.08,91.1,M,-34.4,M,,*69
$GPRMC,174747.250,A,4307.9454,N,07729.4656,W,11.36,105.45,290919,,,A*41
$GPGGA,174747.500,4307.9449,N,07729.4643,W,1,07,1.05,91.1,M,-34.4,M,,*67
$GPRMC,174747.750,A,4307.9444,N,07729.4630,W,13.82,113.84,290919,,,A*42
$GPGGA,174748.000,4307.9439,N,07729.4616,W,1,07,1.08,91.1,M,-34.4,M,,*67
$GPRMC,174748.250,A,4307.9433,N,07729.4602,W,15.73,118.85,290919,,,A*4B
$GPGGA,174748.500,4307.9426,N,07729.4587,W,1,07,1.08,91.0,M,-34.4,M,,*66
$GPRMC,174748.750,A,4307.9419,N,07729.4573,W,17.70,122.61,290919,,,A*41
$GPGGA,174749.000,4307.9412,N,07729.4558,W,1,07,1.08,91.0,M,-34.4,M,,*67
$GPRMC,174749.250,A,4307.9404,N,07729.4543,W,18.73,125.31,290919,,,A*44
$GPGGA,174749.500,4307.9395,N,07729.4528,W,1,07,1.08,91.0,M,-34.4,M,,*6D
$GPRMC,174749.750,A,4307.9386,N,07729.4512,W,19.76,127.28,290919,,,A*46
$GPGGA,174750.000,4307.9377,N,07729.4497,W,1,07,1.08,91.0,M,-34.4,M,,*69
$GPRMC,174750.250,A,4307.9368,N,07729.4481,W,20.73,128.14,290919,,,A*4F
$GPGGA,174750.500,4307.9359,N,07729.4465,W,1,07,1.08,91.0,M,-34.4,M,,*6D
$GPRMC,174750.750,A,4307.9350,N,07729.4449,W,21.13,128.43,290919,,,A*40
$GPGGA,174751.000,4307.9340,N,07729.4433,W,1,07,1.08,91.0,M,-34.4,M,,*62
$GPRMC,174751.250,A,4307.9331,N,07729.4416,W,21.71,128.66,290919,,,A*4A
$GPGGA,174751.500,4307.9321,N,07729.4399,W,1,07,1.08,91.0,M,-34.4,M,,*67
$GPRMC,174751.750,A,4307.9311,N,07729.4382,W,22.58,128.42,290919,,,A*49
$GPGGA,174752.000,4307.9302,N,07729.4365,W,1,07,1.08,91.0,M,-34.4,M,,*63
$GPRMC,174752.250,A,4307.9292,N,07729.4348,W,23.18,128.36,290919,,,A*45
$GPGGA,174752.500,4307.9281,N,07729.4330,W,1,07,1.08,90.9,M,-34.4,M,,*64
$GPRMC,174752.750,A,4307.9271,N,07729.4312,W,23.72,128.04,290919,,,A*4F
$GPGGA,174753.000,4307.9261,N,07729.4294,W,1,07,1.08,90.9,M,-34.4,M,,*61
$GPRMC,174753.250,A,4307.9250,N,07729.4276,W,24.06,127.92,290919,,,A*4F
$GPGGA,174753.500,4307.9240,N,07729.4257,W,1,07,1.08,90.9,M,-34.4,M,,*68
$GPRMC,174753.750,A,4307.9229,N,07729.4239,W,24.57,127.88,290919,,,A*40
$GPGGA,174754.000,4307.9218,N,07729.4220,W,1,07,1.08,90.8,M,-34.4,M,,*66
$GPRMC,174754.250,A,4307.9208,N,07729.4201,W,25.01,127.86,290919,,,A*46
$GPGGA,174754.500,4307.9197,N,07729.4182,W,1,07,1.08,90.8,M,-34.4,M,,*6C
$GPRMC,174754.750,A,4307.9186,N,07729.4163,W,25.45,127.54,290919,,,A*4E
$GPGGA,174755.000,4307.9175,N,07729.4143,W,1,07,1.08,90.7,M,-34.4,M,,*66
$GPRMC,174755.250,A,4307.9164,N,07729.4123,W,26.28,127.50,290919,,,A*4E
$GPGGA,174755.500,4307.9153,N,07729.4103,W,1,07,1.08,90.7,M,-34.4,M,,*63
$GPRMC,174755.750,A,4307.9141,N,07729.4083,W,26.57,127.80,290919,,,A*42
$GPGGA,174756.000,4307.9130,N,07729.4062,W,1,07,1.08,90.7,M,-34.4,M,,*66
$GPRMC,174756.250,A,4307.9118,N,07729.4041,W,27.55,128.23,290919,,,A*43
$GPGGA,174756.500,4307.9106,N,07729.4020,W,1,07,1.08,90.7,M,-34.4,M,,*60
$GPRMC,174756.750,A,4307.9094,N,07729.3999,W,27.96,128.35,290919,,,A*40
$GPGGA,174757.000,4307.9082,N,07729.3978,W,1,07,1.08,90.7,M,-34.4,M,,*6A
$GPRMC,174757.250,A,4307.9070,N,07729.3957,W,28.14,127.79,290919,,,A*4E
$GPGGA,174757.500,4307.9058,N,07729.3935,W,1,07,1.08,90.6,M,-34.4,M,,*60
$GPRMC,174757.750,A,4307.9046,N,07729.3913,W,28.17,127.73,290919,,,A*47
$GPGGA,174758.000,4307.9034,N,07729.3892,W,1,07,1.08,90.4,M,-34.4,M,,*6E
$GPRMC,174758.250,A,4307.9021,N,07729.3870,W,28.58,127.87,290919,,,A*48
$GPGGA,174758.500,4307.9009,N,07729.3848,W,1,07,1.08,90.5,M,-34.4,M,,*63
$GPRMC,174758.750,A,4307.8996,N,07729.3827,W,28.67,128.16,290919,,,A*40
$GPGGA,174759.000,4307.8983,N,07729.3806,W,1,07,1.08,90.7,M,-34.4,M,,*65
$GPRMC,174759.250,A,4307.8971,N,07729.3784,W,28.71,128.71,290919,,,A*4D
$GPGGA,174759.500,4307.8958,N,07729.3763,W,1,07,1.08,90.7,M,-34.4,M,,*6A
$GPRMC,174759.750,A,4307.8945,N,07729.3741,W,28.91,128.62,290919,,,A*4A
$GPGGA,174800.000,4307.8933,N,07729.3719,W,1,07,1.08,90.8,M,-34.4,M,,*63
$GPRMC,174800.250,A,4307.8920,N,07729.3698,W,29.02,128.48,290919,,,A*49
$GPGGA,174800.500,4307.8908,N,07729.3676,W,1,07,1.08,90.8,M,-34.4,M,,*66
$GPRMC,174800.750,A,4307.8896,N,07729.3654,W,29.02,128.40,290919,,,A*48
$GPGGA,174801.000,4307.8883,N,07729.3632,W,1,07,1.08,90.7,M,-34.4,M,,*6F
$GPRMC,174801.250,A,4307.8870,N,07729.3611,W,29.11,128.60,290919,,,A*45
$GPGGA,174801.500,4307.8857,N,07729.3589,W,1,07,1.08,90.7,M,-34.4,M,,*60
$GPRMC,174801.750,A,4307.8844,N,07729.3567,W,29.37,128.86,290919,,,A*49
$GPGGA,174802.000,4307.8831,N,07729.3545,W,1,07,1.08,90.7,M,-34.4,M,,*66
$GPRMC,174802.250,A,4307.8818,N,07729.3523,W,29.32,129.19,290919,,,A*44
$GPGGA,174802.500,4307.8806,N,07729.3502,W,1,07,1.08,90.5,M,-34.4,M,,*66
$GPRMC,174802.750,A,4307.8793,N,07729.3480,W,29.26,129.12,290919,,,A*4B
$GPGGA,174803.000,4307.8780,N,07729.3458,W,1,07,1.08,90.4,M,-34.4,M,,*6C
$GPRMC,174803.250,A,4307.8767,N,07729.3437,W,29.27,129.21,290919,,,A*49
$GPGGA,174803.500,4307.8754,N,07729.3415,W,1,07,1.08,90.2,M,-34.4,M,,*6F
$GPRMC,174803.750,A,4307.8741,N,07729.3394,W,29.40,129.61,290919,,,A*43
$GPGGA,174804.000,4307.8728,N,07729.3373,W,1,07,1.08,90.1,M,-34.4,M,,*62
$GPRMC,174804.250,A,4307.8715,N,07729.3352,W,29.11,129.50,290919,,,A*4C
$GPGGA,174804.500,4307.8703,N,07729.3331,W,1,07,1.08,90.0,M,-34.4,M,,*69
$GPRMC,174804.750,A,4307.8690,N,07729.3310,W,28.86,129.58,290919,,,A*44
$GPGGA,174805.000,4307.8677,N,07729.3288,W,1,07,1.08,90.0,M,-34.4,M,,*6C
$GPRMC,174805.250,A,4307.8665,N,07729.3267,W,28.62,129.33,290919,,,A*4C
$GPGGA,174805.500,4307.8652,N,07729.3246,W,1,07,1.08,89.9,M,-34.4,M,,*6D
$GPRMC,174805.750,A,4307.8640,N,07729.3225,W,28.51,128.95,290919,,,A*45
$GPGGA,174806.000,4307.8627,N,07729.3204,W,1,07,1.08,89.9,M,-34.4,M,,*6F
$GPRMC,174806.250,A,4307.8615,N,07729.3183,W,28.16,128.70,290919,,,A*44
$GPGGA,174806.500,4307.8603,N,07729.3163,W,1,07,1.08,89.9,M,-34.4,M,,*6E
$GPRMC,174806.750,A,4307.8591,N,07729.3142,W,28.16,127.79,290919,,,A*45
$GPGGA,174807.000,4307.8578,N,07729.3121,W,1,07,1.08,90.0,M,-34.4,M,,*62
$GPRMC,174807.250,A,4307.8566,N,07729.3100,W,27.92,127.62,290919,,,A*46
$GPGGA,174807.500,4307.8555,N,07729.3079,W,1,07,1.08,90.2,M,-34.4,M,,*66
$GPRMC,174807.750,A,4307.8542,N,07729.3058,W,27.91,127.86,290919,,,A*40
$GPGGA,174808.000,4307.8531,N,07729.3037,W,1,07,1.08,90.4,M,-34.4,M,,*62
$GPRMC,174808.250,A,4307.8519,N,07729.3017,W,27.61,128.06,290919,,,A*47
$GPGGA,174808.500,4307.8506,N,07729.2996,W,1,07,1.08,90.5,M,-34.4,M,,*61
$GPRMC,174808.750,A,4307.8494,N,07729.2976,W,27.37,128.60,290919,,,A*4A
$GPGGA,174809.000,4307.8482,N,07729.2956,W,1,07,1.08,90.6,M,-34.4,M,,*67
$GPRMC,174809.250,A,4307.8470,N,07729.2936,W,27.31,128.92,290919,,,A*4B
$GPGGA,174809.500,4307.8458,N,07729.2916,W,1,07,1.08,90.8,M,-34.4,M,,*6F
$GPRMC,174809.750,A,4307.8446,N,07729.2897,W,27.07,128.96,290919,,,A*40
$GPGGA,174810.000,4307.8434,N,07729.2877,W,1,07,1.08,90.9,M,-34.4,M,,*6F
$GPRMC,174810.250,A,4307.8422,N,07729.2857,W,26.73,128.81,290919,,,A*47
$GPGGA,174810.500,4307.8411,N,07729.2838,W,1,07,1.08,91.1,M,-34.4,M,,*6F
$GPRMC,174810.750,A,4307.8399,N,07729.2819,W,26.19,128.40,290919,,,A*4E
$GPGGA,174811.000,4307.8388,N,07729.2799,W,1,07,1.08,91.2,M,-34.4,M,,*6B
$GPRMC,174811.250,A,4307.8377,N,07729.2780,W,25.85,128.41,290919,,,A*42
$GPGGA,174811.500,4307.8366,N,07729.2761,W,1,07,1.08,91.3,M,-34.4,M,,*68
$GPRMC,174811.750,A,4307.8354,N,07729.2742,W,25.85,128.73,290919,,,A*49
$GPGGA,174812.000,4307.8343,N,07729.2723,W,1,07,1.08,91.4,M,-34.4,M,,*68
$GPRMC,174812.250,A,4307.8331,N,07729.2705,W,25.49,129.06,290919,,,A*4C
$GPGGA,174812.500,4307.8320,N,07729.2686,W,1,07,1.08,91.5,M,-34.4,M,,*67
$GPRMC,174812.750,A,4307.8309,N,07729.2668,W,25.25,128.86,290919,,,A*4B
$GPGGA,174813.000,4307.8298,N,07729.2649,W,1,07,1.08,91.6,M,-34.4,M,,*61
$GPRMC,174813.250,A,4307.8287,N,07729.2631,W,25.13,128.65,290919,,,A*4C
$GPGGA,174813.500,4307.8276,N,07729.2612,W,1,07,1.08,91.7,M,-34.4,M,,*6B
$GPRMC,174813.750,A,4307.8265,N,07729.2594,W,24.99,128.75,290919,,,A*4B
$GPGGA,174814.000,4307.8255,N,07729.2576,W,1,07,1.08,92.0,M,-34.4,M,,*6D
$GPRMC,174814.250,A,4307.8244,N,07729.2558,W,24.71,128.45,290919,,,A*4F
$GPGGA,174814.500,4307.8233,N,07729.2540,W,1,07,1.08,92.3,M,-34.4,M,,*6E
$GPRMC,174814.750,A,4307.8223,N,07729.2522,W,24.22,128.27,290919,,,A*44
$GPGGA,174815.000,4307.8213,N,07729.2504,W,1,07,1.08,92.4,M,-34.4,M,,*6F
$GPRMC,174815.250,A,4307.8203,N,07729.2485,W,24.11,128.11,290919,,,A*4B
$GPGGA,174815.500,4307.8192,N,07729.2467,W,1,07,1.08,92.5,M,-34.4,M,,*65
$GPRMC,174815.750,A,4307.8182,N,07729.2450,W,23.83,128.01,290919,,,A*41
$GPGGA,174816.000,4307.8172,N,07729.2432,W,1,07,1.08,92.6,M,-34.4,M,,*6E
$GPRMC,174816.250,A,4307.8162,N,07729.2414,W,23.79,127.61,290919,,,A*45
$GPGGA,174816.500,4307.8152,N,07729.2396,W,1,07,1.08,92.7,M,-34.4,M,,*61
$GPRMC,174816.750,A,4307.8142,N,07729.2378,W,23.82,128.43,290919,,,A*44
$GPGGA,174817.000,4307.8131,N,07729.2360,W,1,07,1.08,92.9,M,-34.4,M,,*67
$GPRMC,174817.250,A,4307.8121,N,07729.2342,W,23.86,128.71,290919,,,A*49
$GPGGA,174817.500,4307.8111,N,07729.2325,W,1,07,1.08,93.1,M,-34.4,M,,*68
$GPRMC,174817.750,A,4307.8101,N,07729.2307,W,23.93,129.29,290919,,,A*47
$GPGGA,174818.000,4307.8090,N,07729.2289,W,1,07,1.08,93.2,M,-34.4,M,,*6E
$GPRMC,174818.250,A,4307.8079,N,07729.2272,W,24.13,129.79,290919,,,A*4A
$GPGGA,174818.500,4307.8069,N,07729.2255,W,1,07,1.08,93.3,M,-34.4,M,,*6D
$GPRMC,174818.750,A,4307.8058,N,07729.2237,W,24.05,130.55,290919,,,A*4C
$GPGGA,174819.000,4307.8048,N,07729.2220,W,1,07,1.08,93.5,M,-34.4,M,,*6E
$GPRMC,174819.250,A,4307.8037,N,07729.2203,W,23.97,131.00,290919,,,A*4B
$GPGGA,174819.500,4307.8026,N,07729.2187,W,1,07,1.08,93.6,M,-34.4,M,,*6E
$GPRMC,174819.750,A,4307.8015,N,07729.2170,W,23.87,131.10,290919,,,A*49
$GPGGA,174820.000,4307.8005,N,07729.2153,W,1,07,1.08,93.7,M,-34.4,M,,*68
$GPRMC,174820.250,A,4307.7994,N,07729.2137,W,23.78,131.15,290919,,,A*4F
$GPGGA,174820.500,4307.7984,N,07729.2120,W,1,07,1.08,94.0,M,-34.4,M,,*66
$GPRMC,174820.750,A,4307.7973,N,07729.2103,W,23.77,131.19,290919,,,A*47
$GPGGA,174821.000,4307.7962,N,07729.2087,W,1,07,1.08,94.2,M,-34.4,M,,*64
$GPRMC,174821.250,A,4307.7951,N,07729.2070,W,23.75,131.71,290919,,,A*4A
$GPGGA,174821.500,4307.7940,N,07729.2053,W,1,07,1.08,94.4,M,-34.4,M,,*6E
$GPRMC,174821.750,A,4307.7930,N,07729.2037,W,23.72,132.25,290919,,,A*4E
$GPGGA,174822.000,4307.7919,N,07729.2020,W,1,07,1.08,94.6,M,-34.4,M,,*62
$GPRMC,174822.250,A,4307.7907,N,07729.2004,W,23.78,132.53,290919,,,A*47
$GPGGA,174822.500,4307.7896,N,07729.1987,W,1,07,1.04,94.8,M,-34.4,M,,*64
$GPRMC,174822.750,A,4307.7885,N,07729.1970,W,24.09,132.29,290919,,,A*4C
$GPGGA,174823.000,4307.7874,N,07729.1953,W,1,07,1.08,95.1,M,-34.4,M,,*61
$GPRMC,174823.250,A,4307.7863,N,07729.1935,W,24.20,131.67,290919,,,A*43
$GPGGA,174823.500,4307.7853,N,07729.1918,W,1,07,1.04,95.3,M,-34.4,M,,*60
$GPRMC,174823.750,A,4307.7842,N,07729.1901,W,24.48,131.30,290919,,,A*4E
$GPGGA,174824.000,4307.7831,N,07729.1883,W,1,07,1.08,95.5,M,-34.4,M,,*6F
$GPRMC,174824.250,A,4307.7820,N,07729.1866,W,24.44,130.98,290919,,,A*47
$GPGGA,174824.500,4307.7810,N,07729.1850,W,1,07,1.04,95.7,M,-34.4,M,,*69
$GPRMC,174824.750,A,4307.7800,N,07729.1833,W,23.94,130.52,290919,,,A*4C
$GPGGA,174825.000,4307.7790,N,07729.1817,W,1,07,1.08,95.9,M,-34.4,M,,*6B
$GPRMC,174825.250,A,4307.7780,N,07729.1801,W,23.57,130.40,290919,,,A*42
$GPGGA,174825.500,4307.7770,N,07729.1784,W,1,07,1.04,96.2,M,-34.4,M,,*61
$GPRMC,174825.750,A,4307.7760,N,07729.1768,W,22.83,130.55,290919,,,A*45
$GPGGA,174826.000,4307.7751,N,07729.1753,W,1,07,1.08,96.5,M,-34.4,M,,*65
$GPRMC,174826.250,A,4307.7741,N,07729.1738,W,21.98,131.43,290919,,,A*4A
$GPGGA,174826.500,4307.7731,N,07729.1723,W,1,07,1.08,96.8,M,-34.4,M,,*6C
$GPRMC,174826.750,A,4307.7722,N,07729.1709,W,21.29,132.64,290919,,,A*44
$GPGGA,174827.000,4307.7712,N,07729.1696,W,1,07,1.08,97.1,M,-34.4,M,,*6E
$GPRMC,174827.250,A,4307.7703,N,07729.1682,W,20.72,133.53,290919,,,A*4B
$GPGGA,174827.500,4307.7693,N,07729.1668,W,1,07,1.04,97.3,M,-34.4,M,,*6C
$GPRMC,174827.750,A,4307.7684,N,07729.1654,W,20.34,133.87,290919,,,A*40
$GPGGA,174828.000,4307.7675,N,07729.1642,W,1,07,1.08,97.6,M,-34.4,M,,*6F
$GPRMC,174828.250,A,4307.7666,N,07729.1629,W,19.67,134.40,290919,,,A*4C
$GPGGA,174828.500,4307.7657,N,07729.1617,W,1,07,1.04,97.9,M,-34.4,M,,*69
$GPRMC,174828.750,A,4307.7648,N,07729.1606,W,18.76,135.18,290919,,,A*45
$GPGGA,174829.000,4307.7640,N,07729.1596,W,1,07,1.08,98.1,M,-34.4,M,,*6A
$GPRMC,174829.250,A,4307.7631,N,07729.1586,W,17.86,137.44,290919,,,A*4F
$GPGGA,174829.500,4307.7622,N,07729.1576,W,1,07,1.04,98.3,M,-34.4,M,,*6B
$GPRMC,174829.750,A,4307.7612,N,07729.1567,W,17.32,140.75,290919,,,A*49
$GPGGA,174830.000,4307.7602,N,07729.1558,W,1,07,1.04,98.6,M,-34.4,M,,*6D
$GPRMC,174830.250,A,4307.7595,N,07729.1552,W,16.87,144.61,290919,,,A*40
$GPGGA,174830.500,4307.7590,N,07729.1549,W,1,07,1.04,98.5,M,-34.4,M,,*63
$GPRMC,174830.750,A,4307.7582,N,07729.1542,W,15.44,150.60,290919,,,A*4A
$GPGGA,174831.000,4307.7575,N,07729.1537,W,1,07,1.08,98.7,M,-34.4,M,,*6B
$GPRMC,174831.250,A,4307.7567,N,07729.1531,W,14.36,155.26,290919,,,A*42
$GPGGA,174831.500,4307.7559,N,07729.1527,W,1,07,1.04,99.0,M,-34.4,M,,*6B
$GPRMC,174831.750,A,4307.7551,N,07729.1523,W,12.73,161.06,290919,,,A*43
$GPGGA,174832.000,4307.7543,N,07729.1521,W,1,07,1.08,99.2,M,-34.4,M,,*6E
$GPRMC,174832.250,A,4307.7536,N,07729.1519,W,11.22,165.92,290919,,,A*43
$GPGGA,174832.500,4307.7529,N,07729.1519,W,1,07,1.08,99.5,M,-34.4,M,,*6B
$GPRMC,174832.750,A,4307.7522,N,07729.1519,W,9.66,172.94,290919,,,A*7A
$GPGGA,174833.000,4307.7516,N,07729.1519,W,1,07,1.08,99.9,M,-34.4,M,,*6F
$GPRMC,174833.250,A,4307.7510,N,07729.1520,W,8.81,177.61,290919,,,A*72
$GPGGA,174833.500,4307.7504,N,07729.1520,W,1,07,1.08,100.2,M,-34.4,M,,*59
$GPRMC,174833.750,A,4307.7498,N,07729.1521,W,8.36,181.12,290919,,,A*76
$GPGGA,174834.000,4307.7492,N,07729.1522,W,1,07,1.08,100.5,M,-34.4,M,,*50
$GPRMC,174834.250,A,4307.7487,N,07729.1523,W,7.95,182.67,290919,,,A*7F
$GPGGA,174834.500,4307.7480,N,07729.1524,W,1,07,1.08,100.8,M,-34.4,M,,*5D
$GPRMC,174834.750,A,4307.7474,N,07729.1525,W,7.89,179.83,290919,,,A*73
$GPGGA,174835.000,4307.7469,N,07729.1526,W,1,07,1.08,101.0,M,-34.4,M,,*55
$GPRMC,174835.250,A,4307.7463,N,07729.1526,W,7.73,175.79,290919,,,A*7E
$GPGGA,174835.500,4307.7458,N,07729.1526,W,1,07,1.08,101.2,M,-34.4,M,,*50
$GPRMC,174835.750,A,4307.7453,N,07729.1525,W,6.55,168.71,290919,,,A*7A
$GPGGA,174836.000,4307.7450,N,07729.1523,W,1,07,1.08,101.5,M,-34.4,M,,*5C
$GPRMC,174836.250,A,4307.7447,N,07729.1521,W,5.54,159.55,290919,,,A*7B
$GPGGA,174836.500,4307.7444,N,07729.1518,W,1,07,1.08,101.8,M,-34.4,M,,*59
$GPRMC,174836.750,A,4307.7441,N,07729.1514,W,5.44,146.23,290919,,,A*70
$GPGGA,174837.000,4307.7439,N,07729.1511,W,1,07,1.08,102.1,M,-34.4,M,,*54
$GPRMC,174837.250,A,4307.7436,N,07729.1508,W,5.16,138.10,290919,,,A*77
$GPGGA,174837.500,4307.7434,N,07729.1504,W,1,07,1.04,102.3,M,-34.4,M,,*56
$GPRMC,174837.750,A,4307.7432,N,07729.1501,W,4.92,130.85,290919,,,A*76
$GPGGA,174838.000,4307.7433,N,07729.1496,W,1,07,1.08,102.6,M,-34.4,M,,*58
$GPRMC,174838.250,A,4307.7433,N,07729.1492,W,4.75,118.24,290919,,,A*7E
$GPGGA,174838.500,4307.7434,N,07729.1489,W,1,07,1.04,103.0,M,-34.4,M,,*5F
$GPRMC,174838.750,A,4307.7434,N,07729.1486,W,4.62,109.90,290919,,,A*70
$GPGGA,174839.000,4307.7435,N,07729.1483,W,1,07,1.08,103.3,M,-34.4,M,,*5F
$GPRMC,174839.250,A,4307.7437,N,07729.1478,W,4.62,96.74,290919,,,A*4B
$GPGGA,174839.500,4307.7439,N,07729.1475,W,1,07,1.08,103.5,M,-34.4,M,,*59
$GPRMC,174839.750,A,4307.7440,N,07729.1471,W,4.65,83.15,290919,,,A*43
$GPGGA,174840.000,4307.7442,N,07729.1467,W,1,07,1.08,103.8,M,-34.4,M,,*50
$GPRMC,174840.250,A,4307.7443,N,07729.1463,W,4.65,75.02,290919,,,A*47
$GPGGA,174840.500,4307.7445,N,07729.1459,W,1,07,1.08,104.0,M,-34.4,M,,*50
$GPRMC,174840.750,A,4307.7446,N,07729.1455,W,4.59,68.59,290919,,,A*4F
$GPGGA,174841.000,4307.7449,N,07729.1451,W,1,07,1.08,104.3,M,-34.4,M,,*53
$GPRMC,174841.250,A,4307.7451,N,07729.1448,W,4.24,56.95,290919,,,A*46
$GPGGA,174841.500,4307.7453,N,07729.1446,W,1,07,1.08,104.6,M,-34.4,M,,*5E
$GPRMC,174841.750,A,4307.7456,N,07729.1444,W,3.67,44.13,290919,,,A*45
$GPGGA,174842.000,4307.7458,N,07729.1443,W,1,07,1.04,104.8,M,-34.4,M,,*54
$GPRMC,174842.250,A,4307.7460,N,07729.1442,W,2.88,40.29,290919,,,A*4D
$GPGGA,174842.500,4307.7462,N,07729.1442,W,1,07,1.04,105.0,M,-34.4,M,,*50
$GPRMC,174842.750,A,4307.7463,N,07729.1442,W,2.11,40.29,290919,,,A*4B
$GPGGA,174843.000,4307.7464,N,07729.1444,W,1,07,1.04,105.1,M,-34.4,M,,*55
$GPRMC,174843.250,A,4307.7465,N,07729.1444,W,1.03,40.29,290919,,,A*4F
$GPGGA,174843.500,4307.7465,N,07729.1445,W,1,07,1.08,105.2,M,-34.4,M,,*5F
$GPRMC,174843.750,A,4307.7465,N,07729.1446,W,0.64,40.29,290919,,,A*48
$GPGGA,174844.000,4307.7465,N,07729.1448,W,1,07,1.08,105.3,M,-34.4,M,,*51
$GPRMC,174844.250,A,4307.7465,N,07729.1449,W,0.47,40.29,290919,,,A*44
$GPGGA,174844.500,4307.7465,N,07729.1450,W,1,07,1.04,104.6,M,-34.4,M,,*55
$GPRMC,174844.750,A,4307.7465,N,07729.1451,W,0.42,40.29,290919,,,A*4D
$GPGGA,174845.000,4307.7465,N,07729.1452,W,1,07,1.04,104.3,M,-34.4,M,,*56
$GPRMC,174845.250,A,4307.7464,N,07729.1453,W,0.42,40.29,290919,,,A*4A
$GPGGA,174845.500,4307.7464,N,07729.1454,W,1,07,1.04,104.2,M,-34.4,M,,*55
$GPRMC,174845.750,A,4307.7464,N,07729.1454,W,0.39,270.02,290919,,,A*7C
$GPGGA,174846.000,4307.7463,N,07729.1455,W,1,07,1.04,104.1,M,-34.4,M,,*56
$GPRMC,174846.250,A,4307.7463,N,07729.1455,W,0.33,252.12,290919,,,A*77
$GPGGA,174846.500,4307.7463,N,07729.1456,W,1,07,1.04,104.1,M,-34.4,M,,*50
$GPRMC,174846.750,A,4307.7463,N,07729.1456,W,0.20,259.14,290919,,,A*7E
$GPGGA,174847.000,4307.7463,N,07729.1456,W,1,07,1.04,104.1,M,-34.4,M,,*54
$GPRMC,174847.250,A,4307.7463,N,07729.1456,W,0.64,259.14,290919,,,A*7A
$GPGGA,174847.500,4307.7464,N,07729.1456,W,1,07,1.04,104.2,M,-34.4,M,,*55
$GPRMC,174847.750,A,4307.7464,N,07729.1455,W,1.21,259.14,290919,,,A*7B
$GPGGA,174848.000,4307.7465,N,07729.1455,W,1,07,1.04,104.2,M,-34.4,M,,*5D
$GPRMC,174848.250,A,4307.7465,N,07729.1454,W,0.03,259.14,290919,,,A*70
$GPGGA,174848.500,4307.7465,N,07729.1454,W,1,07,1.04,104.2,M,-34.4,M,,*59
$GPRMC,174848.750,A,4307.7466,N,07729.1454,W,5.26,2.42,290919,,,A*7B
$GPGGA,174849.000,4307.7472,N,07729.1455,W,1,07,1.08,104.3,M,-34.4,M,,*57
$GPRMC,174849.250,A,4307.7478,N,07729.1455,W,7.23,356.74,290919,,,A*71
$GPGGA,174849.500,4307.7486,N,07729.1455,W,1,07,1.08,104.3,M,-34.4,M,,*59
$GPRMC,174849.750,A,4307.7493,N,07729.1456,W,8.73,352.09,290919,,,A*76
$GPGGA,174850.000,4307.7502,N,07729.1459,W,1,07,1.08,104.2,M,-34.4,M,,*54
$GPRMC,174850.250,A,4307.7510,N,07729.1462,W,10.69,343.61,290919,,,A*4A
$GPGGA,174850.500,4307.7518,N,07729.1466,W,1,07,1.08,104.2,M,-34.4,M,,*56
$GPRMC,174850.750,A,4307.7526,N,07729.1470,W,11.57,339.98,290919,,,A*4E
$GPGGA,174851.000,4307.7533,N,07729.1475,W,1,07,1.08,104.1,M,-34.4,M,,*5A
$GPRMC,174851.250,A,4307.7542,N,07729.1480,W,12.12,335.79,290919,,,A*46
$GPGGA,174851.500,4307.7551,N,07729.1485,W,1,07,1.04,104.0,M,-34.4,M,,*59
$GPRMC,174851.750,A,4307.7564,N,07729.1494,W,14.66,330.73,290919,,,A*48
$GPGGA,174852.000,4307.7576,N,07729.1503,W,1,07,1.08,103.9,M,-34.4,M,,*57
$GPRMC,174852.250,A,4307.7589,N,07729.1512,W,16.70,328.10,290919,,,A*4B
$GPGGA,174852.500,4307.7602,N,07729.1523,W,1,07,1.04,103.8,M,-34.4,M,,*5D
$GPRMC,174852.750,A,4307.7614,N,07729.1534,W,19.17,325.43,290919,,,A*48
$GPGGA,174853.000,4307.7626,N,07729.1546,W,1,07,1.08,103.6,M,-34.4,M,,*5E
$GPRMC,174853.250,A,4307.7637,N,07729.1558,W,20.44,323.58,290919,,,A*47
$GPGGA,174853.500,4307.7650,N,07729.1571,W,1,07,1.04,103.6,M,-34.4,M,,*52
$GPRMC,174853.750,A,4307.7662,N,07729.1585,W,21.99,321.45,290919,,,A*4D
$GPGGA,174854.000,4307.7674,N,07729.1600,W,1,07,1.04,103.4,M,-34.4,M,,*51
$GPRMC,174854.250,A,4307.7686,N,07729.1614,W,23.31,319.54,290919,,,A*45
$GPGGA,174854.500,4307.7697,N,07729.1631,W,1,07,1.08,103.3,M,-34.4,M,,*50
$GPRMC,174854.750,A,4307.7708,N,07729.1647,W,24.26,317.99,290919,,,A*4F
$GPGGA,174855.000,4307.7720,N,07729.1664,W,1,07,1.08,103.1,M,-34.4,M,,*5B
$GPRMC,174855.250,A,4307.7733,N,07729.1680,W,24.98,317.23,290919,,,A*4C
$GPGGA,174855.500,4307.7746,N,07729.1698,W,1,07,1.08,102.9,M,-34.4,M,,*54
$GPRMC,174855.750,A,4307.7759,N,07729.1716,W,26.17,315.87,290919,,,A*42
$GPGGA,174856.000,4307.7772,N,07729.1735,W,1,07,1.08,102.8,M,-34.4,M,,*52
$GPRMC,174856.250,A,4307.7786,N,07729.1753,W,27.10,315.17,290919,,,A*48
$GPGGA,174856.500,4307.7798,N,07729.1774,W,1,07,1.04,102.6,M,-34.4,M,,*54
$GPRMC,174856.750,A,4307.7811,N,07729.1795,W,27.66,312.96,290919,,,A*49
$GPGGA,174857.000,4307.7824,N,07729.1817,W,1,07,1.04,102.4,M,-34.4,M,,*50
$GPRMC,174857.250,A,4307.7837,N,07729.1838,W,28.07,311.98,290919,,,A*44
$GPGGA,174857.500,4307.7850,N,07729.1859,W,1,07,1.04,102.2,M,-34.4,M,,*5A
$GPRMC,174857.750,A,4307.7863,N,07729.1881,W,28.32,311.44,290919,,,A*45
$GPGGA,174858.000,4307.7877,N,07729.1903,W,1,07,1.08,101.9,M,-34.4,M,,*5F
$GPRMC,174858.250,A,4307.7890,N,07729.1924,W,28.91,311.59,290919,,,A*48
$GPGGA,174858.500,4307.7904,N,07729.1945,W,1,07,1.04,101.8,M,-34.4,M,,*50
$GPRMC,174858.750,A,4307.7917,N,07729.1965,W,28.79,312.16,290919,,,A*48
$GPGGA,174859.000,4307.7930,N,07729.1985,W,1,07,1.08,101.5,M,-34.4,M,,*5E
$GPRMC,174859.250,A,4307.7944,N,07729.2005,W,28.50,312.60,290919,,,A*4C
$GPGGA,174859.500,4307.7958,N,07729.2025,W,1,06,1.08,101.4,M,-34.4,M,,*55
$GPRMC,174859.750,A,4307.7971,N,07729.2045,W,28.64,312.84,290919,,,A*46
$GPGGA,174900.000,4307.7985,N,07729.2065,W,1,07,1.08,101.1,M,-34.4,M,,*5D
$GPRMC,174900.250,A,4307.7998,N,07729.2086,W,28.66,312.20,290919,,,A*4A
$GPGGA,174900.500,4307.8011,N,07729.2107,W,1,07,1.08,100.8,M,-34.4,M,,*5E
$GPRMC,174900.750,A,4307.8024,N,07729.2129,W,28.59,311.23,290919,,,A*46
$GPGGA,174901.000,4307.8036,N,07729.2150,W,1,07,1.08,100.5,M,-34.4,M,,*50
$GPRMC,174901.250,A,4307.8049,N,07729.2171,W,28.56,310.65,290919,,,A*48
$GPGGA,174901.500,4307.8061,N,07729.2193,W,1,06,1.10,100.4,M,-34.4,M,,*51
$GPRMC,174901.750,A,4307.8074,N,07729.2215,W,28.59,310.63,290919,,,A*4B
$GPGGA,174902.000,4307.8087,N,07729.2237,W,1,07,1.08,100.2,M,-34.4,M,,*5C
$GPRMC,174902.250,A,4307.8099,N,07729.2258,W,28.36,310.48,290919,,,A*47
$GPGGA,174902.500,4307.8111,N,07729.2281,W,1,07,1.08,100.0,M,-34.4,M,,*58
$GPRMC,174902.750,A,4307.8123,N,07729.2303,W,27.98,309.75,290919,,,A*40
$GPGGA,174903.000,4307.8135,N,07729.2325,W,1,07,1.08,99.8,M,-34.4,M,,*6C
$GPRMC,174903.250,A,4307.8147,N,07729.2346,W,27.90,309.71,290919,,,A*4B
$GPGGA,174903.500,4307.8159,N,07729.2367,W,1,07,1.04,99.8,M,-34.4,M,,*69
$GPRMC,174903.750,A,4307.8171,N,07729.2388,W,27.87,309.54,290919,,,A*48
$GPGGA,174904.000,4307.8184,N,07729.2409,W,1,07,1.08,99.7,M,-34.4,M,,*67
