Vers 81
USE_SERIAL_FEEDBACK=true
DEVELOPMENT_MODE=false
USE_RMC_ONLY=false

$GPRMC,145229.000,A,4308.3032,N,07726.2633,W,0.01,312.20,220819,,,A*7B
$GPGGA,145229.250,4308.3032,N,07726.2633,W,1,04,1.36,168.4,M,-34.4,M,,*58
$GPRMC,145229.500,A,4308.3033,N,07726.2633,W,0.01,56.88,220819,,,A*4E
$GPGGA,145229.750,4308.3033,N,07726.2633,W,1,04,1.36,168.0,M,-34.4,M,,*58
$GPRMC,145230.000,A,4308.3033,N,07726.2633,W,0.02,230.13,220819,,,A*70
$GPGGA,145230.250,4308.3033,N,07726.2633,W,1,04,1.36,167.6,M,-34.4,M,,*5C
$GPRMC,145230.500,A,4308.3033,N,07726.2633,W,0.01,269.38,220819,,,A*73
$GPGGA,145230.750,4308.3033,N,07726.2633,W,1,04,1.36,167.3,M,-34.4,M,,*5C
$GPRMC,145231.000,A,4308.3033,N,07726.2633,W,0.02,139.00,220819,,,A*79
$GPGGA,145231.250,4308.3034,N,07726.2633,W,1,04,1.36,167.0,M,-34.4,M,,*5C
$GPRMC,145231.500,A,4308.3034,N,07726.2633,W,0.04,143.49,220819,,,A*7D
$GPGGA,145231.750,4308.3034,N,07726.2633,W,1,04,1.36,166.6,M,-34.4,M,,*5E
$GPRMC,145232.000,A,4308.3034,N,07726.2633,W,0.04,323.19,220819,,,A*7A
$GPGGA,145232.250,4308.3034,N,07726.2632,W,1,05,1.32,166.0,M,-34.4,M,,*5A
$GPRMC,145232.500,A,4308.3035,N,07726.2631,W,0.02,358.02,220819,,,A*7C
$GPGGA,145232.750,4308.3035,N,07726.2630,W,1,05,1.34,165.3,M,-34.4,M,,*5A
$GPRMC,145233.000,A,4308.3035,N,07726.2630,W,0.02,265.76,220819,,,A*75
$GPGGA,145233.250,4308.3035,N,07726.2629,W,1,05,1.32,164.6,M,-34.4,M,,*54
$GPRMC,145233.500,A,4308.3035,N,07726.2629,W,0.02,178.51,220819,,,A*72
$GPGGA,145233.750,4308.3035,N,07726.2628,W,1,05,1.32,163.9,M,-34.4,M,,*58
$GPRMC,145234.000,A,4308.3035,N,07726.2628,W,0.01,53.04,220819,,,A*4A
$GPGGA,145234.250,4308.3035,N,07726.2627,W,1,05,1.32,163.3,M,-34.4,M,,*5F
$GPRMC,145234.500,A,4308.3035,N,07726.2627,W,0.01,20.06,220819,,,A*46
$GPGGA,145234.750,4308.3035,N,07726.2627,W,1,05,1.32,162.7,M,-34.4,M,,*5F
$GPRMC,145235.000,A,4308.3035,N,07726.2627,W,0.01,331.31,220819,,,A*75
$GPGGA,145235.250,4308.3035,N,07726.2626,W,1,05,1.32,162.3,M,-34.4,M,,*5E
$GPRMC,145235.500,A,4308.3035,N,07726.2626,W,0.01,67.96,220819,,,A*4C
$GPGGA,145235.750,4308.3035,N,07726.2626,W,1,05,1.32,161.8,M,-34.4,M,,*53
$GPRMC,145236.000,A,4308.3035,N,07726.2626,W,0.09,337.50,220819,,,A*7E
$GPGGA,145236.250,4308.3035,N,07726.2625,W,1,05,1.32,161.5,M,-34.4,M,,*5B
$GPRMC,145236.500,A,4308.3035,N,07726.2625,W,0.05,170.77,220819,,,A*70
$GPGGA,145236.750,4308.3035,N,07726.2625,W,1,05,1.32,161.2,M,-34.4,M,,*59
$GPRMC,145237.000,A,4308.3035,N,07726.2625,W,0.09,182.54,220819,,,A*74
$GPGGA,145237.250,4308.3035,N,07726.2625,W,1,05,1.32,160.8,M,-34.4,M,,*56
$GPRMC,145237.500,A,4308.3035,N,07726.2625,W,0.07,178.03,220819,,,A*78
$GPGGA,145237.750,4308.3035,N,07726.2624,W,1,05,1.32,160.5,M,-34.4,M,,*5F
$GPRMC,145238.000,A,4308.3035,N,07726.2624,W,0.06,164.25,220819,,,A*7B
$GPGGA,145238.250,4308.3035,N,07726.2624,W,1,05,1.32,160.3,M,-34.4,M,,*53
$GPRMC,145238.500,A,4308.3035,N,07726.2624,W,0.05,157.63,220819,,,A*7F
$GPGGA,145238.750,4308.3034,N,07726.2624,W,1,05,1.32,160.1,M,-34.4,M,,*55
$GPRMC,145239.000,A,4308.3034,N,07726.2623,W,0.06,122.49,220819,,,A*74
$GPGGA,145239.250,4308.3034,N,07726.2623,W,1,05,1.31,160.0,M,-34.4,M,,*54
$GPRMC,145239.500,A,4308.3034,N,07726.2623,W,0.02,121.75,220819,,,A*79
$GPGGA,145239.750,4308.3034,N,07726.2623,W,1,05,1.32,159.8,M,-34.4,M,,*50
$GPRMC,145240.000,A,4308.3034,N,07726.2623,W,0.02,128.36,220819,,,A*7C
$GPGGA,145240.250,4308.3034,N,07726.2623,W,1,05,1.32,159.6,M,-34.4,M,,*55
$GPRMC,145240.500,A,4308.3034,N,07726.2622,W,0.03,122.80,220819,,,A*7E
$GPGGA,145240.750,4308.3034,N,07726.2622,W,1,05,1.32,159.4,M,-34.4,M,,*53
$GPRMC,145241.000,A,4308.3034,N,07726.2622,W,0.04,221.58,220819,,,A*78
$GPGGA,145241.250,4308.3034,N,07726.2622,W,1,05,1.31,159.3,M,-34.4,M,,*53
$GPRMC,145241.500,A,4308.3034,N,07726.2621,W,0.04,40.57,220819,,,A*44
$GPGGA,145241.750,4308.3034,N,07726.2621,W,1,05,1.32,159.1,M,-34.4,M,,*54
$GPRMC,145242.000,A,4308.3035,N,07726.2621,W,0.05,277.80,220819,,,A*7E
$GPGGA,145242.250,4308.3034,N,07726.2620,W,1,05,1.32,158.9,M,-34.4,M,,*5A
$GPRMC,145242.500,A,4308.3035,N,07726.2620,W,0.06,117.22,220819,,,A*74
$GPGGA,145242.750,4308.3035,N,07726.2620,W,1,05,1.32,158.8,M,-34.4,M,,*5F
$GPRMC,145243.000,A,4308.3035,N,07726.2619,W,0.01,258.30,220819,,,A*76
$GPGGA,145243.250,4308.3035,N,07726.2619,W,1,05,1.32,158.7,M,-34.4,M,,*5E
$GPRMC,145243.500,A,4308.3035,N,07726.2619,W,0.02,49.00,220819,,,A*41
$GPGGA,145243.750,4308.3035,N,07726.2619,W,1,05,1.31,158.6,M,-34.4,M,,*59
$GPRMC,145244.000,A,4308.3035,N,07726.2619,W,0.05,266.49,220819,,,A*76
$GPGGA,145244.250,4308.3035,N,07726.2618,W,1,05,1.31,158.6,M,-34.4,M,,*5A
$GPRMC,145244.500,A,4308.3035,N,07726.2618,W,0.02,68.03,220819,,,A*47
$GPGGA,145244.750,4308.3035,N,07726.2618,W,1,05,1.31,158.5,M,-34.4,M,,*5C
$GPRMC,145245.000,A,4308.3036,N,07726.2618,W,0.01,326.67,220819,,,A*78
$GPGGA,145245.250,4308.3036,N,07726.2617,W,1,05,1.32,158.4,M,-34.4,M,,*56
$GPRMC,145245.500,A,4308.3036,N,07726.2617,W,0.01,75.79,220819,,,A*48
$GPGGA,145245.750,4308.3036,N,07726.2617,W,1,05,1.32,158.4,M,-34.4,M,,*53
$GPRMC,145246.000,A,4308.3036,N,07726.2617,W,0.03,135.21,220819,,,A*74
$GPGGA,145246.250,4308.3036,N,07726.2617,W,1,05,1.31,158.3,M,-34.4,M,,*51
$GPRMC,145246.500,A,4308.3036,N,07726.2617,W,0.05,311.18,220819,,,A*79
$GPGGA,145246.750,4308.3036,N,07726.2616,W,1,05,1.31,158.3,M,-34.4,M,,*55
$GPRMC,145247.000,A,4308.3036,N,07726.2616,W,0.02,259.66,220819,,,A*7F
$GPGGA,145247.250,4308.3036,N,07726.2616,W,1,05,1.31,158.3,M,-34.4,M,,*51
$GPRMC,145247.500,A,4308.3037,N,07726.2616,W,0.02,35.64,220819,,,A*41
$GPGGA,145247.750,4308.3037,N,07726.2616,W,1,05,1.32,158.3,M,-34.4,M,,*56
$GPRMC,145248.000,A,4308.3037,N,07726.2615,W,0.02,352.63,220819,,,A*7D
$GPGGA,145248.250,4308.3037,N,07726.2615,W,1,05,1.34,158.2,M,-34.4,M,,*58
$GPRMC,145248.500,A,4308.3037,N,07726.2615,W,0.01,242.00,220819,,,A*7E
$GPGGA,145248.750,4308.3037,N,07726.2615,W,1,05,1.32,158.2,M,-34.4,M,,*5B
$GPRMC,145249.000,A,4308.3037,N,07726.2614,W,0.01,102.60,220819,,,A*7A
$GPGGA,145249.250,4308.3038,N,07726.2614,W,1,05,1.31,158.1,M,-34.4,M,,*51
$GPRMC,145249.500,A,4308.3038,N,07726.2614,W,0.05,105.11,220819,,,A*75
$GPGGA,145249.750,4308.3038,N,07726.2614,W,1,05,1.31,158.1,M,-34.4,M,,*54
$GPRMC,145250.000,A,4308.3038,N,07726.2614,W,0.02,155.37,220819,,,A*7E
$GPGGA,145250.250,4308.3038,N,07726.2613,W,1,05,1.31,158.1,M,-34.4,M,,*5E
$GPRMC,145250.500,A,4308.3038,N,07726.2613,W,0.01,103.72,220819,,,A*7D
$GPGGA,145250.750,4308.3039,N,07726.2613,W,1,05,1.31,158.0,M,-34.4,M,,*5B
$GPRMC,145251.000,A,4308.3039,N,07726.2613,W,0.04,74.02,220819,,,A*4B
$GPGGA,145251.250,4308.3039,N,07726.2612,W,1,05,1.32,158.0,M,-34.4,M,,*5D
$GPRMC,145251.500,A,4308.3039,N,07726.2612,W,0.00,133.03,220819,,,A*78
$GPGGA,145251.750,4308.3039,N,07726.2612,W,1,05,1.32,158.0,M,-34.4,M,,*58
$GPRMC,145252.000,A,4308.3039,N,07726.2612,W,0.03,84.87,220819,,,A*4C
$GPGGA,145252.250,4308.3039,N,07726.2612,W,1,05,1.32,158.1,M,-34.4,M,,*5F
$GPRMC,145252.500,A,4308.3039,N,07726.2612,W,0.02,88.42,220819,,,A*4D
$GPGGA,145252.750,4308.3040,N,07726.2612,W,1,05,1.32,158.1,M,-34.4,M,,*54
$GPRMC,145253.000,A,4308.3040,N,07726.2612,W,0.03,87.81,220819,,,A*46
$GPGGA,145253.250,4308.3040,N,07726.2612,W,1,05,1.32,158.1,M,-34.4,M,,*50
$GPRMC,145253.500,A,4308.3040,N,07726.2612,W,0.05,300.15,220819,,,A*74
$GPGGA,145253.750,4308.3040,N,07726.2612,W,1,05,1.31,158.1,M,-34.4,M,,*56
$GPRMC,145254.000,A,4308.3040,N,07726.2612,W,0.04,72.90,220819,,,A*4C
$GPGGA,145254.250,4308.3040,N,07726.2612,W,1,05,1.32,158.1,M,-34.4,M,,*57
$GPRMC,145254.500,A,4308.3040,N,07726.2612,W,0.02,172.84,220819,,,A*7B
$GPGGA,145254.750,4308.3040,N,07726.2612,W,1,05,1.31,158.1,M,-34.4,M,,*51
$GPRMC,145255.000,A,4308.3040,N,07726.2612,W,0.01,11.78,220819,,,A*4B
$GPGGA,145255.250,4308.3040,N,07726.2612,W,1,05,1.34,158.1,M,-34.4,M,,*50
$GPRMC,145255.500,A,4308.3040,N,07726.2612,W,0.03,279.73,220819,,,A*7B
$GPGGA,145255.750,4308.3040,N,07726.2612,W,1,05,1.32,158.1,M,-34.4,M,,*53
$GPRMC,145256.000,A,4308.3040,N,07726.2612,W,0.01,243.58,220819,,,A*7F
$GPGGA,145256.250,4308.3040,N,07726.2612,W,1,06,1.28,158.1,M,-34.4,M,,*5D
$GPRMC,145256.500,A,4308.3040,N,07726.2612,W,0.01,199.26,220819,,,A*77
$GPGGA,145256.750,4308.3040,N,07726.2612,W,1,06,1.28,158.1,M,-34.4,M,,*58
$GPRMC,145257.000,A,4308.3040,N,07726.2612,W,0.05,54.65,220819,,,A*40
$GPGGA,145257.250,4308.3040,N,07726.2612,W,1,06,1.28,158.1,M,-34.4,M,,*5C
$GPRMC,145257.500,A,4308.3040,N,07726.2612,W,0.02,343.57,220819,,,A*76
$GPGGA,145257.750,4308.3040,N,07726.2612,W,1,06,1.28,158.1,M,-34.4,M,,*59
$GPRMC,145258.000,A,4308.3040,N,07726.2612,W,0.02,311.71,220819,,,A*7F
$GPGGA,145258.250,4308.3040,N,07726.2612,W,1,06,1.28,158.1,M,-34.4,M,,*53
$GPRMC,145258.500,A,4308.3040,N,07726.2612,W,0.01,212.37,220819,,,A*79
$GPGGA,145258.750,4308.3040,N,07726.2612,W,1,06,1.28,158.1,M,-34.4,M,,*56
$GPRMC,145259.000,A,4308.3040,N,07726.2612,W,0.03,159.98,220819,,,A*76
$GPGGA,145259.250,4308.3040,N,07726.2612,W,1,06,1.28,158.1,M,-34.4,M,,*52
$GPRMC,145259.500,A,4308.3040,N,07726.2612,W,0.01,173.42,220819,,,A*7E
$GPGGA,145259.750,4308.3040,N,07726.2612,W,1,06,1.28,158.1,M,-34.4,M,,*57
$GPRMC,145300.000,A,4308.3040,N,07726.2612,W,0.01,15.84,220819,,,A*4D
$GPGGA,145300.250,4308.3040,N,07726.2612,W,1,06,1.28,158.1,M,-34.4,M,,*5F
$GPRMC,145300.500,A,4308.3040,N,07726.2612,W,0.02,185.35,220819,,,A*79
$GPGGA,145300.750,4308.3040,N,07726.2612,W,1,06,1.28,158.1,M,-34.4,M,,*5A
$GPRMC,145301.000,A,4308.3040,N,07726.2612,W,0.03,45.81,220819,,,A*4E
$GPGGA,145301.250,4308.3040,N,07726.2612,W,1,06,1.28,158.1,M,-34.4,M,,*5E
$GPRMC,145301.500,A,4308.3040,N,07726.2612,W,0.01,257.76,220819,,,A*70
$GPGGA,145301.750,4308.3040,N,07726.2612,W,1,06,1.28,158.1,M,-34.4,M,,*5B
$GPRMC,145302.000,A,4308.3040,N,07726.2612,W,0.03,291.16,220819,,,A*78
$GPGGA,145302.250,4308.3040,N,07726.2612,W,1,06,1.29,158.1,M,-34.4,M,,*5C
$GPRMC,145302.500,A,4308.3040,N,07726.2612,W,0.02,328.86,220819,,,A*76
$GPGGA,145302.750,4308.3040,N,07726.2612,W,1,06,1.29,158.1,M,-34.4,M,,*59
$GPRMC,145303.000,A,4308.3040,N,07726.2612,W,0.01,150.30,220819,,,A*71
$GPGGA,145303.250,4308.3040,N,07726.2612,W,1,06,1.29,158.1,M,-34.4,M,,*5D
$GPRMC,145303.500,A,4308.3040,N,07726.2612,W,0.01,26.52,220819,,,A*40
$GPGGA,145303.750,4308.3040,N,07726.2612,W,1,06,1.29,158.1,M,-34.4,M,,*58
$GPRMC,145304.000,A,4308.3040,N,07726.2612,W,0.01,2.99,220819,,,A*73
$GPGGA,145304.250,4308.3040,N,07726.2612,W,1,06,1.29,158.1,M,-34.4,M,,*5A
$GPRMC,145304.500,A,4308.3040,N,07726.2612,W,0.00,150.62,220819,,,A*75
$GPGGA,145304.750,4308.3040,N,07726.2612,W,1,06,1.29,158.1,M,-34.4,M,,*5F
$GPRMC,145305.000,A,4308.3040,N,07726.2612,W,0.00,115.33,220819,,,A*74
$GPGGA,145305.250,4308.3040,N,07726.2612,W,1,06,1.29,158.1,M,-34.4,M,,*5B
$GPRMC,145305.500,A,4308.3040,N,07726.2612,W,0.01,295.18,220819,,,A*72
$GPGGA,145305.750,4308.3040,N,07726.2612,W,1,06,1.30,158.1,M,-34.4,M,,*56
$GPRMC,145306.000,A,4308.3040,N,07726.2612,W,0.00,48.91,220819,,,A*46
$GPGGA,145306.250,4308.3040,N,07726.2612,W,1,06,1.29,158.1,M,-34.4,M,,*58
$GPRMC,145306.500,A,4308.3040,N,07726.2612,W,0.01,127.38,220819,,,A*79
$GPGGA,145306.750,4308.3040,N,07726.2612,W,1,06,1.29,158.1,M,-34.4,M,,*5D
$GPRMC,145307.000,A,4308.3040,N,07726.2612,W,0.00,0.00,220819,,,A*73
$GPGGA,145307.250,4308.3040,N,07726.2611,W,1,06,1.29,158.1,M,-34.4,M,,*5A
$GPRMC,145307.500,A,4308.3040,N,07726.2611,W,0.00,102.21,220819,,,A*75
$GPGGA,145307.750,4308.3040,N,07726.2611,W,1,06,1.29,158.1,M,-34.4,M,,*5F
$GPRMC,145308.000,A,4308.3040,N,07726.2611,W,0.00,176.72,220819,,,A*7A
$GPGGA,145308.250,4308.3040,N,07726.2611,W,1,06,1.29,158.1,M,-34.4,M,,*55
$GPRMC,145308.500,A,4308.3040,N,07726.2611,W,0.00,260.13,220819,,,A*7C
$GPGGA,145308.750,4308.3040,N,07726.2611,W,1,06,1.30,158.1,M,-34.4,M,,*58
$GPRMC,145309.000,A,4308.3040,N,07726.2611,W,0.01,301.25,220819,,,A*7A
$GPGGA,145309.250,4308.3040,N,07726.2611,W,1,06,1.29,158.1,M,-34.4,M,,*54
$GPRMC,145309.500,A,4308.3040,N,07726.2611,W,0.00,286.55,220819,,,A*77
$GPGGA,145309.750,4308.3040,N,07726.2611,W,1,06,1.29,158.1,M,-34.4,M,,*51
$GPRMC,145310.000,A,4308.3040,N,07726.2611,W,0.03,350.63,220819,,,A*76
$GPGGA,145310.250,4308.3040,N,07726.2611,W,1,06,1.29,158.1,M,-34.4,M,,*5C
$GPRMC,145310.500,A,4308.3040,N,07726.2611,W,0.12,6.38,220819,,,A*7D
$GPGGA,145310.750,4308.3040,N,07726.2611,W,1,06,1.30,158.1,M,-34.4,M,,*51
$GPRMC,145311.000,A,4308.3040,N,07726.2611,W,1.17,13.43,220819,,,A*45
$GPGGA,145311.250,4308.3040,N,07726.2611,W,1,06,1.30,158.1,M,-34.4,M,,*55
$GPRMC,145311.500,A,4308.3042,N,07726.2611,W,3.31,2.44,220819,,,A*73
$GPGGA,145311.750,4308.3045,N,07726.2611,W,1,06,1.29,158.0,M,-34.4,M,,*5C
$GPRMC,145312.000,A,4308.3048,N,07726.2611,W,4.89,2.90,220819,,,A*72
$GPGGA,145312.250,4308.3052,N,07726.2612,W,1,06,1.29,157.9,M,-34.4,M,,*59
$GPRMC,145312.500,A,4308.3056,N,07726.2612,W,6.52,358.91,220819,,,A*72
$GPGGA,145312.750,4308.3061,N,07726.2612,W,1,06,1.29,157.8,M,-34.4,M,,*5D
$GPRMC,145313.000,A,4308.3067,N,07726.2612,W,7.90,358.82,220819,,,A*79
$GPGGA,145313.250,4308.3072,N,07726.2613,W,1,06,1.29,157.6,M,-34.4,M,,*54
$GPRMC,145313.500,A,4308.3078,N,07726.2613,W,7.84,0.59,220819,,,A*7E
$GPGGA,145313.750,4308.3083,N,07726.2613,W,1,06,1.29,157.5,M,-34.4,M,,*5C
$GPRMC,145314.000,A,4308.3089,N,07726.2613,W,8.04,1.79,220819,,,A*76
$GPGGA,145314.250,4308.3095,N,07726.2612,W,1,06,1.30,157.4,M,-34.4,M,,*51
$GPRMC,145314.500,A,4308.3101,N,07726.2612,W,8.07,2.37,220819,,,A*79
$GPGGA,145314.750,4308.3106,N,07726.2612,W,1,06,1.29,157.3,M,-34.4,M,,*50
$GPRMC,145315.000,A,4308.3112,N,07726.2611,W,7.72,3.21,220819,,,A*77
$GPGGA,145315.250,4308.3117,N,07726.2611,W,1,06,1.30,157.1,M,-34.4,M,,*5D
$GPRMC,145315.500,A,4308.3121,N,07726.2610,W,6.16,5.68,220819,,,A*7B
$GPGGA,145315.750,4308.3125,N,07726.2609,W,1,06,1.29,156.9,M,-34.4,M,,*51
$GPRMC,145316.000,A,4308.3129,N,07726.2608,W,5.23,13.19,220819,,,A*48
$GPGGA,145316.250,4308.3133,N,07726.2607,W,1,06,1.29,156.8,M,-34.4,M,,*5F
$GPRMC,145316.500,A,4308.3136,N,07726.2606,W,4.64,22.89,220819,,,A*44
$GPGGA,145316.750,4308.3139,N,07726.2604,W,1,06,1.29,156.7,M,-34.4,M,,*5C
$GPRMC,145317.000,A,4308.3142,N,07726.2602,W,4.13,29.90,220819,,,A*44
$GPGGA,145317.250,4308.3144,N,07726.2600,W,1,06,1.30,156.7,M,-34.4,M,,*5E
$GPRMC,145317.500,A,4308.3147,N,07726.2598,W,4.00,24.23,220819,,,A*43
$GPGGA,145317.750,4308.3149,N,07726.2595,W,1,06,1.29,156.8,M,-34.4,M,,*5E
$GPRMC,145318.000,A,4308.3150,N,07726.2592,W,3.40,60.20,220819,,,A*45
$GPGGA,145318.250,4308.3151,N,07726.2590,W,1,06,1.28,156.8,M,-34.4,M,,*59
$GPRMC,145318.500,A,4308.3152,N,07726.2587,W,3.03,52.18,220819,,,A*4B
$GPGGA,145318.750,4308.3153,N,07726.2585,W,1,06,1.28,156.8,M,-34.4,M,,*5A
$GPRMC,145319.000,A,4308.3154,N,07726.2583,W,2.95,59.23,220819,,,A*40
$GPGGA,145319.250,4308.3155,N,07726.2580,W,1,06,1.28,156.8,M,-34.4,M,,*5D
$GPRMC,145319.500,A,4308.3156,N,07726.2578,W,2.78,71.71,220819,,,A*4D
$GPGGA,145319.750,4308.3156,N,07726.2575,W,1,06,1.28,156.9,M,-34.4,M,,*50
$GPRMC,145320.000,A,4308.3156,N,07726.2573,W,2.76,79.26,220819,,,A*4D
$GPGGA,145320.250,4308.3156,N,07726.2570,W,1,06,1.28,156.9,M,-34.4,M,,*5A
$GPRMC,145320.500,A,4308.3156,N,07726.2567,W,2.83,86.11,220819,,,A*43
$GPGGA,145320.750,4308.3156,N,07726.2565,W,1,06,1.28,156.9,M,-34.4,M,,*5B
$GPRMC,145321.000,A,4308.3156,N,07726.2565,W,1.31,90.45,220819,,,A*49
$GPGGA,145321.250,4308.3156,N,07726.2564,W,1,06,1.28,157.0,M,-34.4,M,,*56
$GPRMC,145321.500,A,4308.3156,N,07726.2565,W,0.14,313.11,220819,,,A*73
$GPGGA,145321.750,4308.3156,N,07726.2566,W,1,06,1.28,157.0,M,-34.4,M,,*51
$GPRMC,145322.000,A,4308.3156,N,07726.2568,W,0.85,280.37,220819,,,A*7F
$GPGGA,145322.250,4308.3156,N,07726.2569,W,1,06,1.28,157.0,M,-34.4,M,,*58
$GPRMC,145322.500,A,4308.3156,N,07726.2573,W,1.65,277.87,220819,,,A*7C
$GPGGA,145322.750,4308.3156,N,07726.2578,W,1,06,1.28,157.0,M,-34.4,M,,*5D
$GPRMC,145323.000,A,4308.3156,N,07726.2583,W,4.84,275.05,220819,,,A*75
$GPGGA,145323.250,4308.3157,N,07726.2588,W,1,06,1.28,157.0,M,-34.4,M,,*57
$GPRMC,145323.500,A,4308.3157,N,07726.2594,W,6.22,276.46,220819,,,A*7D
$GPGGA,145323.750,4308.3158,N,07726.2600,W,1,06,1.29,157.0,M,-34.4,M,,*5F
$GPRMC,145324.000,A,4308.3159,N,07726.2607,W,7.66,277.85,220819,,,A*77
$GPGGA,145324.250,4308.3159,N,07726.2615,W,1,06,1.28,157.0,M,-34.4,M,,*59
$GPRMC,145324.500,A,4308.3160,N,07726.2622,W,8.36,279.18,220819,,,A*7F
$GPGGA,145324.750,4308.3161,N,07726.2631,W,1,06,1.29,157.0,M,-34.4,M,,*50
$GPRMC,145325.000,A,4308.3163,N,07726.2639,W,9.35,280.24,220819,,,A*79
$GPGGA,145325.250,4308.3164,N,07726.2648,W,1,06,1.28,157.0,M,-34.4,M,,*5E
$GPRMC,145325.500,A,4308.3165,N,07726.2657,W,9.67,281.23,220819,,,A*73
$GPGGA,145325.750,4308.3166,N,07726.2666,W,1,06,1.29,157.0,M,-34.4,M,,*54
$GPRMC,145326.000,A,4308.3168,N,07726.2676,W,10.68,281.50,220819,,,A*48
$GPGGA,145326.250,4308.3169,N,07726.2686,W,1,06,1.28,157.0,M,-34.4,M,,*52
$GPRMC,145326.500,A,4308.3171,N,07726.2697,W,11.65,281.79,220819,,,A*4D
$GPGGA,145326.750,4308.3172,N,07726.2708,W,1,06,1.29,157.1,M,-34.4,M,,*5A
$GPRMC,145327.000,A,4308.3174,N,07726.2719,W,12.32,281.83,220819,,,A*4F
$GPGGA,145327.250,4308.3176,N,07726.2730,W,1,06,1.28,157.1,M,-34.4,M,,*50
$GPRMC,145327.500,A,4308.3178,N,07726.2742,W,12.61,283.60,220819,,,A*41
$GPGGA,145327.750,4308.3180,N,07726.2753,W,1,06,1.29,157.1,M,-34.4,M,,*58
$GPRMC,145328.000,A,4308.3182,N,07726.2766,W,13.24,285.73,220819,,,A*4C
$GPGGA,145328.250,4308.3185,N,07726.2779,W,1,06,1.28,157.1,M,-34.4,M,,*5E
$GPRMC,145328.500,A,4308.3187,N,07726.2792,W,13.80,286.38,220819,,,A*45
$GPGGA,145328.750,4308.3190,N,07726.2806,W,1,06,1.29,157.2,M,-34.4,M,,*5A
$GPRMC,145329.000,A,4308.3193,N,07726.2819,W,14.48,288.35,220819,,,A*48
$GPGGA,145329.250,4308.3196,N,07726.2832,W,1,06,1.28,157.2,M,-34.4,M,,*5E
$GPRMC,145329.500,A,4308.3200,N,07726.2845,W,15.02,288.87,220819,,,A*4B
$GPGGA,145329.750,4308.3203,N,07726.2859,W,1,06,1.29,157.2,M,-34.4,M,,*58
$GPRMC,145330.000,A,4308.3207,N,07726.2873,W,15.53,290.34,220819,,,A*41
$GPGGA,145330.250,4308.3211,N,07726.2886,W,1,06,1.28,157.3,M,-34.4,M,,*54
$GPRMC,145330.500,A,4308.3216,N,07726.2900,W,16.05,292.55,220819,,,A*44
$GPGGA,145330.750,4308.3220,N,07726.2914,W,1,06,1.29,157.3,M,-34.4,M,,*58
$GPRMC,145331.000,A,4308.3226,N,07726.2929,W,17.00,295.82,220819,,,A*41
$GPGGA,145331.250,4308.3231,N,07726.2943,W,1,06,1.28,157.4,M,-34.4,M,,*58
$GPRMC,145331.500,A,4308.3237,N,07726.2958,W,17.45,298.25,220819,,,A*43
$GPGGA,145331.750,4308.3243,N,07726.2972,W,1,06,1.28,157.5,M,-34.4,M,,*5B
$GPRMC,145332.000,A,4308.3249,N,07726.2987,W,18.03,299.00,220819,,,A*45
$GPGGA,145332.250,4308.3255,N,07726.3002,W,1,06,1.28,157.6,M,-34.4,M,,*56
$GPRMC,145332.500,A,4308.3262,N,07726.3017,W,18.48,299.62,220819,,,A*43
$GPGGA,145332.750,4308.3268,N,07726.3032,W,1,06,1.28,157.6,M,-34.4,M,,*5E
$GPRMC,145333.000,A,4308.3275,N,07726.3048,W,18.94,300.83,220819,,,A*44
$GPGGA,145333.250,4308.3282,N,07726.3063,W,1,06,1.28,157.7,M,-34.4,M,,*5B
$GPRMC,145333.500,A,4308.3289,N,07726.3079,W,19.40,301.75,220819,,,A*40
$GPGGA,145333.750,4308.3297,N,07726.3095,W,1,06,1.29,157.8,M,-34.4,M,,*5D
$GPRMC,145334.000,A,4308.3304,N,07726.3111,W,20.02,302.28,220819,,,A*4E
$GPGGA,145334.250,4308.3311,N,07726.3127,W,1,06,1.28,157.9,M,-34.4,M,,*58
$GPRMC,145334.500,A,4308.3319,N,07726.3144,W,20.66,303.03,220819,,,A*4D
$GPGGA,145334.750,4308.3327,N,07726.3161,W,1,06,1.28,158.0,M,-34.4,M,,*5C
$GPRMC,145335.000,A,4308.3335,N,07726.3178,W,21.24,303.35,220819,,,A*4A
$GPGGA,145335.250,4308.3343,N,07726.3195,W,1,06,1.28,158.1,M,-34.4,M,,*50
$GPRMC,145335.500,A,4308.3351,N,07726.3213,W,21.53,303.29,220819,,,A*4E
$GPGGA,145335.750,4308.3359,N,07726.3230,W,1,06,1.28,158.2,M,-34.4,M,,*51
$GPRMC,145336.000,A,4308.3367,N,07726.3248,W,21.97,303.06,220819,,,A*46
$GPGGA,145336.250,4308.3376,N,07726.3265,W,1,06,1.28,158.3,M,-34.4,M,,*5B
$GPRMC,145336.500,A,4308.3384,N,07726.3283,W,22.38,303.55,220819,,,A*49
$GPGGA,145336.750,4308.3392,N,07726.3301,W,1,06,1.28,158.4,M,-34.4,M,,*50
$GPRMC,145337.000,A,4308.3401,N,07726.3320,W,22.58,303.42,220819,,,A*4F
$GPGGA,145337.250,4308.3409,N,07726.3337,W,1,06,1.28,158.5,M,-34.4,M,,*55
$GPRMC,145337.500,A,4308.3418,N,07726.3355,W,22.94,303.89,220819,,,A*47
$GPGGA,145337.750,4308.3427,N,07726.3373,W,1,06,1.28,158.6,M,-34.4,M,,*5F
$GPRMC,145338.000,A,4308.3436,N,07726.3392,W,23.24,303.63,220819,,,A*44
$GPGGA,145338.250,4308.3445,N,07726.3410,W,1,06,1.28,158.7,M,-34.4,M,,*52
$GPRMC,145338.500,A,4308.3454,N,07726.3428,W,23.22,304.32,220819,,,A*46
$GPGGA,145338.750,4308.3463,N,07726.3446,W,1,06,1.28,159.0,M,-34.4,M,,*56
$GPRMC,145339.000,A,4308.3472,N,07726.3464,W,23.54,305.36,220819,,,A*4A
$GPGGA,145339.250,4308.3481,N,07726.3482,W,1,06,1.28,159.3,M,-34.4,M,,*55
$GPRMC,145339.500,A,4308.3490,N,07726.3500,W,23.51,307.04,220819,,,A*46
$GPGGA,145339.750,4308.3500,N,07726.3519,W,1,06,1.28,159.5,M,-34.4,M,,*5D
$GPRMC,145340.000,A,4308.3510,N,07726.3536,W,23.46,308.69,220819,,,A*43
$GPGGA,145340.250,4308.3521,N,07726.3553,W,1,06,1.28,159.6,M,-34.4,M,,*58
$GPRMC,145340.500,A,4308.3532,N,07726.3570,W,23.35,311.57,220819,,,A*45
$GPGGA,145340.750,4308.3543,N,07726.3586,W,1,06,1.28,159.7,M,-34.4,M,,*50
$GPRMC,145341.000,A,4308.3555,N,07726.3602,W,23.33,315.25,220819,,,A*41
$GPGGA,145341.250,4308.3567,N,07726.3617,W,1,06,1.28,159.9,M,-34.4,M,,*57
$GPRMC,145341.500,A,4308.3580,N,07726.3632,W,23.51,317.98,220819,,,A*4F
$GPGGA,145341.750,4308.3592,N,07726.3646,W,1,06,1.28,160.1,M,-34.4,M,,*5E
$GPRMC,145342.000,A,4308.3606,N,07726.3660,W,23.53,322.03,220819,,,A*45
$GPGGA,145342.250,4308.3619,N,07726.3673,W,1,06,1.28,160.1,M,-34.4,M,,*5E
$GPRMC,145342.500,A,4308.3633,N,07726.3686,W,23.77,325.34,220819,,,A*4B
$GPGGA,145342.750,4308.3648,N,07726.3697,W,1,06,1.28,160.2,M,-34.4,M,,*56
$GPRMC,145343.000,A,4308.3664,N,07726.3708,W,24.17,330.31,220819,,,A*4A
$GPGGA,145343.250,4308.3679,N,07726.3718,W,1,06,1.28,160.3,M,-34.4,M,,*57
$GPRMC,145343.500,A,4308.3695,N,07726.3727,W,24.38,334.08,220819,,,A*4F
$GPGGA,145343.750,4308.3712,N,07726.3735,W,1,06,1.28,160.5,M,-34.4,M,,*57
$GPRMC,145344.000,A,4308.3728,N,07726.3741,W,24.61,340.49,220819,,,A*40
$GPGGA,145344.250,4308.3745,N,07726.3745,W,1,06,1.28,160.5,M,-34.4,M,,*50
$GPRMC,145344.500,A,4308.3762,N,07726.3750,W,24.76,346.16,220819,,,A*41
$GPGGA,145344.750,4308.3780,N,07726.3756,W,1,06,1.29,160.6,M,-34.4,M,,*5C
$GPRMC,145345.000,A,4308.3798,N,07726.3759,W,25.44,350.12,220819,,,A*4A
$GPGGA,145345.250,4308.3815,N,07726.3763,W,1,06,1.28,160.7,M,-34.4,M,,*5D
$GPRMC,145345.500,A,4308.3832,N,07726.3764,W,24.86,354.60,220819,,,A*40
$GPGGA,145345.750,4308.3850,N,07726.3765,W,1,06,1.29,160.8,M,-34.4,M,,*51
$GPRMC,145346.000,A,4308.3869,N,07726.3766,W,25.86,357.94,220819,,,A*43
$GPGGA,145346.250,4308.3888,N,07726.3765,W,1,06,1.28,160.9,M,-34.4,M,,*52
$GPRMC,145346.500,A,4308.3907,N,07726.3764,W,26.67,2.07,220819,,,A*48
$GPGGA,145346.750,4308.3924,N,07726.3761,W,1,06,1.28,161.0,M,-34.4,M,,*5C
$GPRMC,145347.000,A,4308.3942,N,07726.3757,W,26.35,6.08,220819,,,A*41
$GPGGA,145347.250,4308.3960,N,07726.3753,W,1,06,1.28,161.1,M,-34.4,M,,*58
$GPRMC,145347.500,A,4308.3979,N,07726.3749,W,26.91,7.46,220819,,,A*46
$GPGGA,145347.750,4308.3998,N,07726.3745,W,1,06,1.28,161.2,M,-34.4,M,,*5E
$GPRMC,145348.000,A,4308.4017,N,07726.3741,W,27.18,8.25,220819,,,A*48
$GPGGA,145348.250,4308.4036,N,07726.3736,W,1,06,1.28,161.3,M,-34.4,M,,*5B
$GPRMC,145348.500,A,4308.4054,N,07726.3731,W,27.30,9.96,220819,,,A*4E
$GPGGA,145348.750,4308.4073,N,07726.3726,W,1,06,1.28,161.5,M,-34.4,M,,*58
$GPRMC,145349.000,A,4308.4091,N,07726.3722,W,27.34,9.87,220819,,,A*45
$GPGGA,145349.250,4308.4110,N,07726.3717,W,1,06,1.28,161.7,M,-34.4,M,,*58
$GPRMC,145349.500,A,4308.4129,N,07726.3712,W,27.36,9.67,220819,,,A*4D
$GPGGA,145349.750,4308.4147,N,07726.3707,W,1,06,1.28,161.9,M,-34.4,M,,*50
$GPRMC,145350.000,A,4308.4166,N,07726.3703,W,27.32,9.70,220819,,,A*49
$GPGGA,145350.250,4308.4184,N,07726.3698,W,1,06,1.28,162.1,M,-34.4,M,,*5E
$GPRMC,145350.500,A,4308.4203,N,07726.3693,W,27.24,9.97,220819,,,A*4A
$GPGGA,145350.750,4308.4221,N,07726.3689,W,1,06,1.28,162.3,M,-34.4,M,,*55
$GPRMC,145351.000,A,4308.4239,N,07726.3685,W,26.21,9.12,220819,,,A*49
$GPGGA,145351.250,4308.4257,N,07726.3680,W,1,06,1.28,162.5,M,-34.4,M,,*5F
$GPRMC,145351.500,A,4308.4274,N,07726.3677,W,25.46,8.89,220819,,,A*49
$GPGGA,145351.750,4308.4290,N,07726.3673,W,1,06,1.28,162.6,M,-34.4,M,,*5E
$GPRMC,145352.000,A,4308.4307,N,07726.3669,W,24.45,8.82,220819,,,A*4C
$GPGGA,145352.250,4308.4322,N,07726.3665,W,1,06,1.29,162.7,M,-34.4,M,,*57
$GPRMC,145352.500,A,4308.4338,N,07726.3662,W,23.20,8.99,220819,,,A*40
$GPGGA,145352.750,4308.4352,N,07726.3658,W,1,06,1.29,162.9,M,-34.4,M,,*55
$GPRMC,145353.000,A,4308.4365,N,07726.3655,W,21.38,8.87,220819,,,A*4C
$GPGGA,145353.250,4308.4379,N,07726.3652,W,1,06,1.29,163.0,M,-34.4,M,,*5A
$GPRMC,145353.500,A,4308.4389,N,07726.3654,W,19.32,4.53,220819,,,A*4E
$GPGGA,145353.750,4308.4402,N,07726.3652,W,1,06,1.29,163.3,M,-34.4,M,,*57
$GPRMC,145354.000,A,4308.4414,N,07726.3650,W,18.10,5.28,220819,,,A*47
$GPGGA,145354.250,4308.4426,N,07726.3647,W,1,06,1.29,163.4,M,-34.4,M,,*50
$GPRMC,145354.500,A,4308.4438,N,07726.3645,W,17.48,7.17,220819,,,A*44
$GPGGA,145354.750,4308.4449,N,07726.3642,W,1,06,1.29,163.6,M,-34.4,M,,*5B
$GPRMC,145355.000,A,4308.4459,N,07726.3639,W,16.73,8.56,220819,,,A*4F
$GPGGA,145355.250,4308.4469,N,07726.3635,W,1,06,1.29,163.7,M,-34.4,M,,*5C
$GPRMC,145355.500,A,4308.4478,N,07726.3632,W,15.72,9.62,220819,,,A*46
$GPGGA,145355.750,4308.4488,N,07726.3629,W,1,06,1.29,163.8,M,-34.4,M,,*54
$GPRMC,145356.000,A,4308.4497,N,07726.3627,W,14.79,8.68,220819,,,A*44
$GPGGA,145356.250,4308.4506,N,07726.3625,W,1,06,1.29,164.0,M,-34.4,M,,*56
$GPRMC,145356.500,A,4308.4513,N,07726.3622,W,13.46,8.17,220819,,,A*4A
$GPGGA,145356.750,4308.4521,N,07726.3621,W,1,06,1.29,164.1,M,-34.4,M,,*53
$GPRMC,145357.000,A,4308.4528,N,07726.3619,W,12.11,7.31,220819,,,A*46
$GPGGA,145357.250,4308.4535,N,07726.3618,W,1,06,1.29,164.3,M,-34.4,M,,*5A
$GPRMC,145357.500,A,4308.4542,N,07726.3617,W,10.81,5.75,220819,,,A*48
$GPGGA,145357.750,4308.4547,N,07726.3617,W,1,06,1.29,164.5,M,-34.4,M,,*53
$GPRMC,145358.000,A,4308.4552,N,07726.3615,W,9.41,4.60,220819,,,A*70
$GPGGA,145358.250,4308.4557,N,07726.3614,W,1,06,1.29,164.7,M,-34.4,M,,*59
$GPRMC,145358.500,A,4308.4560,N,07726.3613,W,7.83,3.85,220819,,,A*7E
$GPGGA,145358.750,4308.4562,N,07726.3613,W,1,06,1.29,164.9,M,-34.4,M,,*53
$GPRMC,145359.000,A,4308.4565,N,07726.3611,W,6.50,5.41,220819,,,A*7C
$GPGGA,145359.250,4308.4570,N,07726.3611,W,1,06,1.29,165.1,M,-34.4,M,,*5F
$GPRMC,145359.500,A,4308.4575,N,07726.3611,W,7.57,355.34,220819,,,A*7A
$GPGGA,145359.750,4308.4580,N,07726.3612,W,1,06,1.29,165.3,M,-34.4,M,,*54
$GPRMC,145400.000,A,4308.4586,N,07726.3614,W,7.90,345.20,220819,,,A*72
$GPGGA,145400.250,4308.4591,N,07726.3616,W,1,06,1.29,165.4,M,-34.4,M,,*59
$GPRMC,145400.500,A,4308.4597,N,07726.3618,W,8.36,337.85,220819,,,A*72
$GPGGA,145400.750,4308.4605,N,07726.3623,W,1,06,1.28,165.8,M,-34.4,M,,*59
$GPRMC,145401.000,A,4308.4611,N,07726.3629,W,10.63,329.38,220819,,,A*49
$GPGGA,145401.250,4308.4616,N,07726.3634,W,1,06,1.28,165.9,M,-34.4,M,,*58
$GPRMC,145401.500,A,4308.4621,N,07726.3641,W,11.66,321.77,220819,,,A*46
$GPGGA,145401.750,4308.4626,N,07726.3648,W,1,06,1.28,165.8,M,-34.4,M,,*54
$GPRMC,145402.000,A,4308.4631,N,07726.3657,W,12.42,312.40,220819,,,A*47
$GPGGA,145402.250,4308.4635,N,07726.3668,W,1,06,1.28,166.1,M,-34.4,M,,*58
$GPRMC,145402.500,A,4308.4639,N,07726.3679,W,13.22,303.47,220819,,,A*46
$GPGGA,145402.750,4308.4643,N,07726.3691,W,1,06,1.28,166.2,M,-34.4,M,,*59
$GPRMC,145403.000,A,4308.4647,N,07726.3703,W,14.61,293.42,220819,,,A*4A
$GPGGA,145403.250,4308.4649,N,07726.3716,W,1,06,1.28,166.3,M,-34.4,M,,*58
$GPRMC,145403.500,A,4308.4651,N,07726.3730,W,15.52,286.94,220819,,,A*46
$GPGGA,145403.750,4308.4653,N,07726.3745,W,1,06,1.28,166.4,M,-34.4,M,,*57
$GPRMC,145404.000,A,4308.4654,N,07726.3761,W,16.80,281.46,220819,,,A*41
$GPGGA,145404.250,4308.4656,N,07726.3777,W,1,06,1.28,166.5,M,-34.4,M,,*50
$GPRMC,145404.500,A,4308.4657,N,07726.3794,W,17.63,279.31,220819,,,A*46
$GPGGA,145404.750,4308.4658,N,07726.3812,W,1,06,1.28,166.7,M,-34.4,M,,*55
$GPRMC,145405.000,A,4308.4658,N,07726.3830,W,18.74,277.65,220819,,,A*4A
$GPGGA,145405.250,4308.4659,N,07726.3848,W,1,06,1.28,166.8,M,-34.4,M,,*50
$GPRMC,145405.500,A,4308.4660,N,07726.3866,W,19.33,277.01,220819,,,A*47
$GPGGA,145405.750,4308.4661,N,07726.3885,W,1,06,1.28,167.0,M,-34.4,M,,*56
$GPRMC,145406.000,A,4308.4662,N,07726.3904,W,19.90,277.05,220819,,,A*4B
$GPGGA,145406.250,4308.4663,N,07726.3923,W,1,06,1.28,167.1,M,-34.4,M,,*5E
$GPRMC,145406.500,A,4308.4664,N,07726.3942,W,20.35,277.96,220819,,,A*45
$GPGGA,145406.750,4308.4666,N,07726.3961,W,1,06,1.28,167.2,M,-34.4,M,,*5B
$GPRMC,145407.000,A,4308.4667,N,07726.3981,W,20.85,277.97,220819,,,A*47
$GPGGA,145407.250,4308.4669,N,07726.4001,W,1,06,1.28,167.3,M,-34.4,M,,*59
$GPRMC,145407.500,A,4308.4670,N,07726.4020,W,21.14,277.24,220819,,,A*40
$GPGGA,145407.750,4308.4671,N,07726.4040,W,1,06,1.28,167.5,M,-34.4,M,,*56
$GPRMC,145408.000,A,4308.4672,N,07726.4061,W,21.34,277.34,220819,,,A*4E
$GPGGA,145408.250,4308.4674,N,07726.4081,W,1,06,1.28,167.6,M,-34.4,M,,*57
$GPRMC,145408.500,A,4308.4676,N,07726.4101,W,21.25,277.53,220819,,,A*49
$GPGGA,145408.750,4308.4678,N,07726.4120,W,1,06,1.28,167.7,M,-34.4,M,,*55
$GPRMC,145409.000,A,4308.4679,N,07726.4138,W,20.34,277.05,220819,,,A*4A
$GPGGA,145409.250,4308.4680,N,07726.4156,W,1,06,1.28,167.8,M,-34.4,M,,*58
$GPRMC,145409.500,A,4308.4681,N,07726.4173,W,19.08,277.01,220819,,,A*46
$GPGGA,145409.750,4308.4682,N,07726.4189,W,1,06,1.28,167.9,M,-34.4,M,,*5C
$GPRMC,145410.000,A,4308.4684,N,07726.4205,W,17.55,278.60,220819,,,A*42
$GPGGA,145410.250,4308.4685,N,07726.4220,W,1,06,1.28,168.1,M,-34.4,M,,*51
$GPRMC,145410.500,A,4308.4686,N,07726.4234,W,16.07,279.92,220819,,,A*4D
$GPGGA,145410.750,4308.4687,N,07726.4247,W,1,06,1.28,168.2,M,-34.4,M,,*54
$GPRMC,145411.000,A,4308.4687,N,07726.4257,W,13.82,281.18,220819,,,A*40
$GPGGA,145411.250,4308.4687,N,07726.4267,W,1,06,1.28,168.4,M,-34.4,M,,*54
$GPRMC,145411.500,A,4308.4687,N,07726.4276,W,12.04,280.50,220819,,,A*44
$GPGGA,145411.750,4308.4687,N,07726.4285,W,1,06,1.28,168.6,M,-34.4,M,,*5F
$GPRMC,145412.000,A,4308.4685,N,07726.4292,W,9.87,276.42,220819,,,A*71
$GPGGA,145412.250,4308.4686,N,07726.4301,W,1,06,1.28,168.8,M,-34.4,M,,*5B
$GPRMC,145412.500,A,4308.4687,N,07726.4310,W,9.44,278.03,220819,,,A*79
$GPGGA,145412.750,4308.4688,N,07726.4318,W,1,06,1.28,169.1,M,-34.4,M,,*50
$GPRMC,145413.000,A,4308.4689,N,07726.4327,W,9.10,280.25,220819,,,A*75
$GPGGA,145413.250,4308.4691,N,07726.4334,W,1,06,1.28,169.3,M,-34.4,M,,*50
$GPRMC,145413.500,A,4308.4692,N,07726.4342,W,8.61,281.74,220819,,,A*7B
$GPGGA,145413.750,4308.4693,N,07726.4348,W,1,06,1.28,169.4,M,-34.4,M,,*5B
$GPRMC,145414.000,A,4308.4695,N,07726.4354,W,7.32,287.08,220819,,,A*7D
$GPGGA,145414.250,4308.4696,N,07726.4360,W,1,06,1.28,169.6,M,-34.4,M,,*54
$GPRMC,145414.500,A,4308.4698,N,07726.4365,W,6.57,292.54,220819,,,A*78
$GPGGA,145414.750,4308.4700,N,07726.4368,W,1,06,1.28,169.8,M,-34.4,M,,*59
$GPRMC,145415.000,A,4308.4703,N,07726.4372,W,5.59,303.02,220819,,,A*7E
$GPGGA,145415.250,4308.4705,N,07726.4375,W,1,06,1.28,170.0,M,-34.4,M,,*54
$GPRMC,145415.500,A,4308.4708,N,07726.4377,W,4.90,316.52,220819,,,A*70
$GPGGA,145415.750,4308.4710,N,07726.4378,W,1,06,1.28,170.1,M,-34.4,M,,*59
$GPRMC,145416.000,A,4308.4713,N,07726.4379,W,4.69,328.13,220819,,,A*7C
$GPGGA,145416.250,4308.4711,N,07726.4378,W,1,06,1.28,170.3,M,-34.4,M,,*5C
$GPRMC,145416.500,A,4308.4712,N,07726.4380,W,0.13,328.94,220819,,,A*78
$GPGGA,145416.750,4308.4713,N,07726.4379,W,1,06,1.29,170.3,M,-34.4,M,,*5B
$GPRMC,145417.000,A,4308.4713,N,07726.4379,W,0.12,328.94,220819,,,A*7A
$GPGGA,145417.250,4308.4713,N,07726.4378,W,1,06,1.28,170.1,M,-34.4,M,,*5D
$GPRMC,145417.500,A,4308.4713,N,07726.4377,W,0.11,328.94,220819,,,A*72
$GPGGA,145417.750,4308.4712,N,07726.4376,W,1,06,1.28,169.9,M,-34.4,M,,*57
$GPRMC,145418.000,A,4308.4712,N,07726.4376,W,0.08,328.94,220819,,,A*70
$GPGGA,145418.250,4308.4712,N,07726.4376,W,1,06,1.29,169.6,M,-34.4,M,,*53
$GPRMC,145418.500,A,4308.4712,N,07726.4377,W,0.11,328.94,220819,,,A*7C
$GPGGA,145418.750,4308.4711,N,07726.4379,W,1,06,1.28,169.2,M,-34.4,M,,*5F
$GPRMC,145419.000,A,4308.4711,N,07726.4382,W,0.22,328.94,220819,,,A*71
$GPGGA,145419.250,4308.4710,N,07726.4385,W,1,06,1.28,168.8,M,-34.4,M,,*52
$GPRMC,145419.500,A,4308.4710,N,07726.4389,W,3.75,292.53,220819,,,A*74
$GPGGA,145419.750,4308.4711,N,07726.4393,W,1,06,1.28,168.5,M,-34.4,M,,*5C
$GPRMC,145420.000,A,4308.4710,N,07726.4401,W,7.48,287.02,220819,,,A*76
$GPGGA,145420.250,4308.4709,N,07726.4408,W,1,06,1.29,168.0,M,-34.4,M,,*5B
$GPRMC,145420.500,A,4308.4709,N,07726.4418,W,10.00,283.45,220819,,,A*4E
$GPGGA,145420.750,4308.4709,N,07726.4430,W,1,06,1.29,167.8,M,-34.4,M,,*52
$GPRMC,145421.000,A,4308.4709,N,07726.4443,W,13.26,280.78,220819,,,A*4E
$GPGGA,145421.250,4308.4710,N,07726.4456,W,1,06,1.29,167.7,M,-34.4,M,,*51
$GPRMC,145421.500,A,4308.4711,N,07726.4471,W,15.33,279.01,220819,,,A*49
$GPGGA,145421.750,4308.4712,N,07726.4487,W,1,06,1.29,167.6,M,-34.4,M,,*5B
$GPRMC,145422.000,A,4308.4714,N,07726.4504,W,17.18,279.09,220819,,,A*4A
$GPGGA,145422.250,4308.4715,N,07726.4521,W,1,06,1.28,167.6,M,-34.4,M,,*56
$GPRMC,145422.500,A,4308.4716,N,07726.4539,W,18.45,279.46,220819,,,A*4F
$GPGGA,145422.750,4308.4718,N,07726.4559,W,1,06,1.28,167.7,M,-34.4,M,,*50
$GPRMC,145423.000,A,4308.4720,N,07726.4579,W,20.35,279.66,220819,,,A*44
$GPGGA,145423.250,4308.4721,N,07726.4598,W,1,06,1.28,167.7,M,-34.4,M,,*53
$GPRMC,145423.500,A,4308.4723,N,07726.4620,W,21.73,280.10,220819,,,A*49
$GPGGA,145423.750,4308.4726,N,07726.4642,W,1,06,1.28,167.9,M,-34.4,M,,*5B
$GPRMC,145424.000,A,4308.4728,N,07726.4664,W,23.08,279.76,220819,,,A*48
$GPGGA,145424.250,4308.4731,N,07726.4686,W,1,06,1.28,167.9,M,-34.4,M,,*57
$GPRMC,145424.500,A,4308.4733,N,07726.4710,W,24.84,278.15,220819,,,A*42
$GPGGA,145424.750,4308.4736,N,07726.4734,W,1,06,1.28,168.1,M,-34.4,M,,*5A
$GPRMC,145425.000,A,4308.4738,N,07726.4760,W,26.86,276.55,220819,,,A*40
$GPGGA,145425.250,4308.4740,N,07726.4786,W,1,06,1.28,168.2,M,-34.4,M,,*55
$GPRMC,145425.500,A,4308.4742,N,07726.4813,W,28.13,275.91,220819,,,A*4A
$GPGGA,145425.750,4308.4744,N,07726.4840,W,1,06,1.28,168.3,M,-34.4,M,,*50
$GPRMC,145426.000,A,4308.4746,N,07726.4869,W,29.82,275.97,220819,,,A*4A
$GPGGA,145426.250,4308.4748,N,07726.4897,W,1,06,1.28,168.5,M,-34.4,M,,*56
$GPRMC,145426.500,A,4308.4750,N,07726.4926,W,30.83,275.69,220819,,,A*4A
$GPGGA,145426.750,4308.4752,N,07726.4956,W,1,06,1.28,168.6,M,-34.4,M,,*57
$GPRMC,145427.000,A,4308.4754,N,07726.4986,W,31.82,275.83,220819,,,A*44
$GPGGA,145427.250,4308.4756,N,07726.5017,W,1,06,1.28,168.8,M,-34.4,M,,*54
$GPRMC,145427.500,A,4308.4758,N,07726.5048,W,32.27,275.65,220819,,,A*43
$GPGGA,145427.750,4308.4759,N,07726.5079,W,1,06,1.28,168.9,M,-34.4,M,,*57
$GPRMC,145428.000,A,4308.4761,N,07726.5111,W,33.74,274.95,220819,,,A*47
$GPGGA,145428.250,4308.4762,N,07726.5143,W,1,06,1.28,169.1,M,-34.4,M,,*54
$GPRMC,145428.500,A,4308.4763,N,07726.5176,W,34.62,274.62,220819,,,A*49
$GPGGA,145428.750,4308.4764,N,07726.5210,W,1,06,1.28,169.2,M,-34.4,M,,*51
$GPRMC,145429.000,A,4308.4766,N,07726.5243,W,35.80,273.93,220819,,,A*49
$GPGGA,145429.250,4308.4767,N,07726.5277,W,1,06,1.28,169.3,M,-34.4,M,,*56
$GPRMC,145429.500,A,4308.4768,N,07726.5313,W,36.74,273.53,220819,,,A*42
$GPGGA,145429.750,4308.4768,N,07726.5348,W,1,06,1.28,169.4,M,-34.4,M,,*56
$GPRMC,145430.000,A,4308.4769,N,07726.5384,W,37.86,272.79,220819,,,A*45
$GPGGA,145430.250,4308.4770,N,07726.5420,W,1,06,1.28,169.5,M,-34.4,M,,*5A
$GPRMC,145430.500,A,4308.4771,N,07726.5456,W,38.67,272.62,220819,,,A*4B
$GPGGA,145430.750,4308.4772,N,07726.5493,W,1,06,1.28,169.6,M,-34.4,M,,*56
$GPRMC,145431.000,A,4308.4773,N,07726.5531,W,39.35,272.58,220819,,,A*42
$GPGGA,145431.250,4308.4774,N,07726.5568,W,1,06,1.28,169.7,M,-34.4,M,,*50
$GPRMC,145431.500,A,4308.4775,N,07726.5605,W,39.41,272.97,220819,,,A*45
$GPGGA,145431.750,4308.4776,N,07726.5642,W,1,06,1.28,169.8,M,-34.4,M,,*53
$GPRMC,145432.000,A,4308.4777,N,07726.5678,W,39.50,273.06,220819,,,A*42
$GPGGA,145432.250,4308.4778,N,07726.5715,W,1,07,1.18,169.9,M,-34.4,M,,*5B
$GPRMC,145432.500,A,4308.4779,N,07726.5752,W,38.83,272.74,220819,,,A*4B
$GPGGA,145432.750,4308.4780,N,07726.5789,W,1,07,1.18,169.7,M,-34.4,M,,*52
$GPRMC,145433.000,A,4308.4781,N,07726.5826,W,38.73,272.39,220819,,,A*42
$GPGGA,145433.250,4308.4781,N,07726.5862,W,1,07,1.18,169.8,M,-34.4,M,,*52
$GPRMC,145433.500,A,4308.4782,N,07726.5898,W,38.75,272.33,220819,,,A*4D
$GPGGA,145433.750,4308.4783,N,07726.5935,W,1,07,1.18,169.8,M,-34.4,M,,*56
$GPRMC,145434.000,A,4308.4784,N,07726.5973,W,38.78,272.16,220819,,,A*47
$GPGGA,145434.250,4308.4785,N,07726.6011,W,1,07,1.18,169.8,M,-34.4,M,,*5E
$GPRMC,145434.500,A,4308.4786,N,07726.6049,W,39.69,271.97,220819,,,A*48
$GPGGA,145434.750,4308.4787,N,07726.6088,W,1,07,1.18,169.9,M,-34.4,M,,*58
$GPRMC,145435.000,A,4308.4788,N,07726.6127,W,40.21,271.65,220819,,,A*44
$GPGGA,145435.250,4308.4789,N,07726.6166,W,1,07,1.18,169.9,M,-34.4,M,,*53
$GPRMC,145435.500,A,4308.4789,N,07726.6205,W,40.53,271.04,220819,,,A*41
$GPGGA,145435.750,4308.4789,N,07726.6245,W,1,06,1.44,170.0,M,-34.4,M,,*5D
$GPRMC,145436.000,A,4308.4788,N,07726.6286,W,41.17,269.80,220819,,,A*49
$GPGGA,145436.250,4308.4788,N,07726.6326,W,1,06,1.44,170.0,M,-34.4,M,,*5E
$GPRMC,145436.500,A,4308.4787,N,07726.6366,W,41.43,269.09,220819,,,A*4C
$GPGGA,145436.750,4308.4786,N,07726.6407,W,1,07,1.18,170.1,M,-34.4,M,,*58
$GPRMC,145437.000,A,4308.4785,N,07726.6448,W,41.98,268.31,220819,,,A*4D
$GPGGA,145437.250,4308.4783,N,07726.6489,W,1,07,1.18,170.1,M,-34.4,M,,*5F
$GPRMC,145437.500,A,4308.4782,N,07726.6529,W,42.04,267.68,220819,,,A*4C
$GPGGA,145437.750,4308.4781,N,07726.6570,W,1,07,1.18,170.3,M,-34.4,M,,*5D
$GPRMC,145438.000,A,4308.4780,N,07726.6610,W,41.84,267.00,220819,,,A*48
$GPGGA,145438.250,4308.4778,N,07726.6650,W,1,07,1.18,170.4,M,-34.4,M,,*57
$GPRMC,145438.500,A,4308.4776,N,07726.6690,W,42.05,266.12,220819,,,A*44
$GPGGA,145438.750,4308.4774,N,07726.6731,W,1,07,1.18,170.6,M,-34.4,M,,*5A
$GPRMC,145439.000,A,4308.4772,N,07726.6771,W,42.05,265.04,220819,,,A*4E
$GPGGA,145439.250,4308.4770,N,07726.6811,W,1,07,1.18,170.9,M,-34.4,M,,*58
$GPRMC,145439.500,A,4308.4767,N,07726.6851,W,41.72,264.42,220819,,,A*42
$GPGGA,145439.750,4308.4764,N,07726.6891,W,1,07,1.18,171.2,M,-34.4,M,,*5A
$GPRMC,145440.000,A,4308.4761,N,07726.6931,W,41.87,263.84,220819,,,A*4F
$GPGGA,145440.250,4308.4758,N,07726.6971,W,1,07,1.18,171.5,M,-34.4,M,,*56
$GPRMC,145440.500,A,4308.4755,N,07726.7012,W,42.18,263.87,220819,,,A*42
$GPGGA,145440.750,4308.4752,N,07726.7053,W,1,07,1.18,171.9,M,-34.4,M,,*5D
$GPRMC,145441.000,A,4308.4749,N,07726.7094,W,42.26,263.66,220819,,,A*47
$GPGGA,145441.250,4308.4746,N,07726.7134,W,1,07,1.18,172.3,M,-34.4,M,,*55
$GPRMC,145441.500,A,4308.4743,N,07726.7176,W,42.80,263.85,220819,,,A*44
$GPGGA,145441.750,4308.4740,N,07726.7218,W,1,07,1.18,172.7,M,-34.4,M,,*5F
$GPRMC,145442.000,A,4308.4738,N,07726.7262,W,43.56,264.19,220819,,,A*40
$GPGGA,145442.250,4308.4735,N,07726.7304,W,1,07,1.18,172.8,M,-34.4,M,,*58
$GPRMC,145442.500,A,4308.4732,N,07726.7346,W,43.53,264.39,220819,,,A*4F
$GPGGA,145442.750,4308.4730,N,07726.7389,W,1,07,1.18,173.1,M,-34.4,M,,*55
$GPRMC,145443.000,A,4308.4727,N,07726.7431,W,43.46,264.65,220819,,,A*45
$GPGGA,145443.250,4308.4725,N,07726.7473,W,1,07,1.18,173.5,M,-34.4,M,,*53
$GPRMC,145443.500,A,4308.4722,N,07726.7514,W,43.01,264.75,220819,,,A*41
$GPGGA,145443.750,4308.4720,N,07726.7553,W,1,07,1.18,173.7,M,-34.4,M,,*52
$GPRMC,145444.000,A,4308.4717,N,07726.7594,W,42.38,264.51,220819,,,A*40
$GPGGA,145444.250,4308.4714,N,07726.7635,W,1,07,1.18,174.2,M,-34.4,M,,*56
$GPRMC,145444.500,A,4308.4712,N,07726.7676,W,42.36,265.11,220819,,,A*44
$GPGGA,145444.750,4308.4709,N,07726.7716,W,1,07,1.18,174.6,M,-34.4,M,,*5B
$GPRMC,145445.000,A,4308.4707,N,07726.7756,W,42.00,266.00,220819,,,A*41
$GPGGA,145445.250,4308.4705,N,07726.7796,W,1,07,1.18,174.9,M,-34.4,M,,*54
$GPRMC,145445.500,A,4308.4703,N,07726.7836,W,41.87,266.56,220819,,,A*46
$GPGGA,145445.750,4308.4701,N,07726.7878,W,1,07,1.18,175.1,M,-34.4,M,,*53
$GPRMC,145446.000,A,4308.4699,N,07726.7920,W,42.31,267.14,220819,,,A*4D
$GPGGA,145446.250,4308.4697,N,07726.7963,W,1,07,1.18,175.0,M,-34.4,M,,*51
$GPRMC,145446.500,A,4308.4695,N,07726.8005,W,42.46,266.72,220819,,,A*44
$GPGGA,145446.750,4308.4692,N,07726.8048,W,1,07,1.20,175.1,M,-34.4,M,,*54
$GPRMC,145447.000,A,4308.4689,N,07726.8090,W,42.62,265.87,220819,,,A*4E
$GPGGA,145447.250,4308.4686,N,07726.8133,W,1,07,1.18,175.1,M,-34.4,M,,*53
$GPRMC,145447.500,A,4308.4684,N,07726.8176,W,42.74,265.29,220819,,,A*4C
$GPGGA,145447.750,4308.4681,N,07726.8219,W,1,07,1.20,174.9,M,-34.4,M,,*58
$GPRMC,145448.000,A,4308.4679,N,07726.8263,W,43.42,265.03,220819,,,A*4F
$GPGGA,145448.250,4308.4676,N,07726.8305,W,1,07,1.20,174.7,M,-34.4,M,,*58
$GPRMC,145448.500,A,4308.4673,N,07726.8348,W,43.62,264.62,220819,,,A*4C
$GPGGA,145448.750,4308.4670,N,07726.8390,W,1,07,1.20,174.5,M,-34.4,M,,*55
$GPRMC,145449.000,A,4308.4668,N,07726.8433,W,43.95,264.53,220819,,,A*43
$GPGGA,145449.250,4308.4665,N,07726.8476,W,1,07,1.18,174.3,M,-34.4,M,,*57
$GPRMC,145449.500,A,4308.4662,N,07726.8519,W,43.87,264.35,220819,,,A*46
$GPGGA,145449.750,4308.4660,N,07726.8562,W,1,07,1.20,174.1,M,-34.4,M,,*5A
$GPRMC,145450.000,A,4308.4657,N,07726.8604,W,43.85,264.31,220819,,,A*44
$GPGGA,145450.250,4308.4655,N,07726.8647,W,1,07,1.20,174.0,M,-34.4,M,,*54
$GPRMC,145450.500,A,4308.4652,N,07726.8690,W,43.80,264.89,220819,,,A*4F
$GPGGA,145450.750,4308.4650,N,07726.8733,W,1,07,1.20,173.7,M,-34.4,M,,*56
$GPRMC,145451.000,A,4308.4647,N,07726.8775,W,43.59,265.15,220819,,,A*45
$GPGGA,145451.250,4308.4645,N,07726.8817,W,1,07,1.18,173.5,M,-34.4,M,,*56
$GPRMC,145451.500,A,4308.4642,N,07726.8859,W,43.45,264.91,220819,,,A*44
$GPGGA,145451.750,4308.4640,N,07726.8901,W,1,07,1.20,173.2,M,-34.4,M,,*5C
$GPRMC,145452.000,A,4308.4637,N,07726.8943,W,43.37,264.75,220819,,,A*45
$GPGGA,145452.250,4308.4635,N,07726.8985,W,1,07,1.18,173.0,M,-34.4,M,,*5D
$GPRMC,145452.500,A,4308.4632,N,07726.9027,W,43.39,264.67,220819,,,A*42
$GPGGA,145452.750,4308.4629,N,07726.9069,W,1,07,1.20,172.8,M,-34.4,M,,*5D
$GPRMC,145453.000,A,4308.4626,N,07726.9110,W,43.40,264.43,220819,,,A*4E
$GPGGA,145453.250,4308.4623,N,07726.9152,W,1,07,1.18,172.6,M,-34.4,M,,*5F
$GPRMC,145453.500,A,4308.4620,N,07726.9194,W,43.08,264.36,220819,,,A*4F
$GPGGA,145453.750,4308.4617,N,07726.9234,W,1,07,1.20,172.3,M,-34.4,M,,*50
$GPRMC,145454.000,A,4308.4614,N,07726.9275,W,42.45,263.73,220819,,,A*48
$GPGGA,145454.250,4308.4611,N,07726.9316,W,1,07,1.18,172.1,M,-34.4,M,,*5C
$GPRMC,145454.500,A,4308.4608,N,07726.9356,W,42.30,263.69,220819,,,A*49
$GPGGA,145454.750,4308.4605,N,07726.9396,W,1,07,1.20,171.8,M,-34.4,M,,*55
$GPRMC,145455.000,A,4308.4602,N,07726.9437,W,42.18,263.76,220819,,,A*43
$GPGGA,145455.250,4308.4599,N,07726.9477,W,1,07,1.18,171.5,M,-34.4,M,,*59
$GPRMC,145455.500,A,4308.4596,N,07726.9517,W,41.97,263.94,220819,,,A*43
$GPGGA,145455.750,4308.4594,N,07726.9557,W,1,07,1.20,171.2,M,-34.4,M,,*5E
$GPRMC,145456.000,A,4308.4591,N,07726.9596,W,41.70,264.50,220819,,,A*4D
$GPGGA,145456.250,4308.4589,N,07726.9635,W,1,07,1.18,170.9,M,-34.4,M,,*52
$GPRMC,145456.500,A,4308.4587,N,07726.9674,W,41.59,265.11,220819,,,A*4F
$GPGGA,145456.750,4308.4585,N,07726.9713,W,1,07,1.20,170.5,M,-34.4,M,,*59
$GPRMC,145457.000,A,4308.4584,N,07726.9752,W,41.47,264.99,220819,,,A*43
$GPGGA,145457.250,4308.4581,N,07726.9791,W,1,07,1.18,170.3,M,-34.4,M,,*5E
$GPRMC,145457.500,A,4308.4580,N,07726.9829,W,40.61,264.89,220819,,,A*45
$GPGGA,145457.750,4308.4578,N,07726.9867,W,1,07,1.20,170.0,M,-34.4,M,,*53
$GPRMC,145458.000,A,4308.4576,N,07726.9904,W,39.54,264.74,220819,,,A*42
$GPGGA,145458.250,4308.4574,N,07726.9941,W,1,07,1.18,169.7,M,-34.4,M,,*54
$GPRMC,145458.500,A,4308.4573,N,07726.9977,W,38.19,265.01,220819,,,A*4D
$GPGGA,145458.750,4308.4571,N,07727.0012,W,1,07,1.20,169.5,M,-34.4,M,,*5A
$GPRMC,145459.000,A,4308.4570,N,07727.0046,W,36.56,265.02,220819,,,A*4F
$GPGGA,145459.250,4308.4568,N,07727.0081,W,1,07,1.18,169.3,M,-34.4,M,,*51
$GPRMC,145459.500,A,4308.4566,N,07727.0114,W,36.16,264.47,220819,,,A*4F
$GPGGA,145459.750,4308.4564,N,07727.0148,W,1,07,1.18,169.2,M,-34.4,M,,*5D
$GPRMC,145500.000,A,4308.4562,N,07727.0182,W,36.33,264.98,220819,,,A*49
$GPGGA,145500.250,4308.4560,N,07727.0217,W,1,07,1.18,169.0,M,-34.4,M,,*5A
$GPRMC,145500.500,A,4308.4558,N,07727.0252,W,36.67,265.49,220819,,,A*47
$GPGGA,145500.750,4308.4556,N,07727.0286,W,1,07,1.18,168.9,M,-34.4,M,,*5A
$GPRMC,145501.000,A,4308.4554,N,07727.0320,W,36.39,265.52,220819,,,A*4A
$GPGGA,145501.250,4308.4553,N,07727.0353,W,1,07,1.18,168.7,M,-34.4,M,,*5C
$GPRMC,145501.500,A,4308.4552,N,07727.0386,W,36.50,266.45,220819,,,A*4F
$GPGGA,145501.750,4308.4551,N,07727.0419,W,1,07,1.18,168.6,M,-34.4,M,,*53
$GPRMC,145502.000,A,4308.4550,N,07727.0452,W,35.00,267.40,220819,,,A*47
$GPGGA,145502.250,4308.4549,N,07727.0484,W,1,07,1.18,168.6,M,-34.4,M,,*58
$GPRMC,145502.500,A,4308.4549,N,07727.0517,W,34.81,268.37,220819,,,A*4D
$GPGGA,145502.750,4308.4548,N,07727.0549,W,1,07,1.20,168.5,M,-34.4,M,,*54
$GPRMC,145503.000,A,4308.4548,N,07727.0581,W,34.31,269.33,220819,,,A*49
$GPGGA,145503.250,4308.4548,N,07727.0612,W,1,07,1.18,168.4,M,-34.4,M,,*57
$GPRMC,145503.500,A,4308.4548,N,07727.0644,W,34.02,270.01,220819,,,A*4F
$GPGGA,145503.750,4308.4548,N,07727.0675,W,1,07,1.18,168.3,M,-34.4,M,,*54
$GPRMC,145504.000,A,4308.4548,N,07727.0706,W,33.72,270.98,220819,,,A*4A
$GPGGA,145504.250,4308.4549,N,07727.0736,W,1,07,1.18,168.1,M,-34.4,M,,*53
$GPRMC,145504.500,A,4308.4550,N,07727.0766,W,32.72,271.68,220819,,,A*4F
$GPGGA,145504.750,4308.4551,N,07727.0797,W,1,07,1.18,168.0,M,-34.4,M,,*55
$GPRMC,145505.000,A,4308.4554,N,07727.0828,W,32.96,273.87,220819,,,A*43
$GPGGA,145505.250,4308.4556,N,07727.0858,W,1,07,1.18,167.9,M,-34.4,M,,*5C
$GPRMC,145505.500,A,4308.4558,N,07727.0887,W,32.55,275.08,220819,,,A*41
$GPGGA,145505.750,4308.4561,N,07727.0916,W,1,07,1.20,167.9,M,-34.4,M,,*5D
$GPRMC,145506.000,A,4308.4563,N,07727.0947,W,32.14,275.26,220819,,,A*4B
$GPGGA,145506.250,4308.4565,N,07727.0977,W,1,07,1.18,167.8,M,-34.4,M,,*52
$GPRMC,145506.500,A,4308.4568,N,07727.1007,W,31.82,275.96,220819,,,A*4E
$GPGGA,145506.750,4308.4571,N,07727.1037,W,1,07,1.20,167.7,M,-34.4,M,,*5A
$GPRMC,145507.000,A,4308.4574,N,07727.1065,W,31.41,276.92,220819,,,A*4B
$GPGGA,145507.250,4308.4577,N,07727.1094,W,1,07,1.18,167.6,M,-34.4,M,,*5B
$GPRMC,145507.500,A,4308.4579,N,07727.1123,W,30.97,276.92,220819,,,A*4A
$GPGGA,145507.750,4308.4582,N,07727.1151,W,1,07,1.20,167.6,M,-34.4,M,,*57
$GPRMC,145508.000,A,4308.4585,N,07727.1180,W,31.02,277.21,220819,,,A*4E
$GPGGA,145508.250,4308.4588,N,07727.1209,W,1,07,1.18,167.6,M,-34.4,M,,*52
$GPRMC,145508.500,A,4308.4591,N,07727.1237,W,31.05,277.65,220819,,,A*46
$GPGGA,145508.750,4308.4595,N,07727.1266,W,1,07,1.20,167.6,M,-34.4,M,,*59
$GPRMC,145509.000,A,4308.4598,N,07727.1295,W,31.06,278.12,220819,,,A*4F
$GPGGA,145509.250,4308.4601,N,07727.1325,W,1,07,1.18,167.6,M,-34.4,M,,*5E
$GPRMC,145509.500,A,4308.4605,N,07727.1354,W,31.50,278.61,220819,,,A*46
$GPGGA,145509.750,4308.4608,N,07727.1384,W,1,07,1.20,167.5,M,-34.4,M,,*51
$GPRMC,145510.000,A,4308.4612,N,07727.1414,W,31.61,278.68,220819,,,A*45
$GPGGA,145510.250,4308.4615,N,07727.1444,W,1,07,1.18,167.6,M,-34.4,M,,*53
$GPRMC,145510.500,A,4308.4618,N,07727.1473,W,31.56,278.33,220819,,,A*41
$GPGGA,145510.750,4308.4621,N,07727.1503,W,1,07,1.20,167.8,M,-34.4,M,,*56
$GPRMC,145511.000,A,4308.4625,N,07727.1532,W,31.64,278.73,220819,,,A*4A
$GPGGA,145511.250,4308.4629,N,07727.1562,W,1,07,1.18,168.1,M,-34.4,M,,*50
$GPRMC,145511.500,A,4308.4632,N,07727.1591,W,31.72,278.74,220819,,,A*40
$GPGGA,145511.750,4308.4635,N,07727.1621,W,1,07,1.20,168.3,M,-34.4,M,,*55
$GPRMC,145512.000,A,4308.4639,N,07727.1651,W,31.74,278.79,220819,,,A*49
$GPGGA,145512.250,4308.4642,N,07727.1681,W,1,07,1.18,168.6,M,-34.4,M,,*57
$GPRMC,145512.500,A,4308.4646,N,07727.1710,W,31.68,278.93,220819,,,A*49
$GPGGA,145512.750,4308.4650,N,07727.1740,W,1,07,1.20,168.8,M,-34.4,M,,*58
$GPRMC,145513.000,A,4308.4654,N,07727.1769,W,31.33,279.63,220819,,,A*40
$GPGGA,145513.250,4308.4658,N,07727.1799,W,1,07,1.18,169.0,M,-34.4,M,,*52
$GPRMC,145513.500,A,4308.4662,N,07727.1828,W,30.84,279.98,220819,,,A*43
$GPGGA,145513.750,4308.4666,N,07727.1857,W,1,07,1.20,169.2,M,-34.4,M,,*5E
$GPRMC,145514.000,A,4308.4670,N,07727.1885,W,30.62,280.38,220819,,,A*41
$GPGGA,145514.250,4308.4674,N,07727.1914,W,1,07,1.18,169.3,M,-34.4,M,,*53
$GPRMC,145514.500,A,4308.4678,N,07727.1943,W,30.41,280.39,220819,,,A*47
$GPGGA,145514.750,4308.4681,N,07727.1972,W,1,07,1.20,169.3,M,-34.4,M,,*57
$GPRMC,145515.000,A,4308.4685,N,07727.2000,W,29.91,279.64,220819,,,A*47
$GPGGA,145515.250,4308.4689,N,07727.2029,W,1,07,1.20,169.3,M,-34.4,M,,*5F
$GPRMC,145515.500,A,4308.4692,N,07727.2058,W,29.62,279.15,220819,,,A*43
$GPGGA,145515.750,4308.4696,N,07727.2086,W,1,07,1.20,169.3,M,-34.4,M,,*51
$GPRMC,145516.000,A,4308.4699,N,07727.2114,W,29.11,278.49,220819,,,A*4B
$GPGGA,145516.250,4308.4702,N,07727.2142,W,1,07,1.20,169.4,M,-34.4,M,,*55
$GPRMC,145516.500,A,4308.4705,N,07727.2169,W,28.69,278.47,220819,,,A*40
$GPGGA,145516.750,4308.4708,N,07727.2195,W,1,07,1.20,169.5,M,-34.4,M,,*51
$GPRMC,145517.000,A,4308.4711,N,07727.2222,W,28.50,278.31,220819,,,A*46
$GPGGA,145517.250,4308.4714,N,07727.2249,W,1,07,1.18,169.7,M,-34.4,M,,*53
$GPRMC,145517.500,A,4308.4717,N,07727.2276,W,28.55,278.13,220819,,,A*41
$GPGGA,145517.750,4308.4720,N,07727.2303,W,1,07,1.20,169.8,M,-34.4,M,,*5A
$GPRMC,145518.000,A,4308.4723,N,07727.2330,W,28.56,277.88,220819,,,A*41
$GPGGA,145518.250,4308.4726,N,07727.2358,W,1,07,1.20,169.9,M,-34.4,M,,*59
$GPRMC,145518.500,A,4308.4729,N,07727.2386,W,28.91,278.54,220819,,,A*46
$GPGGA,145518.750,4308.4732,N,07727.2413,W,1,07,1.20,169.9,M,-34.4,M,,*51
$GPRMC,145519.000,A,4308.4735,N,07727.2441,W,29.24,278.51,220819,,,A*49
$GPGGA,145519.250,4308.4739,N,07727.2468,W,1,07,1.18,170.1,M,-34.4,M,,*59
$GPRMC,145519.500,A,4308.4742,N,07727.2496,W,29.36,279.34,220819,,,A*47
$GPGGA,145519.750,4308.4746,N,07727.2524,W,1,07,1.20,170.3,M,-34.4,M,,*54
$GPRMC,145520.000,A,4308.4750,N,07727.2553,W,30.03,279.34,220819,,,A*4D
$GPGGA,145520.250,4308.4754,N,07727.2582,W,1,07,1.20,170.3,M,-34.4,M,,*54
$GPRMC,145520.500,A,4308.4758,N,07727.2610,W,30.36,278.84,220819,,,A*48
$GPGGA,145520.750,4308.4761,N,07727.2640,W,1,07,1.20,170.4,M,-34.4,M,,*5D
$GPRMC,145521.000,A,4308.4765,N,07727.2669,W,30.66,277.99,220819,,,A*4A
$GPGGA,145521.250,4308.4768,N,07727.2697,W,1,07,1.18,170.5,M,-34.4,M,,*50
$GPRMC,145521.500,A,4308.4772,N,07727.2725,W,30.62,278.26,220819,,,A*4F
$GPGGA,145521.750,4308.4776,N,07727.2754,W,1,07,1.20,170.6,M,-34.4,M,,*5C
$GPRMC,145522.000,A,4308.4780,N,07727.2783,W,30.46,278.96,220819,,,A*45
$GPGGA,145522.250,4308.4784,N,07727.2812,W,1,07,1.18,170.7,M,-34.4,M,,*50
$GPRMC,145522.500,A,4308.4787,N,07727.2840,W,30.67,279.36,220819,,,A*4F
$GPGGA,145522.750,4308.4790,N,07727.2869,W,1,07,1.20,171.0,M,-34.4,M,,*51
$GPRMC,145523.000,A,4308.4794,N,07727.2898,W,30.64,278.48,220819,,,A*47
$GPGGA,145523.250,4308.4797,N,07727.2927,W,1,07,1.18,171.2,M,-34.4,M,,*50
$GPRMC,145523.500,A,4308.4801,N,07727.2956,W,30.72,278.25,220819,,,A*4E
$GPGGA,145523.750,4308.4804,N,07727.2985,W,1,07,1.20,171.6,M,-34.4,M,,*57
$GPRMC,145524.000,A,4308.4807,N,07727.3014,W,31.01,278.32,220819,,,A*47
$GPGGA,145524.250,4308.4811,N,07727.3044,W,1,07,1.18,171.3,M,-34.4,M,,*5A
$GPRMC,145524.500,A,4308.4815,N,07727.3074,W,31.44,278.89,220819,,,A*46
$GPGGA,145524.750,4308.4819,N,07727.3103,W,1,07,1.20,171.5,M,-34.4,M,,*58
$GPRMC,145525.000,A,4308.4822,N,07727.3133,W,31.34,278.63,220819,,,A*47
$GPGGA,145525.250,4308.4825,N,07727.3163,W,1,07,1.20,171.5,M,-34.4,M,,*55
$GPRMC,145525.500,A,4308.4829,N,07727.3193,W,31.32,278.21,220819,,,A*43
$GPGGA,145525.750,4308.4832,N,07727.3223,W,1,07,1.20,171.3,M,-34.4,M,,*57
$GPRMC,145526.000,A,4308.4835,N,07727.3253,W,31.36,278.23,220819,,,A*41
$GPGGA,145526.250,4308.4839,N,07727.3283,W,1,07,1.20,171.4,M,-34.4,M,,*57
$GPRMC,145526.500,A,4308.4843,N,07727.3313,W,31.73,279.02,220819,,,A*43
$GPGGA,145526.750,4308.4846,N,07727.3343,W,1,07,1.20,171.2,M,-34.4,M,,*51
$GPRMC,145527.000,A,4308.4850,N,07727.3374,W,31.83,279.24,220819,,,A*4F
$GPGGA,145527.250,4308.4854,N,07727.3404,W,1,07,1.20,170.9,M,-34.4,M,,*58
$GPRMC,145527.500,A,4308.4857,N,07727.3435,W,31.89,279.01,220819,,,A*42
$GPGGA,145527.750,4308.4861,N,07727.3465,W,1,07,1.20,170.5,M,-34.4,M,,*50
$GPRMC,145528.000,A,4308.4864,N,07727.3495,W,31.43,278.86,220819,,,A*4A
$GPGGA,145528.250,4308.4867,N,07727.3525,W,1,07,1.20,170.1,M,-34.4,M,,*5D
$GPRMC,145528.500,A,4308.4871,N,07727.3555,W,31.67,278.35,220819,,,A*48
$GPGGA,145528.750,4308.4874,N,07727.3585,W,1,07,1.20,169.8,M,-34.4,M,,*51
$GPRMC,145529.000,A,4308.4878,N,07727.3615,W,31.77,278.34,220819,,,A*42
$GPGGA,145529.250,4308.4881,N,07727.3645,W,1,07,1.20,169.4,M,-34.4,M,,*5C
$GPRMC,145529.500,A,4308.4885,N,07727.3676,W,32.00,278.14,220819,,,A*41
$GPGGA,145529.750,4308.4888,N,07727.3706,W,1,07,1.20,169.0,M,-34.4,M,,*52
$GPRMC,145530.000,A,4308.4892,N,07727.3737,W,32.24,278.45,220819,,,A*4C
$GPGGA,145530.250,4308.4895,N,07727.3767,W,1,07,1.18,168.7,M,-34.4,M,,*59
$GPRMC,145530.500,A,4308.4899,N,07727.3797,W,32.35,279.08,220819,,,A*40
$GPGGA,145530.750,4308.4902,N,07727.3828,W,1,07,1.20,168.6,M,-34.4,M,,*5D
$GPRMC,145531.000,A,4308.4906,N,07727.3858,W,32.36,279.29,220819,,,A*4F
$GPGGA,145531.250,4308.4910,N,07727.3888,W,1,07,1.20,168.4,M,-34.4,M,,*52
$GPRMC,145531.500,A,4308.4914,N,07727.3918,W,32.32,279.66,220819,,,A*43
$GPGGA,145531.750,4308.4918,N,07727.3948,W,1,07,1.20,168.3,M,-34.4,M,,*55
$GPRMC,145532.000,A,4308.4922,N,07727.3979,W,32.59,279.55,220819,,,A*4A
$GPGGA,145532.250,4308.4926,N,07727.4009,W,1,07,1.18,168.1,M,-34.4,M,,*5C
$GPRMC,145532.500,A,4308.4930,N,07727.4040,W,32.84,279.77,220819,,,A*48
$GPGGA,145532.750,4308.4934,N,07727.4071,W,1,07,1.20,167.9,M,-34.4,M,,*59
$GPRMC,145533.000,A,4308.4937,N,07727.4103,W,33.23,279.34,220819,,,A*46
$GPGGA,145533.250,4308.4941,N,07727.4134,W,1,07,1.20,167.8,M,-34.4,M,,*5E
$GPRMC,145533.500,A,4308.4945,N,07727.4165,W,33.30,278.82,220819,,,A*48
$GPGGA,145533.750,4308.4948,N,07727.4196,W,1,07,1.20,167.6,M,-34.4,M,,*54
$GPRMC,145534.000,A,4308.4952,N,07727.4227,W,33.23,278.54,220819,,,A*40
$GPGGA,145534.250,4308.4955,N,07727.4258,W,1,07,1.18,167.5,M,-34.4,M,,*53
$GPRMC,145534.500,A,4308.4959,N,07727.4289,W,33.21,278.42,220819,,,A*4F
$GPGGA,145534.750,4308.4962,N,07727.4320,W,1,07,1.20,167.5,M,-34.4,M,,*57
$GPRMC,145535.000,A,4308.4966,N,07727.4352,W,33.44,278.32,220819,,,A*44
$GPGGA,145535.250,4308.4969,N,07727.4383,W,1,07,1.18,167.5,M,-34.4,M,,*5A
$GPRMC,145535.500,A,4308.4972,N,07727.4414,W,33.58,278.42,220819,,,A*4B
$GPGGA,145535.750,4308.4976,N,07727.4445,W,1,07,1.20,167.5,M,-34.4,M,,*57
$GPRMC,145536.000,A,4308.4980,N,07727.4476,W,33.31,279.00,220819,,,A*4C
$GPGGA,145536.250,4308.4983,N,07727.4507,W,1,07,1.18,167.5,M,-34.4,M,,*57
$GPRMC,145536.500,A,4308.4986,N,07727.4538,W,33.19,278.00,220819,,,A*4F
$GPGGA,145536.750,4308.4989,N,07727.4568,W,1,07,1.20,167.4,M,-34.4,M,,*5B
$GPRMC,145537.000,A,4308.4992,N,07727.4599,W,32.77,277.35,220819,,,A*45
$GPGGA,145537.250,4308.4995,N,07727.4629,W,1,07,1.18,167.5,M,-34.4,M,,*5E
$GPRMC,145537.500,A,4308.4996,N,07727.4659,W,32.22,276.16,220819,,,A*4B
$GPGGA,145537.750,4308.4999,N,07727.4689,W,1,07,1.20,167.5,M,-34.4,M,,*56
$GPRMC,145538.000,A,4308.5002,N,07727.4719,W,32.30,277.48,220819,,,A*48
$GPGGA,145538.250,4308.5006,N,07727.4749,W,1,07,1.18,167.5,M,-34.4,M,,*54
$GPRMC,145538.500,A,4308.5009,N,07727.4779,W,32.25,278.84,220819,,,A*4B
$GPGGA,145538.750,4308.5013,N,07727.4809,W,1,07,1.20,167.6,M,-34.4,M,,*56
$GPRMC,145539.000,A,4308.5017,N,07727.4839,W,32.52,279.47,220819,,,A*45
$GPGGA,145539.250,4308.5021,N,07727.4870,W,1,07,1.18,167.6,M,-34.4,M,,*56
$GPRMC,145539.500,A,4308.5025,N,07727.4900,W,32.59,279.51,220819,,,A*46
$GPGGA,145539.750,4308.5029,N,07727.4930,W,1,07,1.20,167.7,M,-34.4,M,,*54
$GPRMC,145540.000,A,4308.5032,N,07727.4961,W,32.56,279.28,220819,,,A*4D
$GPGGA,145540.250,4308.5036,N,07727.4991,W,1,07,1.18,167.8,M,-34.4,M,,*5E
$GPRMC,145540.500,A,4308.5040,N,07727.5022,W,32.59,279.70,220819,,,A*40
$GPGGA,145540.750,4308.5045,N,07727.5052,W,1,07,1.20,168.0,M,-34.4,M,,*54
$GPRMC,145541.000,A,4308.5051,N,07727.5083,W,32.83,281.46,220819,,,A*4A
$GPGGA,145541.250,4308.5055,N,07727.5113,W,1,07,1.18,168.2,M,-34.4,M,,*5C
$GPRMC,145541.500,A,4308.5059,N,07727.5143,W,32.51,280.89,220819,,,A*47
$GPGGA,145541.750,4308.5064,N,07727.5173,W,1,07,1.20,168.5,M,-34.4,M,,*51
$GPRMC,145542.000,A,4308.5068,N,07727.5204,W,32.55,279.90,220819,,,A*49
$GPGGA,145542.250,4308.5072,N,07727.5234,W,1,07,1.18,168.8,M,-34.4,M,,*56
$GPRMC,145542.500,A,4308.5075,N,07727.5264,W,32.47,278.83,220819,,,A*46
$GPGGA,145542.750,4308.5078,N,07727.5295,W,1,07,1.20,169.1,M,-34.4,M,,*51
$GPRMC,145543.000,A,4308.5082,N,07727.5325,W,32.46,278.46,220819,,,A*46
$GPGGA,145543.250,4308.5086,N,07727.5356,W,1,07,1.20,169.4,M,-34.4,M,,*5F
$GPRMC,145543.500,A,4308.5089,N,07727.5387,W,32.72,278.81,220819,,,A*4C
$GPGGA,145543.750,4308.5093,N,07727.5418,W,1,07,1.20,169.7,M,-34.4,M,,*50
$GPRMC,145544.000,A,4308.5097,N,07727.5449,W,33.16,278.85,220819,,,A*43
$GPGGA,145544.250,4308.5100,N,07727.5481,W,1,07,1.18,170.0,M,-34.4,M,,*5D
$GPRMC,145544.500,A,4308.5104,N,07727.5512,W,32.95,278.04,220819,,,A*41
$GPGGA,145544.750,4308.5107,N,07727.5543,W,1,07,1.20,170.2,M,-34.4,M,,*59
$GPRMC,145545.000,A,4308.5110,N,07727.5574,W,33.05,278.01,220819,,,A*4D
$GPGGA,145545.250,4308.5114,N,07727.5606,W,1,07,1.18,170.4,M,-34.4,M,,*50
$GPRMC,145545.500,A,4308.5117,N,07727.5637,W,33.32,278.01,220819,,,A*4F
$GPGGA,145545.750,4308.5121,N,07727.5669,W,1,07,1.20,170.7,M,-34.4,M,,*52
$GPRMC,145546.000,A,4308.5125,N,07727.5701,W,33.55,278.76,220819,,,A*4D
$GPGGA,145546.250,4308.5129,N,07727.5733,W,1,07,1.18,171.0,M,-34.4,M,,*5F
$GPRMC,145546.500,A,4308.5132,N,07727.5765,W,33.95,278.68,220819,,,A*4F
$GPGGA,145546.750,4308.5136,N,07727.5797,W,1,07,1.20,171.1,M,-34.4,M,,*50
$GPRMC,145547.000,A,4308.5139,N,07727.5829,W,33.75,278.96,220819,,,A*48
$GPGGA,145547.250,4308.5143,N,07727.5861,W,1,07,1.18,171.2,M,-34.4,M,,*58
$GPRMC,145547.500,A,4308.5147,N,07727.5893,W,33.84,278.84,220819,,,A*48
$GPGGA,145547.750,4308.5150,N,07727.5924,W,1,07,1.20,171.2,M,-34.4,M,,*54
$GPRMC,145548.000,A,4308.5153,N,07727.5956,W,33.73,277.93,220819,,,A*4E
$GPGGA,145548.250,4308.5156,N,07727.5987,W,1,07,1.18,171.2,M,-34.4,M,,*5A
$GPRMC,145548.500,A,4308.5159,N,07727.6019,W,33.18,277.98,220819,,,A*46
$GPGGA,145548.750,4308.5162,N,07727.6050,W,1,07,1.20,171.2,M,-34.4,M,,*53
$GPRMC,145549.000,A,4308.5165,N,07727.6083,W,33.18,278.01,220819,,,A*41
$GPGGA,145549.250,4308.5169,N,07727.6115,W,1,07,1.18,170.9,M,-34.4,M,,*5D
$GPRMC,145549.500,A,4308.5172,N,07727.6147,W,32.97,277.78,220819,,,A*4C
$GPGGA,145549.750,4308.5175,N,07727.6179,W,1,07,1.20,170.6,M,-34.4,M,,*5B
$GPRMC,145550.000,A,4308.5178,N,07727.6210,W,32.39,277.50,220819,,,A*44
$GPGGA,145550.250,4308.5181,N,07727.6240,W,1,07,1.18,170.6,M,-34.4,M,,*5F
$GPRMC,145550.500,A,4308.5183,N,07727.6270,W,31.88,276.67,220819,,,A*4F
$GPGGA,145550.750,4308.5187,N,07727.6300,W,1,07,1.20,170.5,M,-34.4,M,,*51
$GPRMC,145551.000,A,4308.5190,N,07727.6331,W,31.46,276.81,220819,,,A*47
$GPGGA,145551.250,4308.5193,N,07727.6362,W,1,07,1.20,170.1,M,-34.4,M,,*50
$GPRMC,145551.500,A,4308.5197,N,07727.6393,W,31.51,277.35,220819,,,A*45
$GPGGA,145551.750,4308.5200,N,07727.6424,W,1,07,1.20,169.8,M,-34.4,M,,*58
$GPRMC,145552.000,A,4308.5203,N,07727.6454,W,31.28,276.70,220819,,,A*4F
$GPGGA,145552.250,4308.5206,N,07727.6485,W,1,07,1.20,169.5,M,-34.4,M,,*5E
$GPRMC,145552.500,A,4308.5209,N,07727.6515,W,31.23,276.71,220819,,,A*4E
$GPGGA,145552.750,4308.5212,N,07727.6544,W,1,07,1.20,169.3,M,-34.4,M,,*54
$GPRMC,145553.000,A,4308.5214,N,07727.6574,W,30.93,276.07,220819,,,A*4A
$GPGGA,145553.250,4308.5217,N,07727.6603,W,1,07,1.18,169.4,M,-34.4,M,,*59
$GPRMC,145553.500,A,4308.5219,N,07727.6632,W,30.84,275.75,220819,,,A*43
$GPGGA,145553.750,4308.5221,N,07727.6661,W,1,07,1.20,169.5,M,-34.4,M,,*57
$GPRMC,145554.000,A,4308.5223,N,07727.6690,W,30.43,275.32,220819,,,A*48
$GPGGA,145554.250,4308.5226,N,07727.6718,W,1,07,1.18,169.5,M,-34.4,M,,*56
$GPRMC,145554.500,A,4308.5227,N,07727.6747,W,30.34,274.48,220819,,,A*4E
$GPGGA,145554.750,4308.5229,N,07727.6776,W,1,07,1.18,169.6,M,-34.4,M,,*57
