Vers 60
USE_SERIAL_FEEDBACK=true
DEVELOPMENT_MODE=false
USE_RMC_ONLY=false

$GPRMC,133152.500,A,4308.3030,N,07726.2624,W,0.13,160.63,240519,,,A*7C
$GPGGA,133152.750,4308.3031,N,07726.2624,W,1,08,1.16,144.1,M,-34.4,M,,*53
lng=-77.437705, lat=43.138385, altitude=144.10, speed=0.13, satellites=8, angle=160.6300, fixquality=1
$GPRMC,133153.000,A,4308.3033,N,07726.2624,W,0.09,145.08,240519,,,A*7A
$GPGGA,133153.250,4308.3034,N,07726.2624,W,1,08,1.16,144.2,M,-34.4,M,,*51
lng=-77.437705, lat=43.138385, altitude=144.10, speed=0.09, satellites=8, angle=145.0800, fixquality=1
$GPRMC,133153.500,A,4308.3036,N,07726.2624,W,0.08,127.57,240519,,,A*75
$GPGGA,133153.750,4308.3044,N,07726.2622,W,1,09,0.91,144.2,M,-34.4,M,,*5A
lng=-77.437705, lat=43.138393, altitude=144.20, speed=0.08, satellites=8, angle=127.5700, fixquality=1
$GPRMC,133154.000,A,4308.3042,N,07726.2625,W,0.19,174.10,240519,,,A*70
$GPGGA,133154.250,4308.3041,N,07726.2626,W,1,09,0.91,144.2,M,-34.4,M,,*59
lng=-77.437713, lat=43.138404, altitude=144.20, speed=0.19, satellites=9, angle=174.1000, fixquality=1
$GPRMC,133154.500,A,4308.3039,N,07726.2628,W,0.07,167.04,240519,,,A*7C
$GPGGA,133154.750,4308.3038,N,07726.2629,W,1,09,0.91,144.3,M,-34.4,M,,*5C
lng=-77.437713, lat=43.138393, altitude=144.20, speed=0.07, satellites=9, angle=167.0400, fixquality=1
$GPRMC,133155.000,A,4308.3038,N,07726.2629,W,0.06,136.16,240519,,,A*7E
$GPGGA,133155.250,4308.3037,N,07726.2631,W,1,09,0.91,144.3,M,-34.4,M,,*5E
lng=-77.437713, lat=43.138393, altitude=144.30, speed=0.06, satellites=9, angle=136.1600, fixquality=1
$GPRMC,133155.500,A,4308.3039,N,07726.2630,W,0.09,112.95,240519,,,A*70
$GPGGA,133155.750,4308.3040,N,07726.2630,W,1,09,0.91,144.3,M,-34.4,M,,*5A
lng=-77.437721, lat=43.138393, altitude=144.30, speed=0.09, satellites=9, angle=112.9500, fixquality=1
$GPRMC,133156.000,A,4308.3039,N,07726.2629,W,0.05,73.63,240519,,,A*4D
$GPGGA,133156.250,4308.3040,N,07726.2629,W,1,09,0.91,144.2,M,-34.4,M,,*55
lng=-77.437713, lat=43.138393, altitude=144.30, speed=0.05, satellites=9, angle=73.6300, fixquality=1
$GPRMC,133156.500,A,4308.3041,N,07726.2630,W,0.01,356.56,240519,,,A*79
$GPGGA,133156.750,4308.3040,N,07726.2631,W,1,09,0.91,144.2,M,-34.4,M,,*59
lng=-77.437721, lat=43.138404, altitude=144.20, speed=0.01, satellites=9, angle=356.5600, fixquality=1
$GPRMC,133157.000,A,4308.3040,N,07726.2632,W,0.04,281.51,240519,,,A*77
$GPGGA,133157.250,4308.3040,N,07726.2633,W,1,09,0.91,144.2,M,-34.4,M,,*5F
lng=-77.437721, lat=43.138404, altitude=144.20, speed=0.04, satellites=9, angle=281.5100, fixquality=1
$GPRMC,133157.500,A,4308.3040,N,07726.2634,W,0.04,296.21,240519,,,A*75
$GPGGA,133157.750,4308.3040,N,07726.2634,W,1,09,0.91,144.2,M,-34.4,M,,*5D
lng=-77.437721, lat=43.138404, altitude=144.20, speed=0.04, satellites=9, angle=296.2100, fixquality=1
$GPRMC,133158.000,A,4308.3041,N,07726.2635,W,0.03,270.80,240519,,,A*7B
$GPGGA,133158.250,4308.3041,N,07726.2635,W,1,09,0.91,144.2,M,-34.4,M,,*57
lng=-77.437728, lat=43.138404, altitude=144.20, speed=0.03, satellites=9, angle=270.8000, fixquality=1
$GPRMC,133158.500,A,4308.3041,N,07726.2636,W,0.02,316.94,240519,,,A*78
$GPGGA,133158.750,4308.3041,N,07726.2636,W,1,09,0.91,144.3,M,-34.4,M,,*50
lng=-77.437728, lat=43.138404, altitude=144.20, speed=0.02, satellites=9, angle=316.9400, fixquality=1
$GPRMC,133159.000,A,4308.3039,N,07726.2637,W,0.40,188.74,240519,,,A*7F
$GPGGA,133159.250,4308.3039,N,07726.2637,W,1,09,0.91,144.3,M,-34.4,M,,*5A
lng=-77.437728, lat=43.138393, altitude=144.30, speed=0.40, satellites=9, angle=188.7400, fixquality=1
$GPRMC,133159.500,A,4308.3038,N,07726.2638,W,0.12,233.92,240519,,,A*78
$GPGGA,133159.750,4308.3038,N,07726.2638,W,1,09,0.91,144.2,M,-34.4,M,,*50
lng=-77.437728, lat=43.138393, altitude=144.30, speed=0.12, satellites=9, angle=233.9200, fixquality=1
$GPRMC,133200.000,A,4308.3038,N,07726.2638,W,0.11,227.09,240519,,,A*76
$GPGGA,133200.250,4308.3037,N,07726.2638,W,1,09,0.91,144.3,M,-34.4,M,,*54
lng=-77.437728, lat=43.138393, altitude=144.20, speed=0.11, satellites=9, angle=227.0900, fixquality=1
$GPRMC,133200.500,A,4308.3037,N,07726.2637,W,0.11,270.54,240519,,,A*79
$GPGGA,133200.750,4308.3037,N,07726.2637,W,1,09,0.91,144.3,M,-34.4,M,,*5E
lng=-77.437728, lat=43.138393, altitude=144.30, speed=0.11, satellites=9, angle=270.5400, fixquality=1
$GPRMC,133201.000,A,4308.3037,N,07726.2636,W,0.16,45.37,240519,,,A*4A
$GPGGA,133201.250,4308.3037,N,07726.2636,W,1,09,0.91,144.3,M,-34.4,M,,*5B
lng=-77.437728, lat=43.138393, altitude=144.30, speed=0.16, satellites=9, angle=45.3700, fixquality=1
$GPRMC,133201.500,A,4308.3037,N,07726.2636,W,0.16,71.25,240519,,,A*4B
$GPGGA,133201.750,4308.3037,N,07726.2636,W,1,09,0.91,144.3,M,-34.4,M,,*5E
lng=-77.437728, lat=43.138393, altitude=144.30, speed=0.16, satellites=9, angle=71.2500, fixquality=1
$GPRMC,133202.000,A,4308.3036,N,07726.2636,W,0.20,120.63,240519,,,A*7E
$GPGGA,133202.250,4308.3036,N,07726.2637,W,1,09,0.91,144.3,M,-34.4,M,,*58
lng=-77.437728, lat=43.138393, altitude=144.30, speed=0.20, satellites=9, angle=120.6300, fixquality=1
$GPRMC,133202.500,A,4308.3036,N,07726.2637,W,0.13,100.48,240519,,,A*71
$GPGGA,133202.750,4308.3035,N,07726.2637,W,1,09,0.91,144.3,M,-34.4,M,,*5E
lng=-77.437728, lat=43.138393, altitude=144.30, speed=0.13, satellites=9, angle=100.4800, fixquality=1
$GPRMC,133203.000,A,4308.3035,N,07726.2637,W,0.13,17.60,240519,,,A*4B
$GPGGA,133203.250,4308.3034,N,07726.2638,W,1,09,0.91,144.3,M,-34.4,M,,*54
lng=-77.437728, lat=43.138393, altitude=144.30, speed=0.13, satellites=9, angle=17.6000, fixquality=1
$GPRMC,133203.500,A,4308.3034,N,07726.2638,W,0.10,301.47,240519,,,A*72
$GPGGA,133203.750,4308.3033,N,07726.2638,W,1,09,0.91,144.3,M,-34.4,M,,*56
lng=-77.437728, lat=43.138385, altitude=144.30, speed=0.10, satellites=9, angle=301.4700, fixquality=1
$GPRMC,133204.000,A,4308.3033,N,07726.2638,W,0.04,18.25,240519,,,A*4D
$GPGGA,133204.250,4308.3033,N,07726.2638,W,1,09,0.91,144.3,M,-34.4,M,,*54
lng=-77.437728, lat=43.138385, altitude=144.30, speed=0.04, satellites=9, angle=18.2500, fixquality=1
$GPRMC,133204.500,A,4308.3032,N,07726.2639,W,0.05,26.37,240519,,,A*47
$GPGGA,133204.750,4308.3032,N,07726.2639,W,1,09,0.91,144.3,M,-34.4,M,,*51
lng=-77.437728, lat=43.138385, altitude=144.30, speed=0.05, satellites=9, angle=26.3700, fixquality=1
$GPRMC,133205.000,A,4308.3032,N,07726.2639,W,0.09,80.47,240519,,,A*44
$GPGGA,133205.250,4308.3032,N,07726.2639,W,1,09,0.91,144.3,M,-34.4,M,,*55
lng=-77.437728, lat=43.138385, altitude=144.30, speed=0.09, satellites=9, angle=80.4700, fixquality=1
$GPRMC,133205.500,A,4308.3032,N,07726.2639,W,0.05,190.63,240519,,,A*7B
$GPGGA,133205.750,4308.3032,N,07726.2639,W,1,09,0.91,144.3,M,-34.4,M,,*50
lng=-77.437728, lat=43.138385, altitude=144.30, speed=0.05, satellites=9, angle=190.6300, fixquality=1
$GPRMC,133206.000,A,4308.3032,N,07726.2639,W,0.06,66.10,240519,,,A*42
$GPGGA,133206.250,4308.3032,N,07726.2639,W,1,09,0.91,144.3,M,-34.4,M,,*56
lng=-77.437728, lat=43.138385, altitude=144.30, speed=0.06, satellites=9, angle=66.1000, fixquality=1
$GPRMC,133206.500,A,4308.3032,N,07726.2639,W,0.07,89.81,240519,,,A*4F
$GPGGA,133206.750,4308.3032,N,07726.2639,W,1,09,0.91,144.3,M,-34.4,M,,*53
lng=-77.437728, lat=43.138385, altitude=144.30, speed=0.07, satellites=9, angle=89.8100, fixquality=1
$GPRMC,133207.000,A,4308.3031,N,07726.2639,W,0.09,123.41,240519,,,A*7B
$GPGGA,133207.250,4308.3031,N,07726.2639,W,1,09,0.91,144.3,M,-34.4,M,,*54
lng=-77.437728, lat=43.138385, altitude=144.30, speed=0.09, satellites=9, angle=123.4100, fixquality=1
$GPRMC,133207.500,A,4308.3030,N,07726.2639,W,0.13,143.41,240519,,,A*72
$GPGGA,133207.750,4308.3030,N,07726.2639,W,1,09,0.91,144.3,M,-34.4,M,,*50
lng=-77.437728, lat=43.138385, altitude=144.30, speed=0.13, satellites=9, angle=143.4100, fixquality=1
$GPRMC,133208.000,A,4308.3030,N,07726.2639,W,0.17,201.32,240519,,,A*7D
$GPGGA,133208.250,4308.3030,N,07726.2639,W,1,09,0.91,144.3,M,-34.4,M,,*5A
lng=-77.437728, lat=43.138385, altitude=144.30, speed=0.17, satellites=9, angle=201.3200, fixquality=1
$GPRMC,133208.500,A,4308.3030,N,07726.2640,W,0.05,253.78,240519,,,A*7C
$GPGGA,133208.750,4308.3031,N,07726.2640,W,1,09,0.91,144.3,M,-34.4,M,,*50
lng=-77.437736, lat=43.138385, altitude=144.30, speed=0.05, satellites=9, angle=253.7800, fixquality=1
$GPRMC,133209.000,A,4308.3031,N,07726.2640,W,0.08,334.51,240519,,,A*7F
$GPGGA,133209.250,4308.3031,N,07726.2640,W,1,09,0.91,144.4,M,-34.4,M,,*53
lng=-77.437736, lat=43.138385, altitude=144.30, speed=0.08, satellites=9, angle=334.5100, fixquality=1
$GPRMC,133209.500,A,4308.3031,N,07726.2640,W,0.06,346.03,240519,,,A*76
$GPGGA,133209.750,4308.3031,N,07726.2640,W,1,09,0.93,144.4,M,-34.4,M,,*54
lng=-77.437736, lat=43.138385, altitude=144.40, speed=0.06, satellites=9, angle=346.0300, fixquality=1
$GPRMC,133210.000,A,4308.3031,N,07726.2640,W,0.05,47.49,240519,,,A*44
$GPGGA,133210.250,4308.3031,N,07726.2640,W,1,09,0.91,144.4,M,-34.4,M,,*5B
lng=-77.437736, lat=43.138385, altitude=144.40, speed=0.05, satellites=9, angle=47.4900, fixquality=1
$GPRMC,133210.500,A,4308.3031,N,07726.2640,W,0.07,295.92,240519,,,A*78
$GPGGA,133210.750,4308.3031,N,07726.2640,W,1,09,0.91,144.4,M,-34.4,M,,*5E
lng=-77.437736, lat=43.138385, altitude=144.40, speed=0.07, satellites=9, angle=295.9200, fixquality=1
$GPRMC,133211.000,A,4308.3031,N,07726.2641,W,0.13,272.42,240519,,,A*7C
$GPGGA,133211.250,4308.3030,N,07726.2641,W,1,09,0.91,144.4,M,-34.4,M,,*5A
lng=-77.437736, lat=43.138385, altitude=144.40, speed=0.13, satellites=9, angle=272.4200, fixquality=1
$GPRMC,133211.500,A,4308.3030,N,07726.2641,W,0.15,247.81,240519,,,A*77
$GPGGA,133211.750,4308.3030,N,07726.2641,W,1,09,0.91,144.4,M,-34.4,M,,*5F
lng=-77.437736, lat=43.138385, altitude=144.40, speed=0.15, satellites=9, angle=247.8100, fixquality=1
$GPRMC,133212.000,A,4308.3030,N,07726.2641,W,0.14,247.79,240519,,,A*77
$GPGGA,133212.250,4308.3030,N,07726.2641,W,1,09,0.91,144.4,M,-34.4,M,,*59
lng=-77.437736, lat=43.138385, altitude=144.40, speed=0.14, satellites=9, angle=247.7900, fixquality=1
$GPRMC,133212.500,A,4308.3030,N,07726.2640,W,0.08,255.77,240519,,,A*73
$GPGGA,133212.750,4308.3031,N,07726.2640,W,1,09,0.91,144.5,M,-34.4,M,,*5D
lng=-77.437736, lat=43.138385, altitude=144.40, speed=0.08, satellites=9, angle=255.7700, fixquality=1
$GPRMC,133213.000,A,4308.3031,N,07726.2640,W,0.07,319.94,240519,,,A*7D
$GPGGA,133213.250,4308.3031,N,07726.2640,W,1,09,0.91,144.5,M,-34.4,M,,*59
lng=-77.437736, lat=43.138385, altitude=144.50, speed=0.07, satellites=9, angle=319.9400, fixquality=1
$GPRMC,133213.500,A,4308.3031,N,07726.2640,W,0.05,250.48,240519,,,A*77
$GPGGA,133213.750,4308.3031,N,07726.2640,W,1,09,0.91,144.5,M,-34.4,M,,*5C
lng=-77.437736, lat=43.138385, altitude=144.50, speed=0.05, satellites=9, angle=250.4800, fixquality=1
$GPRMC,133214.000,A,4308.3030,N,07726.2639,W,0.12,215.75,240519,,,A*73
$GPGGA,133214.250,4308.3031,N,07726.2639,W,1,09,0.91,144.5,M,-34.4,M,,*50
lng=-77.437728, lat=43.138385, altitude=144.50, speed=0.12, satellites=9, angle=215.7500, fixquality=1
$GPRMC,133214.500,A,4308.3031,N,07726.2640,W,0.14,236.63,240519,,,A*79
$GPGGA,133214.750,4308.3031,N,07726.2640,W,1,09,0.91,144.5,M,-34.4,M,,*5B
lng=-77.437736, lat=43.138385, altitude=144.50, speed=0.14, satellites=9, angle=236.6300, fixquality=1
$GPRMC,133215.000,A,4308.3031,N,07726.2639,W,0.09,224.78,240519,,,A*76
$GPGGA,133215.250,4308.3031,N,07726.2639,W,1,09,0.91,144.5,M,-34.4,M,,*51
lng=-77.437728, lat=43.138385, altitude=144.50, speed=0.09, satellites=9, angle=224.7800, fixquality=1
$GPRMC,133215.500,A,4308.3031,N,07726.2640,W,0.13,220.05,240519,,,A*78
$GPGGA,133215.750,4308.3032,N,07726.2641,W,1,09,0.91,144.5,M,-34.4,M,,*58
lng=-77.437736, lat=43.138385, altitude=144.50, speed=0.13, satellites=9, angle=220.0500, fixquality=1
$GPRMC,133216.000,A,4308.3032,N,07726.2642,W,0.14,256.30,240519,,,A*7F
$GPGGA,133216.250,4308.3032,N,07726.2643,W,1,09,0.91,144.5,M,-34.4,M,,*5C
lng=-77.437736, lat=43.138385, altitude=144.50, speed=0.14, satellites=9, angle=256.3000, fixquality=1
$GPRMC,133216.500,A,4308.3032,N,07726.2643,W,0.20,250.18,240519,,,A*70
$GPGGA,133216.750,4308.3032,N,07726.2644,W,1,09,0.91,144.5,M,-34.4,M,,*5E
lng=-77.437736, lat=43.138385, altitude=144.50, speed=0.20, satellites=9, angle=250.1800, fixquality=1
$GPRMC,133217.000,A,4308.3032,N,07726.2644,W,0.14,245.42,240519,,,A*7F
$GPGGA,133217.250,4308.3032,N,07726.2645,W,1,09,0.91,144.5,M,-34.4,M,,*5B
lng=-77.437736, lat=43.138385, altitude=144.50, speed=0.14, satellites=9, angle=245.4200, fixquality=1
$GPRMC,133217.500,A,4308.3032,N,07726.2645,W,0.09,233.65,240519,,,A*73
$GPGGA,133217.750,4308.3033,N,07726.2645,W,1,09,0.91,144.6,M,-34.4,M,,*5C
lng=-77.437744, lat=43.138385, altitude=144.50, speed=0.09, satellites=9, angle=233.6500, fixquality=1
$GPRMC,133218.000,A,4308.3033,N,07726.2645,W,0.08,165.71,240519,,,A*7C
$GPGGA,133218.250,4308.3033,N,07726.2645,W,1,09,0.91,144.6,M,-34.4,M,,*56
lng=-77.437744, lat=43.138385, altitude=144.60, speed=0.08, satellites=9, angle=165.7100, fixquality=1
$GPRMC,133218.500,A,4308.3033,N,07726.2645,W,0.10,99.76,240519,,,A*45
$GPGGA,133218.750,4308.3033,N,07726.2645,W,1,09,0.91,144.6,M,-34.4,M,,*53
lng=-77.437744, lat=43.138385, altitude=144.60, speed=0.10, satellites=9, angle=99.7600, fixquality=1
$GPRMC,133219.000,A,4308.3033,N,07726.2645,W,0.06,69.53,240519,,,A*4E
$GPGGA,133219.250,4308.3033,N,07726.2646,W,1,09,0.91,144.6,M,-34.4,M,,*54
lng=-77.437744, lat=43.138385, altitude=144.60, speed=0.06, satellites=9, angle=69.5300, fixquality=1
$GPRMC,133219.500,A,4308.3033,N,07726.2646,W,0.07,220.19,240519,,,A*78
$GPGGA,133219.750,4308.3033,N,07726.2646,W,1,09,0.91,144.6,M,-34.4,M,,*51
lng=-77.437744, lat=43.138385, altitude=144.60, speed=0.07, satellites=9, angle=220.1900, fixquality=1
$GPRMC,133220.000,A,4308.3033,N,07726.2646,W,0.09,245.90,240519,,,A*7B
$GPGGA,133220.250,4308.3034,N,07726.2645,W,1,09,0.91,144.6,M,-34.4,M,,*5A
lng=-77.437744, lat=43.138385, altitude=144.60, speed=0.09, satellites=9, angle=245.9000, fixquality=1
$GPRMC,133220.500,A,4308.3034,N,07726.2645,W,0.09,136.94,240519,,,A*79
$GPGGA,133220.750,4308.3034,N,07726.2645,W,1,08,1.16,144.6,M,-34.4,M,,*50
lng=-77.437744, lat=43.138385, altitude=144.60, speed=0.09, satellites=9, angle=136.9400, fixquality=1
$GPRMC,133221.000,A,4308.3034,N,07726.2645,W,0.08,125.11,240519,,,A*73
$GPGGA,133221.250,4308.3034,N,07726.2645,W,1,08,1.16,144.6,M,-34.4,M,,*54
lng=-77.437744, lat=43.138385, altitude=144.60, speed=0.08, satellites=8, angle=125.1100, fixquality=1
$GPRMC,133221.500,A,4308.3034,N,07726.2645,W,0.11,141.83,240519,,,A*77
$GPGGA,133221.750,4308.3034,N,07726.2645,W,1,09,0.91,144.6,M,-34.4,M,,*5E
lng=-77.437744, lat=43.138385, altitude=144.60, speed=0.11, satellites=8, angle=141.8300, fixquality=1
$GPRMC,133222.000,A,4308.3034,N,07726.2645,W,0.16,127.41,240519,,,A*78
$GPGGA,133222.250,4308.3034,N,07726.2645,W,1,09,0.91,144.6,M,-34.4,M,,*58
lng=-77.437744, lat=43.138385, altitude=144.60, speed=0.16, satellites=9, angle=127.4100, fixquality=1
$GPRMC,133222.500,A,4308.3034,N,07726.2644,W,0.08,86.26,240519,,,A*48
$GPGGA,133222.750,4308.3034,N,07726.2644,W,1,09,0.91,144.6,M,-34.4,M,,*5C
lng=-77.437736, lat=43.138385, altitude=144.60, speed=0.08, satellites=9, angle=86.2600, fixquality=1
$GPRMC,133223.000,A,4308.3034,N,07726.2644,W,0.07,108.90,240519,,,A*79
$GPGGA,133223.250,4308.3034,N,07726.2644,W,1,09,0.91,144.6,M,-34.4,M,,*58
lng=-77.437736, lat=43.138385, altitude=144.60, speed=0.07, satellites=9, angle=108.9000, fixquality=1
$GPRMC,133223.500,A,4308.3034,N,07726.2644,W,0.12,129.69,240519,,,A*7D
$GPGGA,133223.750,4308.3033,N,07726.2644,W,1,09,0.91,144.6,M,-34.4,M,,*5A
lng=-77.437736, lat=43.138385, altitude=144.60, speed=0.12, satellites=9, angle=129.6900, fixquality=1
$GPRMC,133224.000,A,4308.3033,N,07726.2644,W,0.07,147.47,240519,,,A*78
$GPGGA,133224.250,4308.3033,N,07726.2644,W,1,09,0.91,144.6,M,-34.4,M,,*58
lng=-77.437736, lat=43.138385, altitude=144.60, speed=0.07, satellites=9, angle=147.4700, fixquality=1
$GPRMC,133224.500,A,4308.3033,N,07726.2644,W,0.02,231.44,240519,,,A*79
$GPGGA,133224.750,4308.3033,N,07726.2644,W,1,09,0.91,144.6,M,-34.4,M,,*5D
lng=-77.437736, lat=43.138385, altitude=144.60, speed=0.02, satellites=9, angle=231.4400, fixquality=1
$GPRMC,133225.000,A,4308.3033,N,07726.2644,W,0.16,223.43,240519,,,A*7C
$GPGGA,133225.250,4308.3033,N,07726.2644,W,1,09,0.91,144.6,M,-34.4,M,,*59
lng=-77.437736, lat=43.138385, altitude=144.60, speed=0.16, satellites=9, angle=223.4300, fixquality=1
$GPRMC,133225.500,A,4308.3033,N,07726.2644,W,0.13,283.24,240519,,,A*77
$GPGGA,133225.750,4308.3033,N,07726.2645,W,1,09,0.91,144.6,M,-34.4,M,,*5D
lng=-77.437736, lat=43.138385, altitude=144.60, speed=0.13, satellites=9, angle=283.2400, fixquality=1
$GPRMC,133226.000,A,4308.3033,N,07726.2645,W,0.15,256.46,240519,,,A*7A
$GPGGA,133226.250,4308.3033,N,07726.2645,W,1,09,0.91,144.6,M,-34.4,M,,*5B
lng=-77.437744, lat=43.138385, altitude=144.60, speed=0.15, satellites=9, angle=256.4600, fixquality=1
$GPRMC,133226.500,A,4308.3033,N,07726.2645,W,0.06,286.47,240519,,,A*71
$GPGGA,133226.750,4308.3033,N,07726.2645,W,1,09,0.91,144.6,M,-34.4,M,,*5E
lng=-77.437744, lat=43.138385, altitude=144.60, speed=0.06, satellites=9, angle=286.4700, fixquality=1
$GPRMC,133227.000,A,4308.3033,N,07726.2645,W,0.06,178.75,240519,,,A*76
$GPGGA,133227.250,4308.3033,N,07726.2645,W,1,09,0.91,144.6,M,-34.4,M,,*5A
lng=-77.437744, lat=43.138385, altitude=144.60, speed=0.06, satellites=9, angle=178.7500, fixquality=1
$GPRMC,133227.500,A,4308.3033,N,07726.2645,W,0.10,179.66,240519,,,A*77
$GPGGA,133227.750,4308.3033,N,07726.2645,W,1,09,0.91,144.6,M,-34.4,M,,*5F
lng=-77.437744, lat=43.138385, altitude=144.60, speed=0.10, satellites=9, angle=179.6600, fixquality=1
$GPRMC,133228.000,A,4308.3033,N,07726.2645,W,0.13,195.80,240519,,,A*74
$GPGGA,133228.250,4308.3033,N,07726.2645,W,1,09,0.91,144.6,M,-34.4,M,,*55
lng=-77.437744, lat=43.138385, altitude=144.60, speed=0.13, satellites=9, angle=195.8000, fixquality=1
$GPRMC,133228.500,A,4308.3033,N,07726.2645,W,0.22,318.49,240519,,,A*71
$GPGGA,133228.750,4308.3033,N,07726.2645,W,1,09,0.91,144.6,M,-34.4,M,,*50
lng=-77.437744, lat=43.138385, altitude=144.60, speed=0.22, satellites=9, angle=318.4900, fixquality=1
$GPRMC,133229.000,A,4308.3033,N,07726.2645,W,0.14,324.68,240519,,,A*7C
$GPGGA,133229.250,4308.3033,N,07726.2645,W,1,09,0.91,144.6,M,-34.4,M,,*54
lng=-77.437744, lat=43.138385, altitude=144.60, speed=0.14, satellites=9, angle=324.6800, fixquality=1
$GPRMC,133229.500,A,4308.3033,N,07726.2645,W,0.04,336.34,240519,,,A*72
$GPGGA,133229.750,4308.3033,N,07726.2645,W,1,09,0.91,144.6,M,-34.4,M,,*51
lng=-77.437744, lat=43.138385, altitude=144.60, speed=0.04, satellites=9, angle=336.3400, fixquality=1
$GPRMC,133230.000,A,4308.3033,N,07726.2645,W,0.05,62.16,240519,,,A*4C
$GPGGA,133230.250,4308.3033,N,07726.2645,W,1,09,0.91,144.6,M,-34.4,M,,*5C
lng=-77.437744, lat=43.138385, altitude=144.60, speed=0.05, satellites=9, angle=62.1600, fixquality=1
$GPRMC,133230.500,A,4308.3033,N,07726.2645,W,0.05,25.55,240519,,,A*4D
$GPGGA,133230.750,4308.3033,N,07726.2645,W,1,09,0.91,144.6,M,-34.4,M,,*59
lng=-77.437744, lat=43.138385, altitude=144.60, speed=0.05, satellites=9, angle=25.5500, fixquality=1
$GPRMC,133231.000,A,4308.3033,N,07726.2645,W,0.09,9.89,240519,,,A*7A
$GPGGA,133231.250,4308.3033,N,07726.2645,W,1,09,0.93,144.6,M,-34.4,M,,*5F
lng=-77.437744, lat=43.138385, altitude=144.60, speed=0.09, satellites=9, angle=9.8900, fixquality=1
$GPRMC,133231.500,A,4308.3033,N,07726.2645,W,0.14,13.56,240519,,,A*4A
$GPGGA,133231.750,4308.3033,N,07726.2645,W,1,09,0.93,144.5,M,-34.4,M,,*59
lng=-77.437744, lat=43.138385, altitude=144.60, speed=0.14, satellites=9, angle=13.5600, fixquality=1
$GPRMC,133232.000,A,4308.3034,N,07726.2645,W,0.17,21.52,240519,,,A*4D
$GPGGA,133232.250,4308.3034,N,07726.2645,W,1,09,0.91,144.5,M,-34.4,M,,*5A
lng=-77.437744, lat=43.138385, altitude=144.50, speed=0.17, satellites=9, angle=21.5200, fixquality=1
$GPRMC,133232.500,A,4308.3034,N,07726.2645,W,0.06,43.80,240519,,,A*43
$GPGGA,133232.750,4308.3033,N,07726.2645,W,1,09,0.93,144.5,M,-34.4,M,,*5A
lng=-77.437744, lat=43.138385, altitude=144.50, speed=0.06, satellites=9, angle=43.8000, fixquality=1
$GPRMC,133233.000,A,4308.3032,N,07726.2644,W,0.06,145.26,240519,,,A*7B
$GPGGA,133233.250,4308.3032,N,07726.2644,W,1,09,0.93,144.5,M,-34.4,M,,*5E
lng=-77.437736, lat=43.138385, altitude=144.50, speed=0.06, satellites=9, angle=145.2600, fixquality=1
$GPRMC,133233.500,A,4308.3031,N,07726.2643,W,0.05,121.16,240519,,,A*78
$GPGGA,133233.750,4308.3031,N,07726.2643,W,1,09,0.93,144.5,M,-34.4,M,,*5F
lng=-77.437736, lat=43.138385, altitude=144.50, speed=0.05, satellites=9, angle=121.1600, fixquality=1
$GPRMC,133234.000,A,4308.3030,N,07726.2643,W,0.01,204.20,240519,,,A*7E
$GPGGA,133234.250,4308.3030,N,07726.2643,W,1,09,0.93,144.5,M,-34.4,M,,*5C
lng=-77.437736, lat=43.138385, altitude=144.50, speed=0.01, satellites=9, angle=204.2000, fixquality=1
$GPRMC,133234.500,A,4308.3030,N,07726.2643,W,0.02,56.55,240519,,,A*4F
$GPGGA,133234.750,4308.3029,N,07726.2642,W,1,09,0.93,144.5,M,-34.4,M,,*50
lng=-77.437736, lat=43.138385, altitude=144.50, speed=0.02, satellites=9, angle=56.5500, fixquality=1
$GPRMC,133235.000,A,4308.3029,N,07726.2642,W,0.02,33.87,240519,,,A*4E
$GPGGA,133235.250,4308.3029,N,07726.2642,W,1,09,0.93,144.5,M,-34.4,M,,*54
lng=-77.437736, lat=43.138378, altitude=144.50, speed=0.02, satellites=9, angle=33.8700, fixquality=1
$GPRMC,133235.500,A,4308.3029,N,07726.2642,W,0.03,323.59,240519,,,A*7B
$GPGGA,133235.750,4308.3029,N,07726.2642,W,1,09,0.93,144.5,M,-34.4,M,,*51
lng=-77.437736, lat=43.138378, altitude=144.50, speed=0.03, satellites=9, angle=323.5900, fixquality=1
$GPRMC,133236.000,A,4308.3028,N,07726.2642,W,0.02,157.52,240519,,,A*77
$GPGGA,133236.250,4308.3027,N,07726.2641,W,1,09,0.93,144.4,M,-34.4,M,,*5B
lng=-77.437736, lat=43.138378, altitude=144.50, speed=0.02, satellites=9, angle=157.5200, fixquality=1
$GPRMC,133236.500,A,4308.3025,N,07726.2641,W,0.08,192.73,240519,,,A*7C
$GPGGA,133236.750,4308.3024,N,07726.2641,W,1,09,0.93,144.4,M,-34.4,M,,*5D
lng=-77.437736, lat=43.138378, altitude=144.40, speed=0.08, satellites=9, angle=192.7300, fixquality=1
$GPRMC,133237.000,A,4308.3024,N,07726.2641,W,0.01,166.24,240519,,,A*79
$GPGGA,133237.250,4308.3023,N,07726.2641,W,1,09,0.93,144.4,M,-34.4,M,,*5E
lng=-77.437736, lat=43.138370, altitude=144.40, speed=0.01, satellites=9, angle=166.2400, fixquality=1
$GPRMC,133237.500,A,4308.3023,N,07726.2640,W,0.01,170.60,240519,,,A*7D
$GPGGA,133237.750,4308.3022,N,07726.2640,W,1,09,0.93,144.4,M,-34.4,M,,*5B
lng=-77.437736, lat=43.138370, altitude=144.40, speed=0.01, satellites=9, angle=170.6000, fixquality=1
$GPRMC,133238.000,A,4308.3022,N,07726.2640,W,0.01,150.35,240519,,,A*74
$GPGGA,133238.250,4308.3021,N,07726.2640,W,1,09,0.93,144.4,M,-34.4,M,,*52
lng=-77.437736, lat=43.138370, altitude=144.40, speed=0.01, satellites=9, angle=150.3500, fixquality=1
$GPRMC,133238.500,A,4308.3020,N,07726.2639,W,0.01,158.74,240519,,,A*70
$GPGGA,133238.750,4308.3020,N,07726.2639,W,1,09,0.93,144.4,M,-34.4,M,,*58
lng=-77.437728, lat=43.138362, altitude=144.40, speed=0.01, satellites=9, angle=158.7400, fixquality=1
$GPRMC,133239.000,A,4308.3019,N,07726.2639,W,0.01,186.21,240519,,,A*7D
$GPGGA,133239.250,4308.3019,N,07726.2639,W,1,09,0.93,144.3,M,-34.4,M,,*51
lng=-77.437728, lat=43.138362, altitude=144.40, speed=0.01, satellites=9, angle=186.2100, fixquality=1
$GPRMC,133239.500,A,4308.3018,N,07726.2638,W,0.01,141.01,240519,,,A*71
$GPGGA,133239.750,4308.3017,N,07726.2638,W,1,09,0.93,144.3,M,-34.4,M,,*5B
lng=-77.437728, lat=43.138362, altitude=144.30, speed=0.01, satellites=9, angle=141.0100, fixquality=1
$GPRMC,133240.000,A,4308.3017,N,07726.2638,W,0.01,336.92,240519,,,A*7D
$GPGGA,133240.250,4308.3016,N,07726.2636,W,1,08,1.21,144.3,M,-34.4,M,,*56
lng=-77.437728, lat=43.138362, altitude=144.30, speed=0.01, satellites=9, angle=336.9200, fixquality=1
$GPRMC,133240.500,A,4308.3015,N,07726.2636,W,0.00,326.04,240519,,,A*7B
$GPGGA,133240.750,4308.3015,N,07726.2636,W,1,08,1.21,144.3,M,-34.4,M,,*50
lng=-77.437728, lat=43.138355, altitude=144.30, speed=0.00, satellites=8, angle=326.0400, fixquality=1
$GPRMC,133241.000,A,4308.3015,N,07726.2636,W,0.01,273.02,240519,,,A*79
$GPGGA,133241.250,4308.3015,N,07726.2636,W,1,08,1.21,144.2,M,-34.4,M,,*55
lng=-77.437728, lat=43.138355, altitude=144.30, speed=0.01, satellites=8, angle=273.0200, fixquality=1
$GPRMC,133241.500,A,4308.3014,N,07726.2635,W,0.01,148.52,240519,,,A*70
$GPGGA,133241.750,4308.3013,N,07726.2635,W,1,08,1.21,144.2,M,-34.4,M,,*55
lng=-77.437728, lat=43.138355, altitude=144.20, speed=0.01, satellites=8, angle=148.5200, fixquality=1
$GPRMC,133242.000,A,4308.3013,N,07726.2635,W,0.01,16.16,240519,,,A*4B
$GPGGA,133242.250,4308.3013,N,07726.2635,W,1,08,1.21,144.3,M,-34.4,M,,*52
lng=-77.437728, lat=43.138355, altitude=144.20, speed=0.01, satellites=8, angle=16.1600, fixquality=1
$GPRMC,133242.500,A,4308.3012,N,07726.2635,W,0.01,172.59,240519,,,A*77
$GPGGA,133242.750,4308.3012,N,07726.2635,W,1,08,1.21,144.3,M,-34.4,M,,*56
lng=-77.437728, lat=43.138355, altitude=144.30, speed=0.01, satellites=8, angle=172.5900, fixquality=1
$GPRMC,133243.000,A,4308.3012,N,07726.2635,W,0.02,66.08,240519,,,A*40
$GPGGA,133243.250,4308.3011,N,07726.2634,W,1,08,1.21,144.2,M,-34.4,M,,*51
lng=-77.437728, lat=43.138355, altitude=144.30, speed=0.02, satellites=8, angle=66.0800, fixquality=1
$GPRMC,133243.500,A,4308.3011,N,07726.2634,W,0.00,145.78,240519,,,A*72
$GPGGA,133243.750,4308.3010,N,07726.2634,W,1,08,1.21,144.2,M,-34.4,M,,*55
lng=-77.437721, lat=43.138355, altitude=144.20, speed=0.00, satellites=8, angle=145.7800, fixquality=1
$GPRMC,133244.000,A,4308.3010,N,07726.2634,W,0.00,0.00,240519,,,A*7E
$GPGGA,133244.250,4308.3010,N,07726.2634,W,1,08,1.21,144.2,M,-34.4,M,,*57
lng=-77.437721, lat=43.138347, altitude=144.20, speed=0.00, satellites=8, angle=0.0000, fixquality=1
$GPRMC,133244.500,A,4308.3009,N,07726.2634,W,0.00,0.00,240519,,,A*73
$GPGGA,133244.750,4308.3009,N,07726.2634,W,1,08,1.21,144.1,M,-34.4,M,,*59
lng=-77.437721, lat=43.138347, altitude=144.20, speed=0.00, satellites=8, angle=0.0000, fixquality=1
$GPRMC,133245.000,A,4308.3009,N,07726.2634,W,0.00,148.72,240519,,,A*7F
$GPGGA,133245.250,4308.3008,N,07726.2634,W,1,08,1.21,144.1,M,-34.4,M,,*5C
lng=-77.437721, lat=43.138347, altitude=144.10, speed=0.00, satellites=8, angle=148.7200, fixquality=1
$GPRMC,133245.500,A,4308.3008,N,07726.2635,W,0.00,219.77,240519,,,A*78
$GPGGA,133245.750,4308.3008,N,07726.2635,W,1,08,1.21,144.1,M,-34.4,M,,*58
lng=-77.437728, lat=43.138347, altitude=144.10, speed=0.00, satellites=8, angle=219.7700, fixquality=1
$GPRMC,133246.000,A,4308.3008,N,07726.2635,W,0.00,98.79,240519,,,A*4B
$GPGGA,133246.250,4308.3007,N,07726.2635,W,1,08,1.21,144.1,M,-34.4,M,,*51
lng=-77.437728, lat=43.138347, altitude=144.10, speed=0.00, satellites=8, angle=98.7900, fixquality=1
$GPRMC,133246.500,A,4308.3007,N,07726.2635,W,0.00,0.00,240519,,,A*7E
$GPGGA,133246.750,4308.3007,N,07726.2636,W,1,08,1.21,144.1,M,-34.4,M,,*57
lng=-77.437728, lat=43.138347, altitude=144.10, speed=0.00, satellites=8, angle=0.0000, fixquality=1
$GPRMC,133247.000,A,4308.3007,N,07726.2636,W,0.00,0.00,240519,,,A*79
$GPGGA,133247.250,4308.3007,N,07726.2636,W,1,08,1.21,144.0,M,-34.4,M,,*52
lng=-77.437728, lat=43.138347, altitude=144.10, speed=0.00, satellites=8, angle=0.0000, fixquality=1
$GPRMC,133247.500,A,4308.3007,N,07726.2636,W,0.00,0.00,240519,,,A*7C
$GPGGA,133247.750,4308.3007,N,07726.2636,W,1,08,1.21,144.0,M,-34.4,M,,*57
lng=-77.437728, lat=43.138347, altitude=144.00, speed=0.00, satellites=8, angle=0.0000, fixquality=1
$GPRMC,133248.000,A,4308.3007,N,07726.2636,W,0.00,0.00,240519,,,A*76
$GPGGA,133248.250,4308.3007,N,07726.2636,W,1,08,1.21,144.0,M,-34.4,M,,*5D
lng=-77.437728, lat=43.138347, altitude=144.00, speed=0.00, satellites=8, angle=0.0000, fixquality=1
$GPRMC,133248.500,A,4308.3007,N,07726.2637,W,0.00,280.76,240519,,,A*79
$GPGGA,133248.750,4308.3006,N,07726.2637,W,1,08,1.21,144.0,M,-34.4,M,,*58
lng=-77.437728, lat=43.138347, altitude=144.00, speed=0.00, satellites=8, angle=280.7600, fixquality=1
$GPRMC,133249.000,A,4308.3006,N,07726.2637,W,0.00,0.00,240519,,,A*77
$GPGGA,133249.250,4308.3006,N,07726.2637,W,1,08,1.21,144.0,M,-34.4,M,,*5C
lng=-77.437728, lat=43.138347, altitude=144.00, speed=0.00, satellites=8, angle=0.0000, fixquality=1
$GPRMC,133249.500,A,4308.3006,N,07726.2637,W,0.00,69.35,240519,,,A*4B
$GPGGA,133249.750,4308.3006,N,07726.2637,W,1,08,1.21,144.0,M,-34.4,M,,*59
lng=-77.437728, lat=43.138347, altitude=144.00, speed=0.00, satellites=8, angle=69.3500, fixquality=1
$GPRMC,133250.000,A,4308.3006,N,07726.2637,W,0.00,14.55,240519,,,A*4A
$GPGGA,133250.250,4308.3006,N,07726.2637,W,1,08,1.21,144.0,M,-34.4,M,,*54
lng=-77.437728, lat=43.138347, altitude=144.00, speed=0.00, satellites=8, angle=14.5500, fixquality=1
$GPRMC,133250.500,A,4308.3006,N,07726.2638,W,0.01,212.65,240519,,,A*76
$GPGGA,133250.750,4308.3005,N,07726.2638,W,1,08,1.21,144.0,M,-34.4,M,,*5D
lng=-77.437728, lat=43.138347, altitude=144.00, speed=0.01, satellites=8, angle=212.6500, fixquality=1
$GPRMC,133251.000,A,4308.3005,N,07726.2638,W,0.01,307.41,240519,,,A*72
$GPGGA,133251.250,4308.3005,N,07726.2638,W,1,08,1.21,143.9,M,-34.4,M,,*57
lng=-77.437728, lat=43.138339, altitude=144.00, speed=0.01, satellites=8, angle=307.4100, fixquality=1
$GPRMC,133251.500,A,4308.3005,N,07726.2638,W,0.00,139.83,240519,,,A*77
$GPGGA,133251.750,4308.3005,N,07726.2639,W,1,08,1.21,143.9,M,-34.4,M,,*53
lng=-77.437728, lat=43.138339, altitude=143.90, speed=0.00, satellites=8, angle=139.8300, fixquality=1
$GPRMC,133252.000,A,4308.3005,N,07726.2639,W,0.00,160.33,240519,,,A*77
$GPGGA,133252.250,4308.3004,N,07726.2639,W,1,08,1.21,143.9,M,-34.4,M,,*54
lng=-77.437728, lat=43.138339, altitude=143.90, speed=0.00, satellites=8, angle=160.3300, fixquality=1
$GPRMC,133252.500,A,4308.3004,N,07726.2639,W,0.01,116.53,240519,,,A*75
$GPGGA,133252.750,4308.3004,N,07726.2640,W,1,08,1.21,143.9,M,-34.4,M,,*5F
lng=-77.437728, lat=43.138339, altitude=143.90, speed=0.01, satellites=8, angle=116.5300, fixquality=1
$GPRMC,133253.000,A,4308.3004,N,07726.2640,W,0.00,297.65,240519,,,A*71
$GPGGA,133253.250,4308.3004,N,07726.2640,W,1,08,1.21,143.9,M,-34.4,M,,*5B
lng=-77.437736, lat=43.138339, altitude=143.90, speed=0.00, satellites=8, angle=297.6500, fixquality=1
$GPRMC,133253.500,A,4308.3003,N,07726.2640,W,0.01,143.47,240519,,,A*78
$GPGGA,133253.750,4308.3003,N,07726.2640,W,1,08,1.21,143.8,M,-34.4,M,,*58
lng=-77.437736, lat=43.138339, altitude=143.90, speed=0.01, satellites=8, angle=143.4700, fixquality=1
$GPRMC,133254.000,A,4308.3003,N,07726.2640,W,0.01,222.56,240519,,,A*7E
$GPGGA,133254.250,4308.3002,N,07726.2641,W,1,08,1.21,143.8,M,-34.4,M,,*5A
lng=-77.437736, lat=43.138339, altitude=143.80, speed=0.01, satellites=8, angle=222.5600, fixquality=1
$GPRMC,133254.500,A,4308.3002,N,07726.2641,W,0.00,0.00,240519,,,A*7B
$GPGGA,133254.750,4308.3002,N,07726.2641,W,1,08,1.21,143.8,M,-34.4,M,,*5F
lng=-77.437736, lat=43.138339, altitude=143.80, speed=0.00, satellites=8, angle=0.0000, fixquality=1
$GPRMC,133255.000,A,4308.3002,N,07726.2641,W,0.00,173.66,240519,,,A*7A
$GPGGA,133255.250,4308.3002,N,07726.2641,W,1,08,1.21,143.8,M,-34.4,M,,*5B
lng=-77.437736, lat=43.138339, altitude=143.80, speed=0.00, satellites=8, angle=173.6600, fixquality=1
$GPRMC,133255.500,A,4308.3001,N,07726.2642,W,0.00,191.26,240519,,,A*77
$GPGGA,133255.750,4308.3001,N,07726.2642,W,1,08,1.21,143.8,M,-34.4,M,,*5E
lng=-77.437736, lat=43.138339, altitude=143.80, speed=0.00, satellites=8, angle=191.2600, fixquality=1
$GPRMC,133256.000,A,4308.3001,N,07726.2642,W,0.00,119.28,240519,,,A*7F
$GPGGA,133256.250,4308.3001,N,07726.2642,W,1,08,1.21,143.7,M,-34.4,M,,*57
lng=-77.437736, lat=43.138339, altitude=143.80, speed=0.00, satellites=8, angle=119.2800, fixquality=1
$GPRMC,133256.500,A,4308.3001,N,07726.2642,W,0.01,292.86,240519,,,A*7F
$GPGGA,133256.750,4308.3001,N,07726.2643,W,1,08,1.21,143.7,M,-34.4,M,,*53
lng=-77.437736, lat=43.138339, altitude=143.70, speed=0.01, satellites=8, angle=292.8600, fixquality=1
$GPRMC,133257.000,A,4308.3001,N,07726.2643,W,0.01,50.89,240519,,,A*49
$GPGGA,133257.250,4308.3001,N,07726.2643,W,1,08,1.21,143.7,M,-34.4,M,,*57
lng=-77.437736, lat=43.138339, altitude=143.70, speed=0.01, satellites=8, angle=50.8900, fixquality=1
$GPRMC,133257.500,A,4308.3000,N,07726.2643,W,0.01,229.71,240519,,,A*76
$GPGGA,133257.750,4308.3000,N,07726.2644,W,1,08,1.21,143.6,M,-34.4,M,,*55
lng=-77.437736, lat=43.138328, altitude=143.70, speed=0.01, satellites=8, angle=229.7100, fixquality=1
$GPRMC,133258.000,A,4308.3000,N,07726.2644,W,0.00,239.87,240519,,,A*72
$GPGGA,133258.250,4308.3000,N,07726.2644,W,1,08,1.21,143.6,M,-34.4,M,,*5F
lng=-77.437736, lat=43.138328, altitude=143.60, speed=0.00, satellites=8, angle=239.8700, fixquality=1
$GPRMC,133258.500,A,4308.3000,N,07726.2644,W,0.01,233.06,240519,,,A*75
$GPGGA,133258.750,4308.2999,N,07726.2645,W,1,08,1.21,143.5,M,-34.4,M,,*50
lng=-77.437736, lat=43.138328, altitude=143.60, speed=0.01, satellites=8, angle=233.0600, fixquality=1
$GPRMC,133259.000,A,4308.2999,N,07726.2645,W,0.00,291.10,240519,,,A*76
$GPGGA,133259.250,4308.2999,N,07726.2645,W,1,08,1.21,143.5,M,-34.4,M,,*54
lng=-77.437744, lat=43.138328, altitude=143.50, speed=0.00, satellites=8, angle=291.1000, fixquality=1
$GPRMC,133259.500,A,4308.2999,N,07726.2645,W,0.01,145.79,240519,,,A*77
$GPGGA,133259.750,4308.2998,N,07726.2645,W,1,08,1.21,143.4,M,-34.4,M,,*51
lng=-77.437744, lat=43.138328, altitude=143.50, speed=0.01, satellites=8, angle=145.7900, fixquality=1
$GPRMC,133300.000,A,4308.2998,N,07726.2645,W,0.01,164.76,240519,,,A*72
$GPGGA,133300.250,4308.2998,N,07726.2645,W,1,08,1.21,143.4,M,-34.4,M,,*59
lng=-77.437744, lat=43.138328, altitude=143.40, speed=0.01, satellites=8, angle=164.7600, fixquality=1
$GPRMC,133300.500,A,4308.2998,N,07726.2645,W,0.01,91.33,240519,,,A*4D
$GPGGA,133300.750,4308.2998,N,07726.2645,W,1,08,1.21,143.4,M,-34.4,M,,*5C
lng=-77.437744, lat=43.138328, altitude=143.40, speed=0.01, satellites=8, angle=91.3300, fixquality=1
$GPRMC,133301.000,A,4308.2998,N,07726.2645,W,0.00,230.24,240519,,,A*77
$GPGGA,133301.250,4308.2998,N,07726.2645,W,1,08,1.21,143.3,M,-34.4,M,,*5F
lng=-77.437744, lat=43.138328, altitude=143.40, speed=0.00, satellites=8, angle=230.2400, fixquality=1
$GPRMC,133301.500,A,4308.2998,N,07726.2646,W,0.01,291.59,240519,,,A*71
$GPGGA,133301.750,4308.2997,N,07726.2646,W,1,08,1.21,143.3,M,-34.4,M,,*56
lng=-77.437744, lat=43.138328, altitude=143.30, speed=0.01, satellites=8, angle=291.5900, fixquality=1
$GPRMC,133302.000,A,4308.2997,N,07726.2646,W,0.00,0.00,240519,,,A*7F
$GPGGA,133302.250,4308.2998,N,07726.2646,W,1,08,1.21,143.3,M,-34.4,M,,*5F
lng=-77.437744, lat=43.138328, altitude=143.30, speed=0.00, satellites=8, angle=0.0000, fixquality=1
$GPRMC,133302.500,A,4308.2998,N,07726.2646,W,0.00,12.17,240519,,,A*40
$GPGGA,133302.750,4308.2998,N,07726.2646,W,1,08,1.21,143.3,M,-34.4,M,,*5A
lng=-77.437744, lat=43.138328, altitude=143.30, speed=0.00, satellites=8, angle=12.1700, fixquality=1
$GPRMC,133303.000,A,4308.2998,N,07726.2646,W,0.00,294.46,240519,,,A*7C
$GPGGA,133303.250,4308.2998,N,07726.2646,W,1,08,1.21,143.3,M,-34.4,M,,*5E
lng=-77.437744, lat=43.138328, altitude=143.30, speed=0.00, satellites=8, angle=294.4600, fixquality=1
$GPRMC,133303.500,A,4308.2998,N,07726.2646,W,0.00,86.88,240519,,,A*4A
$GPGGA,133303.750,4308.2998,N,07726.2646,W,1,08,1.21,143.3,M,-34.4,M,,*5B
lng=-77.437744, lat=43.138328, altitude=143.30, speed=0.00, satellites=8, angle=86.8800, fixquality=1
$GPRMC,133304.000,A,4308.2998,N,07726.2645,W,0.01,27.00,240519,,,A*41
$GPGGA,133304.250,4308.2998,N,07726.2645,W,1,08,1.21,143.4,M,-34.4,M,,*5D
lng=-77.437744, lat=43.138328, altitude=143.30, speed=0.01, satellites=8, angle=27.0000, fixquality=1
$GPRMC,133304.500,A,4308.2998,N,07726.2645,W,0.00,219.38,240519,,,A*71
$GPGGA,133304.750,4308.2998,N,07726.2645,W,1,08,1.21,143.4,M,-34.4,M,,*58
lng=-77.437744, lat=43.138328, altitude=143.40, speed=0.00, satellites=8, angle=219.3800, fixquality=1
$GPRMC,133305.000,A,4308.2999,N,07726.2645,W,0.01,251.71,240519,,,A*74
$GPGGA,133305.250,4308.2999,N,07726.2645,W,1,08,1.21,143.4,M,-34.4,M,,*5D
lng=-77.437744, lat=43.138328, altitude=143.40, speed=0.01, satellites=8, angle=251.7100, fixquality=1
$GPRMC,133305.500,A,4308.2998,N,07726.2646,W,0.01,235.81,240519,,,A*7E
$GPGGA,133305.750,4308.2998,N,07726.2645,W,1,08,1.21,143.4,M,-34.4,M,,*59
lng=-77.437744, lat=43.138328, altitude=143.40, speed=0.01, satellites=8, angle=235.8100, fixquality=1
$GPRMC,133306.000,A,4308.2999,N,07726.2645,W,0.00,0.00,240519,,,A*76
$GPGGA,133306.250,4308.2999,N,07726.2645,W,1,08,1.21,143.4,M,-34.4,M,,*5E
lng=-77.437744, lat=43.138328, altitude=143.40, speed=0.00, satellites=8, angle=0.0000, fixquality=1
$GPRMC,133306.500,A,4308.2999,N,07726.2644,W,0.01,72.85,240519,,,A*4B
$GPGGA,133306.750,4308.2999,N,07726.2644,W,1,08,1.21,143.4,M,-34.4,M,,*5A
lng=-77.437736, lat=43.138328, altitude=143.40, speed=0.01, satellites=8, angle=72.8500, fixquality=1
$GPRMC,133307.000,A,4308.2998,N,07726.2644,W,0.01,133.80,240519,,,A*7F
$GPGGA,133307.250,4308.2998,N,07726.2643,W,1,08,1.21,143.3,M,-34.4,M,,*5F
lng=-77.437736, lat=43.138328, altitude=143.40, speed=0.01, satellites=8, angle=133.8000, fixquality=1
$GPRMC,133307.500,A,4308.2998,N,07726.2643,W,0.00,80.94,240519,,,A*40
$GPGGA,133307.750,4308.2999,N,07726.2643,W,1,08,1.21,143.3,M,-34.4,M,,*5B
lng=-77.437736, lat=43.138328, altitude=143.30, speed=0.00, satellites=8, angle=80.9400, fixquality=1
$GPRMC,133308.000,A,4308.2999,N,07726.2643,W,0.01,307.23,240519,,,A*7A
$GPGGA,133308.250,4308.2999,N,07726.2643,W,1,08,1.21,143.3,M,-34.4,M,,*51
lng=-77.437736, lat=43.138328, altitude=143.30, speed=0.01, satellites=8, angle=307.2300, fixquality=1
$GPRMC,133308.500,A,4308.2999,N,07726.2643,W,0.00,317.26,240519,,,A*7A
$GPGGA,133308.750,4308.2999,N,07726.2643,W,1,08,1.21,143.3,M,-34.4,M,,*54
lng=-77.437736, lat=43.138328, altitude=143.30, speed=0.00, satellites=8, angle=317.2600, fixquality=1
$GPRMC,133309.000,A,4308.3000,N,07726.2642,W,0.01,45.61,240519,,,A*41
$GPGGA,133309.250,4308.3000,N,07726.2642,W,1,08,1.21,143.3,M,-34.4,M,,*59
lng=-77.437736, lat=43.138328, altitude=143.30, speed=0.01, satellites=8, angle=45.6100, fixquality=1
$GPRMC,133309.500,A,4308.3000,N,07726.2642,W,0.00,229.22,240519,,,A*7A
$GPGGA,133309.750,4308.3000,N,07726.2641,W,1,08,1.21,143.3,M,-34.4,M,,*5F
lng=-77.437736, lat=43.138328, altitude=143.30, speed=0.00, satellites=8, angle=229.2200, fixquality=1
$GPRMC,133310.000,A,4308.3000,N,07726.2641,W,0.00,274.98,240519,,,A*7D
$GPGGA,133310.250,4308.3000,N,07726.2641,W,1,08,1.21,143.3,M,-34.4,M,,*52
lng=-77.437736, lat=43.138328, altitude=143.30, speed=0.00, satellites=8, angle=274.9800, fixquality=1
$GPRMC,133310.500,A,4308.3000,N,07726.2641,W,0.01,80.72,240519,,,A*44
$GPGGA,133310.750,4308.3000,N,07726.2640,W,1,08,1.21,143.3,M,-34.4,M,,*56
lng=-77.437736, lat=43.138328, altitude=143.30, speed=0.01, satellites=8, angle=80.7200, fixquality=1
$GPRMC,133311.000,A,4308.3001,N,07726.2640,W,0.00,0.00,240519,,,A*7C
$GPGGA,133311.250,4308.3001,N,07726.2640,W,1,08,1.21,143.3,M,-34.4,M,,*53
lng=-77.437736, lat=43.138339, altitude=143.30, speed=0.00, satellites=8, angle=0.0000, fixquality=1
$GPRMC,133311.500,A,4308.3001,N,07726.2640,W,0.01,11.57,240519,,,A*4A
$GPGGA,133311.750,4308.3002,N,07726.2640,W,1,08,1.21,143.3,M,-34.4,M,,*55
lng=-77.437736, lat=43.138339, altitude=143.30, speed=0.01, satellites=8, angle=11.5700, fixquality=1
$GPRMC,133312.000,A,4308.3002,N,07726.2639,W,0.01,39.98,240519,,,A*48
$GPGGA,133312.250,4308.3002,N,07726.2639,W,1,08,1.21,143.3,M,-34.4,M,,*5D
lng=-77.437728, lat=43.138339, altitude=143.30, speed=0.01, satellites=8, angle=39.9800, fixquality=1
$GPRMC,133312.500,A,4308.3002,N,07726.2639,W,0.00,217.08,240519,,,A*7B
$GPGGA,133312.750,4308.3002,N,07726.2639,W,1,08,1.21,143.4,M,-34.4,M,,*5F
lng=-77.437728, lat=43.138339, altitude=143.30, speed=0.00, satellites=8, angle=217.0800, fixquality=1
$GPRMC,133313.000,A,4308.3002,N,07726.2638,W,0.01,173.79,240519,,,A*78
$GPGGA,133313.250,4308.3002,N,07726.2638,W,1,08,1.21,143.4,M,-34.4,M,,*5A
lng=-77.437728, lat=43.138339, altitude=143.40, speed=0.01, satellites=8, angle=173.7900, fixquality=1
$GPRMC,133313.500,A,4308.3002,N,07726.2638,W,0.01,34.66,240519,,,A*41
$GPGGA,133313.750,4308.3002,N,07726.2638,W,1,08,1.21,143.4,M,-34.4,M,,*5F
lng=-77.437728, lat=43.138339, altitude=143.40, speed=0.01, satellites=8, angle=34.6600, fixquality=1
$GPRMC,133314.000,A,4308.3002,N,07726.2638,W,0.01,341.02,240519,,,A*70
$GPGGA,133314.250,4308.3003,N,07726.2638,W,1,08,1.21,143.4,M,-34.4,M,,*5C
lng=-77.437728, lat=43.138339, altitude=143.40, speed=0.01, satellites=8, angle=341.0200, fixquality=1
$GPRMC,133314.500,A,4308.3003,N,07726.2638,W,0.01,277.10,240519,,,A*73
$GPGGA,133314.750,4308.3003,N,07726.2638,W,1,08,1.21,143.4,M,-34.4,M,,*59
lng=-77.437728, lat=43.138339, altitude=143.40, speed=0.01, satellites=8, angle=277.1000, fixquality=1
$GPRMC,133315.000,A,4308.3002,N,07726.2638,W,0.01,95.30,240519,,,A*4A
$GPGGA,133315.250,4308.3002,N,07726.2637,W,1,08,1.21,143.4,M,-34.4,M,,*53
lng=-77.437728, lat=43.138339, altitude=143.40, speed=0.01, satellites=8, angle=95.3000, fixquality=1
$GPRMC,133315.500,A,4308.3002,N,07726.2637,W,0.00,85.86,240519,,,A*4D
$GPGGA,133315.750,4308.3002,N,07726.2637,W,1,08,1.21,143.3,M,-34.4,M,,*51
lng=-77.437728, lat=43.138339, altitude=143.40, speed=0.00, satellites=8, angle=85.8600, fixquality=1
$GPRMC,133316.000,A,4308.3002,N,07726.2637,W,0.00,289.32,240519,,,A*7A
$GPGGA,133316.250,4308.3002,N,07726.2637,W,1,08,1.21,143.3,M,-34.4,M,,*57
lng=-77.437728, lat=43.138339, altitude=143.30, speed=0.00, satellites=8, angle=289.3200, fixquality=1
$GPRMC,133316.500,A,4308.3002,N,07726.2637,W,0.00,179.67,240519,,,A*73
$GPGGA,133316.750,4308.3002,N,07726.2637,W,1,08,1.21,143.3,M,-34.4,M,,*52
lng=-77.437728, lat=43.138339, altitude=143.30, speed=0.00, satellites=8, angle=179.6700, fixquality=1
$GPRMC,133317.000,A,4308.3001,N,07726.2636,W,0.01,163.16,240519,,,A*79
$GPGGA,133317.250,4308.3001,N,07726.2636,W,1,08,1.21,143.2,M,-34.4,M,,*55
lng=-77.437728, lat=43.138339, altitude=143.30, speed=0.01, satellites=8, angle=163.1600, fixquality=1
$GPRMC,133317.500,A,4308.3000,N,07726.2636,W,0.02,193.38,240519,,,A*7D
$GPGGA,133317.750,4308.3000,N,07726.2636,W,1,08,1.21,143.1,M,-34.4,M,,*52
lng=-77.437728, lat=43.138328, altitude=143.20, speed=0.02, satellites=8, angle=193.3800, fixquality=1
$GPRMC,133318.000,A,4308.3000,N,07726.2636,W,0.01,170.08,240519,,,A*7A
$GPGGA,133318.250,4308.2999,N,07726.2636,W,1,08,1.21,143.1,M,-34.4,M,,*50
lng=-77.437728, lat=43.138328, altitude=143.10, speed=0.01, satellites=8, angle=170.0800, fixquality=1
$GPRMC,133318.500,A,4308.2999,N,07726.2635,W,0.01,141.75,240519,,,A*7C
$GPGGA,133318.750,4308.2999,N,07726.2635,W,1,08,1.21,143.1,M,-34.4,M,,*56
lng=-77.437728, lat=43.138328, altitude=143.10, speed=0.01, satellites=8, angle=141.7500, fixquality=1
$GPRMC,133319.000,A,4308.2999,N,07726.2635,W,0.01,350.30,240519,,,A*7B
$GPGGA,133319.250,4308.3000,N,07726.2635,W,1,08,1.21,143.0,M,-34.4,M,,*5B
lng=-77.437728, lat=43.138328, altitude=143.10, speed=0.01, satellites=8, angle=350.3000, fixquality=1
$GPRMC,133319.500,A,4308.3000,N,07726.2635,W,0.00,78.61,240519,,,A*4A
$GPGGA,133319.750,4308.3000,N,07726.2635,W,1,08,1.21,143.0,M,-34.4,M,,*5E
lng=-77.437728, lat=43.138328, altitude=143.00, speed=0.00, satellites=8, angle=78.6100, fixquality=1
$GPRMC,133320.000,A,4308.3000,N,07726.2635,W,0.00,0.00,240519,,,A*7D
$GPGGA,133320.250,4308.3000,N,07726.2635,W,1,08,1.21,142.9,M,-34.4,M,,*59
lng=-77.437728, lat=43.138328, altitude=143.00, speed=0.00, satellites=8, angle=0.0000, fixquality=1
$GPRMC,133320.500,A,4308.3000,N,07726.2635,W,0.01,286.70,240519,,,A*72
$GPGGA,133320.750,4308.3000,N,07726.2635,W,1,08,1.21,142.8,M,-34.4,M,,*5D
lng=-77.437728, lat=43.138328, altitude=142.90, speed=0.01, satellites=8, angle=286.7000, fixquality=1
$GPRMC,133321.000,A,4308.3001,N,07726.2635,W,0.00,0.00,240519,,,A*7D
$GPGGA,133321.250,4308.3001,N,07726.2635,W,1,08,1.21,142.8,M,-34.4,M,,*58
lng=-77.437728, lat=43.138339, altitude=142.80, speed=0.00, satellites=8, angle=0.0000, fixquality=1
$GPRMC,133321.500,A,4308.3001,N,07726.2635,W,0.01,62.32,240519,,,A*4C
$GPGGA,133321.750,4308.3001,N,07726.2635,W,1,08,1.21,142.8,M,-34.4,M,,*5D
lng=-77.437728, lat=43.138339, altitude=142.80, speed=0.01, satellites=8, angle=62.3200, fixquality=1
$GPRMC,133322.000,A,4308.3002,N,07726.2634,W,0.01,84.66,240519,,,A*41
$GPGGA,133322.250,4308.3002,N,07726.2634,W,1,08,1.21,142.8,M,-34.4,M,,*59
lng=-77.437721, lat=43.138339, altitude=142.80, speed=0.01, satellites=8, angle=84.6600, fixquality=1
$GPRMC,133322.500,A,4308.3002,N,07726.2634,W,0.00,38.03,240519,,,A*41
$GPGGA,133322.750,4308.3002,N,07726.2634,W,1,08,1.21,142.7,M,-34.4,M,,*53
lng=-77.437721, lat=43.138339, altitude=142.80, speed=0.00, satellites=8, angle=38.0300, fixquality=1
$GPRMC,133323.000,A,4308.3002,N,07726.2634,W,0.00,344.31,240519,,,A*7C
$GPGGA,133323.250,4308.3003,N,07726.2634,W,1,08,1.21,142.7,M,-34.4,M,,*56
lng=-77.437721, lat=43.138339, altitude=142.70, speed=0.00, satellites=8, angle=344.3100, fixquality=1
$GPRMC,133323.500,A,4308.3003,N,07726.2634,W,0.01,86.05,240519,,,A*43
$GPGGA,133323.750,4308.3003,N,07726.2635,W,1,08,1.21,142.7,M,-34.4,M,,*52
lng=-77.437721, lat=43.138339, altitude=142.70, speed=0.01, satellites=8, angle=86.0500, fixquality=1
$GPRMC,133324.000,A,4308.3003,N,07726.2635,W,0.00,260.89,240519,,,A*7F
$GPGGA,133324.250,4308.3003,N,07726.2635,W,1,08,1.21,142.7,M,-34.4,M,,*50
lng=-77.437728, lat=43.138339, altitude=142.70, speed=0.00, satellites=8, angle=260.8900, fixquality=1
$GPRMC,133324.500,A,4308.3003,N,07726.2635,W,0.01,303.47,240519,,,A*7D
$GPGGA,133324.750,4308.3004,N,07726.2635,W,1,08,1.21,142.6,M,-34.4,M,,*53
lng=-77.437728, lat=43.138339, altitude=142.70, speed=0.01, satellites=8, angle=303.4700, fixquality=1
$GPRMC,133325.000,A,4308.3004,N,07726.2636,W,0.02,314.03,240519,,,A*78
$GPGGA,133325.250,4308.3004,N,07726.2636,W,1,08,1.21,142.5,M,-34.4,M,,*57
lng=-77.437728, lat=43.138339, altitude=142.60, speed=0.02, satellites=8, angle=314.0300, fixquality=1
$GPRMC,133325.500,A,4308.3004,N,07726.2636,W,0.00,119.40,240519,,,A*77
$GPGGA,133325.750,4308.3004,N,07726.2636,W,1,08,1.21,142.4,M,-34.4,M,,*53
lng=-77.437728, lat=43.138339, altitude=142.50, speed=0.00, satellites=8, angle=119.4000, fixquality=1
$GPRMC,133326.000,A,4308.3004,N,07726.2636,W,0.00,155.57,240519,,,A*7F
$GPGGA,133326.250,4308.3004,N,07726.2636,W,1,08,1.21,142.3,M,-34.4,M,,*52
lng=-77.437728, lat=43.138339, altitude=142.40, speed=0.00, satellites=8, angle=155.5700, fixquality=1
$GPRMC,133326.500,A,4308.3004,N,07726.2636,W,0.01,251.00,240519,,,A*7E
$GPGGA,133326.750,4308.3004,N,07726.2636,W,1,08,1.21,142.2,M,-34.4,M,,*56
lng=-77.437728, lat=43.138339, altitude=142.30, speed=0.01, satellites=8, angle=251.0000, fixquality=1
$GPRMC,133327.000,A,4308.3004,N,07726.2637,W,0.00,281.46,240519,,,A*75
$GPGGA,133327.250,4308.3004,N,07726.2637,W,1,08,1.21,142.1,M,-34.4,M,,*50
lng=-77.437728, lat=43.138339, altitude=142.20, speed=0.00, satellites=8, angle=281.4600, fixquality=1
$GPRMC,133327.500,A,4308.3004,N,07726.2637,W,0.01,318.75,240519,,,A*70
$GPGGA,133327.750,4308.3005,N,07726.2638,W,1,08,1.21,142.1,M,-34.4,M,,*5B
lng=-77.437728, lat=43.138339, altitude=142.10, speed=0.01, satellites=8, angle=318.7500, fixquality=1
$GPRMC,133328.000,A,4308.3004,N,07726.2638,W,0.00,261.18,240519,,,A*70
$GPGGA,133328.250,4308.3004,N,07726.2638,W,1,08,1.21,141.9,M,-34.4,M,,*5B
lng=-77.437728, lat=43.138339, altitude=142.10, speed=0.00, satellites=8, angle=261.1800, fixquality=1
$GPRMC,133328.500,A,4308.3004,N,07726.2638,W,0.00,149.79,240519,,,A*7B
$GPGGA,133328.750,4308.3004,N,07726.2638,W,1,08,1.21,141.8,M,-34.4,M,,*5F
lng=-77.437728, lat=43.138339, altitude=141.90, speed=0.00, satellites=8, angle=149.7900, fixquality=1
$GPRMC,133329.000,A,4308.3004,N,07726.2638,W,0.00,0.00,240519,,,A*7D
$GPGGA,133329.250,4308.3004,N,07726.2638,W,1,08,1.21,141.7,M,-34.4,M,,*54
lng=-77.437728, lat=43.138339, altitude=141.80, speed=0.00, satellites=8, angle=0.0000, fixquality=1
$GPRMC,133329.500,A,4308.3004,N,07726.2638,W,0.01,95.67,240519,,,A*44
$GPGGA,133329.750,4308.3003,N,07726.2638,W,1,08,1.21,141.6,M,-34.4,M,,*57
lng=-77.437728, lat=43.138339, altitude=141.70, speed=0.01, satellites=8, angle=95.6700, fixquality=1
$GPRMC,133330.000,A,4308.3003,N,07726.2639,W,0.00,130.27,240519,,,A*74
$GPGGA,133330.250,4308.3003,N,07726.2639,W,1,08,1.21,141.4,M,-34.4,M,,*59
lng=-77.437728, lat=43.138339, altitude=141.60, speed=0.00, satellites=8, angle=130.2700, fixquality=1
$GPRMC,133330.500,A,4308.3003,N,07726.2639,W,0.01,132.47,240519,,,A*74
$GPGGA,133330.750,4308.3003,N,07726.2639,W,1,08,1.21,141.3,M,-34.4,M,,*5B
lng=-77.437728, lat=43.138339, altitude=141.40, speed=0.01, satellites=8, angle=132.4700, fixquality=1
$GPRMC,133331.000,A,4308.3002,N,07726.2639,W,0.01,222.18,240519,,,A*79
$GPGGA,133331.250,4308.3002,N,07726.2639,W,1,08,1.21,141.3,M,-34.4,M,,*5E
lng=-77.437728, lat=43.138339, altitude=141.30, speed=0.01, satellites=8, angle=222.1800, fixquality=1
$GPRMC,133331.500,A,4308.3003,N,07726.2640,W,0.01,347.51,240519,,,A*7C
$GPGGA,133331.750,4308.3003,N,07726.2640,W,1,08,1.21,141.1,M,-34.4,M,,*56
lng=-77.437736, lat=43.138339, altitude=141.30, speed=0.01, satellites=8, angle=347.5100, fixquality=1
$GPRMC,133332.000,A,4308.3003,N,07726.2640,W,0.00,300.99,240519,,,A*7C
$GPGGA,133332.250,4308.3003,N,07726.2640,W,1,08,1.21,141.1,M,-34.4,M,,*50
lng=-77.437736, lat=43.138339, altitude=141.10, speed=0.00, satellites=8, angle=300.9900, fixquality=1
$GPRMC,133332.500,A,4308.3003,N,07726.2640,W,0.01,255.18,240519,,,A*70
$GPGGA,133332.750,4308.3003,N,07726.2641,W,1,08,1.21,141.0,M,-34.4,M,,*55
lng=-77.437736, lat=43.138339, altitude=141.10, speed=0.01, satellites=8, angle=255.1800, fixquality=1
$GPRMC,133333.000,A,4308.3003,N,07726.2641,W,0.01,280.60,240519,,,A*72
$GPGGA,133333.250,4308.3002,N,07726.2641,W,1,08,1.21,140.9,M,-34.4,M,,*58
lng=-77.437736, lat=43.138339, altitude=141.00, speed=0.01, satellites=8, angle=280.6000, fixquality=1
$GPRMC,133333.500,A,4308.3002,N,07726.2641,W,0.01,177.23,240519,,,A*7A
$GPGGA,133333.750,4308.3002,N,07726.2641,W,1,08,1.21,140.8,M,-34.4,M,,*5C
lng=-77.437736, lat=43.138339, altitude=140.90, speed=0.01, satellites=8, angle=177.2300, fixquality=1
$GPRMC,133334.000,A,4308.3002,N,07726.2642,W,0.00,291.51,240519,,,A*74
$GPGGA,133334.250,4308.3001,N,07726.2642,W,1,08,1.21,140.7,M,-34.4,M,,*51
lng=-77.437736, lat=43.138339, altitude=140.80, speed=0.00, satellites=8, angle=291.5100, fixquality=1
$GPRMC,133334.500,A,4308.3001,N,07726.2642,W,0.00,289.74,240519,,,A*7C
$GPGGA,133334.750,4308.3002,N,07726.2642,W,1,08,1.21,140.6,M,-34.4,M,,*56
lng=-77.437736, lat=43.138339, altitude=140.70, speed=0.00, satellites=8, angle=289.7400, fixquality=1
$GPRMC,133335.000,A,4308.3002,N,07726.2642,W,0.00,359.91,240519,,,A*7C
$GPGGA,133335.250,4308.3002,N,07726.2643,W,1,08,1.21,140.6,M,-34.4,M,,*53
lng=-77.437736, lat=43.138339, altitude=140.60, speed=0.00, satellites=8, angle=359.9100, fixquality=1
$GPRMC,133335.500,A,4308.3001,N,07726.2643,W,0.00,334.74,240519,,,A*7B
$GPGGA,133335.750,4308.3002,N,07726.2643,W,1,08,1.21,140.5,M,-34.4,M,,*55
lng=-77.437736, lat=43.138339, altitude=140.60, speed=0.00, satellites=8, angle=334.7400, fixquality=1
$GPRMC,133336.000,A,4308.3001,N,07726.2643,W,0.00,233.03,240519,,,A*7B
$GPGGA,133336.250,4308.3001,N,07726.2643,W,1,08,1.21,140.4,M,-34.4,M,,*51
lng=-77.437736, lat=43.138339, altitude=140.50, speed=0.00, satellites=8, angle=233.0300, fixquality=1
$GPRMC,133336.500,A,4308.3001,N,07726.2643,W,0.01,116.79,240519,,,A*76
$GPGGA,133336.750,4308.3000,N,07726.2643,W,1,08,1.21,140.3,M,-34.4,M,,*52
lng=-77.437736, lat=43.138339, altitude=140.40, speed=0.01, satellites=8, angle=116.7900, fixquality=1
$GPRMC,133337.000,A,4308.3000,N,07726.2643,W,0.01,144.60,240519,,,A*7C
$GPGGA,133337.250,4308.3000,N,07726.2643,W,1,08,1.21,140.2,M,-34.4,M,,*57
lng=-77.437736, lat=43.138328, altitude=140.30, speed=0.01, satellites=8, angle=144.6000, fixquality=1
$GPRMC,133337.500,A,4308.3000,N,07726.2643,W,0.01,40.82,240519,,,A*40
$GPGGA,133337.750,4308.3000,N,07726.2643,W,1,08,1.21,140.1,M,-34.4,M,,*51
lng=-77.437736, lat=43.138328, altitude=140.20, speed=0.01, satellites=8, angle=40.8200, fixquality=1
$GPRMC,133338.000,A,4308.2999,N,07726.2643,W,0.01,291.94,240519,,,A*7B
$GPGGA,133338.250,4308.2999,N,07726.2643,W,1,08,1.21,139.9,M,-34.4,M,,*55
lng=-77.437736, lat=43.138328, altitude=140.10, speed=0.01, satellites=8, angle=291.9400, fixquality=1
$GPRMC,133338.500,A,4308.2999,N,07726.2643,W,0.01,294.47,240519,,,A*75
$GPGGA,133338.750,4308.2999,N,07726.2643,W,1,08,1.21,139.8,M,-34.4,M,,*51
lng=-77.437736, lat=43.138328, altitude=139.90, speed=0.01, satellites=8, angle=294.4700, fixquality=1
$GPRMC,133339.000,A,4308.2998,N,07726.2643,W,0.01,180.82,240519,,,A*7F
$GPGGA,133339.250,4308.2998,N,07726.2643,W,1,08,1.21,139.7,M,-34.4,M,,*5B
lng=-77.437736, lat=43.138328, altitude=139.80, speed=0.01, satellites=8, angle=180.8200, fixquality=1
$GPRMC,133339.500,A,4308.2998,N,07726.2643,W,0.01,188.33,240519,,,A*78
$GPGGA,133339.750,4308.2997,N,07726.2643,W,1,08,1.21,139.6,M,-34.4,M,,*50
lng=-77.437736, lat=43.138328, altitude=139.70, speed=0.01, satellites=8, angle=188.3300, fixquality=1
$GPRMC,133340.000,A,4308.2997,N,07726.2643,W,0.00,191.80,240519,,,A*7D
$GPGGA,133340.250,4308.2997,N,07726.2643,W,1,08,1.21,139.5,M,-34.4,M,,*58
lng=-77.437736, lat=43.138328, altitude=139.60, speed=0.00, satellites=8, angle=191.8000, fixquality=1
$GPRMC,133340.500,A,4308.2996,N,07726.2643,W,0.01,283.60,240519,,,A*76
$GPGGA,133340.750,4308.2996,N,07726.2643,W,1,08,1.21,139.3,M,-34.4,M,,*5A
lng=-77.437736, lat=43.138328, altitude=139.50, speed=0.01, satellites=8, angle=283.6000, fixquality=1
$GPRMC,133341.000,A,4308.2996,N,07726.2643,W,0.00,192.36,240519,,,A*73
$GPGGA,133341.250,4308.2995,N,07726.2643,W,1,08,1.21,139.2,M,-34.4,M,,*5C
lng=-77.437736, lat=43.138328, altitude=139.30, speed=0.00, satellites=8, angle=192.3600, fixquality=1
$GPRMC,133341.500,A,4308.2995,N,07726.2643,W,0.01,348.71,240519,,,A*72
$GPGGA,133341.750,4308.2995,N,07726.2643,W,1,08,1.21,139.1,M,-34.4,M,,*5A
lng=-77.437736, lat=43.138320, altitude=139.20, speed=0.01, satellites=8, angle=348.7100, fixquality=1
$GPRMC,133342.000,A,4308.2995,N,07726.2643,W,0.01,96.80,240519,,,A*4A
$GPGGA,133342.250,4308.2995,N,07726.2643,W,1,08,1.21,138.9,M,-34.4,M,,*55
lng=-77.437736, lat=43.138320, altitude=139.10, speed=0.01, satellites=8, angle=96.8000, fixquality=1
$GPRMC,133342.500,A,4308.2995,N,07726.2643,W,0.01,59.70,240519,,,A*43
$GPGGA,133342.750,4308.2994,N,07726.2642,W,1,08,1.21,138.8,M,-34.4,M,,*51
lng=-77.437736, lat=43.138320, altitude=138.90, speed=0.01, satellites=8, angle=59.7000, fixquality=1
$GPRMC,133343.000,A,4308.2994,N,07726.2642,W,0.00,350.83,240519,,,A*70
$GPGGA,133343.250,4308.2993,N,07726.2642,W,1,08,1.21,138.6,M,-34.4,M,,*5C
lng=-77.437736, lat=43.138320, altitude=138.80, speed=0.00, satellites=8, angle=350.8300, fixquality=1
$GPRMC,133343.500,A,4308.2993,N,07726.2641,W,0.01,148.11,240519,,,A*70
$GPGGA,133343.750,4308.2992,N,07726.2641,W,1,08,1.21,138.3,M,-34.4,M,,*5E
lng=-77.437736, lat=43.138320, altitude=138.60, speed=0.01, satellites=8, angle=148.1100, fixquality=1
$GPRMC,133344.000,A,4308.2992,N,07726.2641,W,0.01,204.35,240519,,,A*7E
$GPGGA,133344.250,4308.2991,N,07726.2641,W,1,08,1.21,138.3,M,-34.4,M,,*5F
lng=-77.437736, lat=43.138320, altitude=138.30, speed=0.01, satellites=8, angle=204.3500, fixquality=1
$GPRMC,133344.500,A,4308.2991,N,07726.2641,W,0.01,265.18,240519,,,A*70
$GPGGA,133344.750,4308.2991,N,07726.2641,W,1,08,1.21,138.1,M,-34.4,M,,*58
lng=-77.437736, lat=43.138320, altitude=138.30, speed=0.01, satellites=8, angle=265.1800, fixquality=1
$GPRMC,133345.000,A,4308.2990,N,07726.2641,W,0.00,226.08,240519,,,A*72
$GPGGA,133345.250,4308.2990,N,07726.2640,W,1,08,1.21,137.9,M,-34.4,M,,*5B
lng=-77.437736, lat=43.138313, altitude=138.10, speed=0.00, satellites=8, angle=226.0800, fixquality=1
$GPRMC,133345.500,A,4308.2989,N,07726.2640,W,0.01,135.62,240519,,,A*72
$GPGGA,133345.750,4308.2989,N,07726.2640,W,1,08,1.21,137.8,M,-34.4,M,,*57
lng=-77.437736, lat=43.138313, altitude=137.90, speed=0.01, satellites=8, angle=135.6200, fixquality=1
$GPRMC,133346.000,A,4308.2988,N,07726.2639,W,0.00,107.61,240519,,,A*78
$GPGGA,133346.250,4308.2988,N,07726.2639,W,1,08,1.21,137.7,M,-34.4,M,,*51
lng=-77.437728, lat=43.138313, altitude=137.80, speed=0.00, satellites=8, angle=107.6100, fixquality=1
$GPRMC,133346.500,A,4308.2987,N,07726.2639,W,0.01,147.73,240519,,,A*74
$GPGGA,133346.750,4308.2987,N,07726.2639,W,1,08,1.21,137.6,M,-34.4,M,,*5A
lng=-77.437728, lat=43.138313, altitude=137.70, speed=0.01, satellites=8, angle=147.7300, fixquality=1
$GPRMC,133347.000,A,4308.2986,N,07726.2639,W,0.00,128.25,240519,,,A*7A
$GPGGA,133347.250,4308.2986,N,07726.2638,W,1,08,1.21,137.5,M,-34.4,M,,*5D
lng=-77.437728, lat=43.138313, altitude=137.60, speed=0.00, satellites=8, angle=128.2500, fixquality=1
$GPRMC,133347.500,A,4308.2986,N,07726.2638,W,0.01,115.49,240519,,,A*7B
$GPGGA,133347.750,4308.2985,N,07726.2637,W,1,08,1.21,137.4,M,-34.4,M,,*55
lng=-77.437728, lat=43.138313, altitude=137.50, speed=0.01, satellites=8, angle=115.4900, fixquality=1
$GPRMC,133348.000,A,4308.2984,N,07726.2637,W,0.01,159.13,240519,,,A*7B
$GPGGA,133348.250,4308.2984,N,07726.2637,W,1,08,1.21,137.3,M,-34.4,M,,*59
lng=-77.437728, lat=43.138305, altitude=137.40, speed=0.01, satellites=8, angle=159.1300, fixquality=1
$GPRMC,133348.500,A,4308.2983,N,07726.2637,W,0.02,177.96,240519,,,A*7B
$GPGGA,133348.750,4308.2982,N,07726.2637,W,1,08,1.21,137.2,M,-34.4,M,,*5B
lng=-77.437728, lat=43.138305, altitude=137.30, speed=0.02, satellites=8, angle=177.9600, fixquality=1
$GPRMC,133349.000,A,4308.2982,N,07726.2636,W,0.01,72.66,240519,,,A*47
$GPGGA,133349.250,4308.2982,N,07726.2636,W,1,08,1.21,137.2,M,-34.4,M,,*5E
lng=-77.437728, lat=43.138305, altitude=137.20, speed=0.01, satellites=8, angle=72.6600, fixquality=1
$GPRMC,133349.500,A,4308.2982,N,07726.2636,W,0.01,122.69,240519,,,A*79
$GPGGA,133349.750,4308.2982,N,07726.2635,W,1,08,1.21,137.2,M,-34.4,M,,*58
lng=-77.437728, lat=43.138305, altitude=137.20, speed=0.01, satellites=8, angle=122.6900, fixquality=1
$GPRMC,133350.000,A,4308.2981,N,07726.2635,W,0.00,86.78,240519,,,A*4A
$GPGGA,133350.250,4308.2981,N,07726.2635,W,1,08,1.21,137.1,M,-34.4,M,,*55
lng=-77.437728, lat=43.138305, altitude=137.20, speed=0.00, satellites=8, angle=86.7800, fixquality=1
$GPRMC,133350.500,A,4308.2981,N,07726.2635,W,0.00,283.25,240519,,,A*70
$GPGGA,133350.750,4308.2981,N,07726.2635,W,1,08,1.21,137.1,M,-34.4,M,,*50
lng=-77.437728, lat=43.138305, altitude=137.10, speed=0.00, satellites=8, angle=283.2500, fixquality=1
$GPRMC,133351.000,A,4308.2981,N,07726.2635,W,0.00,194.04,240519,,,A*72
$GPGGA,133351.250,4308.2980,N,07726.2635,W,1,08,1.21,137.1,M,-34.4,M,,*55
lng=-77.437728, lat=43.138305, altitude=137.10, speed=0.00, satellites=8, angle=194.0400, fixquality=1
$GPRMC,133351.500,A,4308.2980,N,07726.2634,W,0.01,154.50,240519,,,A*7B
$GPGGA,133351.750,4308.2980,N,07726.2634,W,1,08,1.21,137.1,M,-34.4,M,,*51
lng=-77.437721, lat=43.138298, altitude=137.10, speed=0.01, satellites=8, angle=154.5000, fixquality=1
$GPRMC,133352.000,A,4308.2979,N,07726.2634,W,0.00,189.06,240519,,,A*79
$GPGGA,133352.250,4308.2979,N,07726.2634,W,1,08,1.21,137.0,M,-34.4,M,,*50
lng=-77.437721, lat=43.138298, altitude=137.10, speed=0.00, satellites=8, angle=189.0600, fixquality=1
$GPRMC,133352.500,A,4308.2979,N,07726.2634,W,0.01,144.67,240519,,,A*7B
$GPGGA,133352.750,4308.2978,N,07726.2634,W,1,08,1.21,137.0,M,-34.4,M,,*54
lng=-77.437721, lat=43.138298, altitude=137.00, speed=0.01, satellites=8, angle=144.6700, fixquality=1
$GPRMC,133353.000,A,4308.2978,N,07726.2634,W,0.00,157.20,240519,,,A*7E
$GPGGA,133353.250,4308.2978,N,07726.2634,W,1,08,1.21,137.0,M,-34.4,M,,*50
lng=-77.437721, lat=43.138298, altitude=137.00, speed=0.00, satellites=8, angle=157.2000, fixquality=1
