Vers 57
USE_SERIAL_FEEDBACK=false
DEVELOPMENT_MODE=false
USE_RMC_ONLY=false

$GPRMC,140544.400,A,4308.5729,N,07729.6052,W,22.19,208.47,030519,,,D*4E
$GPGGA,140544.600,4308.5718,N,07729.6060,W,2,10,0.80,121.6,M,-34.4,M,0000,0000*57
lng=-77.493415, lat=43.142879, altitude=123.50, speed=22.19, satellites=10, angle=208.4700, fixquality=2
$GPRMC,140544.800,A,4308.5707,N,07729.6069,W,22.41,208.33,030519,,,D*48
$GPGGA,140545.000,4308.5696,N,07729.6077,W,2,10,0.80,121.3,M,-34.4,M,0000,0000*54
lng=-77.493446, lat=43.142845, altitude=121.60, speed=22.41, satellites=10, angle=208.3300, fixquality=2
$GPRMC,140545.200,A,4308.5685,N,07729.6085,W,22.41,208.00,030519,,,D*4A
$GPGGA,140545.400,4308.5674,N,07729.6093,W,2,10,0.80,121.1,M,-34.4,M,0000,0000*54
lng=-77.493476, lat=43.142807, altitude=121.30, speed=22.41, satellites=10, angle=208.0000, fixquality=2
$GPRMC,140545.600,A,4308.5663,N,07729.6101,W,22.30,207.90,030519,,,D*4B
$GPGGA,140545.800,4308.5652,N,07729.6109,W,2,10,0.80,120.9,M,-34.4,M,0000,0000*57
lng=-77.493499, lat=43.142772, altitude=121.10, speed=22.30, satellites=10, angle=207.9000, fixquality=2
$GPRMC,140546.000,A,4308.5641,N,07729.6118,W,22.09,208.44,030519,,,D*4A
$GPGGA,140546.200,4308.5631,N,07729.6126,W,2,10,0.80,120.6,M,-34.4,M,0000,0000*59
lng=-77.493530, lat=43.142734, altitude=120.90, speed=22.09, satellites=10, angle=208.4400, fixquality=2
$GPRMC,140546.400,A,4308.5620,N,07729.6134,W,21.86,208.73,030519,,,D*47
$GPGGA,140546.600,4308.5609,N,07729.6142,W,2,10,0.80,120.4,M,-34.4,M,0000,0000*56
lng=-77.493553, lat=43.142700, altitude=120.60, speed=21.86, satellites=10, angle=208.7300, fixquality=2
$GPRMC,140546.800,A,4308.5598,N,07729.6150,W,21.79,208.66,030519,,,D*4D
$GPGGA,140547.000,4308.5587,N,07729.6158,W,2,10,0.80,120.2,M,-34.4,M,0000,0000*59
lng=-77.493583, lat=43.142658, altitude=120.40, speed=21.79, satellites=10, angle=208.6600, fixquality=2
$GPRMC,140547.200,A,4308.5577,N,07729.6165,W,21.55,208.78,030519,,,D*40
$GPGGA,140547.400,4308.5566,N,07729.6173,W,2,10,0.80,120.0,M,-34.4,M,0000,0000*59
lng=-77.493614, lat=43.142627, altitude=120.20, speed=21.55, satellites=10, angle=208.7800, fixquality=2
$GPRMC,140547.600,A,4308.5556,N,07729.6180,W,21.28,208.78,030519,,,D*46
$GPGGA,140547.800,4308.5546,N,07729.6188,W,2,10,0.80,119.8,M,-34.4,M,0000,0000*51
lng=-77.493637, lat=43.142593, altitude=120.00, speed=21.28, satellites=10, angle=208.7800, fixquality=2
$GPRMC,140548.000,A,4308.5535,N,07729.6195,W,21.18,208.51,030519,,,D*46
$GPGGA,140548.200,4308.5525,N,07729.6202,W,2,10,0.80,119.7,M,-34.4,M,0000,0000*5F
lng=-77.493659, lat=43.142562, altitude=119.80, speed=21.18, satellites=10, angle=208.5100, fixquality=2
$GPRMC,140548.400,A,4308.5515,N,07729.6210,W,21.07,208.38,030519,,,D*4F
$GPGGA,140548.600,4308.5505,N,07729.6217,W,2,10,0.80,119.6,M,-34.4,M,0000,0000*5C
lng=-77.493682, lat=43.142520, altitude=119.70, speed=21.07, satellites=10, angle=208.3800, fixquality=2
$GPRMC,140548.800,A,4308.5495,N,07729.6225,W,20.97,208.62,030519,,,D*4B
$GPGGA,140549.000,4308.5485,N,07729.6232,W,2,10,0.80,119.6,M,-34.4,M,0000,0000*55
lng=-77.493705, lat=43.142490, altitude=119.60, speed=20.97, satellites=10, angle=208.6200, fixquality=2
$GPRMC,140549.200,A,4308.5474,N,07729.6240,W,20.94,208.77,030519,,,D*4B
$GPGGA,140549.400,4308.5464,N,07729.6248,W,2,10,0.80,119.5,M,-34.4,M,0000,0000*50
lng=-77.493736, lat=43.142456, altitude=119.60, speed=20.94, satellites=10, angle=208.7700, fixquality=2
$GPRMC,140549.600,A,4308.5454,N,07729.6256,W,21.40,209.13,030519,,,D*41
$GPGGA,140549.800,4308.5443,N,07729.6264,W,2,10,0.80,119.4,M,-34.4,M,0000,0000*56
lng=-77.493759, lat=43.142421, altitude=119.50, speed=21.40, satellites=10, angle=209.1300, fixquality=2
$GPRMC,140550.000,A,4308.5432,N,07729.6272,W,21.63,209.32,030519,,,D*4B
$GPGGA,140550.200,4308.5421,N,07729.6280,W,2,10,0.80,119.2,M,-34.4,M,0000,0000*5C
lng=-77.493782, lat=43.142383, altitude=119.40, speed=21.63, satellites=10, angle=209.3200, fixquality=2
$GPRMC,140550.400,A,4308.5410,N,07729.6288,W,22.22,208.94,030519,,,D*41
$GPGGA,140550.600,4308.5399,N,07729.6296,W,2,10,0.80,119.1,M,-34.4,M,0000,0000*58
lng=-77.493812, lat=43.142349, altitude=119.20, speed=22.22, satellites=10, angle=208.9400, fixquality=2
$GPRMC,140550.800,A,4308.5387,N,07729.6304,W,22.71,208.19,030519,,,D*42
$GPGGA,140551.000,4308.5376,N,07729.6313,W,2,10,0.80,119.0,M,-34.4,M,0000,0000*53
lng=-77.493843, lat=43.142311, altitude=119.10, speed=22.71, satellites=10, angle=208.1900, fixquality=2
$GPRMC,140551.200,A,4308.5364,N,07729.6321,W,22.79,208.21,030519,,,D*40
$GPGGA,140551.400,4308.5353,N,07729.6329,W,2,10,0.80,118.9,M,-34.4,M,0000,0000*51
lng=-77.493873, lat=43.142276, altitude=119.00, speed=22.79, satellites=10, angle=208.2100, fixquality=2
$GPRMC,140551.600,A,4308.5342,N,07729.6337,W,22.72,207.85,030519,,,D*4D
$GPGGA,140551.800,4308.5331,N,07729.6345,W,2,10,0.80,118.8,M,-34.4,M,0000,0000*52
lng=-77.493896, lat=43.142234, altitude=118.90, speed=22.72, satellites=10, angle=207.8500, fixquality=2
$GPRMC,140552.000,A,4308.5320,N,07729.6353,W,22.44,207.81,030519,,,D*4F
$GPGGA,140552.200,4308.5309,N,07729.6360,W,2,10,0.80,118.7,M,-34.4,M,0000,0000*58
lng=-77.493919, lat=43.142204, altitude=118.80, speed=22.44, satellites=10, angle=207.8100, fixquality=2
$GPRMC,140552.400,A,4308.5298,N,07729.6368,W,22.17,207.26,030519,,,D*4A
$GPGGA,140552.600,4308.5287,N,07729.6375,W,2,10,0.80,118.5,M,-34.4,M,0000,0000*5D
lng=-77.493942, lat=43.142162, altitude=118.70, speed=22.17, satellites=10, angle=207.2600, fixquality=2
$GPRMC,140552.800,A,4308.5276,N,07729.6383,W,22.13,207.35,030519,,,D*45
$GPGGA,140553.000,4308.5264,N,07729.6391,W,2,10,0.80,118.4,M,-34.4,M,0000,0000*5C
lng=-77.493972, lat=43.142131, altitude=118.50, speed=22.13, satellites=10, angle=207.3500, fixquality=2
$GPRMC,140553.200,A,4308.5253,N,07729.6399,W,21.80,207.34,030519,,,D*4A
$GPGGA,140553.400,4308.5242,N,07729.6407,W,2,10,0.80,118.6,M,-34.4,M,0000,0000*56
lng=-77.494003, lat=43.142089, altitude=118.40, speed=21.80, satellites=10, angle=207.3400, fixquality=2
$GPRMC,140553.600,A,4308.5232,N,07729.6415,W,21.75,208.18,030519,,,D*41
$GPGGA,140553.800,4308.5221,N,07729.6423,W,2,10,0.80,118.6,M,-34.4,M,0000,0000*59
lng=-77.494026, lat=43.142055, altitude=118.60, speed=21.75, satellites=10, angle=208.1800, fixquality=2
$GPRMC,140554.000,A,4308.5210,N,07729.6431,W,21.78,207.58,030519,,,D*40
$GPGGA,140554.200,4308.5199,N,07729.6438,W,2,10,0.80,118.8,M,-34.4,M,0000,0000*50
lng=-77.494049, lat=43.142017, altitude=118.60, speed=21.78, satellites=10, angle=207.5800, fixquality=2
$GPRMC,140554.400,A,4308.5187,N,07729.6446,W,21.74,206.97,030519,,,D*47
$GPGGA,140554.600,4308.5176,N,07729.6453,W,2,10,0.80,119.2,M,-34.4,M,0000,0000*53
lng=-77.494071, lat=43.141975, altitude=118.80, speed=21.74, satellites=10, angle=206.9700, fixquality=2
$GPRMC,140554.800,A,4308.5165,N,07729.6460,W,21.68,206.40,030519,,,D*44
$GPGGA,140555.000,4308.5153,N,07729.6468,W,2,10,0.80,119.5,M,-34.4,M,0000,0000*5C
lng=-77.494102, lat=43.141944, altitude=119.20, speed=21.68, satellites=10, angle=206.4000, fixquality=2
$GPRMC,140555.200,A,4308.5142,N,07729.6475,W,21.72,205.71,030519,,,D*44
$GPGGA,140555.400,4308.5130,N,07729.6481,W,2,10,0.80,119.7,M,-34.4,M,0000,0000*58
lng=-77.494125, lat=43.141902, altitude=119.50, speed=21.72, satellites=10, angle=205.7100, fixquality=2
$GPRMC,140555.600,A,4308.5119,N,07729.6487,W,21.84,204.03,030519,,,D*4E
$GPGGA,140555.800,4308.5107,N,07729.6494,W,2,10,0.80,119.8,M,-34.4,M,0000,0000*5B
lng=-77.494148, lat=43.141860, altitude=119.70, speed=21.84, satellites=10, angle=204.0300, fixquality=2
$GPRMC,140556.000,A,4308.5095,N,07729.6498,W,22.23,201.29,030519,,,D*43
$GPGGA,140556.200,4308.5082,N,07729.6502,W,2,10,0.80,119.9,M,-34.4,M,0000,0000*51
lng=-77.494163, lat=43.141822, altitude=119.80, speed=22.23, satellites=10, angle=201.2900, fixquality=2
$GPRMC,140556.400,A,4308.5070,N,07729.6507,W,22.44,198.16,030519,,,D*45
$GPGGA,140556.600,4308.5058,N,07729.6512,W,2,10,0.80,120.0,M,-34.4,M,0000,0000*50
lng=-77.494178, lat=43.141780, altitude=119.90, speed=22.44, satellites=10, angle=198.1600, fixquality=2
$GPRMC,140556.800,A,4308.5045,N,07729.6514,W,22.32,195.16,030519,,,D*41
$GPGGA,140557.000,4308.5033,N,07729.6516,W,2,10,0.80,120.2,M,-34.4,M,0000,0000*5C
lng=-77.494186, lat=43.141738, altitude=120.00, speed=22.32, satellites=10, angle=195.1600, fixquality=2
$GPRMC,140557.200,A,4308.5020,N,07729.6519,W,22.25,190.71,030519,,,D*46
$GPGGA,140557.400,4308.5007,N,07729.6521,W,2,09,0.87,120.2,M,-34.4,M,0000,0000*54
lng=-77.494194, lat=43.141700, altitude=120.20, speed=22.25, satellites=10, angle=190.7100, fixquality=2
$GPRMC,140557.600,A,4308.4994,N,07729.6524,W,22.39,188.96,030519,,,D*46
$GPGGA,140557.800,4308.4981,N,07729.6525,W,2,10,0.80,120.0,M,-34.4,M,0000,0000*57
lng=-77.494209, lat=43.141658, altitude=120.20, speed=22.39, satellites=9, angle=188.9600, fixquality=2
$GPRMC,140558.000,A,4308.4968,N,07729.6527,W,22.48,187.00,030519,,,D*49
$GPGGA,140558.200,4308.4956,N,07729.6529,W,2,10,0.80,119.7,M,-34.4,M,0000,0000*59
lng=-77.494216, lat=43.141609, altitude=120.00, speed=22.48, satellites=10, angle=187.0000, fixquality=2
$GPRMC,140558.400,A,4308.4943,N,07729.6530,W,22.47,184.58,030519,,,D*43
$GPGGA,140558.600,4308.4930,N,07729.6531,W,2,10,0.80,119.4,M,-34.4,M,0000,0000*57
lng=-77.494216, lat=43.141567, altitude=119.70, speed=22.47, satellites=10, angle=184.5800, fixquality=2
$GPRMC,140558.800,A,4308.4918,N,07729.6532,W,22.46,184.18,030519,,,D*46
$GPGGA,140559.000,4308.4905,N,07729.6533,W,2,10,0.80,119.3,M,-34.4,M,0000,0000*53
lng=-77.494224, lat=43.141529, altitude=119.40, speed=22.46, satellites=10, angle=184.1800, fixquality=2
$GPRMC,140559.200,A,4308.4892,N,07729.6534,W,22.53,183.96,030519,,,D*4D
$GPGGA,140559.400,4308.4879,N,07729.6533,W,2,09,0.87,119.1,M,-34.4,M,0000,0000*50
lng=-77.494224, lat=43.141487, altitude=119.30, speed=22.53, satellites=10, angle=183.9600, fixquality=2
$GPRMC,140559.600,A,4308.4867,N,07729.6533,W,22.69,182.93,030519,,,D*49
$GPGGA,140559.800,4308.4854,N,07729.6533,W,2,09,0.87,119.0,M,-34.4,M,0000,0000*52
lng=-77.494224, lat=43.141445, altitude=119.10, speed=22.69, satellites=9, angle=182.9300, fixquality=2
$GPRMC,140600.000,A,4308.4841,N,07729.6532,W,22.74,182.34,030519,,,D*44
$GPGGA,140600.200,4308.4828,N,07729.6533,W,2,10,0.80,118.9,M,-34.4,M,0000,0000*5B
lng=-77.494224, lat=43.141399, altitude=119.00, speed=22.74, satellites=9, angle=182.3400, fixquality=2
$GPRMC,140600.400,A,4308.4815,N,07729.6533,W,22.82,181.94,030519,,,D*40
$GPGGA,140600.600,4308.4803,N,07729.6533,W,2,10,0.79,118.9,M,-34.4,M,0000,0000*50
lng=-77.494224, lat=43.141357, altitude=118.90, speed=22.82, satellites=10, angle=181.9400, fixquality=2
$GPRMC,140600.800,A,4308.4790,N,07729.6533,W,22.80,182.15,030519,,,D*46
$GPGGA,140601.000,4308.4777,N,07729.6533,W,2,10,0.80,118.8,M,-34.4,M,0000,0000*5C
lng=-77.494224, lat=43.141315, altitude=118.90, speed=22.80, satellites=10, angle=182.1500, fixquality=2
$GPRMC,140601.200,A,4308.4765,N,07729.6534,W,22.73,182.85,030519,,,D*45
$GPGGA,140601.400,4308.4752,N,07729.6534,W,2,10,0.80,118.7,M,-34.4,M,0000,0000*57
lng=-77.494224, lat=43.141277, altitude=118.80, speed=22.73, satellites=10, angle=182.8500, fixquality=2
$GPRMC,140601.600,A,4308.4739,N,07729.6535,W,22.77,182.72,030519,,,D*45
$GPGGA,140601.800,4308.4726,N,07729.6535,W,2,10,0.79,118.7,M,-34.4,M,0000,0000*5F
lng=-77.494224, lat=43.141235, altitude=118.70, speed=22.77, satellites=10, angle=182.7200, fixquality=2
$GPRMC,140602.000,A,4308.4713,N,07729.6535,W,22.82,182.39,030519,,,D*4D
$GPGGA,140602.200,4308.4700,N,07729.6536,W,2,10,0.80,118.8,M,-34.4,M,0000,0000*58
lng=-77.494224, lat=43.141185, altitude=118.70, speed=22.82, satellites=10, angle=182.3900, fixquality=2
$GPRMC,140602.400,A,4308.4687,N,07729.6537,W,22.86,183.02,030519,,,D*4A
$GPGGA,140602.600,4308.4674,N,07729.6537,W,2,10,0.80,118.8,M,-34.4,M,0000,0000*5F
lng=-77.494232, lat=43.141147, altitude=118.80, speed=22.86, satellites=10, angle=183.0200, fixquality=2
$GPRMC,140602.800,A,4308.4661,N,07729.6537,W,22.94,182.71,030519,,,D*48
$GPGGA,140603.000,4308.4647,N,07729.6537,W,2,10,0.80,118.9,M,-34.4,M,0000,0000*59
lng=-77.494232, lat=43.141105, altitude=118.80, speed=22.94, satellites=10, angle=182.7100, fixquality=2
$GPRMC,140603.200,A,4308.4634,N,07729.6538,W,23.24,182.90,030519,,,D*49
$GPGGA,140603.400,4308.4621,N,07729.6539,W,2,10,0.80,118.8,M,-34.4,M,0000,0000*52
lng=-77.494232, lat=43.141056, altitude=118.90, speed=23.24, satellites=10, angle=182.9000, fixquality=2
$GPRMC,140603.600,A,4308.4608,N,07729.6539,W,22.84,182.87,030519,,,D*4E
$GPGGA,140603.800,4308.4595,N,07729.6540,W,2,10,0.80,118.7,M,-34.4,M,0000,0000*53
lng=-77.494232, lat=43.141014, altitude=118.80, speed=22.84, satellites=10, angle=182.8700, fixquality=2
$GPRMC,140604.000,A,4308.4582,N,07729.6541,W,22.76,183.58,030519,,,D*4F
$GPGGA,140604.200,4308.4569,N,07729.6542,W,2,10,0.80,118.7,M,-34.4,M,0000,0000*5F
lng=-77.494239, lat=43.140968, altitude=118.70, speed=22.76, satellites=10, angle=183.5800, fixquality=2
$GPRMC,140604.400,A,4308.4556,N,07729.6543,W,22.68,183.06,030519,,,D*44
$GPGGA,140604.600,4308.4543,N,07729.6543,W,2,10,0.80,118.7,M,-34.4,M,0000,0000*52
lng=-77.494239, lat=43.140926, altitude=118.70, speed=22.68, satellites=10, angle=183.0600, fixquality=2
$GPRMC,140604.800,A,4308.4532,N,07729.6543,W,21.70,182.47,030519,,,D*44
$GPGGA,140605.000,4308.4520,N,07729.6543,W,2,10,0.80,118.7,M,-34.4,M,0000,0000*50
lng=-77.494239, lat=43.140884, altitude=118.70, speed=21.70, satellites=10, angle=182.4700, fixquality=2
$GPRMC,140605.200,A,4308.4509,N,07729.6544,W,20.44,182.23,030519,,,D*44
$GPGGA,140605.400,4308.4499,N,07729.6545,W,2,10,0.80,118.6,M,-34.4,M,0000,0000*50
lng=-77.494239, lat=43.140846, altitude=118.70, speed=20.44, satellites=10, angle=182.2300, fixquality=2
$GPRMC,140605.600,A,4308.4489,N,07729.6545,W,19.00,182.66,030519,,,D*43
$GPGGA,140605.800,4308.4480,N,07729.6546,W,2,10,0.80,118.7,M,-34.4,M,0000,0000*56
lng=-77.494239, lat=43.140811, altitude=118.60, speed=19.00, satellites=10, angle=182.6600, fixquality=2
$GPRMC,140606.000,A,4308.4471,N,07729.6547,W,16.51,180.94,030519,,,D*47
$GPGGA,140606.200,4308.4463,N,07729.6549,W,2,10,0.80,118.7,M,-34.4,M,0000,0000*5D
lng=-77.494247, lat=43.140789, altitude=118.70, speed=16.51, satellites=10, angle=180.9400, fixquality=2
$GPRMC,140606.400,A,4308.4453,N,07729.6551,W,14.90,181.60,030519,,,D*41
$GPGGA,140606.600,4308.4444,N,07729.6554,W,2,10,0.80,118.6,M,-34.4,M,0000,0000*51
lng=-77.494255, lat=43.140754, altitude=118.70, speed=14.90, satellites=10, angle=181.6000, fixquality=2
$GPRMC,140606.800,A,4308.4435,N,07729.6556,W,14.18,182.72,030519,,,D*4A
$GPGGA,140607.000,4308.4428,N,07729.6558,W,2,10,0.80,118.6,M,-34.4,M,0000,0000*50
lng=-77.494262, lat=43.140724, altitude=118.60, speed=14.18, satellites=10, angle=182.7200, fixquality=2
$GPRMC,140607.200,A,4308.4421,N,07729.6562,W,11.42,177.84,030519,,,D*4A
$GPGGA,140607.400,4308.4415,N,07729.6565,W,2,10,0.80,118.7,M,-34.4,M,0000,0000*55
lng=-77.494270, lat=43.140697, altitude=118.60, speed=11.42, satellites=10, angle=177.8400, fixquality=2
$GPRMC,140607.600,A,4308.4409,N,07729.6567,W,9.39,177.01,030519,,,D*79
$GPGGA,140607.800,4308.4404,N,07729.6569,W,2,10,0.80,118.7,M,-34.4,M,0000,0000*55
lng=-77.494277, lat=43.140682, altitude=118.70, speed=9.39, satellites=10, angle=177.0100, fixquality=2
$GPRMC,140608.000,A,4308.4400,N,07729.6572,W,7.03,174.27,030519,,,D*7D
$GPGGA,140608.200,4308.4399,N,07729.6578,W,2,10,0.80,118.7,M,-34.4,M,0000,0000*53
lng=-77.494285, lat=43.140666, altitude=118.70, speed=7.03, satellites=10, angle=174.2700, fixquality=2
$GPRMC,140608.400,A,4308.4397,N,07729.6579,W,4.35,186.31,030519,,,D*77
$GPGGA,140608.600,4308.4395,N,07729.6581,W,2,10,0.80,118.7,M,-34.4,M,0000,0000*5D
lng=-77.494293, lat=43.140659, altitude=118.70, speed=4.35, satellites=10, angle=186.3100, fixquality=2
$GPRMC,140608.800,A,4308.4393,N,07729.6581,W,3.65,185.04,030519,,,D*7F
$GPGGA,140609.000,4308.4391,N,07729.6581,W,2,10,0.79,118.9,M,-34.4,M,0000,0000*56
lng=-77.494300, lat=43.140659, altitude=118.70, speed=3.65, satellites=10, angle=185.0400, fixquality=2
$GPRMC,140609.200,A,4308.4390,N,07729.6581,W,3.10,187.50,030519,,,D*76
$GPGGA,140609.400,4308.4389,N,07729.6582,W,2,10,0.79,119.0,M,-34.4,M,0000,0000*50
lng=-77.494300, lat=43.140647, altitude=118.90, speed=3.10, satellites=10, angle=187.5000, fixquality=2
$GPRMC,140609.600,A,4308.4387,N,07729.6583,W,2.77,187.50,030519,,,D*76
$GPGGA,140609.800,4308.4386,N,07729.6584,W,2,10,0.79,119.2,M,-34.4,M,0000,0000*57
lng=-77.494300, lat=43.140640, altitude=119.00, speed=2.77, satellites=10, angle=187.5000, fixquality=2
$GPRMC,140610.000,A,4308.4386,N,07729.6584,W,2.23,187.50,030519,,,D*7F
$GPGGA,140610.200,4308.4384,N,07729.6585,W,2,10,0.79,119.2,M,-34.4,M,0000,0000*56
lng=-77.494300, lat=43.140640, altitude=119.20, speed=2.23, satellites=10, angle=187.5000, fixquality=2
$GPRMC,140610.400,A,4308.4382,N,07729.6587,W,2.17,187.50,030519,,,D*7B
$GPGGA,140610.600,4308.4380,N,07729.6587,W,2,10,0.79,119.2,M,-34.4,M,0000,0000*54
lng=-77.494308, lat=43.140632, altitude=119.20, speed=2.17, satellites=10, angle=187.5000, fixquality=2
$GPRMC,140610.800,A,4308.4378,N,07729.6587,W,2.85,187.50,030519,,,D*79
$GPGGA,140611.000,4308.4376,N,07729.6587,W,2,10,0.79,119.3,M,-34.4,M,0000,0000*5B
lng=-77.494308, lat=43.140632, altitude=119.20, speed=2.85, satellites=10, angle=187.5000, fixquality=2
$GPRMC,140611.200,A,4308.4374,N,07729.6588,W,3.15,190.19,030519,,,D*72
$GPGGA,140611.400,4308.4372,N,07729.6588,W,2,10,0.79,119.5,M,-34.4,M,0000,0000*52
lng=-77.494308, lat=43.140625, altitude=119.30, speed=3.15, satellites=10, angle=190.1900, fixquality=2
$GPRMC,140611.600,A,4308.4370,N,07729.6589,W,3.44,187.82,030519,,,D*73
$GPGGA,140611.800,4308.4366,N,07729.6590,W,2,10,0.79,119.6,M,-34.4,M,0000,0000*51
lng=-77.494308, lat=43.140617, altitude=119.50, speed=3.44, satellites=10, angle=187.8200, fixquality=2
$GPRMC,140612.000,A,4308.4361,N,07729.6590,W,5.45,187.04,030519,,,D*77
$GPGGA,140612.200,4308.4357,N,07729.6589,W,2,10,0.80,119.8,M,-34.4,M,0000,0000*5A
lng=-77.494316, lat=43.140602, altitude=119.60, speed=5.45, satellites=10, angle=187.0400, fixquality=2
$GPRMC,140612.400,A,4308.4351,N,07729.6587,W,6.69,166.39,030519,,,D*7A
$GPGGA,140612.600,4308.4343,N,07729.6586,W,2,10,0.79,120.0,M,-34.4,M,0000,0000*50
lng=-77.494308, lat=43.140583, altitude=119.80, speed=6.69, satellites=10, angle=166.3900, fixquality=2
$GPRMC,140612.800,A,4308.4338,N,07729.6582,W,8.69,153.31,030519,,,D*7C
$GPGGA,140613.000,4308.4332,N,07729.6577,W,2,09,0.87,120.0,M,-34.4,M,0000,0000*56
lng=-77.494300, lat=43.140560, altitude=120.00, speed=8.69, satellites=10, angle=153.3100, fixquality=2
$GPRMC,140613.200,A,4308.4326,N,07729.6572,W,10.33,146.71,030519,,,D*41
$GPGGA,140613.400,4308.4319,N,07729.6563,W,2,09,0.87,120.2,M,-34.4,M,0000,0000*5C
lng=-77.494285, lat=43.140544, altitude=120.00, speed=10.33, satellites=9, angle=146.7100, fixquality=2
$GPRMC,140613.600,A,4308.4312,N,07729.6556,W,11.96,138.74,030519,,,D*46
$GPGGA,140613.800,4308.4306,N,07729.6547,W,2,10,0.80,120.4,M,-34.4,M,0000,0000*51
lng=-77.494262, lat=43.140518, altitude=120.20, speed=11.96, satellites=9, angle=138.7400, fixquality=2
$GPRMC,140614.000,A,4308.4300,N,07729.6537,W,13.65,132.50,030519,,,D*41
$GPGGA,140614.200,4308.4295,N,07729.6529,W,2,10,0.80,120.6,M,-34.4,M,0000,0000*5D
lng=-77.494232, lat=43.140502, altitude=120.40, speed=13.65, satellites=10, angle=132.5000, fixquality=2
$GPRMC,140614.400,A,4308.4289,N,07729.6518,W,15.27,130.27,030519,,,D*4A
$GPGGA,140614.600,4308.4283,N,07729.6505,W,2,10,0.79,120.8,M,-34.4,M,0000,0000*58
lng=-77.494194, lat=43.140480, altitude=120.60, speed=15.27, satellites=10, angle=130.2700, fixquality=2
$GPRMC,140614.800,A,4308.4278,N,07729.6492,W,17.82,127.15,030519,,,D*41
$GPGGA,140615.000,4308.4273,N,07729.6479,W,2,10,0.80,120.9,M,-34.4,M,0000,0000*5D
lng=-77.494155, lat=43.140460, altitude=120.80, speed=17.82, satellites=10, angle=127.1500, fixquality=2
$GPRMC,140615.200,A,4308.4268,N,07729.6467,W,18.81,125.36,030519,,,D*4E
$GPGGA,140615.400,4308.4262,N,07729.6454,W,2,10,0.80,121.0,M,-34.4,M,0000,0000*5E
lng=-77.494110, lat=43.140445, altitude=120.90, speed=18.81, satellites=10, angle=125.3600, fixquality=2
$GPRMC,140615.600,A,4308.4257,N,07729.6441,W,19.29,124.26,030519,,,D*41
$GPGGA,140615.800,4308.4251,N,07729.6428,W,2,10,0.79,121.0,M,-34.4,M,0000,0000*5F
lng=-77.494064, lat=43.140430, altitude=121.00, speed=19.29, satellites=10, angle=124.2600, fixquality=2
$GPRMC,140616.000,A,4308.4245,N,07729.6414,W,20.14,123.10,030519,,,D*41
$GPGGA,140616.200,4308.4238,N,07729.6400,W,2,10,0.79,121.2,M,-34.4,M,0000,0000*51
lng=-77.494026, lat=43.140403, altitude=121.00, speed=20.14, satellites=10, angle=123.1000, fixquality=2
$GPRMC,140616.400,A,4308.4232,N,07729.6386,W,20.92,122.42,030519,,,D*41
$GPGGA,140616.600,4308.4224,N,07729.6373,W,2,10,0.79,121.2,M,-34.4,M,0000,0000*5B
lng=-77.493980, lat=43.140388, altitude=121.20, speed=20.92, satellites=10, angle=122.4200, fixquality=2
$GPRMC,140616.800,A,4308.4217,N,07729.6359,W,21.66,123.46,030519,,,D*47
$GPGGA,140617.000,4308.4209,N,07729.6344,W,2,10,0.79,121.3,M,-34.4,M,0000,0000*56
lng=-77.493927, lat=43.140365, altitude=121.20, speed=21.66, satellites=10, angle=123.4600, fixquality=2
$GPRMC,140617.200,A,4308.4201,N,07729.6329,W,22.71,123.99,030519,,,D*4B
$GPGGA,140617.400,4308.4192,N,07729.6312,W,2,10,0.80,121.4,M,-34.4,M,0000,0000*51
lng=-77.493881, lat=43.140331, altitude=121.30, speed=22.71, satellites=10, angle=123.9900, fixquality=2
$GPRMC,140617.600,A,4308.4184,N,07729.6297,W,23.80,124.74,030519,,,D*4E
$GPGGA,140617.800,4308.4176,N,07729.6280,W,2,10,0.79,121.4,M,-34.4,M,0000,0000*5B
lng=-77.493827, lat=43.140308, altitude=121.40, speed=23.80, satellites=10, angle=124.7400, fixquality=2
$GPRMC,140618.000,A,4308.4166,N,07729.6263,W,24.95,125.07,030519,,,D*46
$GPGGA,140618.200,4308.4157,N,07729.6246,W,2,10,0.80,121.5,M,-34.4,M,0000,0000*50
lng=-77.493774, lat=43.140274, altitude=121.40, speed=24.95, satellites=10, angle=125.0700, fixquality=2
$GPRMC,140618.400,A,4308.4146,N,07729.6229,W,26.18,126.37,030519,,,D*49
$GPGGA,140618.600,4308.4136,N,07729.6212,W,2,10,0.79,121.7,M,-34.4,M,0000,0000*56
lng=-77.493721, lat=43.140243, altitude=121.50, speed=26.18, satellites=10, angle=126.3700, fixquality=2
$GPRMC,140618.800,A,4308.4123,N,07729.6192,W,28.37,127.62,030519,,,D*47
$GPGGA,140619.000,4308.4112,N,07729.6174,W,2,10,0.79,121.7,M,-34.4,M,0000,0000*54
lng=-77.493652, lat=43.140201, altitude=121.70, speed=28.37, satellites=10, angle=127.6200, fixquality=2
$GPRMC,140619.200,A,4308.4097,N,07729.6156,W,30.75,129.41,030519,,,D*4A
$GPGGA,140619.400,4308.4085,N,07729.6137,W,2,10,0.79,121.8,M,-34.4,M,0000,0000*57
lng=-77.493598, lat=43.140159, altitude=121.70, speed=30.75, satellites=10, angle=129.4100, fixquality=2
$GPRMC,140619.600,A,4308.4073,N,07729.6117,W,32.04,129.80,030519,,,D*48
$GPGGA,140619.800,4308.4060,N,07729.6096,W,2,10,0.80,121.7,M,-34.4,M,0000,0000*53
lng=-77.493530, lat=43.140121, altitude=121.80, speed=32.04, satellites=10, angle=129.8000, fixquality=2
$GPRMC,140620.000,A,4308.4048,N,07729.6077,W,33.05,131.61,030519,,,D*4D
$GPGGA,140620.200,4308.4034,N,07729.6058,W,2,10,0.80,121.6,M,-34.4,M,0000,0000*51
lng=-77.493461, lat=43.140079, altitude=121.70, speed=33.05, satellites=10, angle=131.6100, fixquality=2
$GPRMC,140620.400,A,4308.4022,N,07729.6038,W,33.66,132.51,030519,,,D*4B
$GPGGA,140620.600,4308.4009,N,07729.6019,W,2,09,0.87,121.4,M,-34.4,M,0000,0000*53
lng=-77.493400, lat=43.140037, altitude=121.60, speed=33.66, satellites=10, angle=132.5100, fixquality=2
$GPRMC,140620.800,A,4308.3996,N,07729.6001,W,33.72,133.13,030519,,,D*4E
$GPGGA,140621.000,4308.3983,N,07729.5981,W,2,10,0.80,121.3,M,-34.4,M,0000,0000*5B
lng=-77.493331, lat=43.139991, altitude=121.40, speed=33.72, satellites=9, angle=133.1300, fixquality=2
$GPRMC,140621.200,A,4308.3969,N,07729.5962,W,33.86,133.73,030519,,,D*47
$GPGGA,140621.400,4308.3955,N,07729.5943,W,2,09,0.87,121.0,M,-34.4,M,0000,0000*56
lng=-77.493270, lat=43.139949, altitude=121.30, speed=33.86, satellites=10, angle=133.7300, fixquality=2
$GPRMC,140621.600,A,4308.3941,N,07729.5924,W,34.53,135.90,030519,,,D*4F
$GPGGA,140621.800,4308.3927,N,07729.5904,W,2,09,0.87,120.9,M,-34.4,M,0000,0000*54
lng=-77.493202, lat=43.139900, altitude=121.00, speed=34.53, satellites=9, angle=135.9000, fixquality=2
$GPRMC,140622.000,A,4308.3912,N,07729.5886,W,34.64,137.87,030519,,,D*45
$GPGGA,140622.200,4308.3897,N,07729.5868,W,2,09,0.87,120.7,M,-34.4,M,0000,0000*52
lng=-77.493141, lat=43.139850, altitude=120.90, speed=34.64, satellites=9, angle=137.8700, fixquality=2
$GPRMC,140622.400,A,4308.3881,N,07729.5852,W,34.93,140.75,030519,,,D*46
$GPGGA,140622.600,4308.3865,N,07729.5835,W,2,09,0.87,120.5,M,-34.4,M,0000,0000*51
lng=-77.493080, lat=43.139804, altitude=120.70, speed=34.93, satellites=9, angle=140.7500, fixquality=2
$GPRMC,140622.800,A,4308.3849,N,07729.5818,W,34.75,143.16,030519,,,D*4E
$GPGGA,140623.000,4308.3830,N,07729.5803,W,2,09,0.87,120.3,M,-34.4,M,0000,0000*55
lng=-77.493034, lat=43.139747, altitude=120.50, speed=34.75, satellites=9, angle=143.1600, fixquality=2
$GPRMC,140623.200,A,4308.3811,N,07729.5788,W,35.36,146.39,030519,,,D*40
$GPGGA,140623.400,4308.3792,N,07729.5774,W,2,09,0.87,120.2,M,-34.4,M,0000,0000*58
lng=-77.492973, lat=43.139682, altitude=120.30, speed=35.36, satellites=9, angle=146.3900, fixquality=2
$GPRMC,140623.600,A,4308.3773,N,07729.5760,W,35.50,148.13,030519,,,D*4F
$GPGGA,140623.800,4308.3755,N,07729.5746,W,2,10,0.80,120.1,M,-34.4,M,0000,0000*52
lng=-77.492935, lat=43.139625, altitude=120.20, speed=35.50, satellites=9, angle=148.1300, fixquality=2
$GPRMC,140624.000,A,4308.3735,N,07729.5732,W,37.01,149.37,030519,,,D*4A
$GPGGA,140624.200,4308.3715,N,07729.5718,W,2,10,0.80,120.0,M,-34.4,M,0000,0000*51
lng=-77.492889, lat=43.139560, altitude=120.10, speed=37.01, satellites=10, angle=149.3700, fixquality=2
$GPRMC,140624.400,A,4308.3695,N,07729.5705,W,37.24,151.83,030519,,,D*40
$GPGGA,140624.600,4308.3675,N,07729.5692,W,2,10,0.80,119.9,M,-34.4,M,0000,0000*52
lng=-77.492835, lat=43.139492, altitude=120.00, speed=37.24, satellites=10, angle=151.8300, fixquality=2
$GPRMC,140624.800,A,4308.3654,N,07729.5679,W,38.00,152.94,030519,,,D*47
$GPGGA,140625.000,4308.3634,N,07729.5665,W,2,10,0.80,119.9,M,-34.4,M,0000,0000*58
lng=-77.492797, lat=43.139419, altitude=119.90, speed=38.00, satellites=10, angle=152.9400, fixquality=2
$GPRMC,140625.200,A,4308.3612,N,07729.5653,W,39.04,154.33,030519,,,D*48
$GPGGA,140625.400,4308.3591,N,07729.5641,W,2,10,0.80,119.8,M,-34.4,M,0000,0000*57
lng=-77.492759, lat=43.139354, altitude=119.90, speed=39.04, satellites=10, angle=154.3300, fixquality=2
$GPRMC,140625.600,A,4308.3569,N,07729.5630,W,39.70,156.78,030519,,,D*48
$GPGGA,140625.800,4308.3546,N,07729.5618,W,2,10,0.79,119.6,M,-34.4,M,0000,0000*55
lng=-77.492713, lat=43.139282, altitude=119.80, speed=39.70, satellites=10, angle=156.7800, fixquality=2
$GPRMC,140626.000,A,4308.3524,N,07729.5606,W,40.77,158.87,030519,,,D*46
$GPGGA,140626.200,4308.3501,N,07729.5595,W,2,09,0.87,119.3,M,-34.4,M,0000,0000*55
lng=-77.492675, lat=43.139209, altitude=119.60, speed=40.77, satellites=10, angle=158.8700, fixquality=2
$GPRMC,140626.400,A,4308.3478,N,07729.5583,W,41.62,160.84,030519,,,D*49
$GPGGA,140626.600,4308.3455,N,07729.5572,W,2,09,0.87,119.0,M,-34.4,M,0000,0000*5B
lng=-77.492637, lat=43.139125, altitude=119.30, speed=41.62, satellites=9, angle=160.8400, fixquality=2
$GPRMC,140626.800,A,4308.3433,N,07729.5561,W,41.90,162.29,030519,,,D*4E
$GPGGA,140627.000,4308.3410,N,07729.5551,W,2,10,0.80,118.8,M,-34.4,M,0000,0000*5A
lng=-77.492599, lat=43.139053, altitude=119.00, speed=41.90, satellites=9, angle=162.2900, fixquality=2
$GPRMC,140627.200,A,4308.3387,N,07729.5542,W,41.76,163.62,030519,,,D*4A
$GPGGA,140627.400,4308.3364,N,07729.5533,W,2,10,0.80,118.4,M,-34.4,M,0000,0000*52
lng=-77.492568, lat=43.138980, altitude=118.80, speed=41.76, satellites=10, angle=163.6200, fixquality=2
$GPRMC,140627.600,A,4308.3341,N,07729.5524,W,42.20,164.31,030519,,,D*45
$GPGGA,140627.800,4308.3318,N,07729.5515,W,2,10,0.79,118.2,M,-34.4,M,0000,0000*51
lng=-77.492538, lat=43.138900, altitude=118.40, speed=42.20, satellites=10, angle=164.3100, fixquality=2
$GPRMC,140628.000,A,4308.3294,N,07729.5507,W,42.23,164.93,030519,,,D*4F
$GPGGA,140628.200,4308.3270,N,07729.5500,W,2,10,0.80,118.0,M,-34.4,M,0000,0000*5B
lng=-77.492515, lat=43.138828, altitude=118.20, speed=42.23, satellites=10, angle=164.9300, fixquality=2
$GPRMC,140628.400,A,4308.3246,N,07729.5493,W,42.82,166.12,030519,,,D*48
$GPGGA,140628.600,4308.3222,N,07729.5485,W,2,10,0.79,117.7,M,-34.4,M,0000,0000*5A
lng=-77.492485, lat=43.138744, altitude=118.00, speed=42.82, satellites=10, angle=166.1200, fixquality=2
$GPRMC,140628.800,A,4308.3198,N,07729.5477,W,43.29,166.13,030519,,,D*4F
$GPGGA,140629.000,4308.3175,N,07729.5471,W,2,10,0.80,117.4,M,-34.4,M,0000,0000*52
lng=-77.492462, lat=43.138664, altitude=117.70, speed=43.29, satellites=10, angle=166.1300, fixquality=2
$GPRMC,140629.200,A,4308.3151,N,07729.5464,W,42.86,167.00,030519,,,D*44
$GPGGA,140629.400,4308.3128,N,07729.5457,W,2,10,0.80,117.1,M,-34.4,M,0000,0000*5F
lng=-77.492439, lat=43.138584, altitude=117.40, speed=42.86, satellites=10, angle=167.0000, fixquality=2
$GPRMC,140629.600,A,4308.3105,N,07729.5450,W,42.90,167.28,030519,,,D*4B
$GPGGA,140629.800,4308.3081,N,07729.5443,W,2,10,0.79,116.9,M,-34.4,M,0000,0000*5B
lng=-77.492416, lat=43.138507, altitude=117.10, speed=42.90, satellites=10, angle=167.2800, fixquality=2
$GPRMC,140630.000,A,4308.3057,N,07729.5436,W,43.16,167.28,030519,,,D*4C
$GPGGA,140630.200,4308.3033,N,07729.5429,W,2,10,0.80,116.7,M,-34.4,M,0000,0000*54
lng=-77.492393, lat=43.138427, altitude=116.90, speed=43.16, satellites=10, angle=167.2800, fixquality=2
$GPRMC,140630.400,A,4308.3010,N,07729.5422,W,43.38,167.34,030519,,,D*4F
$GPGGA,140630.600,4308.2986,N,07729.5415,W,2,10,0.79,116.5,M,-34.4,M,0000,0000*5D
lng=-77.492362, lat=43.138347, altitude=116.70, speed=43.38, satellites=10, angle=167.3400, fixquality=2
$GPRMC,140630.800,A,4308.2962,N,07729.5408,W,43.47,167.69,030519,,,D*46
$GPGGA,140631.000,4308.2938,N,07729.5400,W,2,10,0.80,116.2,M,-34.4,M,0000,0000*5A
lng=-77.492347, lat=43.138271, altitude=116.50, speed=43.47, satellites=10, angle=167.6900, fixquality=2
$GPRMC,140631.200,A,4308.2914,N,07729.5393,W,43.77,168.19,030519,,,D*42
$GPGGA,140631.400,4308.2890,N,07729.5385,W,2,10,0.80,115.9,M,-34.4,M,0000,0000*5F
lng=-77.492317, lat=43.138191, altitude=116.20, speed=43.77, satellites=10, angle=168.1900, fixquality=2
$GPRMC,140631.600,A,4308.2866,N,07729.5378,W,43.70,168.14,030519,,,D*4D
$GPGGA,140631.800,4308.2842,N,07729.5371,W,2,10,0.80,115.6,M,-34.4,M,0000,0000*58
lng=-77.492294, lat=43.138111, altitude=115.90, speed=43.70, satellites=10, angle=168.1400, fixquality=2
$GPRMC,140632.000,A,4308.2817,N,07729.5365,W,43.75,168.94,030519,,,D*4F
$GPGGA,140632.200,4308.2795,N,07729.5356,W,2,10,0.80,115.2,M,-34.4,M,0000,0000*55
lng=-77.492279, lat=43.138027, altitude=115.60, speed=43.75, satellites=10, angle=168.9400, fixquality=2
$GPRMC,140632.400,A,4308.2771,N,07729.5348,W,43.50,168.20,030519,,,D*43
$GPGGA,140632.600,4308.2747,N,07729.5342,W,2,10,0.79,114.8,M,-34.4,M,0000,0000*56
lng=-77.492240, lat=43.137947, altitude=115.20, speed=43.50, satellites=10, angle=168.2000, fixquality=2
$GPRMC,140632.800,A,4308.2722,N,07729.5336,W,43.70,169.62,030519,,,D*45
$GPGGA,140633.000,4308.2697,N,07729.5330,W,2,10,0.80,114.5,M,-34.4,M,0000,0000*53
lng=-77.492225, lat=43.137866, altitude=114.80, speed=43.70, satellites=10, angle=169.6200, fixquality=2
$GPRMC,140633.200,A,4308.2672,N,07729.5324,W,44.40,169.97,030519,,,D*47
$GPGGA,140633.400,4308.2647,N,07729.5318,W,2,10,0.80,114.4,M,-34.4,M,0000,0000*51
lng=-77.492202, lat=43.137783, altitude=114.50, speed=44.40, satellites=10, angle=169.9700, fixquality=2
$GPRMC,140633.600,A,4308.2622,N,07729.5311,W,44.47,169.49,030519,,,D*44
$GPGGA,140633.800,4308.2598,N,07729.5304,W,2,10,0.80,114.3,M,-34.4,M,0000,0000*56
lng=-77.492187, lat=43.137702, altitude=114.40, speed=44.47, satellites=10, angle=169.4900, fixquality=2
$GPRMC,140634.000,A,4308.2573,N,07729.5297,W,44.50,169.68,030519,,,D*48
$GPGGA,140634.200,4308.2549,N,07729.5290,W,2,10,0.80,114.3,M,-34.4,M,0000,0000*5B
lng=-77.492164, lat=43.137622, altitude=114.30, speed=44.50, satellites=10, angle=169.6800, fixquality=2
$GPRMC,140634.400,A,4308.2525,N,07729.5283,W,44.27,169.62,030519,,,D*40
$GPGGA,140634.600,4308.2500,N,07729.5277,W,2,10,0.79,114.3,M,-34.4,M,0000,0000*5D
lng=-77.492141, lat=43.137538, altitude=114.30, speed=44.27, satellites=10, angle=169.6200, fixquality=2
$GPRMC,140634.800,A,4308.2476,N,07729.5271,W,44.03,169.97,030519,,,D*4A
$GPGGA,140635.000,4308.2452,N,07729.5265,W,2,10,0.80,114.3,M,-34.4,M,0000,0000*59
lng=-77.492118, lat=43.137458, altitude=114.30, speed=44.03, satellites=10, angle=169.9700, fixquality=2
$GPRMC,140635.200,A,4308.2428,N,07729.5259,W,43.80,170.21,030519,,,D*49
$GPGGA,140635.400,4308.2403,N,07729.5253,W,2,10,0.80,114.4,M,-34.4,M,0000,0000*5B
lng=-77.492095, lat=43.137378, altitude=114.30, speed=43.80, satellites=10, angle=170.2100, fixquality=2
$GPRMC,140635.600,A,4308.2379,N,07729.5246,W,43.97,170.05,030519,,,D*40
$GPGGA,140635.800,4308.2355,N,07729.5239,W,2,10,0.79,114.4,M,-34.4,M,0000,0000*59
lng=-77.492073, lat=43.137294, altitude=114.40, speed=43.97, satellites=10, angle=170.0500, fixquality=2
$GPRMC,140636.000,A,4308.2332,N,07729.5233,W,43.57,169.86,030519,,,D*47
$GPGGA,140636.200,4308.2308,N,07729.5227,W,2,10,0.80,114.5,M,-34.4,M,0000,0000*50
lng=-77.492057, lat=43.137222, altitude=114.40, speed=43.57, satellites=10, angle=169.8600, fixquality=2
$GPRMC,140636.400,A,4308.2284,N,07729.5220,W,43.19,170.02,030519,,,D*43
$GPGGA,140636.600,4308.2261,N,07729.5212,W,2,10,0.79,114.6,M,-34.4,M,0000,0000*59
lng=-77.492034, lat=43.137142, altitude=114.50, speed=43.19, satellites=10, angle=170.0200, fixquality=2
$GPRMC,140636.800,A,4308.2238,N,07729.5205,W,42.87,169.33,030519,,,D*43
$GPGGA,140637.000,4308.2215,N,07729.5198,W,2,10,0.80,114.4,M,-34.4,M,0000,0000*58
lng=-77.492012, lat=43.137062, altitude=114.60, speed=42.87, satellites=10, angle=169.3300, fixquality=2
$GPRMC,140637.200,A,4308.2192,N,07729.5192,W,42.59,169.17,030519,,,D*43
$GPGGA,140637.400,4308.2168,N,07729.5185,W,2,10,0.80,114.6,M,-34.4,M,0000,0000*5B
lng=-77.491981, lat=43.136985, altitude=114.40, speed=42.59, satellites=10, angle=169.1700, fixquality=2
$GPRMC,140637.600,A,4308.2145,N,07729.5179,W,42.25,168.98,030519,,,D*45
$GPGGA,140637.800,4308.2123,N,07729.5172,W,2,10,0.79,114.8,M,-34.4,M,0000,0000*58
lng=-77.491966, lat=43.136905, altitude=114.60, speed=42.25, satellites=10, angle=168.9800, fixquality=2
$GPRMC,140638.000,A,4308.2099,N,07729.5166,W,42.03,168.69,030519,,,D*48
$GPGGA,140638.200,4308.2076,N,07729.5160,W,2,10,0.79,114.7,M,-34.4,M,0000,0000*50
lng=-77.491943, lat=43.136833, altitude=114.80, speed=42.03, satellites=10, angle=168.6900, fixquality=2
$GPRMC,140638.400,A,4308.2054,N,07729.5154,W,41.65,168.75,030519,,,D*42
$GPGGA,140638.600,4308.2031,N,07729.5148,W,2,10,0.79,114.8,M,-34.4,M,0000,0000*52
lng=-77.491928, lat=43.136760, altitude=114.70, speed=41.65, satellites=10, angle=168.7500, fixquality=2
$GPRMC,140638.800,A,4308.2008,N,07729.5142,W,41.16,168.72,030519,,,D*43
$GPGGA,140639.000,4308.1986,N,07729.5136,W,2,10,0.79,115.0,M,-34.4,M,0000,0000*53
lng=-77.491905, lat=43.136676, altitude=114.80, speed=41.16, satellites=10, angle=168.7200, fixquality=2
$GPRMC,140639.200,A,4308.1963,N,07729.5129,W,40.94,168.12,030519,,,D*4F
$GPGGA,140639.400,4308.1941,N,07729.5122,W,2,10,0.79,115.2,M,-34.4,M,0000,0000*5B
lng=-77.491874, lat=43.136604, altitude=115.00, speed=40.94, satellites=10, angle=168.1200, fixquality=2
$GPRMC,140639.600,A,4308.1919,N,07729.5115,W,40.66,167.49,030519,,,D*45
$GPGGA,140639.800,4308.1897,N,07729.5108,W,2,10,0.79,115.4,M,-34.4,M,0000,0000*53
lng=-77.491859, lat=43.136531, altitude=115.20, speed=40.66, satellites=10, angle=167.4900, fixquality=2
$GPRMC,140640.000,A,4308.1875,N,07729.5102,W,40.42,167.23,030519,,,D*4A
$GPGGA,140640.200,4308.1852,N,07729.5097,W,2,10,0.80,115.5,M,-34.4,M,0000,0000*5E
lng=-77.491836, lat=43.136459, altitude=115.40, speed=40.42, satellites=10, angle=167.2300, fixquality=2
$GPRMC,140640.400,A,4308.1829,N,07729.5093,W,40.32,166.60,030519,,,D*4F
$GPGGA,140640.600,4308.1807,N,07729.5086,W,2,10,0.79,115.6,M,-34.4,M,0000,0000*5F
lng=-77.491821, lat=43.136386, altitude=115.50, speed=40.32, satellites=10, angle=166.6000, fixquality=2
$GPRMC,140640.800,A,4308.1785,N,07729.5079,W,40.31,166.46,030519,,,D*49
$GPGGA,140641.000,4308.1763,N,07729.5073,W,2,10,0.80,115.8,M,-34.4,M,0000,0000*57
lng=-77.491798, lat=43.136310, altitude=115.60, speed=40.31, satellites=10, angle=166.4600, fixquality=2
$GPRMC,140641.200,A,4308.1741,N,07729.5067,W,40.58,166.64,030519,,,D*4A
$GPGGA,140641.400,4308.1718,N,07729.5061,W,2,09,0.87,115.9,M,-34.4,M,0000,0000*52
lng=-77.491783, lat=43.136238, altitude=115.80, speed=40.58, satellites=10, angle=166.6400, fixquality=2
$GPRMC,140641.600,A,4308.1696,N,07729.5055,W,40.68,167.25,030519,,,D*43
$GPGGA,140641.800,4308.1674,N,07729.5049,W,2,10,0.80,116.0,M,-34.4,M,0000,0000*5A
lng=-77.491752, lat=43.136157, altitude=115.90, speed=40.68, satellites=9, angle=167.2500, fixquality=2
$GPRMC,140642.000,A,4308.1652,N,07729.5044,W,40.55,167.85,030519,,,D*4A
$GPGGA,140642.200,4308.1630,N,07729.5039,W,2,10,0.80,116.0,M,-34.4,M,0000,0000*54
lng=-77.491737, lat=43.136085, altitude=116.00, speed=40.55, satellites=10, angle=167.8500, fixquality=2
$GPRMC,140642.400,A,4308.1608,N,07729.5034,W,40.54,168.43,030519,,,D*42
$GPGGA,140642.600,4308.1586,N,07729.5030,W,2,10,0.79,115.9,M,-34.4,M,0000,0000*5B
lng=-77.491722, lat=43.136009, altitude=116.00, speed=40.54, satellites=10, angle=168.4300, fixquality=2
$GPRMC,140642.800,A,4308.1564,N,07729.5026,W,40.77,169.31,030519,,,D*41
$GPGGA,140643.000,4308.1543,N,07729.5023,W,2,09,0.87,115.6,M,-34.4,M,0000,0000*51
lng=-77.491706, lat=43.135936, altitude=115.90, speed=40.77, satellites=10, angle=169.3100, fixquality=2
$GPRMC,140643.200,A,4308.1521,N,07729.5018,W,40.72,169.88,030519,,,D*41
$GPGGA,140643.400,4308.1500,N,07729.5013,W,2,10,0.80,115.4,M,-34.4,M,0000,0000*5C
lng=-77.491699, lat=43.135864, altitude=115.60, speed=40.72, satellites=9, angle=169.8800, fixquality=2
$GPRMC,140643.600,A,4308.1477,N,07729.5008,W,40.78,169.88,030519,,,D*4C
$GPGGA,140643.800,4308.1455,N,07729.5004,W,2,10,0.80,115.3,M,-34.4,M,0000,0000*50
lng=-77.491683, lat=43.135791, altitude=115.40, speed=40.78, satellites=10, angle=169.8800, fixquality=2
$GPRMC,140644.000,A,4308.1433,N,07729.4999,W,40.83,169.63,030519,,,D*4C
$GPGGA,140644.200,4308.1411,N,07729.4994,W,2,10,0.80,115.1,M,-34.4,M,0000,0000*5E
lng=-77.491668, lat=43.135719, altitude=115.30, speed=40.83, satellites=10, angle=169.6300, fixquality=2
$GPRMC,140644.400,A,4308.1389,N,07729.4989,W,40.81,169.59,030519,,,D*44
$GPGGA,140644.600,4308.1367,N,07729.4983,W,2,09,0.93,115.0,M,-34.4,M,0000,0000*51
lng=-77.491653, lat=43.135643, altitude=115.10, speed=40.81, satellites=10, angle=169.5900, fixquality=2
$GPRMC,140644.800,A,4308.1346,N,07729.4978,W,40.57,169.22,030519,,,D*42
$GPGGA,140645.000,4308.1325,N,07729.4972,W,2,09,1.03,114.7,M,-34.4,M,0000,0000*50
lng=-77.491622, lat=43.135578, altitude=115.00, speed=40.57, satellites=9, angle=169.2200, fixquality=2
$GPRMC,140645.200,A,4308.1305,N,07729.4966,W,39.88,168.69,030519,,,D*43
$GPGGA,140645.400,4308.1284,N,07729.4960,W,2,09,1.03,114.2,M,-34.4,M,0000,0000*58
lng=-77.491607, lat=43.135505, altitude=114.70, speed=39.88, satellites=9, angle=168.6900, fixquality=2
$GPRMC,140645.600,A,4308.1264,N,07729.4955,W,39.56,168.88,030519,,,D*4D
$GPGGA,140645.800,4308.1243,N,07729.4950,W,2,09,1.03,113.7,M,-34.4,M,0000,0000*5E
lng=-77.491592, lat=43.135440, altitude=114.20, speed=39.56, satellites=9, angle=168.8800, fixquality=2
$GPRMC,140646.000,A,4308.1223,N,07729.4946,W,38.50,168.48,030519,,,D*42
$GPGGA,140646.200,4308.1202,N,07729.4943,W,2,09,1.03,113.1,M,-34.4,M,0000,0000*56
lng=-77.491577, lat=43.135368, altitude=113.70, speed=38.50, satellites=9, angle=168.4800, fixquality=2
$GPRMC,140646.400,A,4308.1179,N,07729.4941,W,38.92,169.87,030519,,,D*41
$GPGGA,140646.600,4308.1156,N,07729.4939,W,2,09,1.03,112.8,M,-34.4,M,0000,0000*55
lng=-77.491569, lat=43.135295, altitude=113.10, speed=38.92, satellites=9, angle=169.8700, fixquality=2
$GPRMC,140646.800,A,4308.1135,N,07729.4935,W,39.09,171.52,030519,,,D*44
$GPGGA,140647.000,4308.1114,N,07729.4934,W,2,09,1.03,112.2,M,-34.4,M,0000,0000*53
lng=-77.491561, lat=43.135219, altitude=112.80, speed=39.09, satellites=9, angle=171.5200, fixquality=2
$GPRMC,140647.200,A,4308.1092,N,07729.4934,W,39.26,175.43,030519,,,D*4B
$GPGGA,140647.400,4308.1071,N,07729.4934,W,2,09,1.03,111.3,M,-34.4,M,0000,0000*57
lng=-77.491554, lat=43.135154, altitude=112.20, speed=39.26, satellites=9, angle=175.4300, fixquality=2
$GPRMC,140647.600,A,4308.1048,N,07729.4934,W,40.00,176.74,030519,,,D*45
$GPGGA,140647.800,4308.1026,N,07729.4935,W,2,09,1.03,110.9,M,-34.4,M,0000,0000*53
lng=-77.491554, lat=43.135082, altitude=111.30, speed=40.00, satellites=9, angle=176.7400, fixquality=2
$GPRMC,140648.000,A,4308.1003,N,07729.4934,W,40.68,178.32,030519,,,D*41
$GPGGA,140648.200,4308.0979,N,07729.4935,W,2,09,1.03,110.6,M,-34.4,M,0000,0000*5B
lng=-77.491554, lat=43.135002, altitude=110.90, speed=40.68, satellites=9, angle=178.3200, fixquality=2
$GPRMC,140648.400,A,4308.0956,N,07729.4935,W,40.95,178.99,030519,,,D*4F
$GPGGA,140648.600,4308.0932,N,07729.4935,W,2,09,0.93,110.4,M,-34.4,M,0000,0000*5A
lng=-77.491561, lat=43.134929, altitude=110.60, speed=40.95, satellites=9, angle=178.9900, fixquality=2
$GPRMC,140648.800,A,4308.0909,N,07729.4935,W,40.85,179.53,030519,,,D*4F
$GPGGA,140649.000,4308.0886,N,07729.4936,W,2,09,1.03,110.2,M,-34.4,M,0000,0000*5E
lng=-77.491561, lat=43.134845, altitude=110.40, speed=40.85, satellites=9, angle=179.5300, fixquality=2
$GPRMC,140649.200,A,4308.0863,N,07729.4937,W,40.80,180.81,030519,,,D*47
$GPGGA,140649.400,4308.0840,N,07729.4938,W,2,09,1.03,110.2,M,-34.4,M,0000,0000*5E
lng=-77.491561, lat=43.134773, altitude=110.20, speed=40.80, satellites=9, angle=180.8100, fixquality=2
$GPRMC,140649.600,A,4308.0818,N,07729.4940,W,40.53,181.89,030519,,,D*48
$GPGGA,140649.800,4308.0795,N,07729.4942,W,2,09,1.03,110.1,M,-34.4,M,0000,0000*5B
lng=-77.491569, lat=43.134700, altitude=110.20, speed=40.53, satellites=9, angle=181.8900, fixquality=2
$GPRMC,140650.000,A,4308.0773,N,07729.4944,W,40.31,182.94,030519,,,D*4B
$GPGGA,140650.200,4308.0750,N,07729.4947,W,2,09,1.03,110.2,M,-34.4,M,0000,0000*56
lng=-77.491577, lat=43.134620, altitude=110.10, speed=40.31, satellites=9, angle=182.9400, fixquality=2
$GPRMC,140650.400,A,4308.0728,N,07729.4951,W,40.29,184.45,030519,,,D*46
$GPGGA,140650.600,4308.0706,N,07729.4955,W,2,09,1.03,110.1,M,-34.4,M,0000,0000*51
lng=-77.491584, lat=43.134544, altitude=110.20, speed=40.29, satellites=9, angle=184.4500, fixquality=2
$GPRMC,140650.800,A,4308.0685,N,07729.4961,W,39.78,186.74,030519,,,D*45
$GPGGA,140651.000,4308.0664,N,07729.4966,W,2,09,1.03,110.0,M,-34.4,M,0000,0000*52
lng=-77.491600, lat=43.134471, altitude=110.10, speed=39.78, satellites=9, angle=186.7400, fixquality=2
$GPRMC,140651.200,A,4308.0643,N,07729.4971,W,39.52,189.02,030519,,,D*43
$GPGGA,140651.400,4308.0623,N,07729.4974,W,2,09,1.03,109.6,M,-34.4,M,0000,0000*58
lng=-77.491615, lat=43.134407, altitude=110.00, speed=39.52, satellites=9, angle=189.0200, fixquality=2
$GPRMC,140651.600,A,4308.0603,N,07729.4977,W,39.31,190.11,030519,,,D*4A
$GPGGA,140651.800,4308.0584,N,07729.4979,W,2,09,1.03,108.9,M,-34.4,M,0000,0000*59
lng=-77.491622, lat=43.134334, altitude=109.60, speed=39.31, satellites=9, angle=190.1100, fixquality=2
$GPRMC,140652.000,A,4308.0564,N,07729.4981,W,38.84,191.52,030519,,,D*4D
$GPGGA,140652.200,4308.0544,N,07729.4985,W,2,09,1.03,108.2,M,-34.4,M,0000,0000*54
lng=-77.491630, lat=43.134277, altitude=108.90, speed=38.84, satellites=9, angle=191.5200, fixquality=2
$GPRMC,140652.400,A,4308.0525,N,07729.4988,W,38.61,192.93,030519,,,D*40
$GPGGA,140652.600,4308.0506,N,07729.4994,W,2,09,0.93,107.7,M,-34.4,M,0000,0000*54
lng=-77.491653, lat=43.134212, altitude=108.20, speed=38.61, satellites=9, angle=192.9300, fixquality=2
$GPRMC,140652.800,A,4308.0485,N,07729.5001,W,38.31,193.56,030519,,,D*43
$GPGGA,140653.000,4308.0466,N,07729.5007,W,2,09,1.03,107.7,M,-34.4,M,0000,0000*5E
lng=-77.491668, lat=43.134140, altitude=107.70, speed=38.31, satellites=9, angle=193.5600, fixquality=2
$GPRMC,140653.200,A,4308.0448,N,07729.5014,W,36.66,195.50,030519,,,D*41
$GPGGA,140653.400,4308.0429,N,07729.5021,W,2,09,1.03,107.6,M,-34.4,M,0000,0000*54
lng=-77.491691, lat=43.134082, altitude=107.70, speed=36.66, satellites=9, angle=195.5000, fixquality=2
$GPRMC,140653.600,A,4308.0411,N,07729.5029,W,35.43,196.62,030519,,,D*41
$GPGGA,140653.800,4308.0394,N,07729.5038,W,2,09,1.03,107.2,M,-34.4,M,0000,0000*55
lng=-77.491714, lat=43.134017, altitude=107.60, speed=35.43, satellites=9, angle=196.6200, fixquality=2
$GPRMC,140654.000,A,4308.0377,N,07729.5046,W,33.13,199.00,030519,,,D*46
$GPGGA,140654.200,4308.0362,N,07729.5054,W,2,09,1.03,106.9,M,-34.4,M,0000,0000*51
lng=-77.491737, lat=43.133960, altitude=107.20, speed=33.13, satellites=9, angle=199.0000, fixquality=2
$GPRMC,140654.400,A,4308.0347,N,07729.5061,W,30.97,200.38,030519,,,D*43
$GPGGA,140654.600,4308.0333,N,07729.5069,W,2,09,0.93,106.0,M,-34.4,M,0000,0000*5E
lng=-77.491767, lat=43.133911, altitude=106.90, speed=30.97, satellites=9, angle=200.3800, fixquality=2
$GPRMC,140654.800,A,4308.0319,N,07729.5076,W,29.11,201.73,030519,,,D*4A
$GPGGA,140655.000,4308.0306,N,07729.5083,W,2,09,1.03,105.7,M,-34.4,M,0000,0000*57
lng=-77.491798, lat=43.133861, altitude=106.00, speed=29.11, satellites=9, angle=201.7300, fixquality=2
$GPRMC,140655.200,A,4308.0294,N,07729.5090,W,26.93,203.78,030519,,,D*41
$GPGGA,140655.400,4308.0282,N,07729.5098,W,2,09,1.03,105.4,M,-34.4,M,0000,0000*57
lng=-77.491813, lat=43.133823, altitude=105.70, speed=26.93, satellites=9, angle=203.7800, fixquality=2
$GPRMC,140655.600,A,4308.0271,N,07729.5104,W,25.16,205.04,030519,,,D*41
$GPGGA,140655.800,4308.0261,N,07729.5110,W,1,08,1.07,104.3,M,-34.4,M,,*57
lng=-77.491836, lat=43.133789, altitude=105.40, speed=25.16, satellites=9, angle=205.0400, fixquality=2
$GPRMC,140656.000,A,4308.0252,N,07729.5117,W,23.19,206.18,030519,,,A*45
$GPGGA,140656.200,4308.0242,N,07729.5123,W,1,08,1.07,103.7,M,-34.4,M,,*5C
lng=-77.491859, lat=43.133754, altitude=104.30, speed=23.19, satellites=8, angle=206.1800, fixquality=1
$GPRMC,140656.400,A,4308.0233,N,07729.5129,W,21.57,206.94,030519,,,A*47
$GPGGA,140656.600,4308.0223,N,07729.5135,W,1,08,0.99,103.2,M,-34.4,M,,*5B
lng=-77.491874, lat=43.133724, altitude=103.70, speed=21.57, satellites=8, angle=206.9400, fixquality=1
$GPRMC,140656.800,A,4308.0215,N,07729.5140,W,20.20,207.16,030519,,,A*4A
$GPGGA,140657.000,4308.0207,N,07729.5146,W,1,08,1.07,102.7,M,-34.4,M,,*5C
lng=-77.491905, lat=43.133689, altitude=103.20, speed=20.20, satellites=8, angle=207.1600, fixquality=1
$GPRMC,140657.200,A,4308.0198,N,07729.5151,W,18.79,205.04,030519,,,D*44
$GPGGA,140657.400,4308.0190,N,07729.5157,W,2,09,1.03,102.2,M,-34.4,M,0000,0000*56
lng=-77.491920, lat=43.133666, altitude=102.70, speed=18.79, satellites=8, angle=205.0400, fixquality=1
$GPRMC,140657.600,A,4308.0182,N,07729.5162,W,18.12,205.09,030519,,,D*4B
$GPGGA,140657.800,4308.0174,N,07729.5167,W,2,09,1.03,101.7,M,-34.4,M,0000,0000*55
lng=-77.491935, lat=43.133632, altitude=102.20, speed=18.12, satellites=9, angle=205.0900, fixquality=2
$GPRMC,140658.000,A,4308.0167,N,07729.5172,W,16.75,204.21,030519,,,D*4C
$GPGGA,140658.200,4308.0161,N,07729.5173,W,2,09,1.03,101.2,M,-34.4,M,0000,0000*54
lng=-77.491950, lat=43.133609, altitude=101.70, speed=16.75, satellites=9, angle=204.2100, fixquality=2
$GPRMC,140658.400,A,4308.0156,N,07729.5175,W,15.60,205.18,030519,,,D*41
$GPGGA,140658.600,4308.0149,N,07729.5179,W,2,09,1.03,100.7,M,-34.4,M,0000,0000*54
lng=-77.491958, lat=43.133594, altitude=101.20, speed=15.60, satellites=9, angle=205.1800, fixquality=2
$GPRMC,140658.800,A,4308.0144,N,07729.5182,W,14.53,205.55,030519,,,D*4E
$GPGGA,140659.000,4308.0138,N,07729.5185,W,2,09,1.03,100.0,M,-34.4,M,0000,0000*51
lng=-77.491966, lat=43.133567, altitude=100.70, speed=14.53, satellites=9, angle=205.5500, fixquality=2
$GPRMC,140659.200,A,4308.0133,N,07729.5189,W,13.36,207.65,030519,,,D*4B
$GPGGA,140659.400,4308.0129,N,07729.5193,W,2,09,1.03,99.2,M,-34.4,M,0000,0000*61
lng=-77.491981, lat=43.133552, altitude=100.00, speed=13.36, satellites=9, angle=207.6500, fixquality=2
$GPRMC,140659.600,A,4308.0124,N,07729.5199,W,12.04,207.52,030519,,,D*4C
$GPGGA,140659.800,4308.0120,N,07729.5203,W,2,09,1.03,98.1,M,-34.4,M,0000,0000*6C
lng=-77.491996, lat=43.133537, altitude=99.20, speed=12.04, satellites=9, angle=207.5200, fixquality=2
$GPRMC,140700.000,A,4308.0115,N,07729.5207,W,10.96,205.62,030519,,,D*49
$GPGGA,140700.200,4308.0110,N,07729.5210,W,2,08,1.08,97.9,M,-34.4,M,0000,0000*67
lng=-77.492012, lat=43.133529, altitude=98.10, speed=10.96, satellites=9, angle=205.6200, fixquality=2
$GPRMC,140700.400,A,4308.0106,N,07729.5213,W,10.10,204.88,030519,,,D*41
$GPGGA,140700.600,4308.0101,N,07729.5217,W,2,08,1.08,97.7,M,-34.4,M,0000,0000*6A
lng=-77.492027, lat=43.133510, altitude=97.90, speed=10.10, satellites=8, angle=204.8800, fixquality=2
$GPRMC,140700.800,A,4308.0097,N,07729.5221,W,9.10,205.00,030519,,,D*7C
$GPGGA,140701.000,4308.0093,N,07729.5224,W,2,09,1.03,97.4,M,-34.4,M,0000,0000*6E
lng=-77.492034, lat=43.133495, altitude=97.70, speed=9.10, satellites=8, angle=205.0000, fixquality=2
$GPRMC,140701.200,A,4308.0089,N,07729.5228,W,8.23,205.02,030519,,,D*72
$GPGGA,140701.400,4308.0085,N,07729.5231,W,2,09,1.03,97.2,M,-34.4,M,0000,0000*6F
lng=-77.492050, lat=43.133480, altitude=97.40, speed=8.23, satellites=9, angle=205.0200, fixquality=2
$GPRMC,140701.600,A,4308.0081,N,07729.5235,W,7.22,204.24,030519,,,D*79
$GPGGA,140701.800,4308.0077,N,07729.5238,W,2,09,1.03,97.0,M,-34.4,M,0000,0000*65
lng=-77.492057, lat=43.133472, altitude=97.20, speed=7.22, satellites=9, angle=204.2400, fixquality=2
$GPRMC,140702.000,A,4308.0075,N,07729.5241,W,6.07,204.85,030519,,,D*79
$GPGGA,140702.200,4308.0072,N,07729.5244,W,2,09,1.03,96.6,M,-34.4,M,0000,0000*65
lng=-77.492065, lat=43.133457, altitude=97.00, speed=6.07, satellites=9, angle=204.8500, fixquality=2
$GPRMC,140702.400,A,4308.0070,N,07729.5246,W,5.17,205.50,030519,,,D*74
$GPGGA,140702.600,4308.0068,N,07729.5249,W,2,09,1.03,96.2,M,-34.4,M,0000,0000*63
lng=-77.492073, lat=43.133445, altitude=96.60, speed=5.17, satellites=9, angle=205.5000, fixquality=2
$GPRMC,140702.800,A,4308.0066,N,07729.5251,W,4.42,203.80,030519,,,D*73
$GPGGA,140703.000,4308.0064,N,07729.5253,W,2,09,1.03,95.8,M,-34.4,M,0000,0000*6A
lng=-77.492080, lat=43.133445, altitude=96.20, speed=4.42, satellites=9, angle=203.8000, fixquality=2
$GPRMC,140703.200,A,4308.0063,N,07729.5255,W,3.19,201.98,030519,,,D*7B
$GPGGA,140703.400,4308.0062,N,07729.5257,W,2,09,0.93,95.3,M,-34.4,M,0000,0000*6F
lng=-77.492088, lat=43.133438, altitude=95.80, speed=3.19, satellites=9, angle=201.9800, fixquality=2
$GPRMC,140703.600,A,4308.0061,N,07729.5258,W,1.92,201.98,030519,,,D*71
$GPGGA,140703.800,4308.0060,N,07729.5259,W,2,09,0.93,94.9,M,-34.4,M,0000,0000*64
lng=-77.492095, lat=43.133430, altitude=95.30, speed=1.92, satellites=9, angle=201.9800, fixquality=2
$GPRMC,140704.000,A,4308.0060,N,07729.5260,W,0.67,201.98,030519,,,D*71
$GPGGA,140704.200,4308.0059,N,07729.5261,W,2,09,0.93,94.5,M,-34.4,M,0000,0000*64
lng=-77.492095, lat=43.133430, altitude=94.90, speed=0.67, satellites=9, angle=201.9800, fixquality=2
$GPRMC,140704.400,A,4308.0059,N,07729.5262,W,0.07,201.98,030519,,,D*7B
$GPGGA,140704.600,4308.0060,N,07729.5262,W,2,09,0.93,94.0,M,-34.4,M,0000,0000*6C
lng=-77.492103, lat=43.133430, altitude=94.50, speed=0.07, satellites=9, angle=201.9800, fixquality=2
$GPRMC,140704.800,A,4308.0060,N,07729.5262,W,0.03,201.98,030519,,,D*79
$GPGGA,140705.000,4308.0060,N,07729.5262,W,2,09,0.93,93.7,M,-34.4,M,0000,0000*6B
lng=-77.492103, lat=43.133430, altitude=94.00, speed=0.03, satellites=9, angle=201.9800, fixquality=2
$GPRMC,140705.200,A,4308.0060,N,07729.5262,W,0.03,201.98,030519,,,D*72
$GPGGA,140705.400,4308.0060,N,07729.5262,W,2,09,0.93,93.4,M,-34.4,M,0000,0000*6C
lng=-77.492103, lat=43.133430, altitude=93.70, speed=0.03, satellites=9, angle=201.9800, fixquality=2
$GPRMC,140705.600,A,4308.0060,N,07729.5262,W,0.02,201.98,030519,,,D*77
$GPGGA,140705.800,4308.0060,N,07729.5262,W,2,09,0.93,93.2,M,-34.4,M,0000,0000*66
lng=-77.492103, lat=43.133430, altitude=93.40, speed=0.02, satellites=9, angle=201.9800, fixquality=2
$GPRMC,140706.000,A,4308.0060,N,07729.5262,W,0.02,201.98,030519,,,D*72
$GPGGA,140706.200,4308.0060,N,07729.5262,W,2,09,0.93,92.8,M,-34.4,M,0000,0000*64
lng=-77.492103, lat=43.133430, altitude=93.20, speed=0.02, satellites=9, angle=201.9800, fixquality=2
$GPRMC,140706.400,A,4308.0060,N,07729.5262,W,0.04,201.98,030519,,,D*70
$GPGGA,140706.600,4308.0060,N,07729.5262,W,2,09,0.93,92.6,M,-34.4,M,0000,0000*6E
lng=-77.492103, lat=43.133430, altitude=92.80, speed=0.04, satellites=9, angle=201.9800, fixquality=2
$GPRMC,140706.800,A,4308.0061,N,07729.5262,W,0.04,201.98,030519,,,D*7D
$GPGGA,140707.000,4308.0061,N,07729.5262,W,2,09,0.93,92.4,M,-34.4,M,0000,0000*6A
lng=-77.492103, lat=43.133430, altitude=92.60, speed=0.04, satellites=9, angle=201.9800, fixquality=2
$GPRMC,140707.200,A,4308.0061,N,07729.5262,W,0.04,201.98,030519,,,D*76
$GPGGA,140707.400,4308.0061,N,07729.5262,W,2,09,1.03,92.3,M,-34.4,M,0000,0000*61
lng=-77.492103, lat=43.133430, altitude=92.40, speed=0.04, satellites=9, angle=201.9800, fixquality=2
$GPRMC,140707.600,A,4308.0061,N,07729.5262,W,0.03,201.98,030519,,,D*75
$GPGGA,140707.800,4308.0061,N,07729.5262,W,2,09,0.93,92.1,M,-34.4,M,0000,0000*67
lng=-77.492103, lat=43.133430, altitude=92.30, speed=0.03, satellites=9, angle=201.9800, fixquality=2
$GPRMC,140708.000,A,4308.0062,N,07729.5261,W,0.03,201.98,030519,,,D*7C
$GPGGA,140708.200,4308.0061,N,07729.5261,W,2,09,1.03,91.9,M,-34.4,M,0000,0000*62
lng=-77.492095, lat=43.133438, altitude=92.10, speed=0.03, satellites=9, angle=201.9800, fixquality=2
$GPRMC,140708.400,A,4308.0062,N,07729.5261,W,0.02,201.98,030519,,,D*79
$GPGGA,140708.600,4308.0062,N,07729.5261,W,2,09,0.93,91.7,M,-34.4,M,0000,0000*63
lng=-77.492095, lat=43.133438, altitude=91.90, speed=0.02, satellites=9, angle=201.9800, fixquality=2
$GPRMC,140708.800,A,4308.0062,N,07729.5261,W,0.03,201.98,030519,,,D*74
$GPGGA,140709.000,4308.0062,N,07729.5261,W,2,09,0.93,91.6,M,-34.4,M,0000,0000*65
lng=-77.492095, lat=43.133438, altitude=91.70, speed=0.03, satellites=9, angle=201.9800, fixquality=2
$GPRMC,140709.200,A,4308.0062,N,07729.5260,W,0.03,201.98,030519,,,D*7E
$GPGGA,140709.400,4308.0062,N,07729.5260,W,2,09,0.93,91.4,M,-34.4,M,0000,0000*62
lng=-77.492095, lat=43.133438, altitude=91.60, speed=0.03, satellites=9, angle=201.9800, fixquality=2
$GPRMC,140709.600,A,4308.0062,N,07729.5260,W,0.03,201.98,030519,,,D*7A
$GPGGA,140709.800,4308.0062,N,07729.5260,W,2,09,0.93,91.3,M,-34.4,M,0000,0000*69
lng=-77.492095, lat=43.133438, altitude=91.40, speed=0.03, satellites=9, angle=201.9800, fixquality=2
$GPRMC,140710.000,A,4308.0062,N,07729.5260,W,0.04,201.98,030519,,,D*73
$GPGGA,140710.200,4308.0062,N,07729.5260,W,2,09,0.93,91.2,M,-34.4,M,0000,0000*6A
lng=-77.492095, lat=43.133438, altitude=91.30, speed=0.04, satellites=9, angle=201.9800, fixquality=2
$GPRMC,140710.400,A,4308.0062,N,07729.5260,W,0.05,201.98,030519,,,D*76
$GPGGA,140710.600,4308.0062,N,07729.5259,W,2,09,0.93,91.1,M,-34.4,M,0000,0000*67
lng=-77.492095, lat=43.133438, altitude=91.20, speed=0.05, satellites=9, angle=201.9800, fixquality=2
$GPRMC,140710.800,A,4308.0062,N,07729.5259,W,0.03,201.98,030519,,,D*76
$GPGGA,140711.000,4308.0062,N,07729.5260,W,2,09,0.93,90.9,M,-34.4,M,0000,0000*63
lng=-77.492095, lat=43.133438, altitude=91.10, speed=0.03, satellites=9, angle=201.9800, fixquality=2
$GPRMC,140711.200,A,4308.0062,N,07729.5260,W,0.01,201.98,030519,,,D*75
$GPGGA,140711.400,4308.0062,N,07729.5260,W,2,09,0.93,90.8,M,-34.4,M,0000,0000*66
lng=-77.492095, lat=43.133438, altitude=90.90, speed=0.01, satellites=9, angle=201.9800, fixquality=2
$GPRMC,140711.600,A,4308.0062,N,07729.5260,W,0.04,201.98,030519,,,D*74
$GPGGA,140711.800,4308.0062,N,07729.5260,W,2,09,0.93,90.6,M,-34.4,M,0000,0000*64
lng=-77.492095, lat=43.133438, altitude=90.80, speed=0.04, satellites=9, angle=201.9800, fixquality=2
$GPRMC,140712.000,A,4308.0062,N,07729.5260,W,0.05,201.98,030519,,,D*70
$GPGGA,140712.200,4308.0062,N,07729.5260,W,2,09,0.93,90.5,M,-34.4,M,0000,0000*6E
lng=-77.492095, lat=43.133438, altitude=90.60, speed=0.05, satellites=9, angle=201.9800, fixquality=2
$GPRMC,140712.400,A,4308.0062,N,07729.5260,W,0.06,201.98,030519,,,D*77
$GPGGA,140712.600,4308.0062,N,07729.5260,W,2,09,0.93,90.4,M,-34.4,M,0000,0000*6B
lng=-77.492095, lat=43.133438, altitude=90.50, speed=0.06, satellites=9, angle=201.9800, fixquality=2
$GPRMC,140712.800,A,4308.0062,N,07729.5260,W,0.07,201.98,030519,,,D*7A
$GPGGA,140713.000,4308.0062,N,07729.5260,W,2,09,1.03,90.2,M,-34.4,M,0000,0000*62
lng=-77.492095, lat=43.133438, altitude=90.40, speed=0.07, satellites=9, angle=201.9800, fixquality=2
$GPRMC,140713.200,A,4308.0062,N,07729.5260,W,0.06,201.98,030519,,,D*70
$GPGGA,140713.400,4308.0062,N,07729.5260,W,2,09,0.93,90.1,M,-34.4,M,0000,0000*6D
lng=-77.492095, lat=43.133438, altitude=90.20, speed=0.06, satellites=9, angle=201.9800, fixquality=2
$GPRMC,140713.600,A,4308.0062,N,07729.5260,W,0.05,201.98,030519,,,D*77
$GPGGA,140713.800,4308.0062,N,07729.5260,W,2,09,0.93,90.0,M,-34.4,M,0000,0000*60
lng=-77.492095, lat=43.133438, altitude=90.10, speed=0.05, satellites=9, angle=201.9800, fixquality=2
$GPRMC,140714.000,A,4308.0062,N,07729.5260,W,0.05,201.98,030519,,,D*76
$GPGGA,140714.200,4308.0062,N,07729.5261,W,2,09,0.93,89.9,M,-34.4,M,0000,0000*6D
lng=-77.492095, lat=43.133438, altitude=90.00, speed=0.05, satellites=9, angle=201.9800, fixquality=2
$GPRMC,140714.400,A,4308.0062,N,07729.5261,W,0.05,201.98,030519,,,D*73
$GPGGA,140714.600,4308.0062,N,07729.5261,W,2,09,0.93,89.7,M,-34.4,M,0000,0000*67
lng=-77.492095, lat=43.133438, altitude=89.90, speed=0.05, satellites=9, angle=201.9800, fixquality=2
$GPRMC,140714.800,A,4308.0062,N,07729.5261,W,0.06,201.98,030519,,,D*7C
$GPGGA,140715.000,4308.0063,N,07729.5261,W,2,09,0.93,89.6,M,-34.4,M,0000,0000*60
lng=-77.492095, lat=43.133438, altitude=89.70, speed=0.06, satellites=9, angle=201.9800, fixquality=2
$GPRMC,140715.200,A,4308.0063,N,07729.5261,W,0.06,201.98,030519,,,D*76
$GPGGA,140715.400,4308.0063,N,07729.5261,W,2,09,0.93,89.5,M,-34.4,M,0000,0000*67
lng=-77.492095, lat=43.133438, altitude=89.60, speed=0.06, satellites=9, angle=201.9800, fixquality=2
$GPRMC,140715.600,A,4308.0063,N,07729.5261,W,0.04,201.98,030519,,,D*70
$GPGGA,140715.800,4308.0063,N,07729.5261,W,2,09,0.93,89.4,M,-34.4,M,0000,0000*6A
lng=-77.492095, lat=43.133438, altitude=89.50, speed=0.04, satellites=9, angle=201.9800, fixquality=2
$GPRMC,140716.000,A,4308.0063,N,07729.5261,W,0.05,201.98,030519,,,D*74
$GPGGA,140716.200,4308.0063,N,07729.5261,W,2,09,1.03,89.3,M,-34.4,M,0000,0000*6C
lng=-77.492095, lat=43.133438, altitude=89.40, speed=0.05, satellites=9, angle=201.9800, fixquality=2
$GPRMC,140716.400,A,4308.0063,N,07729.5261,W,0.05,201.98,030519,,,D*70
$GPGGA,140716.600,4308.0063,N,07729.5261,W,2,09,1.03,89.2,M,-34.4,M,0000,0000*69
lng=-77.492095, lat=43.133438, altitude=89.30, speed=0.05, satellites=9, angle=201.9800, fixquality=2
$GPRMC,140716.800,A,4308.0063,N,07729.5261,W,0.04,201.98,030519,,,D*7D
$GPGGA,140717.000,4308.0063,N,07729.5261,W,2,09,1.03,89.1,M,-34.4,M,0000,0000*6D
lng=-77.492095, lat=43.133438, altitude=89.20, speed=0.04, satellites=9, angle=201.9800, fixquality=2
$GPRMC,140717.200,A,4308.0063,N,07729.5261,W,0.02,201.98,030519,,,D*70
$GPGGA,140717.400,4308.0064,N,07729.5261,W,2,09,1.03,89.0,M,-34.4,M,0000,0000*6F
