Vers 57
USE_SERIAL_FEEDBACK=false
DEVELOPMENT_MODE=false
USE_RMC_ONLY=false

$GPRMC,145848.800,A,4308.1394,N,07734.4600,W,0.01,186.63,060419,,,D*71
$GPGGA,145849.000,4308.1395,N,07734.4600,W,2,08,1.14,164.2,M,-34.4,M,0000,0000*5F
lng=-77.574333, lat=43.135654, altitude=164.20, speed=0.01, satellites=8, angle=186.6300, fixquality=2
$GPRMC,145849.200,A,4308.1395,N,07734.4601,W,0.02,186.63,060419,,,D*79
$GPGGA,145849.400,4308.1395,N,07734.4601,W,2,09,0.91,164.1,M,-34.4,M,0000,0000*54
lng=-77.574333, lat=43.135662, altitude=164.20, speed=0.02, satellites=8, angle=186.6300, fixquality=2
$GPRMC,145849.600,A,4308.1395,N,07734.4601,W,0.00,186.63,060419,,,D*7F
$GPGGA,145849.800,4308.1395,N,07734.4601,W,2,09,0.91,164.1,M,-34.4,M,0000,0000*58
lng=-77.574333, lat=43.135662, altitude=164.10, speed=0.00, satellites=9, angle=186.6300, fixquality=2
$GPRMC,145850.000,A,4308.1395,N,07734.4601,W,0.00,186.63,060419,,,D*71
$GPGGA,145850.200,4308.1395,N,07734.4601,W,2,09,0.91,164.1,M,-34.4,M,0000,0000*5A
lng=-77.574333, lat=43.135662, altitude=164.10, speed=0.00, satellites=9, angle=186.6300, fixquality=2
$GPRMC,145850.400,A,4308.1395,N,07734.4601,W,0.00,186.63,060419,,,D*75
$GPGGA,145850.600,4308.1395,N,07734.4601,W,2,09,0.91,164.1,M,-34.4,M,0000,0000*5E
lng=-77.574333, lat=43.135662, altitude=164.10, speed=0.00, satellites=9, angle=186.6300, fixquality=2
$GPRMC,145850.800,A,4308.1395,N,07734.4601,W,0.00,186.63,060419,,,D*79
$GPGGA,145851.000,4308.1395,N,07734.4601,W,2,09,0.91,164.1,M,-34.4,M,0000,0000*59
lng=-77.574333, lat=43.135662, altitude=164.10, speed=0.00, satellites=9, angle=186.6300, fixquality=2
$GPRMC,145851.200,A,4308.1395,N,07734.4601,W,0.00,186.63,060419,,,D*72
$GPGGA,145851.400,4308.1395,N,07734.4601,W,2,09,0.91,164.1,M,-34.4,M,0000,0000*5D
lng=-77.574333, lat=43.135662, altitude=164.10, speed=0.00, satellites=9, angle=186.6300, fixquality=2
$GPRMC,145851.600,A,4308.1395,N,07734.4601,W,0.00,186.63,060419,,,D*76
$GPGGA,145851.800,4308.1395,N,07734.4601,W,2,09,0.91,164.1,M,-34.4,M,0000,0000*51
lng=-77.574333, lat=43.135662, altitude=164.10, speed=0.00, satellites=9, angle=186.6300, fixquality=2
$GPRMC,145852.000,A,4308.1395,N,07734.4601,W,0.00,186.63,060419,,,D*73
$GPGGA,145852.200,4308.1395,N,07734.4601,W,2,09,0.91,164.1,M,-34.4,M,0000,0000*58
lng=-77.574333, lat=43.135662, altitude=164.10, speed=0.00, satellites=9, angle=186.6300, fixquality=2
$GPRMC,145852.400,A,4308.1395,N,07734.4601,W,0.00,186.63,060419,,,D*77
$GPGGA,145852.600,4308.1395,N,07734.4601,W,2,09,0.91,164.1,M,-34.4,M,0000,0000*5C
lng=-77.574333, lat=43.135662, altitude=164.10, speed=0.00, satellites=9, angle=186.6300, fixquality=2
$GPRMC,145852.800,A,4308.1395,N,07734.4601,W,0.00,186.63,060419,,,D*7B
$GPGGA,145853.000,4308.1395,N,07734.4601,W,2,09,0.91,164.1,M,-34.4,M,0000,0000*5B
lng=-77.574333, lat=43.135662, altitude=164.10, speed=0.00, satellites=9, angle=186.6300, fixquality=2
$GPRMC,145853.200,A,4308.1395,N,07734.4601,W,0.00,186.63,060419,,,D*70
$GPGGA,145853.400,4308.1395,N,07734.4601,W,2,09,0.91,164.1,M,-34.4,M,0000,0000*5F
lng=-77.574333, lat=43.135662, altitude=164.10, speed=0.00, satellites=9, angle=186.6300, fixquality=2
$GPRMC,145853.600,A,4308.1395,N,07734.4601,W,0.00,186.63,060419,,,D*74
$GPGGA,145853.800,4308.1395,N,07734.4601,W,2,09,0.91,164.1,M,-34.4,M,0000,0000*53
lng=-77.574333, lat=43.135662, altitude=164.10, speed=0.00, satellites=9, angle=186.6300, fixquality=2
$GPRMC,145854.000,A,4308.1395,N,07734.4601,W,0.00,186.63,060419,,,D*75
$GPGGA,145854.200,4308.1395,N,07734.4601,W,2,09,0.91,164.1,M,-34.4,M,0000,0000*5E
lng=-77.574333, lat=43.135662, altitude=164.10, speed=0.00, satellites=9, angle=186.6300, fixquality=2
$GPRMC,145854.400,A,4308.1395,N,07734.4601,W,0.00,186.63,060419,,,D*71
$GPGGA,145854.600,4308.1395,N,07734.4601,W,2,09,0.91,164.1,M,-34.4,M,0000,0000*5A
lng=-77.574333, lat=43.135662, altitude=164.10, speed=0.00, satellites=9, angle=186.6300, fixquality=2
$GPRMC,145854.800,A,4308.1395,N,07734.4601,W,0.00,186.63,060419,,,D*7D
$GPGGA,145855.000,4308.1395,N,07734.4601,W,2,09,0.91,164.1,M,-34.4,M,0000,0000*5D
lng=-77.574333, lat=43.135662, altitude=164.10, speed=0.00, satellites=9, angle=186.6300, fixquality=2
$GPRMC,145855.200,A,4308.1395,N,07734.4601,W,0.00,186.63,060419,,,D*76
$GPGGA,145855.400,4308.1395,N,07734.4601,W,2,09,0.91,164.1,M,-34.4,M,0000,0000*59
lng=-77.574333, lat=43.135662, altitude=164.10, speed=0.00, satellites=9, angle=186.6300, fixquality=2
$GPRMC,145855.600,A,4308.1395,N,07734.4601,W,0.00,186.63,060419,,,D*72
$GPGGA,145855.800,4308.1395,N,07734.4601,W,2,09,0.91,164.1,M,-34.4,M,0000,0000*55
lng=-77.574333, lat=43.135662, altitude=164.10, speed=0.00, satellites=9, angle=186.6300, fixquality=2
$GPRMC,145856.000,A,4308.1395,N,07734.4601,W,0.00,186.63,060419,,,D*77
$GPGGA,145856.200,4308.1395,N,07734.4601,W,2,09,0.91,164.1,M,-34.4,M,0000,0000*5C
lng=-77.574333, lat=43.135662, altitude=164.10, speed=0.00, satellites=9, angle=186.6300, fixquality=2
$GPRMC,145856.400,A,4308.1395,N,07734.4601,W,0.00,186.63,060419,,,D*73
$GPGGA,145856.600,4308.1395,N,07734.4601,W,2,09,0.91,164.1,M,-34.4,M,0000,0000*58
lng=-77.574333, lat=43.135662, altitude=164.10, speed=0.00, satellites=9, angle=186.6300, fixquality=2
$GPRMC,145856.800,A,4308.1395,N,07734.4601,W,0.00,186.63,060419,,,D*7F
$GPGGA,145857.000,4308.1395,N,07734.4601,W,2,09,0.91,164.1,M,-34.4,M,0000,0000*5F
lng=-77.574333, lat=43.135662, altitude=164.10, speed=0.00, satellites=9, angle=186.6300, fixquality=2
$GPRMC,145857.200,A,4308.1395,N,07734.4601,W,0.00,186.63,060419,,,D*74
$GPGGA,145857.400,4308.1395,N,07734.4601,W,2,09,0.91,164.1,M,-34.4,M,0000,0000*5B
lng=-77.574333, lat=43.135662, altitude=164.10, speed=0.00, satellites=9, angle=186.6300, fixquality=2
$GPRMC,145857.600,A,4308.1395,N,07734.4601,W,0.00,186.63,060419,,,D*70
$GPGGA,145857.800,4308.1395,N,07734.4601,W,2,08,0.98,164.1,M,-34.4,M,0000,0000*5F
lng=-77.574333, lat=43.135662, altitude=164.10, speed=0.00, satellites=9, angle=186.6300, fixquality=2
$GPRMC,145858.000,A,4308.1395,N,07734.4601,W,0.00,186.63,060419,,,D*79
$GPGGA,145858.200,4308.1395,N,07734.4601,W,2,08,0.98,164.1,M,-34.4,M,0000,0000*5A
lng=-77.574333, lat=43.135662, altitude=164.10, speed=0.00, satellites=8, angle=186.6300, fixquality=2
$GPRMC,145858.400,A,4308.1395,N,07734.4601,W,0.00,186.63,060419,,,D*7D
$GPGGA,145858.600,4308.1395,N,07734.4601,W,2,08,0.98,164.1,M,-34.4,M,0000,0000*5E
lng=-77.574333, lat=43.135662, altitude=164.10, speed=0.00, satellites=8, angle=186.6300, fixquality=2
$GPRMC,145858.800,A,4308.1395,N,07734.4601,W,0.00,186.63,060419,,,D*71
$GPGGA,145859.000,4308.1395,N,07734.4601,W,2,08,0.98,164.0,M,-34.4,M,0000,0000*58
lng=-77.574333, lat=43.135662, altitude=164.10, speed=0.00, satellites=8, angle=186.6300, fixquality=2
$GPRMC,145859.200,A,4308.1395,N,07734.4601,W,0.00,186.63,060419,,,D*7A
$GPGGA,145859.400,4308.1395,N,07734.4601,W,2,08,0.98,164.0,M,-34.4,M,0000,0000*5C
lng=-77.574333, lat=43.135662, altitude=164.00, speed=0.00, satellites=8, angle=186.6300, fixquality=2
$GPRMC,145859.600,A,4308.1395,N,07734.4601,W,0.00,186.63,060419,,,D*7E
$GPGGA,145859.800,4308.1395,N,07734.4601,W,2,08,0.97,164.0,M,-34.4,M,0000,0000*5F
lng=-77.574333, lat=43.135662, altitude=164.00, speed=0.00, satellites=8, angle=186.6300, fixquality=2
$GPRMC,145900.000,A,4308.1395,N,07734.4601,W,0.00,186.63,060419,,,D*75
$GPGGA,145900.200,4308.1395,N,07734.4601,W,2,08,0.98,164.0,M,-34.4,M,0000,0000*57
lng=-77.574333, lat=43.135662, altitude=164.00, speed=0.00, satellites=8, angle=186.6300, fixquality=2
$GPRMC,145900.400,A,4308.1395,N,07734.4601,W,0.00,186.63,060419,,,D*71
$GPGGA,145900.600,4308.1395,N,07734.4601,W,2,09,0.91,164.0,M,-34.4,M,0000,0000*5B
lng=-77.574333, lat=43.135662, altitude=164.00, speed=0.00, satellites=8, angle=186.6300, fixquality=2
$GPRMC,145900.800,A,4308.1395,N,07734.4601,W,0.00,186.63,060419,,,D*7D
$GPGGA,145901.000,4308.1395,N,07734.4601,W,2,08,0.98,164.0,M,-34.4,M,0000,0000*54
lng=-77.574333, lat=43.135662, altitude=164.00, speed=0.00, satellites=9, angle=186.6300, fixquality=2
$GPRMC,145901.200,A,4308.1395,N,07734.4601,W,0.00,186.63,060419,,,D*76
$GPGGA,145901.400,4308.1395,N,07734.4601,W,2,08,0.98,164.0,M,-34.4,M,0000,0000*50
lng=-77.574333, lat=43.135662, altitude=164.00, speed=0.00, satellites=8, angle=186.6300, fixquality=2
$GPRMC,145901.600,A,4308.1395,N,07734.4601,W,0.01,186.63,060419,,,D*73
$GPGGA,145901.800,4308.1395,N,07734.4601,W,2,08,0.98,164.0,M,-34.4,M,0000,0000*5C
lng=-77.574333, lat=43.135662, altitude=164.00, speed=0.01, satellites=8, angle=186.6300, fixquality=2
$GPRMC,145902.000,A,4308.1395,N,07734.4601,W,0.01,186.63,060419,,,D*76
$GPGGA,145902.200,4308.1395,N,07734.4601,W,2,08,0.98,164.0,M,-34.4,M,0000,0000*55
lng=-77.574333, lat=43.135662, altitude=164.00, speed=0.01, satellites=8, angle=186.6300, fixquality=2
$GPRMC,145902.400,A,4308.1395,N,07734.4601,W,0.01,186.63,060419,,,D*72
$GPGGA,145902.600,4308.1395,N,07734.4601,W,2,08,0.98,164.0,M,-34.4,M,0000,0000*51
lng=-77.574333, lat=43.135662, altitude=164.00, speed=0.01, satellites=8, angle=186.6300, fixquality=2
$GPRMC,145902.800,A,4308.1395,N,07734.4601,W,0.01,186.63,060419,,,D*7E
$GPGGA,145903.000,4308.1395,N,07734.4601,W,2,08,0.98,164.0,M,-34.4,M,0000,0000*56
lng=-77.574333, lat=43.135662, altitude=164.00, speed=0.01, satellites=8, angle=186.6300, fixquality=2
$GPRMC,145903.200,A,4308.1395,N,07734.4601,W,0.00,186.63,060419,,,D*74
$GPGGA,145903.400,4308.1395,N,07734.4601,W,2,08,0.98,164.0,M,-34.4,M,0000,0000*52
lng=-77.574333, lat=43.135662, altitude=164.00, speed=0.00, satellites=8, angle=186.6300, fixquality=2
$GPRMC,145903.600,A,4308.1395,N,07734.4601,W,0.00,186.63,060419,,,D*70
$GPGGA,145903.800,4308.1395,N,07734.4601,W,2,08,0.98,164.0,M,-34.4,M,0000,0000*5E
lng=-77.574333, lat=43.135662, altitude=164.00, speed=0.00, satellites=8, angle=186.6300, fixquality=2
$GPRMC,145904.000,A,4308.1395,N,07734.4601,W,0.00,186.63,060419,,,D*71
$GPGGA,145904.200,4308.1395,N,07734.4601,W,2,08,0.98,164.0,M,-34.4,M,0000,0000*53
lng=-77.574333, lat=43.135662, altitude=164.00, speed=0.00, satellites=8, angle=186.6300, fixquality=2
$GPRMC,145904.400,A,4308.1395,N,07734.4601,W,0.00,186.63,060419,,,D*75
$GPGGA,145904.600,4308.1395,N,07734.4601,W,2,08,0.98,164.0,M,-34.4,M,0000,0000*57
lng=-77.574333, lat=43.135662, altitude=164.00, speed=0.00, satellites=8, angle=186.6300, fixquality=2
$GPRMC,145904.800,A,4308.1395,N,07734.4601,W,0.00,186.63,060419,,,D*79
$GPGGA,145905.000,4308.1395,N,07734.4601,W,2,08,0.98,164.0,M,-34.4,M,0000,0000*50
lng=-77.574333, lat=43.135662, altitude=164.00, speed=0.00, satellites=8, angle=186.6300, fixquality=2
$GPRMC,145905.200,A,4308.1395,N,07734.4601,W,0.00,186.63,060419,,,D*72
$GPGGA,145905.400,4308.1395,N,07734.4601,W,2,08,0.98,164.0,M,-34.4,M,0000,0000*54
lng=-77.574333, lat=43.135662, altitude=164.00, speed=0.00, satellites=8, angle=186.6300, fixquality=2
$GPRMC,145905.600,A,4308.1395,N,07734.4601,W,0.01,186.63,060419,,,D*77
$GPGGA,145905.800,4308.1395,N,07734.4601,W,2,08,0.98,164.0,M,-34.4,M,0000,0000*58
lng=-77.574333, lat=43.135662, altitude=164.00, speed=0.01, satellites=8, angle=186.6300, fixquality=2
$GPRMC,145906.000,A,4308.1395,N,07734.4601,W,0.00,186.63,060419,,,D*73
$GPGGA,145906.200,4308.1395,N,07734.4601,W,2,08,0.98,164.0,M,-34.4,M,0000,0000*51
lng=-77.574333, lat=43.135662, altitude=164.00, speed=0.00, satellites=8, angle=186.6300, fixquality=2
$GPRMC,145906.400,A,4308.1395,N,07734.4601,W,0.00,186.63,060419,,,D*77
$GPGGA,145906.600,4308.1395,N,07734.4601,W,2,08,0.98,164.0,M,-34.4,M,0000,0000*55
lng=-77.574333, lat=43.135662, altitude=164.00, speed=0.00, satellites=8, angle=186.6300, fixquality=2
$GPRMC,145906.800,A,4308.1395,N,07734.4601,W,0.00,186.63,060419,,,D*7B
$GPGGA,145907.000,4308.1395,N,07734.4601,W,2,08,0.98,164.0,M,-34.4,M,0000,0000*52
lng=-77.574333, lat=43.135662, altitude=164.00, speed=0.00, satellites=8, angle=186.6300, fixquality=2
$GPRMC,145907.200,A,4308.1395,N,07734.4601,W,0.00,186.63,060419,,,D*70
$GPGGA,145907.400,4308.1395,N,07734.4601,W,2,08,0.98,164.0,M,-34.4,M,0000,0000*56
lng=-77.574333, lat=43.135662, altitude=164.00, speed=0.00, satellites=8, angle=186.6300, fixquality=2
$GPRMC,145907.600,A,4308.1395,N,07734.4601,W,0.00,186.63,060419,,,D*74
$GPGGA,145907.800,4308.1395,N,07734.4601,W,2,09,0.91,164.0,M,-34.4,M,0000,0000*52
lng=-77.574333, lat=43.135662, altitude=164.00, speed=0.00, satellites=8, angle=186.6300, fixquality=2
$GPRMC,145908.000,A,4308.1395,N,07734.4601,W,0.00,186.63,060419,,,D*7D
$GPGGA,145908.200,4308.1395,N,07734.4601,W,2,09,0.91,164.0,M,-34.4,M,0000,0000*57
lng=-77.574333, lat=43.135662, altitude=164.00, speed=0.00, satellites=9, angle=186.6300, fixquality=2
$GPRMC,145908.400,A,4308.1395,N,07734.4601,W,0.00,186.63,060419,,,D*79
$GPGGA,145908.600,4308.1395,N,07734.4601,W,2,08,0.98,164.0,M,-34.4,M,0000,0000*5B
lng=-77.574333, lat=43.135662, altitude=164.00, speed=0.00, satellites=9, angle=186.6300, fixquality=2
$GPRMC,145908.800,A,4308.1395,N,07734.4601,W,0.00,186.63,060419,,,D*75
$GPGGA,145909.000,4308.1395,N,07734.4601,W,2,08,0.98,164.0,M,-34.4,M,0000,0000*5C
lng=-77.574333, lat=43.135662, altitude=164.00, speed=0.00, satellites=8, angle=186.6300, fixquality=2
$GPRMC,145909.200,A,4308.1395,N,07734.4601,W,0.00,186.63,060419,,,D*7E
$GPGGA,145909.400,4308.1395,N,07734.4601,W,2,08,0.98,164.0,M,-34.4,M,0000,0000*58
lng=-77.574333, lat=43.135662, altitude=164.00, speed=0.00, satellites=8, angle=186.6300, fixquality=2
$GPRMC,145909.600,A,4308.1395,N,07734.4601,W,0.00,186.63,060419,,,D*7A
$GPGGA,145909.800,4308.1395,N,07734.4601,W,2,08,0.98,164.0,M,-34.4,M,0000,0000*54
lng=-77.574333, lat=43.135662, altitude=164.00, speed=0.00, satellites=8, angle=186.6300, fixquality=2
$GPRMC,145910.000,A,4308.1395,N,07734.4601,W,0.01,186.63,060419,,,D*75
$GPGGA,145910.200,4308.1395,N,07734.4601,W,2,08,0.98,164.0,M,-34.4,M,0000,0000*56
lng=-77.574333, lat=43.135662, altitude=164.00, speed=0.01, satellites=8, angle=186.6300, fixquality=2
$GPRMC,145910.400,A,4308.1395,N,07734.4601,W,0.01,186.63,060419,,,D*71
$GPGGA,145910.600,4308.1395,N,07734.4601,W,2,09,0.91,164.0,M,-34.4,M,0000,0000*5A
lng=-77.574333, lat=43.135662, altitude=164.00, speed=0.01, satellites=8, angle=186.6300, fixquality=2
$GPRMC,145910.800,A,4308.1395,N,07734.4601,W,0.01,186.63,060419,,,D*7D
$GPGGA,145911.000,4308.1395,N,07734.4601,W,2,08,0.98,164.0,M,-34.4,M,0000,0000*55
lng=-77.574333, lat=43.135662, altitude=164.00, speed=0.01, satellites=9, angle=186.6300, fixquality=2
$GPRMC,145911.200,A,4308.1395,N,07734.4601,W,0.01,186.63,060419,,,D*76
$GPGGA,145911.400,4308.1395,N,07734.4601,W,2,09,0.91,164.0,M,-34.4,M,0000,0000*59
lng=-77.574333, lat=43.135662, altitude=164.00, speed=0.01, satellites=8, angle=186.6300, fixquality=2
$GPRMC,145911.600,A,4308.1395,N,07734.4601,W,0.01,186.63,060419,,,D*72
$GPGGA,145911.800,4308.1395,N,07734.4601,W,2,09,0.91,164.0,M,-34.4,M,0000,0000*55
lng=-77.574333, lat=43.135662, altitude=164.00, speed=0.01, satellites=9, angle=186.6300, fixquality=2
$GPRMC,145912.000,A,4308.1395,N,07734.4601,W,0.01,186.63,060419,,,D*77
$GPGGA,145912.200,4308.1395,N,07734.4601,W,2,09,0.91,164.0,M,-34.4,M,0000,0000*5C
lng=-77.574333, lat=43.135662, altitude=164.00, speed=0.01, satellites=9, angle=186.6300, fixquality=2
$GPRMC,145912.400,A,4308.1395,N,07734.4601,W,0.00,186.63,060419,,,D*72
$GPGGA,145912.600,4308.1395,N,07734.4601,W,2,09,0.91,164.0,M,-34.4,M,0000,0000*58
lng=-77.574333, lat=43.135662, altitude=164.00, speed=0.00, satellites=9, angle=186.6300, fixquality=2
$GPRMC,145912.800,A,4308.1395,N,07734.4601,W,0.00,186.63,060419,,,D*7E
$GPGGA,145913.000,4308.1395,N,07734.4601,W,2,09,0.91,164.0,M,-34.4,M,0000,0000*5F
lng=-77.574333, lat=43.135662, altitude=164.00, speed=0.00, satellites=9, angle=186.6300, fixquality=2
$GPRMC,145913.200,A,4308.1395,N,07734.4601,W,0.00,186.63,060419,,,D*75
$GPGGA,145913.400,4308.1395,N,07734.4601,W,2,09,0.91,164.0,M,-34.4,M,0000,0000*5B
lng=-77.574333, lat=43.135662, altitude=164.00, speed=0.00, satellites=9, angle=186.6300, fixquality=2
$GPRMC,145913.600,A,4308.1395,N,07734.4601,W,0.00,186.63,060419,,,D*71
$GPGGA,145913.800,4308.1395,N,07734.4601,W,2,09,0.91,164.0,M,-34.4,M,0000,0000*57
lng=-77.574333, lat=43.135662, altitude=164.00, speed=0.00, satellites=9, angle=186.6300, fixquality=2
$GPRMC,145914.000,A,4308.1395,N,07734.4601,W,0.01,186.63,060419,,,D*71
$GPGGA,145914.200,4308.1395,N,07734.4601,W,2,09,0.91,163.9,M,-34.4,M,0000,0000*54
lng=-77.574333, lat=43.135662, altitude=164.00, speed=0.01, satellites=9, angle=186.6300, fixquality=2
$GPRMC,145914.400,A,4308.1395,N,07734.4601,W,0.01,186.63,060419,,,D*75
$GPGGA,145914.600,4308.1395,N,07734.4601,W,2,09,0.91,163.9,M,-34.4,M,0000,0000*50
lng=-77.574333, lat=43.135662, altitude=163.90, speed=0.01, satellites=9, angle=186.6300, fixquality=2
$GPRMC,145914.800,A,4308.1395,N,07734.4601,W,0.01,186.63,060419,,,D*79
$GPGGA,145915.000,4308.1395,N,07734.4601,W,2,09,0.91,163.9,M,-34.4,M,0000,0000*57
lng=-77.574333, lat=43.135662, altitude=163.90, speed=0.01, satellites=9, angle=186.6300, fixquality=2
$GPRMC,145915.200,A,4308.1395,N,07734.4601,W,0.00,186.63,060419,,,D*73
$GPGGA,145915.400,4308.1395,N,07734.4601,W,2,09,0.91,163.9,M,-34.4,M,0000,0000*53
lng=-77.574333, lat=43.135662, altitude=163.90, speed=0.00, satellites=9, angle=186.6300, fixquality=2
$GPRMC,145915.600,A,4308.1395,N,07734.4601,W,0.00,186.63,060419,,,D*77
$GPGGA,145915.800,4308.1395,N,07734.4601,W,2,09,0.91,163.9,M,-34.4,M,0000,0000*5F
lng=-77.574333, lat=43.135662, altitude=163.90, speed=0.00, satellites=9, angle=186.6300, fixquality=2
$GPRMC,145916.000,A,4308.1395,N,07734.4601,W,0.00,186.63,060419,,,D*72
$GPGGA,145916.200,4308.1395,N,07734.4601,W,2,09,0.91,163.9,M,-34.4,M,0000,0000*56
lng=-77.574333, lat=43.135662, altitude=163.90, speed=0.00, satellites=9, angle=186.6300, fixquality=2
$GPRMC,145916.400,A,4308.1395,N,07734.4601,W,0.00,186.63,060419,,,D*76
$GPGGA,145916.600,4308.1395,N,07734.4601,W,2,09,0.91,163.9,M,-34.4,M,0000,0000*52
lng=-77.574333, lat=43.135662, altitude=163.90, speed=0.00, satellites=9, angle=186.6300, fixquality=2
$GPRMC,145916.800,A,4308.1395,N,07734.4601,W,0.00,186.63,060419,,,D*7A
$GPGGA,145917.000,4308.1395,N,07734.4601,W,2,09,0.91,163.9,M,-34.4,M,0000,0000*55
lng=-77.574333, lat=43.135662, altitude=163.90, speed=0.00, satellites=9, angle=186.6300, fixquality=2
$GPRMC,145917.200,A,4308.1395,N,07734.4601,W,0.00,186.63,060419,,,D*71
$GPGGA,145917.400,4308.1395,N,07734.4601,W,2,09,0.91,163.9,M,-34.4,M,0000,0000*51
lng=-77.574333, lat=43.135662, altitude=163.90, speed=0.00, satellites=9, angle=186.6300, fixquality=2
$GPRMC,145917.600,A,4308.1395,N,07734.4601,W,0.00,186.63,060419,,,D*75
$GPGGA,145917.800,4308.1395,N,07734.4601,W,2,09,0.91,163.9,M,-34.4,M,0000,0000*5D
lng=-77.574333, lat=43.135662, altitude=163.90, speed=0.00, satellites=9, angle=186.6300, fixquality=2
$GPRMC,145918.000,A,4308.1395,N,07734.4601,W,0.00,186.63,060419,,,D*7C
$GPGGA,145918.200,4308.1395,N,07734.4601,W,2,09,0.91,163.9,M,-34.4,M,0000,0000*58
lng=-77.574333, lat=43.135662, altitude=163.90, speed=0.00, satellites=9, angle=186.6300, fixquality=2
$GPRMC,145918.400,A,4308.1394,N,07734.4601,W,0.01,186.63,060419,,,D*78
$GPGGA,145918.600,4308.1394,N,07734.4601,W,2,09,0.91,163.9,M,-34.4,M,0000,0000*5D
lng=-77.574333, lat=43.135654, altitude=163.90, speed=0.01, satellites=9, angle=186.6300, fixquality=2
$GPRMC,145918.800,A,4308.1394,N,07734.4601,W,0.01,186.63,060419,,,D*74
$GPGGA,145919.000,4308.1394,N,07734.4601,W,2,09,0.91,163.9,M,-34.4,M,0000,0000*5A
lng=-77.574333, lat=43.135654, altitude=163.90, speed=0.01, satellites=9, angle=186.6300, fixquality=2
$GPRMC,145919.200,A,4308.1394,N,07734.4601,W,0.00,186.63,060419,,,D*7E
$GPGGA,145919.400,4308.1394,N,07734.4601,W,2,09,0.91,163.9,M,-34.4,M,0000,0000*5E
lng=-77.574333, lat=43.135654, altitude=163.90, speed=0.00, satellites=9, angle=186.6300, fixquality=2
$GPRMC,145919.600,A,4308.1394,N,07734.4601,W,0.01,186.63,060419,,,D*7B
$GPGGA,145919.800,4308.1394,N,07734.4601,W,2,09,0.91,163.9,M,-34.4,M,0000,0000*52
lng=-77.574333, lat=43.135654, altitude=163.90, speed=0.01, satellites=9, angle=186.6300, fixquality=2
$GPRMC,145920.000,A,4308.1394,N,07734.4601,W,0.00,186.63,060419,,,D*76
$GPGGA,145920.200,4308.1394,N,07734.4601,W,2,09,0.91,163.9,M,-34.4,M,0000,0000*52
lng=-77.574333, lat=43.135654, altitude=163.90, speed=0.00, satellites=9, angle=186.6300, fixquality=2
$GPRMC,145920.400,A,4308.1394,N,07734.4601,W,0.00,186.63,060419,,,D*72
$GPGGA,145920.600,4308.1394,N,07734.4601,W,2,09,0.91,163.9,M,-34.4,M,0000,0000*56
lng=-77.574333, lat=43.135654, altitude=163.90, speed=0.00, satellites=9, angle=186.6300, fixquality=2
$GPRMC,145920.800,A,4308.1394,N,07734.4601,W,0.00,186.63,060419,,,D*7E
$GPGGA,145921.000,4308.1394,N,07734.4601,W,2,09,0.91,163.9,M,-34.4,M,0000,0000*51
lng=-77.574333, lat=43.135654, altitude=163.90, speed=0.00, satellites=9, angle=186.6300, fixquality=2
$GPRMC,145921.200,A,4308.1394,N,07734.4601,W,0.00,186.63,060419,,,D*75
$GPGGA,145921.400,4308.1394,N,07734.4601,W,2,09,0.91,163.9,M,-34.4,M,0000,0000*55
lng=-77.574333, lat=43.135654, altitude=163.90, speed=0.00, satellites=9, angle=186.6300, fixquality=2
$GPRMC,145921.600,A,4308.1394,N,07734.4601,W,0.00,186.63,060419,,,D*71
$GPGGA,145921.800,4308.1394,N,07734.4601,W,2,09,0.91,163.9,M,-34.4,M,0000,0000*59
lng=-77.574333, lat=43.135654, altitude=163.90, speed=0.00, satellites=9, angle=186.6300, fixquality=2
$GPRMC,145922.000,A,4308.1394,N,07734.4601,W,0.00,186.63,060419,,,D*74
$GPGGA,145922.200,4308.1394,N,07734.4601,W,2,09,0.91,163.9,M,-34.4,M,0000,0000*50
lng=-77.574333, lat=43.135654, altitude=163.90, speed=0.00, satellites=9, angle=186.6300, fixquality=2
$GPRMC,145922.400,A,4308.1394,N,07734.4601,W,0.00,186.63,060419,,,D*70
$GPGGA,145922.600,4308.1394,N,07734.4601,W,2,09,0.91,163.9,M,-34.4,M,0000,0000*54
lng=-77.574333, lat=43.135654, altitude=163.90, speed=0.00, satellites=9, angle=186.6300, fixquality=2
$GPRMC,145922.800,A,4308.1394,N,07734.4601,W,0.00,186.63,060419,,,D*7C
$GPGGA,145923.000,4308.1394,N,07734.4601,W,2,09,0.91,163.9,M,-34.4,M,0000,0000*53
lng=-77.574333, lat=43.135654, altitude=163.90, speed=0.00, satellites=9, angle=186.6300, fixquality=2
$GPRMC,145923.200,A,4308.1394,N,07734.4601,W,0.00,186.63,060419,,,D*77
$GPGGA,145923.400,4308.1394,N,07734.4601,W,2,09,0.91,163.9,M,-34.4,M,0000,0000*57
lng=-77.574333, lat=43.135654, altitude=163.90, speed=0.00, satellites=9, angle=186.6300, fixquality=2
$GPRMC,145923.600,A,4308.1394,N,07734.4601,W,0.00,186.63,060419,,,D*73
$GPGGA,145923.800,4308.1394,N,07734.4601,W,2,09,0.91,163.9,M,-34.4,M,0000,0000*5B
lng=-77.574333, lat=43.135654, altitude=163.90, speed=0.00, satellites=9, angle=186.6300, fixquality=2
$GPRMC,145924.000,A,4308.1394,N,07734.4601,W,0.01,186.63,060419,,,D*73
$GPGGA,145924.200,4308.1394,N,07734.4601,W,2,09,0.91,163.9,M,-34.4,M,0000,0000*56
lng=-77.574333, lat=43.135654, altitude=163.90, speed=0.01, satellites=9, angle=186.6300, fixquality=2
$GPRMC,145924.400,A,4308.1394,N,07734.4601,W,0.01,186.63,060419,,,D*77
$GPGGA,145924.600,4308.1394,N,07734.4601,W,2,09,0.91,163.9,M,-34.4,M,0000,0000*52
lng=-77.574333, lat=43.135654, altitude=163.90, speed=0.01, satellites=9, angle=186.6300, fixquality=2
$GPRMC,145924.800,A,4308.1394,N,07734.4601,W,0.01,186.63,060419,,,D*7B
$GPGGA,145925.000,4308.1394,N,07734.4601,W,2,09,0.91,163.9,M,-34.4,M,0000,0000*55
lng=-77.574333, lat=43.135654, altitude=163.90, speed=0.01, satellites=9, angle=186.6300, fixquality=2
$GPRMC,145925.200,A,4308.1394,N,07734.4601,W,0.00,186.63,060419,,,D*71
$GPGGA,145925.400,4308.1394,N,07734.4601,W,2,09,0.91,163.9,M,-34.4,M,0000,0000*51
lng=-77.574333, lat=43.135654, altitude=163.90, speed=0.00, satellites=9, angle=186.6300, fixquality=2
$GPRMC,145925.600,A,4308.1394,N,07734.4601,W,0.00,186.63,060419,,,D*75
$GPGGA,145925.800,4308.1394,N,07734.4601,W,2,09,0.91,163.9,M,-34.4,M,0000,0000*5D
lng=-77.574333, lat=43.135654, altitude=163.90, speed=0.00, satellites=9, angle=186.6300, fixquality=2
$GPRMC,145926.000,A,4308.1394,N,07734.4601,W,0.00,186.63,060419,,,D*70
$GPGGA,145926.200,4308.1394,N,07734.4601,W,2,09,0.91,163.9,M,-34.4,M,0000,0000*54
lng=-77.574333, lat=43.135654, altitude=163.90, speed=0.00, satellites=9, angle=186.6300, fixquality=2
$GPRMC,145926.400,A,4308.1394,N,07734.4601,W,0.00,186.63,060419,,,D*74
$GPGGA,145926.600,4308.1394,N,07734.4601,W,2,09,0.91,163.9,M,-34.4,M,0000,0000*50
lng=-77.574333, lat=43.135654, altitude=163.90, speed=0.00, satellites=9, angle=186.6300, fixquality=2
$GPRMC,145926.800,A,4308.1394,N,07734.4601,W,0.00,186.63,060419,,,D*78
$GPGGA,145927.000,4308.1394,N,07734.4601,W,2,09,0.91,163.9,M,-34.4,M,0000,0000*57
lng=-77.574333, lat=43.135654, altitude=163.90, speed=0.00, satellites=9, angle=186.6300, fixquality=2
$GPRMC,145927.200,A,4308.1394,N,07734.4601,W,0.00,186.63,060419,,,D*73
$GPGGA,145927.400,4308.1394,N,07734.4601,W,2,09,0.91,163.9,M,-34.4,M,0000,0000*53
lng=-77.574333, lat=43.135654, altitude=163.90, speed=0.00, satellites=9, angle=186.6300, fixquality=2
$GPRMC,145927.600,A,4308.1394,N,07734.4601,W,0.00,186.63,060419,,,D*77
$GPGGA,145927.800,4308.1394,N,07734.4601,W,2,09,0.91,163.9,M,-34.4,M,0000,0000*5F
lng=-77.574333, lat=43.135654, altitude=163.90, speed=0.00, satellites=9, angle=186.6300, fixquality=2
$GPRMC,145928.000,A,4308.1394,N,07734.4601,W,0.00,186.63,060419,,,D*7E
$GPGGA,145928.200,4308.1394,N,07734.4601,W,2,09,0.91,163.9,M,-34.4,M,0000,0000*5A
lng=-77.574333, lat=43.135654, altitude=163.90, speed=0.00, satellites=9, angle=186.6300, fixquality=2
$GPRMC,145928.400,A,4308.1394,N,07734.4601,W,0.00,186.63,060419,,,D*7A
$GPGGA,145928.600,4308.1394,N,07734.4601,W,2,08,1.14,163.9,M,-34.4,M,0000,0000*53
lng=-77.574333, lat=43.135654, altitude=163.90, speed=0.00, satellites=9, angle=186.6300, fixquality=2
$GPRMC,145928.800,A,4308.1394,N,07734.4601,W,0.00,186.63,060419,,,D*76
$GPGGA,145929.000,4308.1394,N,07734.4601,W,2,09,0.91,163.9,M,-34.4,M,0000,0000*59
lng=-77.574333, lat=43.135654, altitude=163.90, speed=0.00, satellites=8, angle=186.6300, fixquality=2
$GPRMC,145929.200,A,4308.1394,N,07734.4601,W,0.00,186.63,060419,,,D*7D
$GPGGA,145929.400,4308.1394,N,07734.4601,W,2,09,0.91,163.9,M,-34.4,M,0000,0000*5D
lng=-77.574333, lat=43.135654, altitude=163.90, speed=0.00, satellites=9, angle=186.6300, fixquality=2
$GPRMC,145929.600,A,4308.1394,N,07734.4601,W,0.00,186.63,060419,,,D*79
$GPGGA,145929.800,4308.1394,N,07734.4601,W,2,08,1.14,163.9,M,-34.4,M,0000,0000*5C
lng=-77.574333, lat=43.135654, altitude=163.90, speed=0.00, satellites=9, angle=186.6300, fixquality=2
$GPRMC,145930.000,A,4308.1394,N,07734.4601,W,0.00,186.63,060419,,,D*77
$GPGGA,145930.200,4308.1394,N,07734.4600,W,2,08,1.14,163.9,M,-34.4,M,0000,0000*5F
lng=-77.574333, lat=43.135654, altitude=163.90, speed=0.00, satellites=8, angle=186.6300, fixquality=2
$GPRMC,145930.400,A,4308.1394,N,07734.4600,W,0.00,186.63,060419,,,D*72
$GPGGA,145930.600,4308.1394,N,07734.4600,W,2,09,0.91,163.9,M,-34.4,M,0000,0000*56
lng=-77.574333, lat=43.135654, altitude=163.90, speed=0.00, satellites=8, angle=186.6300, fixquality=2
$GPRMC,145930.800,A,4308.1394,N,07734.4600,W,0.00,186.63,060419,,,D*7E
$GPGGA,145931.000,4308.1394,N,07734.4600,W,2,09,0.91,163.9,M,-34.4,M,0000,0000*51
lng=-77.574333, lat=43.135654, altitude=163.90, speed=0.00, satellites=9, angle=186.6300, fixquality=2
$GPRMC,145931.200,A,4308.1394,N,07734.4600,W,0.00,186.63,060419,,,D*75
$GPGGA,145931.400,4308.1394,N,07734.4600,W,2,09,0.91,163.9,M,-34.4,M,0000,0000*55
lng=-77.574333, lat=43.135654, altitude=163.90, speed=0.00, satellites=9, angle=186.6300, fixquality=2
$GPRMC,145931.600,A,4308.1394,N,07734.4600,W,0.01,186.63,060419,,,D*70
$GPGGA,145931.800,4308.1394,N,07734.4600,W,2,09,0.91,163.9,M,-34.4,M,0000,0000*59
lng=-77.574333, lat=43.135654, altitude=163.90, speed=0.01, satellites=9, angle=186.6300, fixquality=2
$GPRMC,145932.000,A,4308.1394,N,07734.4600,W,0.00,186.63,060419,,,D*74
$GPGGA,145932.200,4308.1394,N,07734.4600,W,2,09,0.91,163.9,M,-34.4,M,0000,0000*50
lng=-77.574333, lat=43.135654, altitude=163.90, speed=0.00, satellites=9, angle=186.6300, fixquality=2
$GPRMC,145932.400,A,4308.1394,N,07734.4600,W,0.01,186.63,060419,,,D*71
$GPGGA,145932.600,4308.1394,N,07734.4600,W,2,09,0.91,163.9,M,-34.4,M,0000,0000*54
lng=-77.574333, lat=43.135654, altitude=163.90, speed=0.01, satellites=9, angle=186.6300, fixquality=2
$GPRMC,145932.800,A,4308.1394,N,07734.4600,W,0.00,186.63,060419,,,D*7C
$GPGGA,145933.000,4308.1394,N,07734.4600,W,2,09,0.91,163.9,M,-34.4,M,0000,0000*53
lng=-77.574333, lat=43.135654, altitude=163.90, speed=0.00, satellites=9, angle=186.6300, fixquality=2
$GPRMC,145933.200,A,4308.1394,N,07734.4600,W,0.01,186.63,060419,,,D*76
$GPGGA,145933.400,4308.1394,N,07734.4600,W,2,09,0.91,163.9,M,-34.4,M,0000,0000*57
lng=-77.574333, lat=43.135654, altitude=163.90, speed=0.01, satellites=9, angle=186.6300, fixquality=2
$GPRMC,145933.600,A,4308.1394,N,07734.4600,W,0.00,186.63,060419,,,D*73
$GPGGA,145933.800,4308.1394,N,07734.4600,W,2,09,0.91,163.9,M,-34.4,M,0000,0000*5B
lng=-77.574333, lat=43.135654, altitude=163.90, speed=0.00, satellites=9, angle=186.6300, fixquality=2
$GPRMC,145934.000,A,4308.1394,N,07734.4600,W,0.00,186.63,060419,,,D*72
$GPGGA,145934.200,4308.1394,N,07734.4600,W,2,09,0.91,163.9,M,-34.4,M,0000,0000*56
lng=-77.574333, lat=43.135654, altitude=163.90, speed=0.00, satellites=9, angle=186.6300, fixquality=2
$GPRMC,145934.400,A,4308.1394,N,07734.4600,W,0.01,186.63,060419,,,D*77
$GPGGA,145934.600,4308.1394,N,07734.4600,W,2,09,0.91,163.9,M,-34.4,M,0000,0000*52
lng=-77.574333, lat=43.135654, altitude=163.90, speed=0.01, satellites=9, angle=186.6300, fixquality=2
$GPRMC,145934.800,A,4308.1394,N,07734.4600,W,0.00,186.63,060419,,,D*7A
$GPGGA,145935.000,4308.1394,N,07734.4600,W,2,09,0.91,163.9,M,-34.4,M,0000,0000*55
lng=-77.574333, lat=43.135654, altitude=163.90, speed=0.00, satellites=9, angle=186.6300, fixquality=2
$GPRMC,145935.200,A,4308.1394,N,07734.4600,W,0.01,186.63,060419,,,D*70
$GPGGA,145935.400,4308.1394,N,07734.4600,W,2,09,0.91,163.9,M,-34.4,M,0000,0000*51
lng=-77.574333, lat=43.135654, altitude=163.90, speed=0.01, satellites=9, angle=186.6300, fixquality=2
$GPRMC,145935.600,A,4308.1394,N,07734.4600,W,0.01,186.63,060419,,,D*74
$GPGGA,145935.800,4308.1394,N,07734.4600,W,2,09,0.91,163.9,M,-34.4,M,0000,0000*5D
lng=-77.574333, lat=43.135654, altitude=163.90, speed=0.01, satellites=9, angle=186.6300, fixquality=2
$GPRMC,145936.000,A,4308.1394,N,07734.4600,W,0.00,186.63,060419,,,D*70
$GPGGA,145936.200,4308.1394,N,07734.4600,W,2,09,0.91,163.9,M,-34.4,M,0000,0000*54
lng=-77.574333, lat=43.135654, altitude=163.90, speed=0.00, satellites=9, angle=186.6300, fixquality=2
$GPRMC,145936.400,A,4308.1394,N,07734.4600,W,0.01,186.63,060419,,,D*75
$GPGGA,145936.600,4308.1394,N,07734.4600,W,2,09,0.91,163.9,M,-34.4,M,0000,0000*50
lng=-77.574333, lat=43.135654, altitude=163.90, speed=0.01, satellites=9, angle=186.6300, fixquality=2
$GPRMC,145936.800,A,4308.1394,N,07734.4600,W,0.00,186.63,060419,,,D*78
$GPGGA,145937.000,4308.1394,N,07734.4600,W,2,09,0.91,163.9,M,-34.4,M,0000,0000*57
lng=-77.574333, lat=43.135654, altitude=163.90, speed=0.00, satellites=9, angle=186.6300, fixquality=2
$GPRMC,145937.200,A,4308.1394,N,07734.4600,W,0.01,186.63,060419,,,D*72
$GPGGA,145937.400,4308.1394,N,07734.4600,W,2,09,0.91,163.9,M,-34.4,M,0000,0000*53
lng=-77.574333, lat=43.135654, altitude=163.90, speed=0.01, satellites=9, angle=186.6300, fixquality=2
$GPRMC,145937.600,A,4308.1394,N,07734.4600,W,0.01,186.63,060419,,,D*76
$GPGGA,145937.800,4308.1394,N,07734.4600,W,2,08,1.14,163.9,M,-34.4,M,0000,0000*52
lng=-77.574333, lat=43.135654, altitude=163.90, speed=0.01, satellites=9, angle=186.6300, fixquality=2
$GPRMC,145938.000,A,4308.1394,N,07734.4600,W,0.01,186.63,060419,,,D*7F
$GPGGA,145938.200,4308.1394,N,07734.4600,W,2,08,1.14,163.9,M,-34.4,M,0000,0000*57
lng=-77.574333, lat=43.135654, altitude=163.90, speed=0.01, satellites=8, angle=186.6300, fixquality=2
$GPRMC,145938.400,A,4308.1394,N,07734.4600,W,0.01,186.63,060419,,,D*7B
$GPGGA,145938.600,4308.1394,N,07734.4600,W,2,09,0.91,163.9,M,-34.4,M,0000,0000*5E
lng=-77.574333, lat=43.135654, altitude=163.90, speed=0.01, satellites=8, angle=186.6300, fixquality=2
$GPRMC,145938.800,A,4308.1394,N,07734.4600,W,0.01,186.63,060419,,,D*77
$GPGGA,145939.000,4308.1394,N,07734.4600,W,2,09,0.91,163.9,M,-34.4,M,0000,0000*59
lng=-77.574333, lat=43.135654, altitude=163.90, speed=0.01, satellites=9, angle=186.6300, fixquality=2
$GPRMC,145939.200,A,4308.1394,N,07734.4600,W,0.01,186.63,060419,,,D*7C
$GPGGA,145939.400,4308.1394,N,07734.4600,W,2,09,0.91,163.9,M,-34.4,M,0000,0000*5D
lng=-77.574333, lat=43.135654, altitude=163.90, speed=0.01, satellites=9, angle=186.6300, fixquality=2
$GPRMC,145939.600,A,4308.1394,N,07734.4600,W,0.01,186.63,060419,,,D*78
$GPGGA,145939.800,4308.1394,N,07734.4600,W,2,09,0.91,163.9,M,-34.4,M,0000,0000*51
lng=-77.574333, lat=43.135654, altitude=163.90, speed=0.01, satellites=9, angle=186.6300, fixquality=2
$GPRMC,145940.000,A,4308.1394,N,07734.4600,W,0.01,186.63,060419,,,D*70
$GPGGA,145940.200,4308.1394,N,07734.4600,W,2,09,0.91,163.9,M,-34.4,M,0000,0000*55
lng=-77.574333, lat=43.135654, altitude=163.90, speed=0.01, satellites=9, angle=186.6300, fixquality=2
$GPRMC,145940.400,A,4308.1394,N,07734.4600,W,0.01,186.63,060419,,,D*74
$GPGGA,145940.600,4308.1394,N,07734.4600,W,2,09,0.91,163.9,M,-34.4,M,0000,0000*51
lng=-77.574333, lat=43.135654, altitude=163.90, speed=0.01, satellites=9, angle=186.6300, fixquality=2
$GPRMC,145940.800,A,4308.1394,N,07734.4600,W,0.01,186.63,060419,,,D*78
$GPGGA,145941.000,4308.1394,N,07734.4600,W,2,09,0.91,163.9,M,-34.4,M,0000,0000*56
lng=-77.574333, lat=43.135654, altitude=163.90, speed=0.01, satellites=9, angle=186.6300, fixquality=2
$GPRMC,145941.200,A,4308.1394,N,07734.4600,W,0.01,186.63,060419,,,D*73
$GPGGA,145941.400,4308.1394,N,07734.4600,W,2,09,0.91,163.9,M,-34.4,M,0000,0000*52
lng=-77.574333, lat=43.135654, altitude=163.90, speed=0.01, satellites=9, angle=186.6300, fixquality=2
$GPRMC,145941.600,A,4308.1394,N,07734.4600,W,0.01,186.63,060419,,,D*77
$GPGGA,145941.800,4308.1395,N,07734.4600,W,2,09,0.91,163.9,M,-34.4,M,0000,0000*5F
lng=-77.574333, lat=43.135654, altitude=163.90, speed=0.01, satellites=9, angle=186.6300, fixquality=2
$GPRMC,145942.000,A,4308.1395,N,07734.4600,W,0.01,186.63,060419,,,D*73
$GPGGA,145942.200,4308.1395,N,07734.4600,W,2,08,0.98,163.9,M,-34.4,M,0000,0000*5E
lng=-77.574333, lat=43.135662, altitude=163.90, speed=0.01, satellites=9, angle=186.6300, fixquality=2
$GPRMC,145942.400,A,4308.1395,N,07734.4600,W,0.01,186.63,060419,,,D*77
$GPGGA,145942.600,4308.1395,N,07734.4600,W,2,08,0.98,163.9,M,-34.4,M,0000,0000*5A
lng=-77.574333, lat=43.135662, altitude=163.90, speed=0.01, satellites=8, angle=186.6300, fixquality=2
$GPRMC,145942.800,A,4308.1395,N,07734.4600,W,0.01,186.63,060419,,,D*7B
$GPGGA,145943.000,4308.1395,N,07734.4600,W,2,08,0.98,163.8,M,-34.4,M,0000,0000*5C
lng=-77.574333, lat=43.135662, altitude=163.90, speed=0.01, satellites=8, angle=186.6300, fixquality=2
$GPRMC,145943.200,A,4308.1395,N,07734.4600,W,0.01,186.63,060419,,,D*70
$GPGGA,145943.400,4308.1395,N,07734.4600,W,2,08,0.98,163.8,M,-34.4,M,0000,0000*58
lng=-77.574333, lat=43.135662, altitude=163.80, speed=0.01, satellites=8, angle=186.6300, fixquality=2
$GPRMC,145943.600,A,4308.1395,N,07734.4600,W,0.01,186.63,060419,,,D*74
$GPGGA,145943.800,4308.1395,N,07734.4600,W,2,08,0.98,163.8,M,-34.4,M,0000,0000*54
lng=-77.574333, lat=43.135662, altitude=163.80, speed=0.01, satellites=8, angle=186.6300, fixquality=2
$GPRMC,145944.000,A,4308.1395,N,07734.4600,W,0.01,186.63,060419,,,D*75
$GPGGA,145944.200,4308.1395,N,07734.4600,W,2,09,0.91,163.8,M,-34.4,M,0000,0000*51
lng=-77.574333, lat=43.135662, altitude=163.80, speed=0.01, satellites=8, angle=186.6300, fixquality=2
$GPRMC,145944.400,A,4308.1395,N,07734.4600,W,0.01,186.63,060419,,,D*71
$GPGGA,145944.600,4308.1395,N,07734.4600,W,2,09,0.91,163.8,M,-34.4,M,0000,0000*55
lng=-77.574333, lat=43.135662, altitude=163.80, speed=0.01, satellites=9, angle=186.6300, fixquality=2
$GPRMC,145944.800,A,4308.1395,N,07734.4599,W,0.01,186.63,060419,,,D*7E
$GPGGA,145945.000,4308.1395,N,07734.4599,W,2,08,0.98,163.8,M,-34.4,M,0000,0000*59
lng=-77.574333, lat=43.135662, altitude=163.80, speed=0.01, satellites=9, angle=186.6300, fixquality=2
$GPRMC,145945.200,A,4308.1395,N,07734.4599,W,0.01,186.63,060419,,,D*75
$GPGGA,145945.400,4308.1395,N,07734.4599,W,2,08,0.98,163.8,M,-34.4,M,0000,0000*5D
lng=-77.574333, lat=43.135662, altitude=163.80, speed=0.01, satellites=8, angle=186.6300, fixquality=2
$GPRMC,145945.600,A,4308.1395,N,07734.4599,W,0.01,186.63,060419,,,D*71
$GPGGA,145945.800,4308.1395,N,07734.4599,W,2,08,0.98,163.8,M,-34.4,M,0000,0000*51
lng=-77.574333, lat=43.135662, altitude=163.80, speed=0.01, satellites=8, angle=186.6300, fixquality=2
$GPRMC,145946.000,A,4308.1395,N,07734.4599,W,0.01,186.63,060419,,,D*74
$GPGGA,145946.200,4308.1395,N,07734.4599,W,2,08,0.98,163.8,M,-34.4,M,0000,0000*58
lng=-77.574333, lat=43.135662, altitude=163.80, speed=0.01, satellites=8, angle=186.6300, fixquality=2
$GPRMC,145946.400,A,4308.1395,N,07734.4599,W,0.01,186.63,060419,,,D*70
$GPGGA,145946.600,4308.1395,N,07734.4599,W,2,08,0.98,163.8,M,-34.4,M,0000,0000*5C
lng=-77.574333, lat=43.135662, altitude=163.80, speed=0.01, satellites=8, angle=186.6300, fixquality=2
$GPRMC,145946.800,A,4308.1395,N,07734.4599,W,0.01,186.63,060419,,,D*7C
$GPGGA,145947.000,4308.1395,N,07734.4599,W,2,08,0.98,163.8,M,-34.4,M,0000,0000*5B
lng=-77.574333, lat=43.135662, altitude=163.80, speed=0.01, satellites=8, angle=186.6300, fixquality=2
$GPRMC,145947.200,A,4308.1395,N,07734.4599,W,0.00,186.63,060419,,,D*76
$GPGGA,145947.400,4308.1395,N,07734.4599,W,2,08,0.98,163.8,M,-34.4,M,0000,0000*5F
lng=-77.574333, lat=43.135662, altitude=163.80, speed=0.00, satellites=8, angle=186.6300, fixquality=2
$GPRMC,145947.600,A,4308.1395,N,07734.4599,W,0.01,186.63,060419,,,D*73
$GPGGA,145947.800,4308.1395,N,07734.4599,W,2,08,0.98,163.8,M,-34.4,M,0000,0000*53
lng=-77.574333, lat=43.135662, altitude=163.80, speed=0.01, satellites=8, angle=186.6300, fixquality=2
$GPRMC,145948.000,A,4308.1395,N,07734.4599,W,0.01,186.63,060419,,,D*7A
$GPGGA,145948.200,4308.1395,N,07734.4599,W,2,08,0.98,163.8,M,-34.4,M,0000,0000*56
lng=-77.574333, lat=43.135662, altitude=163.80, speed=0.01, satellites=8, angle=186.6300, fixquality=2
$GPRMC,145948.400,A,4308.1395,N,07734.4599,W,0.01,186.63,060419,,,D*7E
$GPGGA,145948.600,4308.1395,N,07734.4599,W,2,08,0.98,163.8,M,-34.4,M,0000,0000*52
lng=-77.574333, lat=43.135662, altitude=163.80, speed=0.01, satellites=8, angle=186.6300, fixquality=2
$GPRMC,145948.800,A,4308.1395,N,07734.4599,W,0.00,186.63,060419,,,D*73
$GPGGA,145949.000,4308.1395,N,07734.4599,W,2,08,0.98,163.8,M,-34.4,M,0000,0000*55
lng=-77.574333, lat=43.135662, altitude=163.80, speed=0.00, satellites=8, angle=186.6300, fixquality=2
$GPRMC,145949.200,A,4308.1395,N,07734.4599,W,0.01,186.63,060419,,,D*79
$GPGGA,145949.400,4308.1395,N,07734.4599,W,2,08,0.98,163.8,M,-34.4,M,0000,0000*51
lng=-77.574333, lat=43.135662, altitude=163.80, speed=0.01, satellites=8, angle=186.6300, fixquality=2
$GPRMC,145949.600,A,4308.1395,N,07734.4599,W,0.01,186.63,060419,,,D*7D
$GPGGA,145949.800,4308.1395,N,07734.4599,W,2,08,0.98,163.8,M,-34.4,M,0000,0000*5D
lng=-77.574333, lat=43.135662, altitude=163.80, speed=0.01, satellites=8, angle=186.6300, fixquality=2
$GPRMC,145950.000,A,4308.1395,N,07734.4599,W,0.01,186.63,060419,,,D*73
$GPGGA,145950.200,4308.1395,N,07734.4599,W,2,08,0.98,163.8,M,-34.4,M,0000,0000*5F
lng=-77.574333, lat=43.135662, altitude=163.80, speed=0.01, satellites=8, angle=186.6300, fixquality=2
$GPRMC,145950.400,A,4308.1395,N,07734.4599,W,0.01,186.63,060419,,,D*77
$GPGGA,145950.600,4308.1395,N,07734.4599,W,2,08,0.98,163.8,M,-34.4,M,0000,0000*5B
lng=-77.574333, lat=43.135662, altitude=163.80, speed=0.01, satellites=8, angle=186.6300, fixquality=2
$GPRMC,145950.800,A,4308.1395,N,07734.4599,W,0.01,186.63,060419,,,D*7B
$GPGGA,145951.000,4308.1395,N,07734.4599,W,2,08,0.98,163.8,M,-34.4,M,0000,0000*5C
lng=-77.574333, lat=43.135662, altitude=163.80, speed=0.01, satellites=8, angle=186.6300, fixquality=2
$GPRMC,145951.200,A,4308.1395,N,07734.4599,W,0.01,186.63,060419,,,D*70
$GPGGA,145951.400,4308.1395,N,07734.4599,W,2,08,0.98,163.8,M,-34.4,M,0000,0000*58
lng=-77.574333, lat=43.135662, altitude=163.80, speed=0.01, satellites=8, angle=186.6300, fixquality=2
$GPRMC,145951.600,A,4308.1395,N,07734.4599,W,0.01,186.63,060419,,,D*74
$GPGGA,145951.800,4308.1395,N,07734.4599,W,2,08,0.98,163.8,M,-34.4,M,0000,0000*54
lng=-77.574333, lat=43.135662, altitude=163.80, speed=0.01, satellites=8, angle=186.6300, fixquality=2
$GPRMC,145952.000,A,4308.1395,N,07734.4599,W,0.00,186.63,060419,,,D*70
$GPGGA,145952.200,4308.1395,N,07734.4599,W,2,08,0.98,163.8,M,-34.4,M,0000,0000*5D
lng=-77.574333, lat=43.135662, altitude=163.80, speed=0.00, satellites=8, angle=186.6300, fixquality=2
$GPRMC,145952.400,A,4308.1395,N,07734.4599,W,0.01,186.63,060419,,,D*75
$GPGGA,145952.600,4308.1395,N,07734.4599,W,2,08,0.98,163.8,M,-34.4,M,0000,0000*59
lng=-77.574333, lat=43.135662, altitude=163.80, speed=0.01, satellites=8, angle=186.6300, fixquality=2
$GPRMC,145952.800,A,4308.1395,N,07734.4599,W,0.01,186.63,060419,,,D*79
$GPGGA,145953.000,4308.1395,N,07734.4599,W,2,08,0.98,163.8,M,-34.4,M,0000,0000*5E
lng=-77.574333, lat=43.135662, altitude=163.80, speed=0.01, satellites=8, angle=186.6300, fixquality=2
$GPRMC,145953.200,A,4308.1395,N,07734.4599,W,0.01,186.63,060419,,,D*72
$GPGGA,145953.400,4308.1395,N,07734.4599,W,2,08,0.98,163.8,M,-34.4,M,0000,0000*5A
lng=-77.574333, lat=43.135662, altitude=163.80, speed=0.01, satellites=8, angle=186.6300, fixquality=2
$GPRMC,145953.600,A,4308.1395,N,07734.4599,W,0.01,186.63,060419,,,D*76
$GPGGA,145953.800,4308.1395,N,07734.4599,W,2,09,0.91,163.8,M,-34.4,M,0000,0000*5E
lng=-77.574333, lat=43.135662, altitude=163.80, speed=0.01, satellites=8, angle=186.6300, fixquality=2
$GPRMC,145954.000,A,4308.1395,N,07734.4599,W,0.00,186.63,060419,,,D*76
$GPGGA,145954.200,4308.1395,N,07734.4599,W,2,08,0.98,163.8,M,-34.4,M,0000,0000*5B
lng=-77.574333, lat=43.135662, altitude=163.80, speed=0.00, satellites=9, angle=186.6300, fixquality=2
$GPRMC,145954.400,A,4308.1395,N,07734.4599,W,0.01,186.63,060419,,,D*73
$GPGGA,145954.600,4308.1395,N,07734.4599,W,2,09,0.91,163.8,M,-34.4,M,0000,0000*57
lng=-77.574333, lat=43.135662, altitude=163.80, speed=0.01, satellites=8, angle=186.6300, fixquality=2
$GPRMC,145954.800,A,4308.1395,N,07734.4599,W,0.01,186.63,060419,,,D*7F
$GPGGA,145955.000,4308.1395,N,07734.4599,W,2,09,0.91,163.8,M,-34.4,M,0000,0000*50
lng=-77.574333, lat=43.135662, altitude=163.80, speed=0.01, satellites=9, angle=186.6300, fixquality=2
$GPRMC,145955.200,A,4308.1395,N,07734.4599,W,0.01,186.63,060419,,,D*74
$GPGGA,145955.400,4308.1395,N,07734.4599,W,2,08,0.98,163.8,M,-34.4,M,0000,0000*5C
lng=-77.574333, lat=43.135662, altitude=163.80, speed=0.01, satellites=9, angle=186.6300, fixquality=2
$GPRMC,145955.600,A,4308.1395,N,07734.4599,W,0.01,186.63,060419,,,D*70
$GPGGA,145955.800,4308.1395,N,07734.4599,W,2,08,0.98,163.8,M,-34.4,M,0000,0000*50
lng=-77.574333, lat=43.135662, altitude=163.80, speed=0.01, satellites=8, angle=186.6300, fixquality=2
$GPRMC,145956.000,A,4308.1395,N,07734.4599,W,0.00,186.63,060419,,,D*74
$GPGGA,145956.200,4308.1395,N,07734.4599,W,2,08,0.98,163.8,M,-34.4,M,0000,0000*59
lng=-77.574333, lat=43.135662, altitude=163.80, speed=0.00, satellites=8, angle=186.6300, fixquality=2
$GPRMC,145956.400,A,4308.1395,N,07734.4599,W,0.01,186.63,060419,,,D*71
$GPGGA,145956.600,4308.1395,N,07734.4599,W,2,08,0.98,163.8,M,-34.4,M,0000,0000*5D
lng=-77.574333, lat=43.135662, altitude=163.80, speed=0.01, satellites=8, angle=186.6300, fixquality=2
$GPRMC,145956.800,A,4308.1395,N,07734.4599,W,0.01,186.63,060419,,,D*7D
$GPGGA,145957.000,4308.1395,N,07734.4599,W,2,08,0.98,163.8,M,-34.4,M,0000,0000*5A
lng=-77.574333, lat=43.135662, altitude=163.80, speed=0.01, satellites=8, angle=186.6300, fixquality=2
$GPRMC,145957.200,A,4308.1395,N,07734.4599,W,0.01,186.63,060419,,,D*76
$GPGGA,145957.400,4308.1395,N,07734.4599,W,2,08,0.98,163.8,M,-34.4,M,0000,0000*5E
lng=-77.574333, lat=43.135662, altitude=163.80, speed=0.01, satellites=8, angle=186.6300, fixquality=2
$GPRMC,145957.600,A,4308.1395,N,07734.4599,W,0.00,186.63,060419,,,D*73
$GPGGA,145957.800,4308.1395,N,07734.4599,W,2,08,0.98,163.8,M,-34.4,M,0000,0000*52
lng=-77.574333, lat=43.135662, altitude=163.80, speed=0.00, satellites=8, angle=186.6300, fixquality=2
$GPRMC,145958.000,A,4308.1395,N,07734.4599,W,0.00,186.63,060419,,,D*7A
$GPGGA,145958.200,4308.1395,N,07734.4599,W,2,08,0.98,163.8,M,-34.4,M,0000,0000*57
lng=-77.574333, lat=43.135662, altitude=163.80, speed=0.00, satellites=8, angle=186.6300, fixquality=2
$GPRMC,145958.400,A,4308.1395,N,07734.4599,W,0.01,186.63,060419,,,D*7F
$GPGGA,145958.600,4308.1395,N,07734.4599,W,2,08,0.98,163.8,M,-34.4,M,0000,0000*53
lng=-77.574333, lat=43.135662, altitude=163.80, speed=0.01, satellites=8, angle=186.6300, fixquality=2
$GPRMC,145958.800,A,4308.1395,N,07734.4599,W,0.00,186.63,060419,,,D*72
$GPGGA,145959.000,4308.1395,N,07734.4599,W,2,08,0.98,163.8,M,-34.4,M,0000,0000*54
lng=-77.574333, lat=43.135662, altitude=163.80, speed=0.00, satellites=8, angle=186.6300, fixquality=2
$GPRMC,145959.200,A,4308.1395,N,07734.4599,W,0.00,186.63,060419,,,D*79
$GPGGA,145959.400,4308.1395,N,07734.4599,W,2,08,0.98,163.8,M,-34.4,M,0000,0000*50
lng=-77.574333, lat=43.135662, altitude=163.80, speed=0.00, satellites=8, angle=186.6300, fixquality=2
$GPRMC,145959.600,A,4308.1395,N,07734.4599,W,0.00,186.63,060419,,,D*7D
$GPGGA,145959.800,4308.1395,N,07734.4599,W,2,08,0.98,163.8,M,-34.4,M,0000,0000*5C
lng=-77.574333, lat=43.135662, altitude=163.80, speed=0.00, satellites=8, angle=186.6300, fixquality=2
$GPRMC,150000.000,A,4308.1395,N,07734.4599,W,0.01,186.63,060419,,,D*7B
$GPGGA,150000.200,4308.1395,N,07734.4599,W,2,08,0.98,163.8,M,-34.4,M,0000,0000*57
lng=-77.574333, lat=43.135662, altitude=163.80, speed=0.01, satellites=8, angle=186.6300, fixquality=2
$GPRMC,150000.400,A,4308.1395,N,07734.4599,W,0.00,186.63,060419,,,D*7E
$GPGGA,150000.600,4308.1395,N,07734.4599,W,2,08,0.98,163.8,M,-34.4,M,0000,0000*53
lng=-77.574333, lat=43.135662, altitude=163.80, speed=0.00, satellites=8, angle=186.6300, fixquality=2
$GPRMC,150000.800,A,4308.1395,N,07734.4599,W,0.00,186.63,060419,,,D*72
$GPGGA,150001.000,4308.1395,N,07734.4599,W,2,08,0.98,163.8,M,-34.4,M,0000,0000*54
lng=-77.574333, lat=43.135662, altitude=163.80, speed=0.00, satellites=8, angle=186.6300, fixquality=2
$GPRMC,150001.200,A,4308.1395,N,07734.4599,W,0.01,186.63,060419,,,D*78
$GPGGA,150001.400,4308.1395,N,07734.4599,W,2,08,0.98,163.8,M,-34.4,M,0000,0000*50
lng=-77.574333, lat=43.135662, altitude=163.80, speed=0.01, satellites=8, angle=186.6300, fixquality=2
$GPRMC,150001.600,A,4308.1395,N,07734.4599,W,0.01,186.63,060419,,,D*7C
$GPGGA,150001.800,4308.1395,N,07734.4599,W,2,08,0.98,163.8,M,-34.4,M,0000,0000*5C
lng=-77.574333, lat=43.135662, altitude=163.80, speed=0.01, satellites=8, angle=186.6300, fixquality=2
$GPRMC,150002.000,A,4308.1395,N,07734.4599,W,0.00,186.63,060419,,,D*78
$GPGGA,150002.200,4308.1395,N,07734.4599,W,2,08,0.98,163.8,M,-34.4,M,0000,0000*55
lng=-77.574333, lat=43.135662, altitude=163.80, speed=0.00, satellites=8, angle=186.6300, fixquality=2
$GPRMC,150002.400,A,4308.1395,N,07734.4599,W,0.00,186.63,060419,,,D*7C
$GPGGA,150002.600,4308.1395,N,07734.4599,W,2,08,0.98,163.8,M,-34.4,M,0000,0000*51
lng=-77.574333, lat=43.135662, altitude=163.80, speed=0.00, satellites=8, angle=186.6300, fixquality=2
$GPRMC,150002.800,A,4308.1395,N,07734.4599,W,0.01,186.63,060419,,,D*71
$GPGGA,150003.000,4308.1395,N,07734.4599,W,2,08,0.98,163.8,M,-34.4,M,0000,0000*56
lng=-77.574333, lat=43.135662, altitude=163.80, speed=0.01, satellites=8, angle=186.6300, fixquality=2
$GPRMC,150003.200,A,4308.1395,N,07734.4599,W,0.01,186.63,060419,,,D*7A
$GPGGA,150003.400,4308.1395,N,07734.4599,W,2,08,0.98,163.8,M,-34.4,M,0000,0000*52
lng=-77.574333, lat=43.135662, altitude=163.80, speed=0.01, satellites=8, angle=186.6300, fixquality=2
$GPRMC,150003.600,A,4308.1395,N,07734.4599,W,0.01,186.63,060419,,,D*7E
$GPGGA,150003.800,4308.1395,N,07734.4599,W,2,08,0.98,163.8,M,-34.4,M,0000,0000*5E
lng=-77.574333, lat=43.135662, altitude=163.80, speed=0.01, satellites=8, angle=186.6300, fixquality=2
$GPRMC,150004.000,A,4308.1395,N,07734.4599,W,0.00,186.63,060419,,,D*7E
$GPGGA,150004.200,4308.1395,N,07734.4599,W,2,08,0.98,163.8,M,-34.4,M,0000,0000*53
lng=-77.574333, lat=43.135662, altitude=163.80, speed=0.00, satellites=8, angle=186.6300, fixquality=2
$GPRMC,150004.400,A,4308.1395,N,07734.4599,W,0.00,186.63,060419,,,D*7A
$GPGGA,150004.600,4308.1395,N,07734.4599,W,2,08,0.98,163.8,M,-34.4,M,0000,0000*57
lng=-77.574333, lat=43.135662, altitude=163.80, speed=0.00, satellites=8, angle=186.6300, fixquality=2
$GPRMC,150004.800,A,4308.1395,N,07734.4599,W,0.00,186.63,060419,,,D*76
$GPGGA,150005.000,4308.1395,N,07734.4599,W,2,08,0.98,163.8,M,-34.4,M,0000,0000*50
lng=-77.574333, lat=43.135662, altitude=163.80, speed=0.00, satellites=8, angle=186.6300, fixquality=2
$GPRMC,150005.200,A,4308.1395,N,07734.4599,W,0.01,186.63,060419,,,D*7C
$GPGGA,150005.400,4308.1395,N,07734.4599,W,2,08,0.98,163.8,M,-34.4,M,0000,0000*54
lng=-77.574333, lat=43.135662, altitude=163.80, speed=0.01, satellites=8, angle=186.6300, fixquality=2
$GPRMC,150005.600,A,4308.1395,N,07734.4599,W,0.00,186.63,060419,,,D*79
$GPGGA,150005.800,4308.1395,N,07734.4599,W,2,08,0.98,163.8,M,-34.4,M,0000,0000*58
lng=-77.574333, lat=43.135662, altitude=163.80, speed=0.00, satellites=8, angle=186.6300, fixquality=2
$GPRMC,150006.000,A,4308.1395,N,07734.4599,W,0.00,186.63,060419,,,D*7C
$GPGGA,150006.200,4308.1395,N,07734.4599,W,2,08,0.98,163.8,M,-34.4,M,0000,0000*51
lng=-77.574333, lat=43.135662, altitude=163.80, speed=0.00, satellites=8, angle=186.6300, fixquality=2
$GPRMC,150006.400,A,4308.1395,N,07734.4599,W,0.00,186.63,060419,,,D*78
$GPGGA,150006.600,4308.1395,N,07734.4599,W,2,08,0.98,163.8,M,-34.4,M,0000,0000*55
lng=-77.574333, lat=43.135662, altitude=163.80, speed=0.00, satellites=8, angle=186.6300, fixquality=2
$GPRMC,150006.800,A,4308.1395,N,07734.4598,W,0.00,186.63,060419,,,D*75
$GPGGA,150007.000,4308.1395,N,07734.4598,W,2,08,0.98,163.8,M,-34.4,M,0000,0000*53
lng=-77.574333, lat=43.135662, altitude=163.80, speed=0.00, satellites=8, angle=186.6300, fixquality=2
$GPRMC,150007.200,A,4308.1395,N,07734.4598,W,0.00,186.63,060419,,,D*7E
$GPGGA,150007.400,4308.1395,N,07734.4598,W,2,08,0.98,163.8,M,-34.4,M,0000,0000*57
lng=-77.574333, lat=43.135662, altitude=163.80, speed=0.00, satellites=8, angle=186.6300, fixquality=2
$GPRMC,150007.600,A,4308.1395,N,07734.4598,W,0.01,186.63,060419,,,D*7B
$GPGGA,150007.800,4308.1395,N,07734.4598,W,2,08,0.98,163.8,M,-34.4,M,0000,0000*5B
lng=-77.574333, lat=43.135662, altitude=163.80, speed=0.01, satellites=8, angle=186.6300, fixquality=2
$GPRMC,150008.000,A,4308.1395,N,07734.4598,W,0.00,186.63,060419,,,D*73
$GPGGA,150008.200,4308.1395,N,07734.4598,W,2,08,0.98,163.8,M,-34.4,M,0000,0000*5E
lng=-77.574333, lat=43.135662, altitude=163.80, speed=0.00, satellites=8, angle=186.6300, fixquality=2
$GPRMC,150008.400,A,4308.1395,N,07734.4598,W,0.01,186.63,060419,,,D*76
$GPGGA,150008.600,4308.1395,N,07734.4598,W,2,08,0.98,163.8,M,-34.4,M,0000,0000*5A
lng=-77.574333, lat=43.135662, altitude=163.80, speed=0.01, satellites=8, angle=186.6300, fixquality=2
$GPRMC,150008.800,A,4308.1395,N,07734.4598,W,0.00,186.63,060419,,,D*7B
$GPGGA,150009.000,4308.1395,N,07734.4598,W,2,08,0.98,163.8,M,-34.4,M,0000,0000*5D
lng=-77.574333, lat=43.135662, altitude=163.80, speed=0.00, satellites=8, angle=186.6300, fixquality=2
$GPRMC,150009.200,A,4308.1395,N,07734.4598,W,0.00,186.63,060419,,,D*70
$GPGGA,150009.400,4308.1395,N,07734.4598,W,2,08,0.98,163.8,M,-34.4,M,0000,0000*59
lng=-77.574333, lat=43.135662, altitude=163.80, speed=0.00, satellites=8, angle=186.6300, fixquality=2
$GPRMC,150009.600,A,4308.1395,N,07734.4598,W,0.01,186.63,060419,,,D*75
$GPGGA,150009.800,4308.1395,N,07734.4598,W,2,08,0.98,163.8,M,-34.4,M,0000,0000*55
lng=-77.574333, lat=43.135662, altitude=163.80, speed=0.01, satellites=8, angle=186.6300, fixquality=2
$GPRMC,150010.000,A,4308.1395,N,07734.4598,W,0.00,186.63,060419,,,D*7A
$GPGGA,150010.200,4308.1395,N,07734.4598,W,2,08,0.98,163.8,M,-34.4,M,0000,0000*57
lng=-77.574333, lat=43.135662, altitude=163.80, speed=0.00, satellites=8, angle=186.6300, fixquality=2
$GPRMC,150010.400,A,4308.1395,N,07734.4598,W,0.01,186.63,060419,,,D*7F
$GPGGA,150010.600,4308.1395,N,07734.4598,W,2,08,0.98,163.8,M,-34.4,M,0000,0000*53
lng=-77.574333, lat=43.135662, altitude=163.80, speed=0.01, satellites=8, angle=186.6300, fixquality=2
$GPRMC,150010.800,A,4308.1395,N,07734.4598,W,0.01,186.63,060419,,,D*73
$GPGGA,150011.000,4308.1395,N,07734.4598,W,2,08,0.98,163.8,M,-34.4,M,0000,0000*54
lng=-77.574333, lat=43.135662, altitude=163.80, speed=0.01, satellites=8, angle=186.6300, fixquality=2
$GPRMC,150011.200,A,4308.1395,N,07734.4598,W,0.01,186.63,060419,,,D*78
$GPGGA,150011.400,4308.1395,N,07734.4598,W,2,08,0.98,163.8,M,-34.4,M,0000,0000*50
lng=-77.574333, lat=43.135662, altitude=163.80, speed=0.01, satellites=8, angle=186.6300, fixquality=2
$GPRMC,150011.600,A,4308.1395,N,07734.4598,W,0.01,186.63,060419,,,D*7C
$GPGGA,150011.800,4308.1395,N,07734.4598,W,2,08,0.98,163.8,M,-34.4,M,0000,0000*5C
lng=-77.574333, lat=43.135662, altitude=163.80, speed=0.01, satellites=8, angle=186.6300, fixquality=2
$GPRMC,150012.000,A,4308.1395,N,07734.4598,W,0.01,186.63,060419,,,D*79
$GPGGA,150012.200,4308.1395,N,07734.4598,W,2,08,0.98,163.8,M,-34.4,M,0000,0000*55
lng=-77.574333, lat=43.135662, altitude=163.80, speed=0.01, satellites=8, angle=186.6300, fixquality=2
$GPRMC,150012.400,A,4308.1395,N,07734.4598,W,0.01,186.63,060419,,,D*7D
$GPGGA,150012.600,4308.1395,N,07734.4598,W,2,08,0.98,163.8,M,-34.4,M,0000,0000*51
lng=-77.574333, lat=43.135662, altitude=163.80, speed=0.01, satellites=8, angle=186.6300, fixquality=2
$GPRMC,150012.800,A,4308.1396,N,07734.4598,W,0.01,186.63,060419,,,D*72
$GPGGA,150013.000,4308.1396,N,07734.4598,W,2,08,0.98,163.8,M,-34.4,M,0000,0000*55
lng=-77.574333, lat=43.135662, altitude=163.80, speed=0.01, satellites=8, angle=186.6300, fixquality=2
$GPRMC,150013.200,A,4308.1396,N,07734.4598,W,0.01,186.63,060419,,,D*79
$GPGGA,150013.400,4308.1396,N,07734.4598,W,2,08,0.98,163.8,M,-34.4,M,0000,0000*51
lng=-77.574333, lat=43.135662, altitude=163.80, speed=0.01, satellites=8, angle=186.6300, fixquality=2
$GPRMC,150013.600,A,4308.1396,N,07734.4598,W,0.01,186.63,060419,,,D*7D
$GPGGA,150013.800,4308.1396,N,07734.4598,W,2,08,0.98,163.8,M,-34.4,M,0000,0000*5D
lng=-77.574333, lat=43.135662, altitude=163.80, speed=0.01, satellites=8, angle=186.6300, fixquality=2
$GPRMC,150014.000,A,4308.1396,N,07734.4598,W,0.01,186.63,060419,,,D*7C
$GPGGA,150014.200,4308.1396,N,07734.4598,W,2,08,0.98,163.8,M,-34.4,M,0000,0000*50
lng=-77.574333, lat=43.135662, altitude=163.80, speed=0.01, satellites=8, angle=186.6300, fixquality=2
$GPRMC,150014.400,A,4308.1396,N,07734.4598,W,0.01,186.63,060419,,,D*78
$GPGGA,150014.600,4308.1396,N,07734.4598,W,2,09,0.91,163.8,M,-34.4,M,0000,0000*5C
lng=-77.574333, lat=43.135662, altitude=163.80, speed=0.01, satellites=8, angle=186.6300, fixquality=2
$GPRMC,150014.800,A,4308.1396,N,07734.4598,W,0.01,186.63,060419,,,D*74
$GPGGA,150015.000,4308.1396,N,07734.4598,W,2,08,0.98,163.8,M,-34.4,M,0000,0000*53
lng=-77.574333, lat=43.135662, altitude=163.80, speed=0.01, satellites=9, angle=186.6300, fixquality=2
$GPRMC,150015.200,A,4308.1396,N,07734.4598,W,0.00,186.63,060419,,,D*7E
$GPGGA,150015.400,4308.1396,N,07734.4598,W,2,08,0.98,163.8,M,-34.4,M,0000,0000*57
lng=-77.574333, lat=43.135662, altitude=163.80, speed=0.00, satellites=8, angle=186.6300, fixquality=2
$GPRMC,150015.600,A,4308.1396,N,07734.4598,W,0.01,186.63,060419,,,D*7B
$GPGGA,150015.800,4308.1396,N,07734.4598,W,2,09,0.91,163.8,M,-34.4,M,0000,0000*53
lng=-77.574333, lat=43.135662, altitude=163.80, speed=0.01, satellites=8, angle=186.6300, fixquality=2
$GPRMC,150016.000,A,4308.1396,N,07734.4598,W,0.00,186.63,060419,,,D*7F
$GPGGA,150016.200,4308.1396,N,07734.4598,W,2,08,0.98,163.8,M,-34.4,M,0000,0000*52
lng=-77.574333, lat=43.135662, altitude=163.80, speed=0.00, satellites=9, angle=186.6300, fixquality=2
$GPRMC,150016.400,A,4308.1396,N,07734.4598,W,0.01,186.63,060419,,,D*7A
$GPGGA,150016.600,4308.1396,N,07734.4598,W,2,09,0.91,163.8,M,-34.4,M,0000,0000*5E
lng=-77.574333, lat=43.135662, altitude=163.80, speed=0.01, satellites=8, angle=186.6300, fixquality=2
$GPRMC,150016.800,A,4308.1396,N,07734.4598,W,0.00,186.63,060419,,,D*77
$GPGGA,150017.000,4308.1396,N,07734.4598,W,2,09,0.91,163.8,M,-34.4,M,0000,0000*59
lng=-77.574333, lat=43.135662, altitude=163.80, speed=0.00, satellites=9, angle=186.6300, fixquality=2
$GPRMC,150017.200,A,4308.1396,N,07734.4598,W,0.01,186.63,060419,,,D*7D
$GPGGA,150017.400,4308.1396,N,07734.4598,W,2,08,0.98,163.8,M,-34.4,M,0000,0000*55
lng=-77.574333, lat=43.135662, altitude=163.80, speed=0.01, satellites=9, angle=186.6300, fixquality=2
$GPRMC,150017.600,A,4308.1396,N,07734.4598,W,0.00,186.63,060419,,,D*78
$GPGGA,150017.800,4308.1396,N,07734.4598,W,2,08,0.98,163.8,M,-34.4,M,0000,0000*59
lng=-77.574333, lat=43.135662, altitude=163.80, speed=0.00, satellites=8, angle=186.6300, fixquality=2
$GPRMC,150018.000,A,4308.1396,N,07734.4598,W,0.00,186.63,060419,,,D*71
$GPGGA,150018.200,4308.1396,N,07734.4598,W,2,08,0.98,163.8,M,-34.4,M,0000,0000*5C
lng=-77.574333, lat=43.135662, altitude=163.80, speed=0.00, satellites=8, angle=186.6300, fixquality=2
$GPRMC,150018.400,A,4308.1396,N,07734.4598,W,0.00,186.63,060419,,,D*75
$GPGGA,150018.600,4308.1396,N,07734.4598,W,2,09,0.91,163.8,M,-34.4,M,0000,0000*50
lng=-77.574333, lat=43.135662, altitude=163.80, speed=0.00, satellites=8, angle=186.6300, fixquality=2
$GPRMC,150018.800,A,4308.1396,N,07734.4598,W,0.00,186.63,060419,,,D*79
$GPGGA,150019.000,4308.1396,N,07734.4598,W,2,09,0.91,163.8,M,-34.4,M,0000,0000*57
lng=-77.574333, lat=43.135662, altitude=163.80, speed=0.00, satellites=9, angle=186.6300, fixquality=2
$GPRMC,150019.200,A,4308.1396,N,07734.4598,W,0.00,186.63,060419,,,D*72
$GPGGA,150019.400,4308.1396,N,07734.4598,W,2,09,0.91,163.8,M,-34.4,M,0000,0000*53
lng=-77.574333, lat=43.135662, altitude=163.80, speed=0.00, satellites=9, angle=186.6300, fixquality=2
$GPRMC,150019.600,A,4308.1396,N,07734.4598,W,0.00,186.63,060419,,,D*76
$GPGGA,150019.800,4308.1396,N,07734.4598,W,2,09,0.91,163.8,M,-34.4,M,0000,0000*5F
lng=-77.574333, lat=43.135662, altitude=163.80, speed=0.00, satellites=9, angle=186.6300, fixquality=2
$GPRMC,150020.000,A,4308.1396,N,07734.4598,W,0.01,186.63,060419,,,D*7B
$GPGGA,150020.200,4308.1396,N,07734.4598,W,2,08,0.98,163.8,M,-34.4,M,0000,0000*57
lng=-77.574333, lat=43.135662, altitude=163.80, speed=0.01, satellites=9, angle=186.6300, fixquality=2
$GPRMC,150020.400,A,4308.1396,N,07734.4598,W,0.01,186.63,060419,,,D*7F
$GPGGA,150020.600,4308.1396,N,07734.4598,W,2,09,0.91,163.8,M,-34.4,M,0000,0000*5B
lng=-77.574333, lat=43.135662, altitude=163.80, speed=0.01, satellites=8, angle=186.6300, fixquality=2
$GPRMC,150020.800,A,4308.1396,N,07734.4598,W,0.01,186.63,060419,,,D*73
$GPGGA,150021.000,4308.1396,N,07734.4597,W,2,09,0.91,163.8,M,-34.4,M,0000,0000*53
lng=-77.574333, lat=43.135662, altitude=163.80, speed=0.01, satellites=9, angle=186.6300, fixquality=2
$GPRMC,150021.200,A,4308.1396,N,07734.4597,W,0.00,186.63,060419,,,D*76
$GPGGA,150021.400,4308.1396,N,07734.4597,W,2,09,0.91,163.8,M,-34.4,M,0000,0000*57
lng=-77.574325, lat=43.135662, altitude=163.80, speed=0.00, satellites=9, angle=186.6300, fixquality=2
$GPRMC,150021.600,A,4308.1396,N,07734.4597,W,0.00,186.63,060419,,,D*72
$GPGGA,150021.800,4308.1396,N,07734.4597,W,2,09,0.91,163.8,M,-34.4,M,0000,0000*5B
lng=-77.574325, lat=43.135662, altitude=163.80, speed=0.00, satellites=9, angle=186.6300, fixquality=2
$GPRMC,150022.000,A,4308.1396,N,07734.4597,W,0.01,186.63,060419,,,D*76
$GPGGA,150022.200,4308.1396,N,07734.4597,W,2,09,0.91,163.8,M,-34.4,M,0000,0000*52
lng=-77.574325, lat=43.135662, altitude=163.80, speed=0.01, satellites=9, angle=186.6300, fixquality=2
