Vers 81
USE_SERIAL_FEEDBACK=true
DEVELOPMENT_MODE=false
USE_RMC_ONLY=false

$GPRMC,154930.000,A,4308.3031,N,07726.2659,W,0.59,255.11,210819,,,A*79
$GPGGA,154930.250,4308.3031,N,07726.2659,W,1,08,1.01,152.0,M,-34.4,M,,*51
$GPRMC,154930.500,A,4308.3030,N,07726.2659,W,0.67,241.51,210819,,,A*71
$GPGGA,154930.750,4308.3030,N,07726.2660,W,1,08,1.01,152.0,M,-34.4,M,,*5F
$GPRMC,154931.000,A,4308.3030,N,07726.2661,W,0.90,240.82,210819,,,A*79
$GPGGA,154931.250,4308.3030,N,07726.2662,W,1,08,1.01,152.0,M,-34.4,M,,*59
$GPRMC,154931.500,A,4308.3030,N,07726.2662,W,1.01,239.80,210819,,,A*7A
$GPGGA,154931.750,4308.3030,N,07726.2662,W,1,08,1.01,152.0,M,-34.4,M,,*5C
$GPRMC,154932.000,A,4308.3030,N,07726.2662,W,1.05,237.84,210819,,,A*72
$GPGGA,154932.250,4308.3030,N,07726.2662,W,1,08,1.01,151.9,M,-34.4,M,,*50
$GPRMC,154932.500,A,4308.3030,N,07726.2662,W,1.06,235.41,210819,,,A*7F
$GPGGA,154932.750,4308.3029,N,07726.2661,W,1,08,1.01,151.9,M,-34.4,M,,*5E
$GPRMC,154933.000,A,4308.3029,N,07726.2660,W,0.98,227.65,210819,,,A*72
$GPGGA,154933.250,4308.3029,N,07726.2660,W,1,08,1.01,151.9,M,-34.4,M,,*5B
$GPRMC,154933.500,A,4308.3029,N,07726.2659,W,0.76,222.42,210819,,,A*7D
$GPGGA,154933.750,4308.3029,N,07726.2658,W,1,08,1.01,151.9,M,-34.4,M,,*55
$GPRMC,154934.000,A,4308.3028,N,07726.2658,W,0.66,217.20,210819,,,A*7C
$GPGGA,154934.250,4308.3028,N,07726.2657,W,1,08,1.01,151.9,M,-34.4,M,,*59
$GPRMC,154934.500,A,4308.3028,N,07726.2657,W,0.56,217.20,210819,,,A*75
$GPGGA,154934.750,4308.3028,N,07726.2656,W,1,08,1.01,151.8,M,-34.4,M,,*5C
$GPRMC,154935.000,A,4308.3028,N,07726.2656,W,0.46,217.20,210819,,,A*71
$GPGGA,154935.250,4308.3027,N,07726.2655,W,1,08,1.01,151.8,M,-34.4,M,,*54
$GPRMC,154935.500,A,4308.3027,N,07726.2654,W,0.39,217.20,210819,,,A*71
$GPGGA,154935.750,4308.3027,N,07726.2653,W,1,08,1.01,151.8,M,-34.4,M,,*57
$GPRMC,154936.000,A,4308.3027,N,07726.2653,W,0.37,217.20,210819,,,A*7E
$GPGGA,154936.250,4308.3026,N,07726.2653,W,1,08,1.01,151.8,M,-34.4,M,,*50
$GPRMC,154936.500,A,4308.3026,N,07726.2652,W,0.37,217.20,210819,,,A*7B
$GPGGA,154936.750,4308.3026,N,07726.2652,W,1,08,1.01,151.7,M,-34.4,M,,*5B
$GPRMC,154937.000,A,4308.3026,N,07726.2652,W,0.37,193.08,210819,,,A*7A
$GPGGA,154937.250,4308.3026,N,07726.2652,W,1,08,1.01,151.7,M,-34.4,M,,*5F
$GPRMC,154937.500,A,4308.3025,N,07726.2652,W,0.34,189.60,210819,,,A*7A
$GPGGA,154937.750,4308.3025,N,07726.2652,W,1,08,1.01,151.7,M,-34.4,M,,*59
$GPRMC,154938.000,A,4308.3025,N,07726.2652,W,0.24,173.80,210819,,,A*7A
$GPGGA,154938.250,4308.3025,N,07726.2652,W,1,08,1.01,151.7,M,-34.4,M,,*53
$GPRMC,154938.500,A,4308.3025,N,07726.2652,W,0.24,148.85,210819,,,A*72
$GPGGA,154938.750,4308.3025,N,07726.2652,W,1,08,1.01,151.7,M,-34.4,M,,*56
$GPRMC,154939.000,A,4308.3024,N,07726.2651,W,0.23,110.35,210819,,,A*75
$GPGGA,154939.250,4308.3024,N,07726.2651,W,1,08,1.01,151.7,M,-34.4,M,,*50
$GPRMC,154939.500,A,4308.3024,N,07726.2651,W,0.29,80.79,210819,,,A*4A
$GPGGA,154939.750,4308.3024,N,07726.2651,W,1,08,1.01,151.6,M,-34.4,M,,*54
$GPRMC,154940.000,A,4308.3024,N,07726.2650,W,0.32,71.45,210819,,,A*4B
$GPGGA,154940.250,4308.3025,N,07726.2650,W,1,08,1.01,151.6,M,-34.4,M,,*5F
$GPRMC,154940.500,A,4308.3025,N,07726.2650,W,0.30,71.35,210819,,,A*4A
$GPGGA,154940.750,4308.3025,N,07726.2650,W,1,08,1.01,151.6,M,-34.4,M,,*5A
$GPRMC,154941.000,A,4308.3025,N,07726.2649,W,0.23,72.93,210819,,,A*4B
$GPGGA,154941.250,4308.3025,N,07726.2649,W,1,08,1.01,151.6,M,-34.4,M,,*56
$GPRMC,154941.500,A,4308.3025,N,07726.2649,W,0.16,75.76,210819,,,A*44
$GPGGA,154941.750,4308.3025,N,07726.2649,W,1,08,1.01,151.6,M,-34.4,M,,*53
$GPRMC,154942.000,A,4308.3024,N,07726.2649,W,0.15,80.01,210819,,,A*4A
$GPGGA,154942.250,4308.3024,N,07726.2649,W,1,08,1.01,151.6,M,-34.4,M,,*54
$GPRMC,154942.500,A,4308.3024,N,07726.2649,W,0.25,86.76,210819,,,A*4A
$GPGGA,154942.750,4308.3024,N,07726.2649,W,1,08,1.01,151.6,M,-34.4,M,,*51
$GPRMC,154943.000,A,4308.3024,N,07726.2649,W,0.28,96.82,210819,,,A*49
$GPGGA,154943.250,4308.3024,N,07726.2649,W,1,08,1.01,151.6,M,-34.4,M,,*55
$GPRMC,154943.500,A,4308.3023,N,07726.2649,W,0.27,96.82,210819,,,A*44
$GPGGA,154943.750,4308.3023,N,07726.2649,W,1,08,1.01,151.6,M,-34.4,M,,*57
$GPRMC,154944.000,A,4308.3023,N,07726.2649,W,0.25,96.82,210819,,,A*44
$GPGGA,154944.250,4308.3023,N,07726.2650,W,1,08,1.01,151.6,M,-34.4,M,,*5D
$GPRMC,154944.500,A,4308.3023,N,07726.2650,W,0.22,96.82,210819,,,A*4E
$GPGGA,154944.750,4308.3023,N,07726.2650,W,1,08,1.01,151.6,M,-34.4,M,,*58
$GPRMC,154945.000,A,4308.3023,N,07726.2650,W,0.20,96.82,210819,,,A*48
$GPGGA,154945.250,4308.3023,N,07726.2650,W,1,08,1.01,151.6,M,-34.4,M,,*5C
$GPRMC,154945.500,A,4308.3023,N,07726.2651,W,0.16,96.82,210819,,,A*49
$GPGGA,154945.750,4308.3023,N,07726.2651,W,1,08,1.01,151.6,M,-34.4,M,,*58
$GPRMC,154946.000,A,4308.3023,N,07726.2651,W,0.19,96.82,210819,,,A*40
$GPGGA,154946.250,4308.3023,N,07726.2651,W,1,09,0.93,151.6,M,-34.4,M,,*55
$GPRMC,154946.500,A,4308.3023,N,07726.2651,W,0.28,96.82,210819,,,A*47
$GPGGA,154946.750,4308.3023,N,07726.2651,W,1,09,0.93,151.6,M,-34.4,M,,*50
$GPRMC,154947.000,A,4308.3024,N,07726.2651,W,0.33,96.82,210819,,,A*4E
$GPGGA,154947.250,4308.3024,N,07726.2651,W,1,09,0.93,151.6,M,-34.4,M,,*53
$GPRMC,154947.500,A,4308.3024,N,07726.2651,W,0.30,96.82,210819,,,A*48
$GPGGA,154947.750,4308.3024,N,07726.2651,W,1,09,0.93,151.6,M,-34.4,M,,*56
$GPRMC,154948.000,A,4308.3024,N,07726.2651,W,0.25,96.82,210819,,,A*46
$GPGGA,154948.250,4308.3025,N,07726.2651,W,1,09,0.93,151.6,M,-34.4,M,,*5D
$GPRMC,154948.500,A,4308.3025,N,07726.2650,W,0.25,96.82,210819,,,A*43
$GPGGA,154948.750,4308.3025,N,07726.2650,W,1,09,0.93,151.6,M,-34.4,M,,*59
$GPRMC,154949.000,A,4308.3025,N,07726.2650,W,0.31,96.82,210819,,,A*42
$GPGGA,154949.250,4308.3025,N,07726.2650,W,1,09,0.93,151.6,M,-34.4,M,,*5D
$GPRMC,154949.500,A,4308.3025,N,07726.2650,W,0.38,96.82,210819,,,A*4E
$GPGGA,154949.750,4308.3025,N,07726.2649,W,1,09,0.93,151.6,M,-34.4,M,,*50
$GPRMC,154950.000,A,4308.3026,N,07726.2649,W,0.41,35.64,210819,,,A*47
$GPGGA,154950.250,4308.3026,N,07726.2649,W,1,09,0.93,151.6,M,-34.4,M,,*5E
$GPRMC,154950.500,A,4308.3026,N,07726.2649,W,0.37,37.16,210819,,,A*44
$GPGGA,154950.750,4308.3026,N,07726.2648,W,1,09,0.93,151.6,M,-34.4,M,,*5A
$GPRMC,154951.000,A,4308.3026,N,07726.2648,W,0.33,38.45,210819,,,A*4C
$GPGGA,154951.250,4308.3027,N,07726.2648,W,1,09,0.93,151.6,M,-34.4,M,,*5F
$GPRMC,154951.500,A,4308.3027,N,07726.2648,W,0.33,41.52,210819,,,A*40
$GPGGA,154951.750,4308.3027,N,07726.2647,W,1,09,0.93,151.6,M,-34.4,M,,*55
$GPRMC,154952.000,A,4308.3027,N,07726.2647,W,0.44,45.68,210819,,,A*44
$GPGGA,154952.250,4308.3027,N,07726.2647,W,1,09,0.93,151.6,M,-34.4,M,,*53
$GPRMC,154952.500,A,4308.3027,N,07726.2646,W,0.56,49.24,210819,,,A*47
$GPGGA,154952.750,4308.3027,N,07726.2646,W,1,09,0.93,151.6,M,-34.4,M,,*57
$GPRMC,154953.000,A,4308.3027,N,07726.2645,W,0.61,52.01,210819,,,A*49
$GPGGA,154953.250,4308.3027,N,07726.2645,W,1,09,0.93,151.6,M,-34.4,M,,*50
$GPRMC,154953.500,A,4308.3026,N,07726.2645,W,0.60,54.51,210819,,,A*4F
$GPGGA,154953.750,4308.3026,N,07726.2644,W,1,09,0.93,151.6,M,-34.4,M,,*55
$GPRMC,154954.000,A,4308.3026,N,07726.2644,W,0.57,56.73,210819,,,A*4A
$GPGGA,154954.250,4308.3026,N,07726.2643,W,1,09,0.93,151.6,M,-34.4,M,,*50
$GPRMC,154954.500,A,4308.3026,N,07726.2643,W,0.53,58.80,210819,,,A*4E
$GPGGA,154954.750,4308.3026,N,07726.2642,W,1,09,0.93,151.6,M,-34.4,M,,*54
$GPRMC,154955.000,A,4308.3025,N,07726.2642,W,0.44,60.81,210819,,,A*44
$GPGGA,154955.250,4308.3025,N,07726.2641,W,1,09,0.93,151.6,M,-34.4,M,,*50
$GPRMC,154955.500,A,4308.3025,N,07726.2640,W,0.36,62.67,210819,,,A*4C
$GPGGA,154955.750,4308.3025,N,07726.2640,W,1,09,0.93,151.6,M,-34.4,M,,*54
$GPRMC,154956.000,A,4308.3025,N,07726.2639,W,0.29,64.58,210819,,,A*40
$GPGGA,154956.250,4308.3024,N,07726.2639,W,1,09,0.93,151.6,M,-34.4,M,,*5D
$GPRMC,154956.500,A,4308.3024,N,07726.2638,W,0.25,66.37,210819,,,A*42
$GPGGA,154956.750,4308.3024,N,07726.2637,W,1,09,0.93,151.6,M,-34.4,M,,*56
$GPRMC,154957.000,A,4308.3024,N,07726.2637,W,0.22,68.58,210819,,,A*49
$GPGGA,154957.250,4308.3024,N,07726.2637,W,1,09,0.93,151.6,M,-34.4,M,,*52
$GPRMC,154957.500,A,4308.3023,N,07726.2637,W,0.16,71.23,210819,,,A*48
$GPGGA,154957.750,4308.3023,N,07726.2637,W,1,09,0.93,151.6,M,-34.4,M,,*50
$GPRMC,154958.000,A,4308.3023,N,07726.2636,W,0.15,74.44,210819,,,A*44
$GPGGA,154958.250,4308.3023,N,07726.2636,W,1,09,0.93,151.6,M,-34.4,M,,*5B
$GPRMC,154958.500,A,4308.3023,N,07726.2636,W,0.18,79.03,210819,,,A*42
$GPGGA,154958.750,4308.3023,N,07726.2636,W,1,09,0.93,151.6,M,-34.4,M,,*5E
$GPRMC,154959.000,A,4308.3023,N,07726.2636,W,0.19,84.59,210819,,,A*4A
$GPGGA,154959.250,4308.3023,N,07726.2636,W,1,09,0.93,151.6,M,-34.4,M,,*5A
$GPRMC,154959.500,A,4308.3023,N,07726.2636,W,0.17,89.06,210819,,,A*46
$GPGGA,154959.750,4308.3023,N,07726.2636,W,1,09,0.93,151.6,M,-34.4,M,,*5F
$GPRMC,155000.000,A,4308.3023,N,07726.2635,W,0.17,92.23,210819,,,A*49
$GPGGA,155000.250,4308.3023,N,07726.2635,W,1,09,0.93,151.6,M,-34.4,M,,*5D
$GPRMC,155000.500,A,4308.3023,N,07726.2635,W,0.17,92.78,210819,,,A*42
$GPGGA,155000.750,4308.3023,N,07726.2635,W,1,09,0.93,151.6,M,-34.4,M,,*58
$GPRMC,155001.000,A,4308.3023,N,07726.2635,W,0.20,89.84,210819,,,A*4B
$GPGGA,155001.250,4308.3023,N,07726.2635,W,1,09,0.93,151.6,M,-34.4,M,,*5C
$GPRMC,155001.500,A,4308.3023,N,07726.2635,W,0.24,85.75,210819,,,A*48
$GPGGA,155001.750,4308.3023,N,07726.2634,W,1,09,0.93,151.6,M,-34.4,M,,*58
$GPRMC,155002.000,A,4308.3023,N,07726.2634,W,0.25,82.61,210819,,,A*4C
$GPGGA,155002.250,4308.3023,N,07726.2634,W,1,09,0.93,151.6,M,-34.4,M,,*5E
$GPRMC,155002.500,A,4308.3023,N,07726.2634,W,0.22,80.02,210819,,,A*49
$GPGGA,155002.750,4308.3023,N,07726.2634,W,1,09,0.93,151.6,M,-34.4,M,,*5B
$GPRMC,155003.000,A,4308.3023,N,07726.2633,W,0.22,76.58,210819,,,A*4C
$GPGGA,155003.250,4308.3023,N,07726.2633,W,1,09,0.93,151.6,M,-34.4,M,,*58
$GPRMC,155003.500,A,4308.3023,N,07726.2633,W,0.22,72.21,210819,,,A*43
$GPGGA,155003.750,4308.3024,N,07726.2633,W,1,09,0.93,151.6,M,-34.4,M,,*5A
$GPRMC,155004.000,A,4308.3024,N,07726.2633,W,0.22,67.66,210819,,,A*41
$GPGGA,155004.250,4308.3024,N,07726.2633,W,1,09,0.93,151.6,M,-34.4,M,,*58
$GPRMC,155004.500,A,4308.3024,N,07726.2633,W,0.20,63.32,210819,,,A*43
$GPGGA,155004.750,4308.3024,N,07726.2633,W,1,09,0.93,151.6,M,-34.4,M,,*5D
$GPRMC,155005.000,A,4308.3024,N,07726.2632,W,0.16,61.12,210819,,,A*43
$GPGGA,155005.250,4308.3024,N,07726.2632,W,1,09,0.93,151.6,M,-34.4,M,,*58
$GPRMC,155005.500,A,4308.3024,N,07726.2632,W,0.12,59.77,210819,,,A*4A
$GPGGA,155005.750,4308.3024,N,07726.2632,W,1,09,0.93,151.6,M,-34.4,M,,*5D
$GPRMC,155006.000,A,4308.3024,N,07726.2632,W,0.02,59.68,210819,,,A*43
$GPGGA,155006.250,4308.3024,N,07726.2632,W,1,09,0.93,151.6,M,-34.4,M,,*5B
$GPRMC,155006.500,A,4308.3024,N,07726.2632,W,0.07,59.68,210819,,,A*43
$GPGGA,155006.750,4308.3024,N,07726.2632,W,1,09,0.93,151.6,M,-34.4,M,,*5E
$GPRMC,155007.000,A,4308.3024,N,07726.2632,W,0.10,59.68,210819,,,A*41
$GPGGA,155007.250,4308.3024,N,07726.2632,W,1,09,0.93,151.6,M,-34.4,M,,*5A
$GPRMC,155007.500,A,4308.3024,N,07726.2633,W,0.02,59.68,210819,,,A*46
$GPGGA,155007.750,4308.3024,N,07726.2633,W,1,09,0.93,151.7,M,-34.4,M,,*5F
$GPRMC,155008.000,A,4308.3024,N,07726.2633,W,0.08,59.68,210819,,,A*46
$GPGGA,155008.250,4308.3024,N,07726.2633,W,1,09,0.93,151.7,M,-34.4,M,,*55
$GPRMC,155008.500,A,4308.3025,N,07726.2633,W,0.14,59.68,210819,,,A*4F
$GPGGA,155008.750,4308.3025,N,07726.2633,W,1,09,0.93,151.7,M,-34.4,M,,*51
$GPRMC,155009.000,A,4308.3025,N,07726.2632,W,0.10,59.68,210819,,,A*4E
$GPGGA,155009.250,4308.3025,N,07726.2632,W,1,09,0.93,151.7,M,-34.4,M,,*54
$GPRMC,155009.500,A,4308.3025,N,07726.2632,W,0.09,59.68,210819,,,A*43
$GPGGA,155009.750,4308.3025,N,07726.2632,W,1,09,0.93,151.7,M,-34.4,M,,*51
$GPRMC,155010.000,A,4308.3025,N,07726.2632,W,0.07,59.68,210819,,,A*40
$GPGGA,155010.250,4308.3025,N,07726.2632,W,1,09,0.93,151.7,M,-34.4,M,,*5C
$GPRMC,155010.500,A,4308.3025,N,07726.2632,W,0.06,59.68,210819,,,A*44
$GPGGA,155010.750,4308.3025,N,07726.2632,W,1,09,0.93,151.7,M,-34.4,M,,*59
$GPRMC,155011.000,A,4308.3025,N,07726.2632,W,0.08,59.68,210819,,,A*4E
$GPGGA,155011.250,4308.3025,N,07726.2632,W,1,09,0.93,151.7,M,-34.4,M,,*5D
$GPRMC,155011.500,A,4308.3025,N,07726.2632,W,0.08,59.68,210819,,,A*4B
$GPGGA,155011.750,4308.3025,N,07726.2632,W,1,09,0.93,151.7,M,-34.4,M,,*58
$GPRMC,155012.000,A,4308.3025,N,07726.2632,W,0.09,59.68,210819,,,A*4C
$GPGGA,155012.250,4308.3025,N,07726.2632,W,1,09,0.93,151.7,M,-34.4,M,,*5E
$GPRMC,155012.500,A,4308.3025,N,07726.2632,W,0.13,59.68,210819,,,A*42
$GPGGA,155012.750,4308.3025,N,07726.2632,W,1,09,0.93,151.7,M,-34.4,M,,*5B
$GPRMC,155013.000,A,4308.3025,N,07726.2631,W,0.18,59.68,210819,,,A*4E
$GPGGA,155013.250,4308.3025,N,07726.2631,W,1,09,0.93,151.7,M,-34.4,M,,*5C
$GPRMC,155013.500,A,4308.3025,N,07726.2631,W,0.22,59.68,210819,,,A*42
$GPGGA,155013.750,4308.3025,N,07726.2631,W,1,09,0.93,151.7,M,-34.4,M,,*59
$GPRMC,155014.000,A,4308.3025,N,07726.2631,W,0.20,59.68,210819,,,A*42
$GPGGA,155014.250,4308.3025,N,07726.2631,W,1,09,0.93,151.7,M,-34.4,M,,*5B
$GPRMC,155014.500,A,4308.3025,N,07726.2630,W,0.17,59.68,210819,,,A*42
$GPGGA,155014.750,4308.3025,N,07726.2630,W,1,09,0.93,151.7,M,-34.4,M,,*5F
$GPRMC,155015.000,A,4308.3025,N,07726.2630,W,0.15,59.68,210819,,,A*44
$GPGGA,155015.250,4308.3025,N,07726.2630,W,1,09,0.93,151.7,M,-34.4,M,,*5B
$GPRMC,155015.500,A,4308.3025,N,07726.2630,W,0.12,59.68,210819,,,A*46
$GPGGA,155015.750,4308.3025,N,07726.2630,W,1,09,0.93,151.7,M,-34.4,M,,*5E
$GPRMC,155016.000,A,4308.3025,N,07726.2630,W,0.07,59.68,210819,,,A*44
$GPGGA,155016.250,4308.3025,N,07726.2629,W,1,09,0.93,151.7,M,-34.4,M,,*50
$GPRMC,155016.500,A,4308.3025,N,07726.2629,W,0.02,59.68,210819,,,A*4C
$GPGGA,155016.750,4308.3025,N,07726.2629,W,1,09,0.93,151.7,M,-34.4,M,,*55
$GPRMC,155017.000,A,4308.3025,N,07726.2629,W,0.02,59.68,210819,,,A*48
$GPGGA,155017.250,4308.3025,N,07726.2629,W,1,09,0.93,151.7,M,-34.4,M,,*51
$GPRMC,155017.500,A,4308.3025,N,07726.2629,W,0.05,59.68,210819,,,A*4A
$GPGGA,155017.750,4308.3025,N,07726.2629,W,1,09,0.93,151.7,M,-34.4,M,,*54
$GPRMC,155018.000,A,4308.3025,N,07726.2629,W,0.00,59.68,210819,,,A*45
$GPGGA,155018.250,4308.3025,N,07726.2629,W,1,09,0.93,151.7,M,-34.4,M,,*5E
$GPRMC,155018.500,A,4308.3025,N,07726.2629,W,0.01,59.68,210819,,,A*41
$GPGGA,155018.750,4308.3025,N,07726.2629,W,1,09,0.93,151.7,M,-34.4,M,,*5B
$GPRMC,155019.000,A,4308.3025,N,07726.2629,W,0.01,59.68,210819,,,A*45
$GPGGA,155019.250,4308.3025,N,07726.2629,W,1,09,0.93,151.7,M,-34.4,M,,*5F
$GPRMC,155019.500,A,4308.3025,N,07726.2629,W,0.03,59.68,210819,,,A*42
$GPGGA,155019.750,4308.3025,N,07726.2629,W,1,09,0.93,151.7,M,-34.4,M,,*5A
$GPRMC,155020.000,A,4308.3025,N,07726.2629,W,0.01,59.68,210819,,,A*4F
$GPGGA,155020.250,4308.3025,N,07726.2629,W,1,09,0.93,151.7,M,-34.4,M,,*55
$GPRMC,155020.500,A,4308.3025,N,07726.2629,W,0.02,59.68,210819,,,A*49
$GPGGA,155020.750,4308.3025,N,07726.2629,W,1,09,0.93,151.7,M,-34.4,M,,*50
$GPRMC,155021.000,A,4308.3025,N,07726.2629,W,0.02,59.68,210819,,,A*4D
$GPGGA,155021.250,4308.3025,N,07726.2629,W,1,09,0.93,151.7,M,-34.4,M,,*54
$GPRMC,155021.500,A,4308.3025,N,07726.2629,W,0.03,59.68,210819,,,A*49
$GPGGA,155021.750,4308.3025,N,07726.2629,W,1,09,0.93,151.7,M,-34.4,M,,*51
$GPRMC,155022.000,A,4308.3025,N,07726.2629,W,0.01,59.68,210819,,,A*4D
$GPGGA,155022.250,4308.3025,N,07726.2629,W,1,09,0.93,151.8,M,-34.4,M,,*58
$GPRMC,155022.500,A,4308.3025,N,07726.2629,W,0.01,59.68,210819,,,A*48
$GPGGA,155022.750,4308.3025,N,07726.2629,W,1,09,0.93,151.8,M,-34.4,M,,*5D
$GPRMC,155023.000,A,4308.3025,N,07726.2629,W,0.00,59.68,210819,,,A*4D
$GPGGA,155023.250,4308.3025,N,07726.2629,W,1,09,0.93,151.8,M,-34.4,M,,*59
$GPRMC,155023.500,A,4308.3025,N,07726.2629,W,0.00,59.68,210819,,,A*48
$GPGGA,155023.750,4308.3025,N,07726.2629,W,1,09,0.93,151.8,M,-34.4,M,,*5C
$GPRMC,155024.000,A,4308.3025,N,07726.2629,W,0.00,59.68,210819,,,A*4A
$GPGGA,155024.250,4308.3025,N,07726.2629,W,1,09,0.93,151.8,M,-34.4,M,,*5E
$GPRMC,155024.500,A,4308.3025,N,07726.2629,W,0.01,59.68,210819,,,A*4E
$GPGGA,155024.750,4308.3025,N,07726.2629,W,1,09,0.93,151.8,M,-34.4,M,,*5B
$GPRMC,155025.000,A,4308.3025,N,07726.2629,W,0.01,59.68,210819,,,A*4A
$GPGGA,155025.250,4308.3025,N,07726.2629,W,1,09,0.93,151.8,M,-34.4,M,,*5F
$GPRMC,155025.500,A,4308.3025,N,07726.2629,W,0.01,59.68,210819,,,A*4F
$GPGGA,155025.750,4308.3025,N,07726.2629,W,1,09,0.93,151.8,M,-34.4,M,,*5A
$GPRMC,155026.000,A,4308.3025,N,07726.2629,W,0.02,59.68,210819,,,A*4A
$GPGGA,155026.250,4308.3025,N,07726.2629,W,1,09,0.93,151.8,M,-34.4,M,,*5C
$GPRMC,155026.500,A,4308.3025,N,07726.2629,W,0.02,59.68,210819,,,A*4F
$GPGGA,155026.750,4308.3025,N,07726.2629,W,1,09,0.93,151.8,M,-34.4,M,,*59
$GPRMC,155027.000,A,4308.3025,N,07726.2629,W,0.01,59.68,210819,,,A*48
$GPGGA,155027.250,4308.3025,N,07726.2629,W,1,09,0.93,151.8,M,-34.4,M,,*5D
$GPRMC,155027.500,A,4308.3025,N,07726.2629,W,0.01,59.68,210819,,,A*4D
$GPGGA,155027.750,4308.3025,N,07726.2630,W,1,09,0.93,151.8,M,-34.4,M,,*50
$GPRMC,155028.000,A,4308.3025,N,07726.2630,W,0.02,59.68,210819,,,A*4C
$GPGGA,155028.250,4308.3025,N,07726.2630,W,1,09,0.93,151.8,M,-34.4,M,,*5A
$GPRMC,155028.500,A,4308.3025,N,07726.2630,W,0.01,59.68,210819,,,A*4A
$GPGGA,155028.750,4308.3025,N,07726.2630,W,1,09,0.93,151.8,M,-34.4,M,,*5F
$GPRMC,155029.000,A,4308.3025,N,07726.2630,W,0.01,59.68,210819,,,A*4E
$GPGGA,155029.250,4308.3025,N,07726.2630,W,1,09,0.93,151.8,M,-34.4,M,,*5B
$GPRMC,155029.500,A,4308.3025,N,07726.2630,W,0.01,59.68,210819,,,A*4B
$GPGGA,155029.750,4308.3025,N,07726.2630,W,1,09,0.93,151.8,M,-34.4,M,,*5E
$GPRMC,155030.000,A,4308.3025,N,07726.2630,W,0.00,59.68,210819,,,A*47
$GPGGA,155030.250,4308.3025,N,07726.2630,W,1,09,0.93,151.8,M,-34.4,M,,*53
$GPRMC,155030.500,A,4308.3025,N,07726.2630,W,0.00,59.68,210819,,,A*42
$GPGGA,155030.750,4308.3025,N,07726.2630,W,1,09,0.93,151.8,M,-34.4,M,,*56
$GPRMC,155031.000,A,4308.3025,N,07726.2630,W,0.00,59.68,210819,,,A*46
$GPGGA,155031.250,4308.3025,N,07726.2630,W,1,09,0.93,151.8,M,-34.4,M,,*52
$GPRMC,155031.500,A,4308.3025,N,07726.2630,W,0.01,59.68,210819,,,A*42
$GPGGA,155031.750,4308.3025,N,07726.2630,W,1,09,0.93,151.8,M,-34.4,M,,*57
$GPRMC,155032.000,A,4308.3025,N,07726.2630,W,0.01,59.68,210819,,,A*44
$GPGGA,155032.250,4308.3025,N,07726.2630,W,1,09,0.93,151.8,M,-34.4,M,,*51
$GPRMC,155032.500,A,4308.3025,N,07726.2630,W,0.01,59.68,210819,,,A*41
$GPGGA,155032.750,4308.3025,N,07726.2630,W,1,09,0.93,151.8,M,-34.4,M,,*54
$GPRMC,155033.000,A,4308.3025,N,07726.2630,W,0.01,59.68,210819,,,A*45
$GPGGA,155033.250,4308.3025,N,07726.2630,W,1,09,0.93,151.8,M,-34.4,M,,*50
$GPRMC,155033.500,A,4308.3025,N,07726.2630,W,0.01,59.68,210819,,,A*40
$GPGGA,155033.750,4308.3025,N,07726.2630,W,1,09,0.93,151.8,M,-34.4,M,,*55
$GPRMC,155034.000,A,4308.3025,N,07726.2630,W,0.01,59.68,210819,,,A*42
$GPGGA,155034.250,4308.3025,N,07726.2630,W,1,09,0.93,151.8,M,-34.4,M,,*57
$GPRMC,155034.500,A,4308.3025,N,07726.2630,W,0.01,59.68,210819,,,A*47
$GPGGA,155034.750,4308.3025,N,07726.2630,W,1,09,0.93,151.8,M,-34.4,M,,*52
$GPRMC,155035.000,A,4308.3025,N,07726.2630,W,0.01,59.68,210819,,,A*43
$GPGGA,155035.250,4308.3025,N,07726.2630,W,1,09,0.93,151.8,M,-34.4,M,,*56
$GPRMC,155035.500,A,4308.3025,N,07726.2630,W,0.02,59.68,210819,,,A*45
$GPGGA,155035.750,4308.3025,N,07726.2630,W,1,09,0.93,151.8,M,-34.4,M,,*53
$GPRMC,155036.000,A,4308.3025,N,07726.2630,W,0.01,59.68,210819,,,A*40
$GPGGA,155036.250,4308.3025,N,07726.2630,W,1,09,0.93,151.8,M,-34.4,M,,*55
$GPRMC,155036.500,A,4308.3025,N,07726.2630,W,0.02,59.68,210819,,,A*46
$GPGGA,155036.750,4308.3025,N,07726.2630,W,1,09,0.93,151.8,M,-34.4,M,,*50
$GPRMC,155037.000,A,4308.3025,N,07726.2630,W,0.01,59.68,210819,,,A*41
$GPGGA,155037.250,4308.3025,N,07726.2630,W,1,09,0.93,151.8,M,-34.4,M,,*54
$GPRMC,155037.500,A,4308.3025,N,07726.2630,W,0.02,59.68,210819,,,A*47
$GPGGA,155037.750,4308.3025,N,07726.2630,W,1,09,0.93,151.8,M,-34.4,M,,*51
$GPRMC,155038.000,A,4308.3025,N,07726.2630,W,0.01,59.68,210819,,,A*4E
$GPGGA,155038.250,4308.3025,N,07726.2630,W,1,09,0.93,151.8,M,-34.4,M,,*5B
$GPRMC,155038.500,A,4308.3025,N,07726.2630,W,0.01,59.68,210819,,,A*4B
$GPGGA,155038.750,4308.3025,N,07726.2630,W,1,09,0.93,151.8,M,-34.4,M,,*5E
$GPRMC,155039.000,A,4308.3025,N,07726.2630,W,0.01,59.68,210819,,,A*4F
$GPGGA,155039.250,4308.3025,N,07726.2630,W,1,09,0.93,151.8,M,-34.4,M,,*5A
$GPRMC,155039.500,A,4308.3025,N,07726.2630,W,0.01,59.68,210819,,,A*4A
$GPGGA,155039.750,4308.3025,N,07726.2630,W,1,09,0.93,151.8,M,-34.4,M,,*5F
$GPRMC,155040.000,A,4308.3025,N,07726.2630,W,0.01,59.68,210819,,,A*41
$GPGGA,155040.250,4308.3025,N,07726.2630,W,1,09,0.93,151.8,M,-34.4,M,,*54
$GPRMC,155040.500,A,4308.3025,N,07726.2630,W,0.01,59.68,210819,,,A*44
$GPGGA,155040.750,4308.3025,N,07726.2630,W,1,09,0.93,151.8,M,-34.4,M,,*51
$GPRMC,155041.000,A,4308.3025,N,07726.2630,W,0.01,59.68,210819,,,A*40
$GPGGA,155041.250,4308.3025,N,07726.2630,W,1,09,0.93,151.8,M,-34.4,M,,*55
$GPRMC,155041.500,A,4308.3025,N,07726.2630,W,0.01,59.68,210819,,,A*45
$GPGGA,155041.750,4308.3025,N,07726.2630,W,1,09,0.93,151.8,M,-34.4,M,,*50
$GPRMC,155042.000,A,4308.3025,N,07726.2630,W,0.00,59.68,210819,,,A*42
$GPGGA,155042.250,4308.3025,N,07726.2630,W,1,09,0.93,151.8,M,-34.4,M,,*56
$GPRMC,155042.500,A,4308.3025,N,07726.2630,W,0.01,59.68,210819,,,A*46
$GPGGA,155042.750,4308.3025,N,07726.2630,W,1,08,1.51,151.8,M,-34.4,M,,*5D
$GPRMC,155043.000,A,4308.3025,N,07726.2630,W,0.00,59.68,210819,,,A*43
$GPGGA,155043.250,4308.3025,N,07726.2630,W,1,08,1.51,151.8,M,-34.4,M,,*59
$GPRMC,155043.500,A,4308.3025,N,07726.2630,W,0.01,59.68,210819,,,A*47
$GPGGA,155043.750,4308.3025,N,07726.2630,W,1,08,1.51,151.8,M,-34.4,M,,*5C
$GPRMC,155044.000,A,4308.3025,N,07726.2630,W,0.01,59.68,210819,,,A*45
$GPGGA,155044.250,4308.3025,N,07726.2630,W,1,08,1.51,151.8,M,-34.4,M,,*5E
$GPRMC,155044.500,A,4308.3025,N,07726.2630,W,0.01,59.68,210819,,,A*40
$GPGGA,155044.750,4308.3025,N,07726.2630,W,1,08,1.51,151.8,M,-34.4,M,,*5B
$GPRMC,155045.000,A,4308.3025,N,07726.2630,W,0.00,59.68,210819,,,A*45
$GPGGA,155045.250,4308.3025,N,07726.2630,W,1,08,1.51,151.8,M,-34.4,M,,*5F
$GPRMC,155045.500,A,4308.3025,N,07726.2630,W,0.00,59.68,210819,,,A*40
$GPGGA,155045.750,4308.3025,N,07726.2630,W,1,08,1.51,151.8,M,-34.4,M,,*5A
$GPRMC,155046.000,A,4308.3025,N,07726.2630,W,0.01,59.68,210819,,,A*47
$GPGGA,155046.250,4308.3025,N,07726.2630,W,1,08,1.51,151.8,M,-34.4,M,,*5C
$GPRMC,155046.500,A,4308.3025,N,07726.2630,W,0.01,59.68,210819,,,A*42
$GPGGA,155046.750,4308.3025,N,07726.2630,W,1,08,1.51,151.8,M,-34.4,M,,*59
$GPRMC,155047.000,A,4308.3025,N,07726.2630,W,0.00,59.68,210819,,,A*47
$GPGGA,155047.250,4308.3025,N,07726.2630,W,1,08,1.51,151.8,M,-34.4,M,,*5D
$GPRMC,155047.500,A,4308.3025,N,07726.2630,W,0.00,59.68,210819,,,A*42
$GPGGA,155047.750,4308.3025,N,07726.2630,W,1,08,1.51,151.8,M,-34.4,M,,*58
$GPRMC,155048.000,A,4308.3025,N,07726.2630,W,0.01,59.68,210819,,,A*49
$GPGGA,155048.250,4308.3025,N,07726.2630,W,1,08,1.51,151.8,M,-34.4,M,,*52
$GPRMC,155048.500,A,4308.3025,N,07726.2630,W,0.01,59.68,210819,,,A*4C
$GPGGA,155048.750,4308.3025,N,07726.2630,W,1,08,1.51,151.8,M,-34.4,M,,*57
$GPRMC,155049.000,A,4308.3025,N,07726.2630,W,0.01,59.68,210819,,,A*48
$GPGGA,155049.250,4308.3024,N,07726.2630,W,1,08,1.51,151.8,M,-34.4,M,,*52
$GPRMC,155049.500,A,4308.3024,N,07726.2630,W,0.00,59.68,210819,,,A*4D
$GPGGA,155049.750,4308.3024,N,07726.2630,W,1,08,1.51,151.8,M,-34.4,M,,*57
$GPRMC,155050.000,A,4308.3024,N,07726.2630,W,0.00,59.68,210819,,,A*40
$GPGGA,155050.250,4308.3024,N,07726.2630,W,1,08,1.51,151.8,M,-34.4,M,,*5A
$GPRMC,155050.500,A,4308.3024,N,07726.2630,W,0.00,59.68,210819,,,A*45
$GPGGA,155050.750,4308.3024,N,07726.2630,W,1,08,1.51,151.8,M,-34.4,M,,*5F
$GPRMC,155051.000,A,4308.3024,N,07726.2630,W,0.00,59.68,210819,,,A*41
$GPGGA,155051.250,4308.3024,N,07726.2630,W,1,08,1.51,151.8,M,-34.4,M,,*5B
$GPRMC,155051.500,A,4308.3024,N,07726.2630,W,0.00,59.68,210819,,,A*44
$GPGGA,155051.750,4308.3024,N,07726.2630,W,1,08,1.51,151.8,M,-34.4,M,,*5E
$GPRMC,155052.000,A,4308.3024,N,07726.2630,W,0.00,59.68,210819,,,A*42
$GPGGA,155052.250,4308.3024,N,07726.2630,W,1,08,1.51,151.8,M,-34.4,M,,*58
$GPRMC,155052.500,A,4308.3024,N,07726.2630,W,0.01,59.68,210819,,,A*46
$GPGGA,155052.750,4308.3024,N,07726.2630,W,1,08,1.51,151.8,M,-34.4,M,,*5D
$GPRMC,155053.000,A,4308.3024,N,07726.2630,W,0.01,59.68,210819,,,A*42
$GPGGA,155053.250,4308.3024,N,07726.2630,W,1,08,1.51,151.8,M,-34.4,M,,*59
$GPRMC,155053.500,A,4308.3024,N,07726.2630,W,0.01,59.68,210819,,,A*47
$GPGGA,155053.750,4308.3024,N,07726.2630,W,1,08,1.51,151.8,M,-34.4,M,,*5C
$GPRMC,155054.000,A,4308.3024,N,07726.2630,W,0.01,59.68,210819,,,A*45
$GPGGA,155054.250,4308.3024,N,07726.2630,W,1,08,1.51,151.8,M,-34.4,M,,*5E
$GPRMC,155054.500,A,4308.3024,N,07726.2630,W,0.00,59.68,210819,,,A*41
$GPGGA,155054.750,4308.3024,N,07726.2630,W,1,08,1.51,151.8,M,-34.4,M,,*5B
$GPRMC,155055.000,A,4308.3024,N,07726.2630,W,0.01,59.68,210819,,,A*44
$GPGGA,155055.250,4308.3024,N,07726.2630,W,1,08,1.51,151.8,M,-34.4,M,,*5F
$GPRMC,155055.500,A,4308.3024,N,07726.2630,W,0.01,59.68,210819,,,A*41
$GPGGA,155055.750,4308.3024,N,07726.2630,W,1,08,1.51,151.8,M,-34.4,M,,*5A
$GPRMC,155056.000,A,4308.3024,N,07726.2630,W,0.01,59.68,210819,,,A*47
$GPGGA,155056.250,4308.3024,N,07726.2630,W,1,08,1.51,151.8,M,-34.4,M,,*5C
$GPRMC,155056.500,A,4308.3024,N,07726.2630,W,0.01,59.68,210819,,,A*42
$GPGGA,155056.750,4308.3024,N,07726.2630,W,1,08,1.51,151.8,M,-34.4,M,,*59
$GPRMC,155057.000,A,4308.3024,N,07726.2630,W,0.00,59.68,210819,,,A*47
$GPGGA,155057.250,4308.3024,N,07726.2630,W,1,08,1.51,151.8,M,-34.4,M,,*5D
$GPRMC,155057.500,A,4308.3024,N,07726.2630,W,0.01,59.68,210819,,,A*43
$GPGGA,155057.750,4308.3024,N,07726.2630,W,1,08,1.51,151.8,M,-34.4,M,,*58
$GPRMC,155058.000,A,4308.3024,N,07726.2630,W,0.00,59.68,210819,,,A*48
$GPGGA,155058.250,4308.3024,N,07726.2630,W,1,08,1.51,151.9,M,-34.4,M,,*53
$GPRMC,155058.500,A,4308.3024,N,07726.2630,W,0.02,59.68,210819,,,A*4F
$GPGGA,155058.750,4308.3024,N,07726.2630,W,1,08,1.51,151.9,M,-34.4,M,,*56
$GPRMC,155059.000,A,4308.3024,N,07726.2630,W,0.02,59.68,210819,,,A*4B
$GPGGA,155059.250,4308.3024,N,07726.2630,W,1,08,1.51,151.9,M,-34.4,M,,*52
$GPRMC,155059.500,A,4308.3024,N,07726.2630,W,0.02,59.68,210819,,,A*4E
$GPGGA,155059.750,4308.3024,N,07726.2630,W,1,08,1.51,151.9,M,-34.4,M,,*57
$GPRMC,155100.000,A,4308.3024,N,07726.2630,W,0.01,59.68,210819,,,A*45
$GPGGA,155100.250,4308.3024,N,07726.2630,W,1,08,1.51,151.9,M,-34.4,M,,*5F
$GPRMC,155100.500,A,4308.3024,N,07726.2630,W,0.01,59.68,210819,,,A*40
$GPGGA,155100.750,4308.3024,N,07726.2630,W,1,08,1.51,151.9,M,-34.4,M,,*5A
$GPRMC,155101.000,A,4308.3024,N,07726.2630,W,0.01,59.68,210819,,,A*44
$GPGGA,155101.250,4308.3024,N,07726.2630,W,1,08,1.51,151.9,M,-34.4,M,,*5E
$GPRMC,155101.500,A,4308.3024,N,07726.2630,W,0.00,59.68,210819,,,A*40
$GPGGA,155101.750,4308.3024,N,07726.2630,W,1,08,1.51,151.9,M,-34.4,M,,*5B
$GPRMC,155102.000,A,4308.3024,N,07726.2630,W,0.00,59.68,210819,,,A*46
$GPGGA,155102.250,4308.3024,N,07726.2630,W,1,08,1.51,151.9,M,-34.4,M,,*5D
$GPRMC,155102.500,A,4308.3024,N,07726.2630,W,0.00,59.68,210819,,,A*43
$GPGGA,155102.750,4308.3024,N,07726.2630,W,1,08,1.51,151.9,M,-34.4,M,,*58
$GPRMC,155103.000,A,4308.3024,N,07726.2630,W,0.01,59.68,210819,,,A*46
$GPGGA,155103.250,4308.3024,N,07726.2630,W,1,08,1.51,151.9,M,-34.4,M,,*5C
$GPRMC,155103.500,A,4308.3024,N,07726.2630,W,0.01,59.68,210819,,,A*43
$GPGGA,155103.750,4308.3024,N,07726.2630,W,1,08,1.51,151.9,M,-34.4,M,,*59
$GPRMC,155104.000,A,4308.3024,N,07726.2630,W,0.01,59.68,210819,,,A*41
$GPGGA,155104.250,4308.3024,N,07726.2630,W,1,08,1.51,151.9,M,-34.4,M,,*5B
$GPRMC,155104.500,A,4308.3024,N,07726.2630,W,0.01,59.68,210819,,,A*44
$GPGGA,155104.750,4308.3024,N,07726.2630,W,1,08,1.51,151.9,M,-34.4,M,,*5E
$GPRMC,155105.000,A,4308.3024,N,07726.2630,W,0.01,59.68,210819,,,A*40
$GPGGA,155105.250,4308.3024,N,07726.2630,W,1,09,0.93,151.9,M,-34.4,M,,*54
$GPRMC,155105.500,A,4308.3024,N,07726.2630,W,0.01,59.68,210819,,,A*45
$GPGGA,155105.750,4308.3024,N,07726.2630,W,1,09,0.93,151.9,M,-34.4,M,,*51
$GPRMC,155106.000,A,4308.3024,N,07726.2630,W,0.00,59.68,210819,,,A*42
$GPGGA,155106.250,4308.3024,N,07726.2630,W,1,09,0.93,151.9,M,-34.4,M,,*57
$GPRMC,155106.500,A,4308.3024,N,07726.2630,W,0.00,59.68,210819,,,A*47
$GPGGA,155106.750,4308.3024,N,07726.2630,W,1,09,0.93,151.8,M,-34.4,M,,*53
$GPRMC,155107.000,A,4308.3024,N,07726.2630,W,0.00,59.68,210819,,,A*43
$GPGGA,155107.250,4308.3024,N,07726.2630,W,1,09,0.93,151.8,M,-34.4,M,,*57
$GPRMC,155107.500,A,4308.3024,N,07726.2630,W,0.00,59.68,210819,,,A*46
$GPGGA,155107.750,4308.3024,N,07726.2630,W,1,09,0.93,151.8,M,-34.4,M,,*52
$GPRMC,155108.000,A,4308.3024,N,07726.2630,W,0.00,59.68,210819,,,A*4C
$GPGGA,155108.250,4308.3024,N,07726.2630,W,1,09,0.93,151.8,M,-34.4,M,,*58
$GPRMC,155108.500,A,4308.3024,N,07726.2630,W,0.00,59.68,210819,,,A*49
$GPGGA,155108.750,4308.3024,N,07726.2630,W,1,09,0.93,151.8,M,-34.4,M,,*5D
$GPRMC,155109.000,A,4308.3024,N,07726.2630,W,0.00,59.68,210819,,,A*4D
$GPGGA,155109.250,4308.3024,N,07726.2630,W,1,09,0.93,151.8,M,-34.4,M,,*59
$GPRMC,155109.500,A,4308.3024,N,07726.2630,W,0.00,59.68,210819,,,A*48
$GPGGA,155109.750,4308.3024,N,07726.2630,W,1,09,0.93,151.8,M,-34.4,M,,*5C
$GPRMC,155110.000,A,4308.3024,N,07726.2630,W,0.00,59.68,210819,,,A*45
$GPGGA,155110.250,4308.3024,N,07726.2630,W,1,09,0.93,151.8,M,-34.4,M,,*51
$GPRMC,155110.500,A,4308.3024,N,07726.2630,W,0.00,59.68,210819,,,A*40
$GPGGA,155110.750,4308.3024,N,07726.2630,W,1,09,0.93,151.8,M,-34.4,M,,*54
$GPRMC,155111.000,A,4308.3024,N,07726.2630,W,0.01,59.68,210819,,,A*45
$GPGGA,155111.250,4308.3024,N,07726.2630,W,1,09,0.93,151.8,M,-34.4,M,,*50
$GPRMC,155111.500,A,4308.3024,N,07726.2630,W,0.00,59.68,210819,,,A*41
$GPGGA,155111.750,4308.3024,N,07726.2630,W,1,09,0.93,151.8,M,-34.4,M,,*55
$GPRMC,155112.000,A,4308.3024,N,07726.2630,W,0.00,59.68,210819,,,A*47
$GPGGA,155112.250,4308.3024,N,07726.2630,W,1,08,1.04,151.8,M,-34.4,M,,*5D
$GPRMC,155112.500,A,4308.3024,N,07726.2630,W,0.00,59.68,210819,,,A*42
$GPGGA,155112.750,4308.3024,N,07726.2630,W,1,09,0.93,151.8,M,-34.4,M,,*56
$GPRMC,155113.000,A,4308.3024,N,07726.2630,W,0.00,59.68,210819,,,A*46
$GPGGA,155113.250,4308.3024,N,07726.2630,W,1,09,0.93,151.8,M,-34.4,M,,*52
$GPRMC,155113.500,A,4308.3024,N,07726.2630,W,0.00,59.68,210819,,,A*43
$GPGGA,155113.750,4308.3024,N,07726.2630,W,1,09,0.93,151.8,M,-34.4,M,,*57
$GPRMC,155114.000,A,4308.3024,N,07726.2630,W,0.00,59.68,210819,,,A*41
$GPGGA,155114.250,4308.3024,N,07726.2630,W,1,09,0.93,151.8,M,-34.4,M,,*55
$GPRMC,155114.500,A,4308.3024,N,07726.2630,W,0.02,59.68,210819,,,A*46
$GPGGA,155114.750,4308.3024,N,07726.2630,W,1,09,0.93,151.8,M,-34.4,M,,*50
$GPRMC,155115.000,A,4308.3024,N,07726.2630,W,0.00,59.68,210819,,,A*40
$GPGGA,155115.250,4308.3024,N,07726.2630,W,1,09,0.93,151.8,M,-34.4,M,,*54
$GPRMC,155115.500,A,4308.3024,N,07726.2630,W,0.00,59.68,210819,,,A*45
$GPGGA,155115.750,4308.3024,N,07726.2630,W,1,09,0.93,151.8,M,-34.4,M,,*51
$GPRMC,155116.000,A,4308.3024,N,07726.2630,W,0.00,59.68,210819,,,A*43
$GPGGA,155116.250,4308.3024,N,07726.2630,W,1,09,0.93,151.8,M,-34.4,M,,*57
$GPRMC,155116.500,A,4308.3024,N,07726.2630,W,0.01,59.68,210819,,,A*47
$GPGGA,155116.750,4308.3024,N,07726.2630,W,1,09,0.93,151.8,M,-34.4,M,,*52
$GPRMC,155117.000,A,4308.3024,N,07726.2630,W,0.00,59.68,210819,,,A*42
$GPGGA,155117.250,4308.3024,N,07726.2630,W,1,09,0.93,151.8,M,-34.4,M,,*56
$GPRMC,155117.500,A,4308.3024,N,07726.2630,W,0.00,59.68,210819,,,A*47
$GPGGA,155117.750,4308.3024,N,07726.2630,W,1,09,0.93,151.8,M,-34.4,M,,*53
$GPRMC,155118.000,A,4308.3024,N,07726.2630,W,0.00,59.68,210819,,,A*4D
$GPGGA,155118.250,4308.3024,N,07726.2630,W,1,09,0.93,151.8,M,-34.4,M,,*59
$GPRMC,155118.500,A,4308.3024,N,07726.2630,W,0.01,59.68,210819,,,A*49
$GPGGA,155118.750,4308.3024,N,07726.2630,W,1,09,0.93,151.8,M,-34.4,M,,*5C
$GPRMC,155119.000,A,4308.3024,N,07726.2630,W,0.00,59.68,210819,,,A*4C
$GPGGA,155119.250,4308.3024,N,07726.2630,W,1,09,0.93,151.8,M,-34.4,M,,*58
$GPRMC,155119.500,A,4308.3024,N,07726.2630,W,0.01,59.68,210819,,,A*48
$GPGGA,155119.750,4308.3024,N,07726.2630,W,1,09,0.93,151.8,M,-34.4,M,,*5D
$GPRMC,155120.000,A,4308.3024,N,07726.2630,W,0.00,59.68,210819,,,A*46
$GPGGA,155120.250,4308.3024,N,07726.2630,W,1,09,0.93,151.8,M,-34.4,M,,*52
$GPRMC,155120.500,A,4308.3024,N,07726.2630,W,0.00,59.68,210819,,,A*43
$GPGGA,155120.750,4308.3024,N,07726.2630,W,1,09,0.93,151.8,M,-34.4,M,,*57
$GPRMC,155121.000,A,4308.3024,N,07726.2630,W,0.01,59.68,210819,,,A*46
$GPGGA,155121.250,4308.3024,N,07726.2630,W,1,09,0.93,151.8,M,-34.4,M,,*53
$GPRMC,155121.500,A,4308.3024,N,07726.2630,W,0.00,59.68,210819,,,A*42
$GPGGA,155121.750,4308.3024,N,07726.2630,W,1,09,0.93,151.8,M,-34.4,M,,*56
$GPRMC,155122.000,A,4308.3024,N,07726.2630,W,0.01,59.68,210819,,,A*45
$GPGGA,155122.250,4308.3024,N,07726.2630,W,1,09,0.93,151.8,M,-34.4,M,,*50
$GPRMC,155122.500,A,4308.3024,N,07726.2630,W,0.01,59.68,210819,,,A*40
$GPGGA,155122.750,4308.3024,N,07726.2630,W,1,09,0.93,151.8,M,-34.4,M,,*55
$GPRMC,155123.000,A,4308.3024,N,07726.2630,W,0.02,59.68,210819,,,A*47
$GPGGA,155123.250,4308.3024,N,07726.2630,W,1,09,0.93,151.8,M,-34.4,M,,*51
$GPRMC,155123.500,A,4308.3024,N,07726.2630,W,0.03,59.68,210819,,,A*43
$GPGGA,155123.750,4308.3024,N,07726.2630,W,1,09,0.93,151.8,M,-34.4,M,,*54
$GPRMC,155124.000,A,4308.3024,N,07726.2630,W,0.05,59.68,210819,,,A*47
$GPGGA,155124.250,4308.3024,N,07726.2630,W,1,09,0.93,151.8,M,-34.4,M,,*56
$GPRMC,155124.500,A,4308.3027,N,07726.2629,W,2.85,17.53,210819,,,A*41
$GPGGA,155124.750,4308.3031,N,07726.2629,W,1,09,0.93,151.7,M,-34.4,M,,*50
$GPRMC,155125.000,A,4308.3035,N,07726.2628,W,4.43,9.88,210819,,,A*72
$GPGGA,155125.250,4308.3040,N,07726.2628,W,1,09,0.93,151.6,M,-34.4,M,,*52
$GPRMC,155125.500,A,4308.3045,N,07726.2628,W,5.59,7.79,210819,,,A*7A
$GPGGA,155125.750,4308.3049,N,07726.2627,W,1,09,0.93,151.5,M,-34.4,M,,*52
$GPRMC,155126.000,A,4308.3054,N,07726.2626,W,5.86,8.62,210819,,,A*75
$GPGGA,155126.250,4308.3059,N,07726.2625,W,1,09,0.93,151.5,M,-34.4,M,,*57
$GPRMC,155126.500,A,4308.3064,N,07726.2625,W,6.05,7.66,210819,,,A*73
$GPGGA,155126.750,4308.3068,N,07726.2623,W,1,09,0.93,151.5,M,-34.4,M,,*56
$GPRMC,155127.000,A,4308.3073,N,07726.2622,W,6.03,6.82,210819,,,A*7B
$GPGGA,155127.250,4308.3077,N,07726.2621,W,1,09,0.93,151.5,M,-34.4,M,,*5E
$GPRMC,155127.500,A,4308.3081,N,07726.2620,W,5.27,6.04,210819,,,A*7A
$GPGGA,155127.750,4308.3084,N,07726.2619,W,1,09,0.93,151.4,M,-34.4,M,,*5D
$GPRMC,155128.000,A,4308.3093,N,07726.2609,W,4.56,7.03,210819,,,A*79
$GPGGA,155128.250,4308.3098,N,07726.2605,W,1,09,0.93,151.3,M,-34.4,M,,*50
$GPRMC,155128.500,A,4308.3102,N,07726.2600,W,3.91,10.76,210819,,,A*44
$GPGGA,155128.750,4308.3106,N,07726.2595,W,1,09,0.93,151.2,M,-34.4,M,,*58
$GPRMC,155129.000,A,4308.3110,N,07726.2592,W,3.65,11.48,210819,,,A*4C
$GPGGA,155129.250,4308.3114,N,07726.2588,W,1,09,0.93,151.0,M,-34.4,M,,*51
$GPRMC,155129.500,A,4308.3117,N,07726.2586,W,3.52,12.26,210819,,,A*44
$GPGGA,155129.750,4308.3121,N,07726.2586,W,1,09,0.93,151.0,M,-34.4,M,,*5C
$GPRMC,155130.000,A,4308.3125,N,07726.2585,W,3.45,18.19,210819,,,A*4B
$GPGGA,155130.250,4308.3130,N,07726.2584,W,1,09,0.93,151.0,M,-34.4,M,,*53
$GPRMC,155130.500,A,4308.3133,N,07726.2583,W,3.61,24.64,210819,,,A*4C
$GPGGA,155130.750,4308.3136,N,07726.2582,W,1,09,0.93,151.0,M,-34.4,M,,*56
$GPRMC,155131.000,A,4308.3139,N,07726.2580,W,3.28,29.83,210819,,,A*48
$GPGGA,155131.250,4308.3142,N,07726.2578,W,1,09,0.93,151.0,M,-34.4,M,,*54
$GPRMC,155131.500,A,4308.3144,N,07726.2576,W,3.41,44.03,210819,,,A*42
$GPGGA,155131.750,4308.3146,N,07726.2574,W,1,09,0.93,151.1,M,-34.4,M,,*58
$GPRMC,155132.000,A,4308.3148,N,07726.2572,W,3.33,43.59,210819,,,A*41
$GPGGA,155132.250,4308.3150,N,07726.2569,W,1,09,0.93,151.1,M,-34.4,M,,*55
$GPRMC,155132.500,A,4308.3151,N,07726.2567,W,3.59,58.55,210819,,,A*42
$GPGGA,155132.750,4308.3152,N,07726.2566,W,1,09,0.93,151.1,M,-34.4,M,,*5D
$GPRMC,155133.000,A,4308.3153,N,07726.2564,W,3.67,63.21,210819,,,A*41
$GPGGA,155133.250,4308.3154,N,07726.2561,W,1,09,0.93,151.1,M,-34.4,M,,*58
$GPRMC,155133.500,A,4308.3155,N,07726.2558,W,3.69,63.75,210819,,,A*42
$GPGGA,155133.750,4308.3156,N,07726.2555,W,1,09,0.93,151.0,M,-34.4,M,,*59
$GPRMC,155134.000,A,4308.3157,N,07726.2552,W,3.70,61.69,210819,,,A*4F
$GPGGA,155134.250,4308.3158,N,07726.2550,W,1,09,0.93,151.1,M,-34.4,M,,*51
$GPRMC,155134.500,A,4308.3159,N,07726.2547,W,3.09,60.38,210819,,,A*4B
$GPGGA,155134.750,4308.3160,N,07726.2546,W,1,09,0.93,151.1,M,-34.4,M,,*58
$GPRMC,155135.000,A,4308.3161,N,07726.2544,W,2.35,57.93,210819,,,A*4C
$GPGGA,155135.250,4308.3162,N,07726.2543,W,1,09,0.93,151.2,M,-34.4,M,,*58
$GPRMC,155135.500,A,4308.3163,N,07726.2542,W,1.91,50.26,210819,,,A*49
$GPGGA,155135.750,4308.3165,N,07726.2544,W,1,09,0.93,151.2,M,-34.4,M,,*5D
$GPRMC,155136.000,A,4308.3167,N,07726.2545,W,1.41,34.47,210819,,,A*44
$GPGGA,155136.250,4308.3168,N,07726.2546,W,1,09,0.93,151.3,M,-34.4,M,,*55
$GPRMC,155136.500,A,4308.3169,N,07726.2548,W,0.97,355.17,210819,,,A*79
$GPGGA,155136.750,4308.3170,N,07726.2551,W,1,09,0.93,151.4,M,-34.4,M,,*58
$GPRMC,155137.000,A,4308.3172,N,07726.2554,W,1.49,307.97,210819,,,A*77
$GPGGA,155137.250,4308.3172,N,07726.2558,W,1,09,0.93,151.5,M,-34.4,M,,*56
$GPRMC,155137.500,A,4308.3174,N,07726.2564,W,2.86,290.54,210819,,,A*77
$GPGGA,155137.750,4308.3176,N,07726.2571,W,1,09,0.93,151.6,M,-34.4,M,,*5F
$GPRMC,155138.000,A,4308.3176,N,07726.2578,W,4.38,284.26,210819,,,A*71
$GPGGA,155138.250,4308.3177,N,07726.2585,W,1,09,0.93,151.7,M,-34.4,M,,*5E
$GPRMC,155138.500,A,4308.3176,N,07726.2595,W,6.07,281.77,210819,,,A*78
$GPGGA,155138.750,4308.3176,N,07726.2606,W,1,09,0.93,151.7,M,-34.4,M,,*52
$GPRMC,155139.000,A,4308.3176,N,07726.2619,W,7.59,280.53,210819,,,A*76
$GPGGA,155139.250,4308.3176,N,07726.2635,W,1,09,0.93,151.6,M,-34.4,M,,*57
$GPRMC,155139.500,A,4308.3176,N,07726.2652,W,9.39,279.70,210819,,,A*73
$GPGGA,155139.750,4308.3177,N,07726.2670,W,1,09,0.93,151.6,M,-34.4,M,,*52
$GPRMC,155140.000,A,4308.3177,N,07726.2694,W,12.25,279.66,210819,,,A*43
$GPGGA,155140.250,4308.3178,N,07726.2712,W,1,09,0.93,151.5,M,-34.4,M,,*50
$GPRMC,155140.500,A,4308.3176,N,07726.2729,W,14.26,281.05,210819,,,A*47
$GPGGA,155140.750,4308.3177,N,07726.2747,W,1,09,0.93,151.5,M,-34.4,M,,*5A
$GPRMC,155141.000,A,4308.3179,N,07726.2765,W,15.19,283.11,210819,,,A*4E
$GPGGA,155141.250,4308.3180,N,07726.2784,W,1,09,0.93,151.5,M,-34.4,M,,*59
$GPRMC,155141.500,A,4308.3184,N,07726.2805,W,16.23,284.71,210819,,,A*4B
$GPGGA,155141.750,4308.3186,N,07726.2825,W,1,09,0.93,151.4,M,-34.4,M,,*5F
$GPRMC,155142.000,A,4308.3190,N,07726.2845,W,17.23,285.88,210819,,,A*4A
$GPGGA,155142.250,4308.3196,N,07726.2865,W,1,09,0.93,151.5,M,-34.4,M,,*5D
$GPRMC,155142.500,A,4308.3205,N,07726.2886,W,18.55,289.30,210819,,,A*4E
$GPGGA,155142.750,4308.3210,N,07726.2907,W,1,09,0.93,151.7,M,-34.4,M,,*52
$GPRMC,155143.000,A,4308.3214,N,07726.2929,W,19.51,290.50,210819,,,A*45
$GPGGA,155143.250,4308.3219,N,07726.2949,W,1,09,0.93,151.9,M,-34.4,M,,*5B
$GPRMC,155143.500,A,4308.3224,N,07726.2968,W,19.84,292.13,210819,,,A*4B
$GPGGA,155143.750,4308.3230,N,07726.2988,W,1,09,0.93,152.0,M,-34.4,M,,*52
$GPRMC,155144.000,A,4308.3236,N,07726.3008,W,20.43,293.71,210819,,,A*40
$GPGGA,155144.250,4308.3243,N,07726.3029,W,1,09,0.93,152.1,M,-34.4,M,,*56
$GPRMC,155144.500,A,4308.3253,N,07726.3051,W,21.41,295.27,210819,,,A*4C
$GPGGA,155144.750,4308.3262,N,07726.3072,W,1,09,0.93,152.2,M,-34.4,M,,*5D
$GPRMC,155145.000,A,4308.3271,N,07726.3093,W,22.26,297.07,210819,,,A*44
$GPGGA,155145.250,4308.3286,N,07726.3115,W,1,09,0.93,152.5,M,-34.4,M,,*54
$GPRMC,155145.500,A,4308.3297,N,07726.3137,W,23.44,299.83,210819,,,A*41
$GPGGA,155145.750,4308.3307,N,07726.3158,W,1,09,0.93,152.7,M,-34.4,M,,*52
$GPRMC,155146.000,A,4308.3317,N,07726.3179,W,24.06,300.46,210819,,,A*4D
$GPGGA,155146.250,4308.3327,N,07726.3202,W,1,09,0.93,152.9,M,-34.4,M,,*54
$GPRMC,155146.500,A,4308.3337,N,07726.3224,W,24.94,301.15,210819,,,A*4D
$GPGGA,155146.750,4308.3347,N,07726.3246,W,1,09,0.93,153.0,M,-34.4,M,,*5F
$GPRMC,155147.000,A,4308.3358,N,07726.3268,W,25.57,301.84,210819,,,A*4E
$GPGGA,155147.250,4308.3368,N,07726.3290,W,1,09,0.93,153.2,M,-34.4,M,,*5F
$GPRMC,155147.500,A,4308.3379,N,07726.3312,W,26.09,302.52,210819,,,A*44
$GPGGA,155147.750,4308.3389,N,07726.3334,W,1,09,0.93,153.4,M,-34.4,M,,*5C
$GPRMC,155148.000,A,4308.3399,N,07726.3356,W,26.11,302.23,210819,,,A*4F
$GPGGA,155148.250,4308.3409,N,07726.3378,W,1,09,0.93,153.6,M,-34.4,M,,*53
$GPRMC,155148.500,A,4308.3420,N,07726.3400,W,26.16,302.71,210819,,,A*4B
$GPGGA,155148.750,4308.3430,N,07726.3421,W,1,09,0.93,153.7,M,-34.4,M,,*56
$GPRMC,155149.000,A,4308.3441,N,07726.3442,W,25.71,303.61,210819,,,A*4C
$GPGGA,155149.250,4308.3452,N,07726.3463,W,1,09,0.93,154.0,M,-34.4,M,,*50
$GPRMC,155149.500,A,4308.3465,N,07726.3483,W,24.96,304.66,210819,,,A*4A
$GPGGA,155149.750,4308.3477,N,07726.3502,W,1,09,0.93,154.3,M,-34.4,M,,*57
$GPRMC,155150.000,A,4308.3488,N,07726.3520,W,24.44,306.02,210819,,,A*43
$GPGGA,155150.250,4308.3499,N,07726.3538,W,1,09,0.93,154.4,M,-34.4,M,,*54
$GPRMC,155150.500,A,4308.3509,N,07726.3557,W,24.13,307.17,210819,,,A*49
$GPGGA,155150.750,4308.3519,N,07726.3575,W,1,09,0.93,154.5,M,-34.4,M,,*50
$GPRMC,155151.000,A,4308.3529,N,07726.3593,W,23.33,308.94,210819,,,A*46
$GPGGA,155151.250,4308.3539,N,07726.3611,W,1,09,0.93,154.7,M,-34.4,M,,*55
$GPRMC,155151.500,A,4308.3549,N,07726.3628,W,22.84,311.60,210819,,,A*48
$GPGGA,155151.750,4308.3560,N,07726.3644,W,1,09,0.93,154.9,M,-34.4,M,,*52
$GPRMC,155152.000,A,4308.3571,N,07726.3661,W,23.15,313.29,210819,,,A*4E
$GPGGA,155152.250,4308.3583,N,07726.3676,W,1,09,0.93,155.2,M,-34.4,M,,*52
$GPRMC,155152.500,A,4308.3595,N,07726.3691,W,22.97,315.75,210819,,,A*4A
$GPGGA,155152.750,4308.3607,N,07726.3704,W,1,09,0.93,155.4,M,-34.4,M,,*5A
$GPRMC,155153.000,A,4308.3621,N,07726.3716,W,22.59,321.45,210819,,,A*4A
$GPGGA,155153.250,4308.3636,N,07726.3727,W,1,09,0.93,155.5,M,-34.4,M,,*5C
$GPRMC,155153.500,A,4308.3651,N,07726.3737,W,22.89,329.66,210819,,,A*4F
$GPGGA,155153.750,4308.3666,N,07726.3747,W,1,09,0.93,155.8,M,-34.4,M,,*57
$GPRMC,155154.000,A,4308.3680,N,07726.3757,W,22.78,333.97,210819,,,A*4C
$GPGGA,155154.250,4308.3695,N,07726.3765,W,1,09,0.93,156.2,M,-34.4,M,,*50
$GPRMC,155154.500,A,4308.3709,N,07726.3771,W,22.46,339.27,210819,,,A*41
$GPGGA,155154.750,4308.3724,N,07726.3778,W,1,09,0.93,156.6,M,-34.4,M,,*56
$GPRMC,155155.000,A,4308.3738,N,07726.3784,W,22.07,342.06,210819,,,A*47
$GPGGA,155155.250,4308.3753,N,07726.3790,W,1,09,0.93,156.9,M,-34.4,M,,*5B
$GPRMC,155155.500,A,4308.3767,N,07726.3795,W,21.56,343.19,210819,,,A*40
$GPGGA,155155.750,4308.3780,N,07726.3801,W,1,09,0.93,157.1,M,-34.4,M,,*5E
$GPRMC,155156.000,A,4308.3795,N,07726.3806,W,21.61,344.80,210819,,,A*4D
$GPGGA,155156.250,4308.3810,N,07726.3810,W,1,09,0.93,157.3,M,-34.4,M,,*5C
$GPRMC,155156.500,A,4308.3827,N,07726.3812,W,22.21,349.49,210819,,,A*44
$GPGGA,155156.750,4308.3844,N,07726.3813,W,1,09,0.93,157.6,M,-34.4,M,,*5E
$GPRMC,155157.000,A,4308.3860,N,07726.3815,W,22.48,354.53,210819,,,A*4C
$GPGGA,155157.250,4308.3876,N,07726.3816,W,1,09,0.93,157.9,M,-34.4,M,,*51
$GPRMC,155157.500,A,4308.3894,N,07726.3815,W,22.84,358.72,210819,,,A*4D
$GPGGA,155157.750,4308.3911,N,07726.3814,W,1,09,0.93,158.2,M,-34.4,M,,*52
$GPRMC,155158.000,A,4308.3927,N,07726.3813,W,23.12,0.97,210819,,,A*43
$GPGGA,155158.250,4308.3944,N,07726.3811,W,1,09,0.93,158.5,M,-34.4,M,,*5A
$GPRMC,155158.500,A,4308.3961,N,07726.3809,W,23.36,3.14,210819,,,A*41
$GPGGA,155158.750,4308.3977,N,07726.3805,W,1,09,0.93,158.6,M,-34.4,M,,*59
$GPRMC,155159.000,A,4308.3994,N,07726.3802,W,23.63,5.69,210819,,,A*48
$GPGGA,155159.250,4308.4011,N,07726.3798,W,1,09,0.93,158.8,M,-34.4,M,,*56
$GPRMC,155159.500,A,4308.4028,N,07726.3793,W,23.90,9.07,210819,,,A*4B
$GPGGA,155159.750,4308.4044,N,07726.3789,W,1,08,1.04,159.1,M,-34.4,M,,*55
$GPRMC,155200.000,A,4308.4061,N,07726.3784,W,23.83,11.27,210819,,,A*73
$GPGGA,155200.250,4308.4077,N,07726.3778,W,1,08,1.04,159.4,M,-34.4,M,,*54
$GPRMC,155200.500,A,4308.4094,N,07726.3773,W,23.74,13.13,210819,,,A*79
$GPGGA,155200.750,4308.4110,N,07726.3767,W,1,08,1.04,159.7,M,-34.4,M,,*5C
$GPRMC,155201.000,A,4308.4127,N,07726.3761,W,23.66,13.22,210819,,,A*76
$GPGGA,155201.250,4308.4143,N,07726.3755,W,1,08,1.04,160.1,M,-34.4,M,,*53
$GPRMC,155201.500,A,4308.4160,N,07726.3749,W,23.42,12.52,210819,,,A*7A
$GPGGA,155201.750,4308.4176,N,07726.3744,W,1,08,1.04,160.4,M,-34.4,M,,*55
$GPRMC,155202.000,A,4308.4191,N,07726.3738,W,23.10,12.08,210819,,,A*7C
$GPGGA,155202.250,4308.4207,N,07726.3734,W,1,08,1.04,160.7,M,-34.4,M,,*52
$GPRMC,155202.500,A,4308.4222,N,07726.3729,W,22.51,10.88,210819,,,A*7C
$GPGGA,155202.750,4308.4237,N,07726.3724,W,1,08,1.04,161.1,M,-34.4,M,,*52
$GPRMC,155203.000,A,4308.4252,N,07726.3719,W,21.74,10.11,210819,,,A*78
$GPGGA,155203.250,4308.4266,N,07726.3715,W,1,08,1.04,161.5,M,-34.4,M,,*54
$GPRMC,155203.500,A,4308.4281,N,07726.3711,W,21.10,8.83,210819,,,A*4B
$GPGGA,155203.750,4308.4295,N,07726.3708,W,1,08,1.04,162.0,M,-34.4,M,,*57
$GPRMC,155204.000,A,4308.4309,N,07726.3705,W,20.56,8.13,210819,,,A*47
$GPGGA,155204.250,4308.4323,N,07726.3702,W,1,08,1.04,162.3,M,-34.4,M,,*50
$GPRMC,155204.500,A,4308.4337,N,07726.3699,W,20.07,7.57,210819,,,A*40
$GPGGA,155204.750,4308.4350,N,07726.3696,W,1,08,1.04,162.7,M,-34.4,M,,*59
$GPRMC,155205.000,A,4308.4363,N,07726.3693,W,19.72,7.27,210819,,,A*40
$GPGGA,155205.250,4308.4377,N,07726.3689,W,1,08,1.04,163.1,M,-34.4,M,,*51
$GPRMC,155205.500,A,4308.4390,N,07726.3687,W,19.40,7.20,210819,,,A*4A
$GPGGA,155205.750,4308.4403,N,07726.3684,W,1,08,1.04,163.5,M,-34.4,M,,*59
$GPRMC,155206.000,A,4308.4416,N,07726.3681,W,18.71,7.31,210819,,,A*40
$GPGGA,155206.250,4308.4427,N,07726.3679,W,1,08,1.04,163.8,M,-34.4,M,,*56
$GPRMC,155206.500,A,4308.4438,N,07726.3676,W,17.23,8.07,210819,,,A*43
$GPGGA,155206.750,4308.4448,N,07726.3674,W,1,09,0.93,164.2,M,-34.4,M,,*54
$GPRMC,155207.000,A,4308.4458,N,07726.3669,W,16.07,9.54,210819,,,A*4F
$GPGGA,155207.250,4308.4468,N,07726.3665,W,1,08,1.04,164.5,M,-34.4,M,,*5B
$GPRMC,155207.500,A,4308.4476,N,07726.3662,W,14.12,11.64,210819,,,A*71
$GPGGA,155207.750,4308.4485,N,07726.3659,W,1,08,1.04,164.7,M,-34.4,M,,*50
$GPRMC,155208.000,A,4308.4493,N,07726.3656,W,12.62,11.59,210819,,,A*78
$GPGGA,155208.250,4308.4501,N,07726.3654,W,1,08,1.04,164.9,M,-34.4,M,,*54
$GPRMC,155208.500,A,4308.4507,N,07726.3651,W,10.18,11.81,210819,,,A*7C
$GPGGA,155208.750,4308.4512,N,07726.3650,W,1,08,1.04,165.1,M,-34.4,M,,*5E
$GPRMC,155209.000,A,4308.4517,N,07726.3648,W,8.56,10.93,210819,,,A*40
$GPGGA,155209.250,4308.4521,N,07726.3647,W,1,09,0.93,165.2,M,-34.4,M,,*51
$GPRMC,155209.500,A,4308.4525,N,07726.3645,W,6.33,9.87,210819,,,A*79
$GPGGA,155209.750,4308.4527,N,07726.3643,W,1,08,1.13,165.6,M,-34.4,M,,*5A
$GPRMC,155210.000,A,4308.4531,N,07726.3642,W,5.04,9.78,210819,,,A*71
$GPGGA,155210.250,4308.4534,N,07726.3642,W,1,09,0.93,165.9,M,-34.4,M,,*53
$GPRMC,155210.500,A,4308.4537,N,07726.3640,W,4.73,1.12,210819,,,A*75
$GPGGA,155210.750,4308.4541,N,07726.3639,W,1,09,0.93,166.3,M,-34.4,M,,*51
$GPRMC,155211.000,A,4308.4545,N,07726.3638,W,5.51,353.12,210819,,,A*7E
$GPGGA,155211.250,4308.4551,N,07726.3637,W,1,09,0.93,166.2,M,-34.4,M,,*5B
$GPRMC,155211.500,A,4308.4558,N,07726.3637,W,7.26,347.59,210819,,,A*70
$GPGGA,155211.750,4308.4564,N,07726.3639,W,1,09,0.93,166.2,M,-34.4,M,,*56
$GPRMC,155212.000,A,4308.4569,N,07726.3642,W,8.20,340.08,210819,,,A*7C
$GPGGA,155212.250,4308.4575,N,07726.3645,W,1,09,0.93,166.3,M,-34.4,M,,*5A
$GPRMC,155212.500,A,4308.4580,N,07726.3651,W,9.50,330.49,210819,,,A*78
$GPGGA,155212.750,4308.4585,N,07726.3657,W,1,09,0.93,166.4,M,-34.4,M,,*54
$GPRMC,155213.000,A,4308.4589,N,07726.3663,W,9.86,322.45,210819,,,A*70
$GPGGA,155213.250,4308.4594,N,07726.3671,W,1,09,0.93,166.5,M,-34.4,M,,*55
$GPRMC,155213.500,A,4308.4598,N,07726.3680,W,10.14,311.70,210819,,,A*4D
$GPGGA,155213.750,4308.4601,N,07726.3690,W,1,09,0.93,166.7,M,-34.4,M,,*52
$GPRMC,155214.000,A,4308.4604,N,07726.3699,W,10.61,302.12,210819,,,A*45
$GPGGA,155214.250,4308.4607,N,07726.3710,W,1,09,0.93,166.9,M,-34.4,M,,*51
$GPRMC,155214.500,A,4308.4611,N,07726.3720,W,11.52,296.78,210819,,,A*46
$GPGGA,155214.750,4308.4613,N,07726.3732,W,1,09,0.93,167.2,M,-34.4,M,,*5B
$GPRMC,155215.000,A,4308.4617,N,07726.3744,W,12.00,294.63,210819,,,A*4A
$GPGGA,155215.250,4308.4619,N,07726.3755,W,1,09,0.93,167.0,M,-34.4,M,,*56
$GPRMC,155215.500,A,4308.4621,N,07726.3766,W,11.93,291.26,210819,,,A*47
$GPGGA,155215.750,4308.4622,N,07726.3777,W,1,09,0.93,167.2,M,-34.4,M,,*59
$GPRMC,155216.000,A,4308.4621,N,07726.3788,W,11.61,283.24,210819,,,A*4D
$GPGGA,155216.250,4308.4622,N,07726.3800,W,1,09,0.93,167.4,M,-34.4,M,,*56
$GPRMC,155216.500,A,4308.4622,N,07726.3812,W,11.72,276.92,210819,,,A*42
$GPGGA,155216.750,4308.4620,N,07726.3824,W,1,09,0.93,167.6,M,-34.4,M,,*55
$GPRMC,155217.000,A,4308.4619,N,07726.3836,W,12.06,273.73,210819,,,A*42
$GPGGA,155217.250,4308.4619,N,07726.3847,W,1,09,0.93,167.7,M,-34.4,M,,*5F
$GPRMC,155217.500,A,4308.4618,N,07726.3860,W,12.44,273.50,210819,,,A*42
$GPGGA,155217.750,4308.4617,N,07726.3872,W,1,09,0.93,167.8,M,-34.4,M,,*5D
$GPRMC,155218.000,A,4308.4616,N,07726.3884,W,12.53,273.29,210819,,,A*44
$GPGGA,155218.250,4308.4616,N,07726.3897,W,1,09,0.93,167.9,M,-34.4,M,,*5C
$GPRMC,155218.500,A,4308.4615,N,07726.3909,W,12.79,274.01,210819,,,A*43
$GPGGA,155218.750,4308.4616,N,07726.3921,W,1,09,0.93,168.0,M,-34.4,M,,*53
$GPRMC,155219.000,A,4308.4615,N,07726.3934,W,12.75,274.31,210819,,,A*46
$GPGGA,155219.250,4308.4615,N,07726.3946,W,1,09,0.93,168.2,M,-34.4,M,,*57
$GPRMC,155219.500,A,4308.4615,N,07726.3957,W,12.65,273.99,210819,,,A*42
$GPGGA,155219.750,4308.4616,N,07726.3969,W,1,09,0.93,168.4,M,-34.4,M,,*5A
$GPRMC,155220.000,A,4308.4616,N,07726.3980,W,12.42,273.80,210819,,,A*49
$GPGGA,155220.250,4308.4617,N,07726.3992,W,1,09,0.93,168.5,M,-34.4,M,,*51
$GPRMC,155220.500,A,4308.4618,N,07726.4004,W,12.42,274.09,210819,,,A*46
$GPGGA,155220.750,4308.4618,N,07726.4015,W,1,09,0.93,168.7,M,-34.4,M,,*58
$GPRMC,155221.000,A,4308.4619,N,07726.4027,W,12.34,274.31,210819,,,A*48
$GPGGA,155221.250,4308.4620,N,07726.4038,W,1,09,0.93,168.8,M,-34.4,M,,*57
$GPRMC,155221.500,A,4308.4621,N,07726.4049,W,11.98,274.88,210819,,,A*49
$GPGGA,155221.750,4308.4621,N,07726.4061,W,1,09,0.93,168.9,M,-34.4,M,,*5E
$GPRMC,155222.000,A,4308.4622,N,07726.4072,W,11.59,274.81,210819,,,A*40
$GPGGA,155222.250,4308.4623,N,07726.4083,W,1,09,0.93,169.0,M,-34.4,M,,*5E
$GPRMC,155222.500,A,4308.4623,N,07726.4096,W,11.16,275.78,210819,,,A*42
$GPGGA,155222.750,4308.4623,N,07726.4108,W,1,09,0.93,169.1,M,-34.4,M,,*58
$GPRMC,155223.000,A,4308.4623,N,07726.4119,W,10.61,275.97,210819,,,A*40
$GPGGA,155223.250,4308.4622,N,07726.4130,W,1,09,0.93,169.2,M,-34.4,M,,*55
$GPRMC,155223.500,A,4308.4621,N,07726.4140,W,9.92,274.04,210819,,,A*74
$GPGGA,155223.750,4308.4621,N,07726.4148,W,1,09,0.93,169.3,M,-34.4,M,,*5D
$GPRMC,155224.000,A,4308.4621,N,07726.4157,W,9.41,273.55,210819,,,A*7D
$GPGGA,155224.250,4308.4620,N,07726.4165,W,1,09,0.93,169.4,M,-34.4,M,,*56
$GPRMC,155224.500,A,4308.4619,N,07726.4172,W,8.67,273.20,210819,,,A*73
$GPGGA,155224.750,4308.4618,N,07726.4179,W,1,09,0.93,169.6,M,-34.4,M,,*57
$GPRMC,155225.000,A,4308.4617,N,07726.4185,W,7.70,272.76,210819,,,A*7A
$GPGGA,155225.250,4308.4617,N,07726.4191,W,1,09,0.93,169.7,M,-34.4,M,,*5B
$GPRMC,155225.500,A,4308.4617,N,07726.4196,W,6.74,273.11,210819,,,A*78
$GPGGA,155225.750,4308.4616,N,07726.4201,W,1,09,0.93,169.8,M,-34.4,M,,*5A
$GPRMC,155226.000,A,4308.4617,N,07726.4205,W,5.64,275.63,210819,,,A*76
$GPGGA,155226.250,4308.4617,N,07726.4208,W,1,09,0.93,169.9,M,-34.4,M,,*55
$GPRMC,155226.500,A,4308.4617,N,07726.4210,W,4.74,277.75,210819,,,A*72
$GPGGA,155226.750,4308.4616,N,07726.4212,W,1,09,0.93,170.0,M,-34.4,M,,*5B
$GPRMC,155227.000,A,4308.4617,N,07726.4214,W,3.77,280.41,210819,,,A*79
$GPGGA,155227.250,4308.4619,N,07726.4215,W,1,09,0.93,170.1,M,-34.4,M,,*56
$GPRMC,155227.500,A,4308.4620,N,07726.4215,W,2.58,283.90,210819,,,A*7A
$GPGGA,155227.750,4308.4621,N,07726.4216,W,1,09,0.93,170.2,M,-34.4,M,,*58
$GPRMC,155228.000,A,4308.4621,N,07726.4217,W,2.27,283.90,210819,,,A*7B
$GPGGA,155228.250,4308.4621,N,07726.4218,W,1,09,0.93,170.3,M,-34.4,M,,*5D
$GPRMC,155228.500,A,4308.4621,N,07726.4219,W,2.11,283.90,210819,,,A*75
$GPGGA,155228.750,4308.4621,N,07726.4220,W,1,09,0.92,170.4,M,-34.4,M,,*55
$GPRMC,155229.000,A,4308.4622,N,07726.4220,W,1.62,283.90,210819,,,A*7F
$GPGGA,155229.250,4308.4621,N,07726.4220,W,1,09,0.93,170.4,M,-34.4,M,,*50
$GPRMC,155229.500,A,4308.4621,N,07726.4220,W,1.12,283.90,210819,,,A*7E
$GPGGA,155229.750,4308.4622,N,07726.4220,W,1,09,0.92,170.0,M,-34.4,M,,*53
$GPRMC,155230.000,A,4308.4622,N,07726.4220,W,0.93,283.90,210819,,,A*78
$GPGGA,155230.250,4308.4622,N,07726.4220,W,1,09,0.93,169.7,M,-34.4,M,,*50
$GPRMC,155230.500,A,4308.4622,N,07726.4219,W,0.86,283.90,210819,,,A*73
$GPGGA,155230.750,4308.4621,N,07726.4219,W,1,09,0.93,169.5,M,-34.4,M,,*5E
$GPRMC,155231.000,A,4308.4620,N,07726.4219,W,0.66,283.90,210819,,,A*7B
$GPGGA,155231.250,4308.4619,N,07726.4219,W,1,09,0.92,169.4,M,-34.4,M,,*51
$GPRMC,155231.500,A,4308.4618,N,07726.4219,W,0.56,283.90,210819,,,A*76
$GPGGA,155231.750,4308.4618,N,07726.4218,W,1,09,0.93,169.1,M,-34.4,M,,*50
$GPRMC,155232.000,A,4308.4617,N,07726.4218,W,0.46,283.90,210819,,,A*7F
$GPGGA,155232.250,4308.4617,N,07726.4218,W,1,09,0.92,169.0,M,-34.4,M,,*59
$GPRMC,155232.500,A,4308.4617,N,07726.4218,W,0.00,283.90,210819,,,A*78
$GPGGA,155232.750,4308.4617,N,07726.4218,W,1,09,0.93,169.0,M,-34.4,M,,*5D
$GPRMC,155233.000,A,4308.4617,N,07726.4218,W,0.00,283.90,210819,,,A*7C
$GPGGA,155233.250,4308.4617,N,07726.4218,W,1,09,0.93,169.0,M,-34.4,M,,*59
$GPRMC,155233.500,A,4308.4617,N,07726.4218,W,0.00,283.90,210819,,,A*79
$GPGGA,155233.750,4308.4617,N,07726.4218,W,1,09,0.93,169.0,M,-34.4,M,,*5C
$GPRMC,155234.000,A,4308.4617,N,07726.4218,W,0.00,283.90,210819,,,A*7B
$GPGGA,155234.250,4308.4617,N,07726.4218,W,1,09,0.93,169.0,M,-34.4,M,,*5E
$GPRMC,155234.500,A,4308.4617,N,07726.4218,W,0.00,283.90,210819,,,A*7E
$GPGGA,155234.750,4308.4617,N,07726.4218,W,1,09,0.93,169.0,M,-34.4,M,,*5B
$GPRMC,155235.000,A,4308.4617,N,07726.4218,W,0.00,283.90,210819,,,A*7A
$GPGGA,155235.250,4308.4617,N,07726.4218,W,1,09,0.93,169.0,M,-34.4,M,,*5F
$GPRMC,155235.500,A,4308.4617,N,07726.4218,W,0.00,283.90,210819,,,A*7F
$GPGGA,155235.750,4308.4617,N,07726.4218,W,1,09,0.93,169.0,M,-34.4,M,,*5A
$GPRMC,155236.000,A,4308.4617,N,07726.4218,W,0.00,283.90,210819,,,A*79
$GPGGA,155236.250,4308.4617,N,07726.4218,W,1,09,0.93,169.0,M,-34.4,M,,*5C
$GPRMC,155236.500,A,4308.4617,N,07726.4218,W,0.00,283.90,210819,,,A*7C
$GPGGA,155236.750,4308.4617,N,07726.4218,W,1,09,0.93,169.0,M,-34.4,M,,*59
$GPRMC,155237.000,A,4308.4617,N,07726.4218,W,0.00,283.90,210819,,,A*78
$GPGGA,155237.250,4308.4617,N,07726.4218,W,1,09,0.93,169.0,M,-34.4,M,,*5D
$GPRMC,155237.500,A,4308.4617,N,07726.4218,W,0.00,283.90,210819,,,A*7D
$GPGGA,155237.750,4308.4617,N,07726.4218,W,1,09,0.93,169.0,M,-34.4,M,,*58
$GPRMC,155238.000,A,4308.4617,N,07726.4218,W,0.00,283.90,210819,,,A*77
$GPGGA,155238.250,4308.4617,N,07726.4218,W,1,09,0.93,169.0,M,-34.4,M,,*52
$GPRMC,155238.500,A,4308.4617,N,07726.4218,W,0.00,283.90,210819,,,A*72
$GPGGA,155238.750,4308.4617,N,07726.4218,W,1,09,0.93,169.0,M,-34.4,M,,*57
$GPRMC,155239.000,A,4308.4617,N,07726.4218,W,0.00,283.90,210819,,,A*76
$GPGGA,155239.250,4308.4617,N,07726.4218,W,1,09,0.93,169.0,M,-34.4,M,,*53
$GPRMC,155239.500,A,4308.4617,N,07726.4218,W,0.00,283.90,210819,,,A*73
$GPGGA,155239.750,4308.4617,N,07726.4218,W,1,09,0.93,169.0,M,-34.4,M,,*56
$GPRMC,155240.000,A,4308.4617,N,07726.4218,W,0.00,283.90,210819,,,A*78
$GPGGA,155240.250,4308.4617,N,07726.4218,W,1,09,0.93,169.0,M,-34.4,M,,*5D
$GPRMC,155240.500,A,4308.4617,N,07726.4218,W,0.00,283.90,210819,,,A*7D
$GPGGA,155240.750,4308.4617,N,07726.4218,W,1,09,0.93,169.0,M,-34.4,M,,*58
$GPRMC,155241.000,A,4308.4617,N,07726.4218,W,0.00,283.90,210819,,,A*79
$GPGGA,155241.250,4308.4617,N,07726.4218,W,1,09,0.93,169.0,M,-34.4,M,,*5C
$GPRMC,155241.500,A,4308.4617,N,07726.4218,W,0.00,283.90,210819,,,A*7C
$GPGGA,155241.750,4308.4617,N,07726.4218,W,1,09,0.93,169.0,M,-34.4,M,,*59
$GPRMC,155242.000,A,4308.4617,N,07726.4218,W,0.00,283.90,210819,,,A*7A
$GPGGA,155242.250,4308.4617,N,07726.4218,W,1,09,0.93,169.0,M,-34.4,M,,*5F
$GPRMC,155242.500,A,4308.4617,N,07726.4218,W,0.00,283.90,210819,,,A*7F
$GPGGA,155242.750,4308.4617,N,07726.4218,W,1,09,0.93,169.0,M,-34.4,M,,*5A
$GPRMC,155243.000,A,4308.4617,N,07726.4218,W,0.00,283.90,210819,,,A*7B
$GPGGA,155243.250,4308.4617,N,07726.4218,W,1,09,0.93,169.0,M,-34.4,M,,*5E
$GPRMC,155243.500,A,4308.4617,N,07726.4218,W,0.00,283.90,210819,,,A*7E
$GPGGA,155243.750,4308.4617,N,07726.4218,W,1,09,0.93,169.0,M,-34.4,M,,*5B
$GPRMC,155244.000,A,4308.4617,N,07726.4218,W,0.00,283.90,210819,,,A*7C
$GPGGA,155244.250,4308.4617,N,07726.4218,W,1,09,0.93,169.0,M,-34.4,M,,*59
$GPRMC,155244.500,A,4308.4617,N,07726.4218,W,0.00,283.90,210819,,,A*79
$GPGGA,155244.750,4308.4617,N,07726.4218,W,1,09,0.93,169.0,M,-34.4,M,,*5C
$GPRMC,155245.000,A,4308.4617,N,07726.4218,W,0.00,283.90,210819,,,A*7D
$GPGGA,155245.250,4308.4617,N,07726.4218,W,1,09,0.93,169.0,M,-34.4,M,,*58
$GPRMC,155245.500,A,4308.4617,N,07726.4218,W,0.00,283.90,210819,,,A*78
$GPGGA,155245.750,4308.4617,N,07726.4218,W,1,09,0.93,169.0,M,-34.4,M,,*5D
$GPRMC,155246.000,A,4308.4617,N,07726.4218,W,0.00,283.90,210819,,,A*7E
$GPGGA,155246.250,4308.4617,N,07726.4218,W,1,09,0.93,169.0,M,-34.4,M,,*5B
$GPRMC,155246.500,A,4308.4617,N,07726.4218,W,0.00,283.90,210819,,,A*7B
$GPGGA,155246.750,4308.4617,N,07726.4218,W,1,09,0.93,169.0,M,-34.4,M,,*5E
$GPRMC,155247.000,A,4308.4617,N,07726.4218,W,0.00,283.90,210819,,,A*7F
$GPGGA,155247.250,4308.4617,N,07726.4218,W,1,09,0.93,169.0,M,-34.4,M,,*5A
$GPRMC,155247.500,A,4308.4617,N,07726.4218,W,0.00,283.90,210819,,,A*7A
$GPGGA,155247.750,4308.4617,N,07726.4218,W,1,09,0.93,169.0,M,-34.4,M,,*5F
$GPRMC,155248.000,A,4308.4617,N,07726.4218,W,0.00,283.90,210819,,,A*70
$GPGGA,155248.250,4308.4617,N,07726.4218,W,1,09,0.93,169.0,M,-34.4,M,,*55
$GPRMC,155248.500,A,4308.4617,N,07726.4218,W,0.00,283.90,210819,,,A*75
$GPGGA,155248.750,4308.4617,N,07726.4218,W,1,09,0.93,169.0,M,-34.4,M,,*50
$GPRMC,155249.000,A,4308.4617,N,07726.4218,W,0.00,283.90,210819,,,A*71
$GPGGA,155249.250,4308.4617,N,07726.4218,W,1,09,0.93,169.0,M,-34.4,M,,*54
$GPRMC,155249.500,A,4308.4617,N,07726.4218,W,0.00,283.90,210819,,,A*74
$GPGGA,155249.750,4308.4617,N,07726.4218,W,1,09,0.93,169.0,M,-34.4,M,,*51
$GPRMC,155250.000,A,4308.4617,N,07726.4218,W,0.00,283.90,210819,,,A*79
$GPGGA,155250.250,4308.4617,N,07726.4218,W,1,09,0.93,169.0,M,-34.4,M,,*5C
$GPRMC,155250.500,A,4308.4617,N,07726.4218,W,0.00,283.90,210819,,,A*7C
$GPGGA,155250.750,4308.4617,N,07726.4218,W,1,09,0.93,169.0,M,-34.4,M,,*59
$GPRMC,155251.001,A,4308.4617,N,07726.4218,W,0.00,283.90,210819,,,A*79
$GPGGA,155251.251,4308.4617,N,07726.4218,W,1,09,0.93,169.0,M,-34.4,M,,*5C
$GPRMC,155251.501,A,4308.4617,N,07726.4218,W,0.00,283.90,210819,,,A*7C
$GPGGA,155251.751,4308.4617,N,07726.4218,W,1,09,0.93,169.0,M,-34.4,M,,*59
$GPRMC,155252.000,A,4308.4617,N,07726.4218,W,0.00,283.90,210819,,,A*7B
$GPGGA,155252.250,4308.4617,N,07726.4218,W,1,09,0.93,169.0,M,-34.4,M,,*5E
$GPRMC,155252.500,A,4308.4617,N,07726.4218,W,0.17,283.90,210819,,,A*78
$GPGGA,155252.750,4308.4617,N,07726.4219,W,1,09,0.92,169.0,M,-34.4,M,,*5B
$GPRMC,155253.000,A,4308.4617,N,07726.4219,W,0.39,283.90,210819,,,A*71
$GPGGA,155253.250,4308.4617,N,07726.4219,W,1,09,0.93,169.0,M,-34.4,M,,*5E
$GPRMC,155253.500,A,4308.4617,N,07726.4220,W,0.55,283.90,210819,,,A*74
$GPGGA,155253.750,4308.4617,N,07726.4220,W,1,09,0.92,169.0,M,-34.4,M,,*50
$GPRMC,155254.000,A,4308.4617,N,07726.4221,W,0.70,283.90,210819,,,A*70
$GPGGA,155254.250,4308.4617,N,07726.4222,W,1,09,0.92,169.0,M,-34.4,M,,*50
$GPRMC,155254.500,A,4308.4617,N,07726.4222,W,0.76,283.90,210819,,,A*70
$GPGGA,155254.750,4308.4617,N,07726.4223,W,1,09,0.92,169.0,M,-34.4,M,,*54
$GPRMC,155255.000,A,4308.4617,N,07726.4224,W,0.75,283.90,210819,,,A*71
$GPGGA,155255.250,4308.4617,N,07726.4224,W,1,09,0.92,169.0,M,-34.4,M,,*57
$GPRMC,155255.500,A,4308.4617,N,07726.4225,W,0.71,283.90,210819,,,A*71
$GPGGA,155255.750,4308.4617,N,07726.4226,W,1,09,0.93,169.0,M,-34.4,M,,*51
$GPRMC,155256.000,A,4308.4617,N,07726.4226,W,0.66,283.90,210819,,,A*72
$GPGGA,155256.250,4308.4617,N,07726.4227,W,1,09,0.92,169.0,M,-34.4,M,,*57
$GPRMC,155256.500,A,4308.4616,N,07726.4228,W,0.59,283.90,210819,,,A*74
$GPGGA,155256.750,4308.4616,N,07726.4228,W,1,09,0.92,169.0,M,-34.4,M,,*5C
$GPRMC,155257.000,A,4308.4616,N,07726.4228,W,0.00,283.90,210819,,,A*7C
