Vers 57
USE_SERIAL_FEEDBACK=false
DEVELOPMENT_MODE=false
USE_RMC_ONLY=false

$GPRMC,152131.200,A,4308.5840,N,07729.5915,W,16.69,207.98,220419,,,A*4E
$GPGGA,152131.400,4308.5833,N,07729.5920,W,1,06,1.40,137.0,M,-34.4,M,,*50
lng=-77.493186, lat=43.143066, altitude=137.50, speed=16.69, satellites=6, angle=207.9800, fixquality=1
$GPRMC,152131.600,A,4308.5826,N,07729.5926,W,16.91,207.66,220419,,,A*4C
$GPGGA,152131.800,4308.5818,N,07729.5931,W,1,06,1.40,136.9,M,-34.4,M,,*5D
lng=-77.493209, lat=43.143043, altitude=137.00, speed=16.91, satellites=6, angle=207.6600, fixquality=1
$GPRMC,152132.000,A,4308.5810,N,07729.5937,W,17.21,207.05,220419,,,A*43
$GPGGA,152132.200,4308.5803,N,07729.5943,W,1,06,1.40,136.9,M,-34.4,M,,*5B
lng=-77.493232, lat=43.143016, altitude=136.90, speed=17.21, satellites=6, angle=207.0500, fixquality=1
$GPRMC,152132.400,A,4308.5795,N,07729.5948,W,17.14,207.18,220419,,,A*47
$GPGGA,152132.600,4308.5786,N,07729.5954,W,1,06,1.40,136.9,M,-34.4,M,,*5B
lng=-77.493247, lat=43.142993, altitude=136.90, speed=17.14, satellites=6, angle=207.1800, fixquality=1
$GPRMC,152132.800,A,4308.5778,N,07729.5960,W,17.24,207.66,220419,,,A*48
$GPGGA,152133.000,4308.5770,N,07729.5966,W,1,06,1.40,136.8,M,-34.4,M,,*55
lng=-77.493270, lat=43.142959, altitude=136.90, speed=17.24, satellites=6, angle=207.6600, fixquality=1
$GPRMC,152133.200,A,4308.5760,N,07729.5973,W,18.20,207.91,220419,,,A*4B
$GPGGA,152133.400,4308.5752,N,07729.5979,W,1,06,1.40,136.8,M,-34.4,M,,*5F
lng=-77.493286, lat=43.142936, altitude=136.80, speed=18.20, satellites=6, angle=207.9100, fixquality=1
$GPRMC,152133.600,A,4308.5743,N,07729.5984,W,18.36,207.94,220419,,,A*44
$GPGGA,152133.800,4308.5735,N,07729.5990,W,1,06,1.40,136.8,M,-34.4,M,,*55
lng=-77.493309, lat=43.142902, altitude=136.80, speed=18.36, satellites=6, angle=207.9400, fixquality=1
$GPRMC,152134.000,A,4308.5727,N,07729.5995,W,17.95,207.39,220419,,,A*46
$GPGGA,152134.200,4308.5719,N,07729.6001,W,1,06,1.40,136.8,M,-34.4,M,,*54
lng=-77.493324, lat=43.142879, altitude=136.80, speed=17.95, satellites=6, angle=207.3900, fixquality=1
$GPRMC,152134.400,A,4308.5710,N,07729.6008,W,18.43,207.66,220419,,,A*46
$GPGGA,152134.600,4308.5701,N,07729.6014,W,1,06,1.40,136.8,M,-34.4,M,,*5D
lng=-77.493339, lat=43.142845, altitude=136.80, speed=18.43, satellites=6, angle=207.6600, fixquality=1
$GPRMC,152134.800,A,4308.5692,N,07729.6021,W,18.62,207.83,220419,,,A*42
$GPGGA,152135.000,4308.5683,N,07729.6027,W,1,06,1.40,136.8,M,-34.4,M,,*51
lng=-77.493370, lat=43.142822, altitude=136.80, speed=18.62, satellites=6, angle=207.8300, fixquality=1
$GPRMC,152135.200,A,4308.5674,N,07729.6034,W,18.63,207.81,220419,,,A*46
$GPGGA,152135.400,4308.5665,N,07729.6041,W,1,06,1.40,136.8,M,-34.4,M,,*5D
lng=-77.493392, lat=43.142787, altitude=136.80, speed=18.63, satellites=6, angle=207.8100, fixquality=1
$GPRMC,152135.600,A,4308.5655,N,07729.6048,W,19.10,209.53,220419,,,A*4E
$GPGGA,152135.800,4308.5646,N,07729.6055,W,1,06,1.40,136.8,M,-34.4,M,,*55
lng=-77.493415, lat=43.142757, altitude=136.80, speed=19.10, satellites=6, angle=209.5300, fixquality=1
$GPRMC,152136.000,A,4308.5637,N,07729.6062,W,18.76,210.52,220419,,,A*4F
$GPGGA,152136.200,4308.5628,N,07729.6069,W,1,06,1.40,136.9,M,-34.4,M,,*5A
lng=-77.493431, lat=43.142723, altitude=136.80, speed=18.76, satellites=6, angle=210.5200, fixquality=1
$GPRMC,152136.400,A,4308.5619,N,07729.6076,W,18.69,210.61,220419,,,A*4C
$GPGGA,152136.600,4308.5610,N,07729.6083,W,1,06,1.40,136.9,M,-34.4,M,,*51
lng=-77.493453, lat=43.142700, altitude=136.90, speed=18.69, satellites=6, angle=210.6100, fixquality=1
$GPRMC,152136.800,A,4308.5601,N,07729.6091,W,18.57,210.47,220419,,,A*49
$GPGGA,152137.000,4308.5592,N,07729.6097,W,1,06,1.40,137.0,M,-34.4,M,,*52
lng=-77.493484, lat=43.142665, altitude=136.90, speed=18.57, satellites=6, angle=210.4700, fixquality=1
$GPRMC,152137.200,A,4308.5583,N,07729.6105,W,18.41,210.30,220419,,,A*40
$GPGGA,152137.400,4308.5574,N,07729.6111,W,1,06,1.40,137.0,M,-34.4,M,,*51
lng=-77.493507, lat=43.142635, altitude=137.00, speed=18.41, satellites=6, angle=210.3000, fixquality=1
$GPRMC,152137.600,A,4308.5566,N,07729.6118,W,18.22,210.14,220419,,,A*40
$GPGGA,152137.800,4308.5557,N,07729.6124,W,1,06,1.40,136.9,M,-34.4,M,,*52
lng=-77.493530, lat=43.142612, altitude=137.00, speed=18.22, satellites=6, angle=210.1400, fixquality=1
$GPRMC,152138.000,A,4308.5549,N,07729.6129,W,18.03,209.68,220419,,,A*46
$GPGGA,152138.200,4308.5541,N,07729.6135,W,1,06,1.40,136.8,M,-34.4,M,,*51
lng=-77.493545, lat=43.142578, altitude=136.90, speed=18.03, satellites=6, angle=209.6800, fixquality=1
$GPRMC,152138.400,A,4308.5533,N,07729.6140,W,17.37,209.97,220419,,,A*48
$GPGGA,152138.600,4308.5525,N,07729.6146,W,1,06,1.40,136.7,M,-34.4,M,,*5C
lng=-77.493560, lat=43.142555, altitude=136.80, speed=17.37, satellites=6, angle=209.9700, fixquality=1
$GPRMC,152138.800,A,4308.5517,N,07729.6151,W,17.09,209.66,220419,,,A*41
$GPGGA,152139.000,4308.5508,N,07729.6157,W,1,06,1.45,136.7,M,-34.4,M,,*51
lng=-77.493583, lat=43.142528, altitude=136.70, speed=17.09, satellites=6, angle=209.6600, fixquality=1
$GPRMC,152139.200,A,4308.5500,N,07729.6163,W,17.12,209.43,220419,,,A*40
$GPGGA,152139.400,4308.5492,N,07729.6170,W,1,06,1.45,136.6,M,-34.4,M,,*53
lng=-77.493606, lat=43.142498, altitude=136.70, speed=17.12, satellites=6, angle=209.4300, fixquality=1
$GPRMC,152139.600,A,4308.5483,N,07729.6177,W,17.22,209.80,220419,,,A*47
$GPGGA,152139.800,4308.5475,N,07729.6184,W,1,06,1.40,136.5,M,-34.4,M,,*5B
lng=-77.493629, lat=43.142471, altitude=136.60, speed=17.22, satellites=6, angle=209.8000, fixquality=1
$GPRMC,152140.000,A,4308.5466,N,07729.6191,W,17.48,210.14,220419,,,A*45
$GPGGA,152140.200,4308.5458,N,07729.6199,W,1,06,1.45,136.4,M,-34.4,M,,*58
lng=-77.493652, lat=43.142440, altitude=136.50, speed=17.48, satellites=6, angle=210.1400, fixquality=1
$GPRMC,152140.400,A,4308.5449,N,07729.6206,W,17.97,209.84,220419,,,A*42
$GPGGA,152140.600,4308.5440,N,07729.6212,W,1,06,1.40,136.3,M,-34.4,M,,*57
lng=-77.493675, lat=43.142414, altitude=136.40, speed=17.97, satellites=6, angle=209.8400, fixquality=1
$GPRMC,152140.800,A,4308.5431,N,07729.6218,W,18.31,209.07,220419,,,A*46
$GPGGA,152141.000,4308.5422,N,07729.6225,W,1,06,1.45,136.2,M,-34.4,M,,*54
lng=-77.493690, lat=43.142383, altitude=136.30, speed=18.31, satellites=6, angle=209.0700, fixquality=1
$GPRMC,152141.200,A,4308.5412,N,07729.6232,W,19.07,208.58,220419,,,A*4B
$GPGGA,152141.400,4308.5402,N,07729.6239,W,1,06,1.45,136.2,M,-34.4,M,,*5F
lng=-77.493721, lat=43.142349, altitude=136.20, speed=19.07, satellites=6, angle=208.5800, fixquality=1
$GPRMC,152141.600,A,4308.5393,N,07729.6246,W,19.78,208.93,220419,,,A*4D
$GPGGA,152141.800,4308.5382,N,07729.6253,W,1,06,1.45,136.1,M,-34.4,M,,*53
lng=-77.493743, lat=43.142318, altitude=136.20, speed=19.78, satellites=6, angle=208.9300, fixquality=1
$GPRMC,152142.000,A,4308.5372,N,07729.6261,W,20.25,208.24,220419,,,A*4C
$GPGGA,152142.200,4308.5362,N,07729.6268,W,1,06,1.45,136.0,M,-34.4,M,,*5D
lng=-77.493766, lat=43.142284, altitude=136.10, speed=20.25, satellites=6, angle=208.2400, fixquality=1
$GPRMC,152142.400,A,4308.5351,N,07729.6276,W,20.64,207.68,220419,,,A*4D
$GPGGA,152142.600,4308.5340,N,07729.6283,W,1,06,1.40,135.9,M,-34.4,M,,*53
lng=-77.493789, lat=43.142253, altitude=136.00, speed=20.64, satellites=6, angle=207.6800, fixquality=1
$GPRMC,152142.800,A,4308.5330,N,07729.6291,W,21.02,208.14,220419,,,A*4A
$GPGGA,152143.000,4308.5319,N,07729.6299,W,1,06,1.45,135.8,M,-34.4,M,,*57
lng=-77.493812, lat=43.142219, altitude=135.90, speed=21.02, satellites=6, angle=208.1400, fixquality=1
$GPRMC,152143.200,A,4308.5308,N,07729.6307,W,21.36,208.68,220419,,,A*48
$GPGGA,152143.400,4308.5298,N,07729.6315,W,1,06,1.45,135.7,M,-34.4,M,,*51
lng=-77.493850, lat=43.142177, altitude=135.80, speed=21.36, satellites=6, angle=208.6800, fixquality=1
$GPRMC,152143.600,A,4308.5287,N,07729.6323,W,21.38,208.96,220419,,,A*43
$GPGGA,152143.800,4308.5276,N,07729.6331,W,1,06,1.45,135.6,M,-34.4,M,,*5A
lng=-77.493873, lat=43.142147, altitude=135.70, speed=21.38, satellites=6, angle=208.9600, fixquality=1
$GPRMC,152144.000,A,4308.5266,N,07729.6339,W,21.27,208.80,220419,,,A*4F
$GPGGA,152144.200,4308.5255,N,07729.6347,W,1,06,1.45,135.5,M,-34.4,M,,*54
lng=-77.493896, lat=43.142105, altitude=135.60, speed=21.27, satellites=6, angle=208.8000, fixquality=1
$GPRMC,152144.400,A,4308.5245,N,07729.6354,W,20.86,207.89,220419,,,A*4D
$GPGGA,152144.600,4308.5235,N,07729.6361,W,1,06,1.40,135.4,M,-34.4,M,,*56
lng=-77.493919, lat=43.142074, altitude=135.50, speed=20.86, satellites=6, angle=207.8900, fixquality=1
$GPRMC,152144.800,A,4308.5224,N,07729.6368,W,20.82,207.89,220419,,,A*4D
$GPGGA,152145.000,4308.5214,N,07729.6376,W,1,06,1.45,135.3,M,-34.4,M,,*56
lng=-77.493942, lat=43.142040, altitude=135.40, speed=20.82, satellites=6, angle=207.8900, fixquality=1
$GPRMC,152145.200,A,4308.5203,N,07729.6383,W,20.94,207.51,220419,,,A*44
$GPGGA,152145.400,4308.5193,N,07729.6390,W,1,06,1.45,135.2,M,-34.4,M,,*57
lng=-77.493972, lat=43.142009, altitude=135.30, speed=20.94, satellites=6, angle=207.5100, fixquality=1
$GPRMC,152145.600,A,4308.5182,N,07729.6396,W,20.64,206.28,220419,,,A*4E
$GPGGA,152145.800,4308.5172,N,07729.6403,W,1,06,1.45,135.0,M,-34.4,M,,*5B
lng=-77.493995, lat=43.141967, altitude=135.20, speed=20.64, satellites=6, angle=206.2800, fixquality=1
$GPRMC,152146.000,A,4308.5161,N,07729.6410,W,20.54,206.20,220419,,,A*44
$GPGGA,152146.200,4308.5151,N,07729.6418,W,1,06,1.46,134.9,M,-34.4,M,,*52
lng=-77.494018, lat=43.141933, altitude=135.00, speed=20.54, satellites=6, angle=206.2000, fixquality=1
$GPRMC,152146.400,A,4308.5140,N,07729.6424,W,20.68,205.23,220419,,,A*4B
$GPGGA,152146.600,4308.5129,N,07729.6431,W,1,06,1.40,134.7,M,-34.4,M,,*5A
lng=-77.494041, lat=43.141902, altitude=134.90, speed=20.68, satellites=6, angle=205.2300, fixquality=1
$GPRMC,152146.800,A,4308.5118,N,07729.6436,W,20.69,202.78,220419,,,A*41
$GPGGA,152147.000,4308.5107,N,07729.6440,W,1,06,1.45,134.6,M,-34.4,M,,*53
lng=-77.494056, lat=43.141860, altitude=134.70, speed=20.69, satellites=6, angle=202.7800, fixquality=1
$GPRMC,152147.200,A,4308.5095,N,07729.6446,W,21.10,200.34,220419,,,A*4C
$GPGGA,152147.400,4308.5083,N,07729.6451,W,1,06,1.45,134.4,M,-34.4,M,,*58
lng=-77.494071, lat=43.141822, altitude=134.60, speed=21.10, satellites=6, angle=200.3400, fixquality=1
$GPRMC,152147.600,A,4308.5072,N,07729.6456,W,21.28,198.98,220419,,,A*4F
$GPGGA,152147.800,4308.5060,N,07729.6460,W,1,06,1.40,134.3,M,-34.4,M,,*59
lng=-77.494094, lat=43.141788, altitude=134.40, speed=21.28, satellites=6, angle=198.9800, fixquality=1
$GPRMC,152148.000,A,4308.5048,N,07729.6464,W,21.62,196.69,220419,,,A*40
$GPGGA,152148.200,4308.5037,N,07729.6467,W,1,06,1.45,134.1,M,-34.4,M,,*5E
lng=-77.494110, lat=43.141746, altitude=134.30, speed=21.62, satellites=6, angle=196.6900, fixquality=1
$GPRMC,152148.400,A,4308.5025,N,07729.6469,W,21.58,193.40,220419,,,A*45
$GPGGA,152148.600,4308.5013,N,07729.6473,W,1,06,1.40,133.9,M,-34.4,M,,*53
lng=-77.494117, lat=43.141708, altitude=134.10, speed=21.58, satellites=6, angle=193.4000, fixquality=1
$GPRMC,152148.800,A,4308.5002,N,07729.6474,W,21.75,191.41,220419,,,A*4C
$GPGGA,152149.000,4308.4990,N,07729.6476,W,1,06,1.40,133.7,M,-34.4,M,,*5C
lng=-77.494125, lat=43.141666, altitude=133.90, speed=21.75, satellites=6, angle=191.4100, fixquality=1
$GPRMC,152149.200,A,4308.4977,N,07729.6479,W,22.17,189.48,220419,,,A*47
$GPGGA,152149.400,4308.4965,N,07729.6481,W,1,06,1.45,133.6,M,-34.4,M,,*5E
lng=-77.494132, lat=43.141624, altitude=133.70, speed=22.17, satellites=6, angle=189.4800, fixquality=1
$GPRMC,152149.600,A,4308.4953,N,07729.6483,W,22.39,188.12,220419,,,A*42
$GPGGA,152149.800,4308.4940,N,07729.6486,W,1,06,1.40,133.4,M,-34.4,M,,*55
lng=-77.494140, lat=43.141586, altitude=133.60, speed=22.39, satellites=6, angle=188.1200, fixquality=1
$GPRMC,152150.000,A,4308.4927,N,07729.6489,W,22.64,187.37,220419,,,A*45
$GPGGA,152150.200,4308.4915,N,07729.6491,W,1,06,1.45,133.2,M,-34.4,M,,*52
lng=-77.494148, lat=43.141544, altitude=133.40, speed=22.64, satellites=6, angle=187.3700, fixquality=1
$GPRMC,152150.400,A,4308.4902,N,07729.6493,W,22.70,186.66,220419,,,A*4D
$GPGGA,152150.600,4308.4890,N,07729.6495,W,1,06,1.40,133.0,M,-34.4,M,,*59
lng=-77.494155, lat=43.141502, altitude=133.20, speed=22.70, satellites=6, angle=186.6600, fixquality=1
$GPRMC,152150.800,A,4308.4877,N,07729.6496,W,22.62,185.71,220419,,,A*41
$GPGGA,152151.000,4308.4865,N,07729.6498,W,1,06,1.45,132.9,M,-34.4,M,,*54
lng=-77.494155, lat=43.141464, altitude=133.00, speed=22.62, satellites=6, angle=185.7100, fixquality=1
$GPRMC,152151.200,A,4308.4852,N,07729.6499,W,22.44,185.58,220419,,,A*4D
$GPGGA,152151.400,4308.4841,N,07729.6500,W,1,06,1.45,132.7,M,-34.4,M,,*58
lng=-77.494163, lat=43.141422, altitude=132.90, speed=22.44, satellites=6, angle=185.5800, fixquality=1
$GPRMC,152151.600,A,4308.4829,N,07729.6501,W,22.08,184.70,220419,,,A*46
$GPGGA,152151.800,4308.4816,N,07729.6502,W,1,06,1.45,132.5,M,-34.4,M,,*56
lng=-77.494163, lat=43.141380, altitude=132.70, speed=22.08, satellites=6, angle=184.7000, fixquality=1
$GPRMC,152152.000,A,4308.4804,N,07729.6503,W,22.07,183.97,220419,,,A*4F
$GPGGA,152152.200,4308.4792,N,07729.6503,W,1,06,1.46,132.3,M,-34.4,M,,*58
lng=-77.494171, lat=43.141342, altitude=132.50, speed=22.07, satellites=6, angle=183.9700, fixquality=1
$GPRMC,152152.400,A,4308.4780,N,07729.6504,W,22.00,182.97,220419,,,A*49
$GPGGA,152152.600,4308.4768,N,07729.6505,W,1,06,1.40,132.1,M,-34.4,M,,*5B
lng=-77.494171, lat=43.141300, altitude=132.30, speed=22.00, satellites=6, angle=182.9700, fixquality=1
$GPRMC,152152.800,A,4308.4756,N,07729.6506,W,21.99,183.29,220419,,,A*4B
$GPGGA,152153.000,4308.4744,N,07729.6507,W,1,06,1.46,131.9,M,-34.4,M,,*5D
lng=-77.494171, lat=43.141258, altitude=132.10, speed=21.99, satellites=6, angle=183.2900, fixquality=1
$GPRMC,152153.200,A,4308.4731,N,07729.6508,W,22.27,183.49,220419,,,A*4F
$GPGGA,152153.400,4308.4719,N,07729.6509,W,1,06,1.46,131.7,M,-34.4,M,,*51
lng=-77.494178, lat=43.141220, altitude=131.90, speed=22.27, satellites=6, angle=183.4900, fixquality=1
$GPRMC,152153.600,A,4308.4706,N,07729.6510,W,22.20,183.75,220419,,,A*4E
$GPGGA,152153.800,4308.4693,N,07729.6513,W,1,06,1.40,131.6,M,-34.4,M,,*52
lng=-77.494178, lat=43.141178, altitude=131.70, speed=22.20, satellites=6, angle=183.7500, fixquality=1
$GPRMC,152154.000,A,4308.4681,N,07729.6513,W,22.17,184.33,220419,,,A*43
$GPGGA,152154.200,4308.4669,N,07729.6514,W,1,06,1.46,131.4,M,-34.4,M,,*59
lng=-77.494186, lat=43.141136, altitude=131.60, speed=22.17, satellites=6, angle=184.3300, fixquality=1
$GPRMC,152154.400,A,4308.4656,N,07729.6516,W,22.23,184.25,220419,,,A*48
$GPGGA,152154.600,4308.4644,N,07729.6517,W,1,06,1.40,131.2,M,-34.4,M,,*51
lng=-77.494186, lat=43.141098, altitude=131.40, speed=22.23, satellites=6, angle=184.2500, fixquality=1
$GPRMC,152154.800,A,4308.4631,N,07729.6518,W,22.36,183.95,220419,,,A*43
$GPGGA,152155.000,4308.4619,N,07729.6519,W,1,06,1.46,131.0,M,-34.4,M,,*54
lng=-77.494194, lat=43.141048, altitude=131.20, speed=22.36, satellites=6, angle=183.9500, fixquality=1
$GPRMC,152155.200,A,4308.4607,N,07729.6519,W,22.25,183.15,220419,,,A*46
$GPGGA,152155.400,4308.4595,N,07729.6519,W,1,06,1.45,130.7,M,-34.4,M,,*52
lng=-77.494194, lat=43.141014, altitude=131.00, speed=22.25, satellites=6, angle=183.1500, fixquality=1
$GPRMC,152155.600,A,4308.4583,N,07729.6520,W,22.10,182.60,220419,,,A*42
$GPGGA,152155.800,4308.4570,N,07729.6521,W,1,06,1.40,130.5,M,-34.4,M,,*59
lng=-77.494194, lat=43.140975, altitude=130.70, speed=22.10, satellites=6, angle=182.6000, fixquality=1
$GPRMC,152156.000,A,4308.4558,N,07729.6523,W,22.00,183.00,220419,,,A*44
$GPGGA,152156.200,4308.4546,N,07729.6524,W,1,06,1.40,130.3,M,-34.4,M,,*56
lng=-77.494209, lat=43.140926, altitude=130.50, speed=22.00, satellites=6, angle=183.0000, fixquality=1
$GPRMC,152156.400,A,4308.4535,N,07729.6525,W,21.27,183.46,220419,,,A*49
$GPGGA,152156.600,4308.4523,N,07729.6525,W,1,06,1.40,130.1,M,-34.4,M,,*52
lng=-77.494209, lat=43.140892, altitude=130.30, speed=21.27, satellites=6, angle=183.4600, fixquality=1
$GPRMC,152156.800,A,4308.4512,N,07729.6525,W,20.52,183.16,220419,,,A*46
$GPGGA,152157.000,4308.4502,N,07729.6525,W,1,06,1.40,129.8,M,-34.4,M,,*57
lng=-77.494209, lat=43.140853, altitude=130.10, speed=20.52, satellites=6, angle=183.1600, fixquality=1
$GPRMC,152157.200,A,4308.4491,N,07729.6525,W,19.18,183.49,220419,,,A*49
$GPGGA,152157.400,4308.4481,N,07729.6526,W,1,06,1.45,129.6,M,-34.4,M,,*51
lng=-77.494209, lat=43.140819, altitude=129.80, speed=19.18, satellites=6, angle=183.4900, fixquality=1
$GPRMC,152157.600,A,4308.4471,N,07729.6526,W,18.52,183.66,220419,,,A*42
$GPGGA,152157.800,4308.4462,N,07729.6527,W,1,06,1.40,129.5,M,-34.4,M,,*57
lng=-77.494216, lat=43.140789, altitude=129.60, speed=18.52, satellites=6, angle=183.6600, fixquality=1
$GPRMC,152158.000,A,4308.4453,N,07729.6528,W,16.48,184.98,220419,,,A*46
$GPGGA,152158.200,4308.4445,N,07729.6529,W,1,06,1.40,129.3,M,-34.4,M,,*5F
lng=-77.494216, lat=43.140754, altitude=129.50, speed=16.48, satellites=6, angle=184.9800, fixquality=1
$GPRMC,152158.400,A,4308.4436,N,07729.6535,W,14.24,186.24,220419,,,A*40
$GPGGA,152158.600,4308.4428,N,07729.6537,W,1,06,1.40,129.1,M,-34.4,M,,*5D
lng=-77.494224, lat=43.140724, altitude=129.30, speed=14.24, satellites=6, angle=186.2400, fixquality=1
$GPRMC,152158.800,A,4308.4420,N,07729.6539,W,12.71,188.08,220419,,,A*41
$GPGGA,152159.000,4308.4414,N,07729.6542,W,1,06,1.40,129.0,M,-34.4,M,,*56
lng=-77.494232, lat=43.140697, altitude=129.10, speed=12.71, satellites=6, angle=188.0800, fixquality=1
$GPRMC,152159.200,A,4308.4408,N,07729.6545,W,10.28,193.32,220419,,,A*46
$GPGGA,152159.400,4308.4404,N,07729.6548,W,1,06,1.40,128.8,M,-34.4,M,,*50
lng=-77.494239, lat=43.140682, altitude=129.00, speed=10.28, satellites=6, angle=193.3200, fixquality=1
$GPRMC,152159.600,A,4308.4400,N,07729.6549,W,8.58,197.46,220419,,,A*7F
$GPGGA,152159.800,4308.4397,N,07729.6551,W,1,06,1.40,128.7,M,-34.4,M,,*56
lng=-77.494247, lat=43.140666, altitude=128.80, speed=8.58, satellites=6, angle=197.4600, fixquality=1
$GPRMC,152200.000,A,4308.4394,N,07729.6553,W,6.19,205.54,220419,,,A*77
$GPGGA,152200.200,4308.4393,N,07729.6555,W,1,06,1.40,128.5,M,-34.4,M,,*51
lng=-77.494255, lat=43.140659, altitude=128.70, speed=6.19, satellites=6, angle=205.5400, fixquality=1
$GPRMC,152200.400,A,4308.4391,N,07729.6557,W,4.25,219.57,220419,,,A*71
$GPGGA,152200.600,4308.4390,N,07729.6559,W,1,06,1.40,128.4,M,-34.4,M,,*5B
lng=-77.494262, lat=43.140647, altitude=128.50, speed=4.25, satellites=6, angle=219.5700, fixquality=1
$GPRMC,152200.800,A,4308.4390,N,07729.6560,W,3.20,235.50,220419,,,A*73
$GPGGA,152201.000,4308.4390,N,07729.6561,W,1,06,1.40,128.2,M,-34.4,M,,*51
lng=-77.494262, lat=43.140647, altitude=128.40, speed=3.20, satellites=6, angle=235.5000, fixquality=1
$GPRMC,152201.200,A,4308.4391,N,07729.6560,W,2.30,246.79,220419,,,A*76
$GPGGA,152201.400,4308.4392,N,07729.6561,W,1,06,1.40,128.1,M,-34.4,M,,*54
lng=-77.494262, lat=43.140647, altitude=128.20, speed=2.30, satellites=6, angle=246.7900, fixquality=1
$GPRMC,152201.600,A,4308.4392,N,07729.6562,W,1.89,246.79,220419,,,A*72
$GPGGA,152201.800,4308.4393,N,07729.6560,W,1,06,1.40,128.0,M,-34.4,M,,*59
lng=-77.494270, lat=43.140647, altitude=128.10, speed=1.89, satellites=6, angle=246.7900, fixquality=1
$GPRMC,152202.000,A,4308.4393,N,07729.6560,W,1.32,246.79,220419,,,A*74
$GPGGA,152202.200,4308.4392,N,07729.6561,W,1,06,1.40,127.8,M,-34.4,M,,*57
lng=-77.494262, lat=43.140659, altitude=128.00, speed=1.32, satellites=6, angle=246.7900, fixquality=1
$GPRMC,152202.400,A,4308.4391,N,07729.6561,W,1.72,246.79,220419,,,A*77
$GPGGA,152202.600,4308.4389,N,07729.6562,W,1,06,1.40,127.9,M,-34.4,M,,*5B
lng=-77.494270, lat=43.140647, altitude=127.80, speed=1.72, satellites=6, angle=246.7900, fixquality=1
$GPRMC,152202.800,A,4308.4388,N,07729.6562,W,2.16,246.79,220419,,,A*71
$GPGGA,152203.000,4308.4386,N,07729.6561,W,1,06,1.40,128.0,M,-34.4,M,,*56
lng=-77.494270, lat=43.140647, altitude=127.90, speed=2.16, satellites=6, angle=246.7900, fixquality=1
$GPRMC,152203.200,A,4308.4384,N,07729.6560,W,2.29,246.79,220419,,,A*78
$GPGGA,152203.400,4308.4382,N,07729.6559,W,1,06,1.40,127.9,M,-34.4,M,,*5B
lng=-77.494262, lat=43.140640, altitude=128.00, speed=2.29, satellites=6, angle=246.7900, fixquality=1
$GPRMC,152203.600,A,4308.4381,N,07729.6558,W,2.95,184.62,220419,,,A*72
$GPGGA,152203.800,4308.4379,N,07729.6556,W,1,06,1.40,127.8,M,-34.4,M,,*5D
lng=-77.494262, lat=43.140632, altitude=127.90, speed=2.95, satellites=6, angle=184.6200, fixquality=1
$GPRMC,152204.000,A,4308.4376,N,07729.6554,W,3.37,176.17,220419,,,A*71
$GPGGA,152204.200,4308.4373,N,07729.6551,W,1,06,1.40,127.8,M,-34.4,M,,*5D
lng=-77.494255, lat=43.140625, altitude=127.80, speed=3.37, satellites=6, angle=176.1700, fixquality=1
$GPRMC,152204.400,A,4308.4371,N,07729.6549,W,3.97,164.14,220419,,,A*74
$GPGGA,152204.600,4308.4367,N,07729.6543,W,1,06,1.40,127.7,M,-34.4,M,,*50
lng=-77.494247, lat=43.140617, altitude=127.80, speed=3.97, satellites=6, angle=164.1400, fixquality=1
$GPRMC,152204.800,A,4308.4360,N,07729.6531,W,6.33,141.99,220419,,,A*7E
$GPGGA,152205.000,4308.4352,N,07729.6517,W,1,06,1.40,127.5,M,-34.4,M,,*52
lng=-77.494224, lat=43.140602, altitude=127.70, speed=6.33, satellites=6, angle=141.9900, fixquality=1
$GPRMC,152205.200,A,4308.4345,N,07729.6509,W,9.79,134.39,220419,,,A*70
$GPGGA,152205.400,4308.4336,N,07729.6495,W,1,06,1.40,127.4,M,-34.4,M,,*5E
lng=-77.494178, lat=43.140575, altitude=127.50, speed=9.79, satellites=6, angle=134.3900, fixquality=1
$GPRMC,152205.600,A,4308.4332,N,07729.6487,W,12.39,129.19,220419,,,A*43
$GPGGA,152205.800,4308.4327,N,07729.6478,W,1,06,1.40,127.3,M,-34.4,M,,*56
lng=-77.494148, lat=43.140552, altitude=127.40, speed=12.39, satellites=6, angle=129.1900, fixquality=1
$GPRMC,152206.000,A,4308.4321,N,07729.6468,W,14.56,124.34,220419,,,A*48
$GPGGA,152206.200,4308.4315,N,07729.6457,W,1,06,1.40,127.3,M,-34.4,M,,*53
lng=-77.494117, lat=43.140537, altitude=127.30, speed=14.56, satellites=6, angle=124.3400, fixquality=1
$GPRMC,152206.400,A,4308.4308,N,07729.6446,W,16.19,120.73,220419,,,A*45
$GPGGA,152206.600,4308.4302,N,07729.6434,W,1,06,1.40,127.2,M,-34.4,M,,*55
lng=-77.494071, lat=43.140510, altitude=127.30, speed=16.19, satellites=6, angle=120.7300, fixquality=1
$GPRMC,152206.800,A,4308.4296,N,07729.6422,W,16.90,119.45,220419,,,A*43
$GPGGA,152207.000,4308.4291,N,07729.6410,W,1,06,1.40,127.1,M,-34.4,M,,*5C
lng=-77.494033, lat=43.140495, altitude=127.20, speed=16.90, satellites=6, angle=119.4500, fixquality=1
$GPRMC,152207.200,A,4308.4283,N,07729.6396,W,18.33,118.01,220419,,,A*42
$GPGGA,152207.400,4308.4273,N,07729.6381,W,1,06,1.40,127.0,M,-34.4,M,,*5A
lng=-77.493995, lat=43.140468, altitude=127.10, speed=18.33, satellites=6, angle=118.0100, fixquality=1
$GPRMC,152207.600,A,4308.4266,N,07729.6366,W,20.23,119.41,220419,,,A*4D
$GPGGA,152207.800,4308.4258,N,07729.6350,W,1,06,1.40,126.9,M,-34.4,M,,*5B
lng=-77.493942, lat=43.140445, altitude=127.00, speed=20.23, satellites=6, angle=119.4100, fixquality=1
$GPRMC,152208.000,A,4308.4248,N,07729.6334,W,22.29,120.62,220419,,,A*4C
$GPGGA,152208.200,4308.4239,N,07729.6317,W,1,06,1.40,126.8,M,-34.4,M,,*5B
lng=-77.493888, lat=43.140415, altitude=126.90, speed=22.29, satellites=6, angle=120.6200, fixquality=1
$GPRMC,152208.400,A,4308.4229,N,07729.6301,W,23.43,121.91,220419,,,A*49
$GPGGA,152208.600,4308.4217,N,07729.6280,W,1,06,1.40,126.7,M,-34.4,M,,*53
lng=-77.493827, lat=43.140380, altitude=126.80, speed=23.43, satellites=6, angle=121.9100, fixquality=1
$GPRMC,152208.800,A,4308.4205,N,07729.6260,W,25.11,123.91,220419,,,A*4E
$GPGGA,152209.000,4308.4193,N,07729.6241,W,1,06,1.40,126.6,M,-34.4,M,,*57
lng=-77.493766, lat=43.140338, altitude=126.70, speed=25.11, satellites=6, angle=123.9100, fixquality=1
$GPRMC,152209.200,A,4308.4181,N,07729.6222,W,28.96,126.36,220419,,,A*46
$GPGGA,152209.400,4308.4169,N,07729.6202,W,1,06,1.40,126.5,M,-34.4,M,,*52
lng=-77.493698, lat=43.140300, altitude=126.60, speed=28.96, satellites=6, angle=126.3600, fixquality=1
$GPRMC,152209.600,A,4308.4158,N,07729.6183,W,30.12,127.95,220419,,,A*43
$GPGGA,152209.800,4308.4147,N,07729.6165,W,1,06,1.40,126.4,M,-34.4,M,,*51
lng=-77.493637, lat=43.140266, altitude=126.50, speed=30.12, satellites=6, angle=127.9500, fixquality=1
$GPRMC,152210.000,A,4308.4136,N,07729.6146,W,30.83,128.58,220419,,,A*4A
$GPGGA,152210.200,4308.4124,N,07729.6127,W,1,06,1.40,126.3,M,-34.4,M,,*57
lng=-77.493576, lat=43.140224, altitude=126.40, speed=30.83, satellites=6, angle=128.5800, fixquality=1
$GPRMC,152210.400,A,4308.4112,N,07729.6108,W,31.46,129.03,220419,,,A*45
$GPGGA,152210.600,4308.4101,N,07729.6089,W,1,06,1.40,126.2,M,-34.4,M,,*50
lng=-77.493515, lat=43.140186, altitude=126.30, speed=31.46, satellites=6, angle=129.0300, fixquality=1
$GPRMC,152210.800,A,4308.4088,N,07729.6070,W,32.06,129.61,220419,,,A*46
$GPGGA,152211.000,4308.4077,N,07729.6052,W,1,06,1.40,126.1,M,-34.4,M,,*52
lng=-77.493446, lat=43.140144, altitude=126.20, speed=32.06, satellites=6, angle=129.6100, fixquality=1
$GPRMC,152211.200,A,4308.4065,N,07729.6034,W,31.97,130.40,220419,,,A*4E
$GPGGA,152211.400,4308.4052,N,07729.6015,W,1,06,1.40,126.0,M,-34.4,M,,*53
lng=-77.493392, lat=43.140113, altitude=126.10, speed=31.97, satellites=6, angle=130.4000, fixquality=1
$GPRMC,152211.600,A,4308.4038,N,07729.5995,W,32.77,131.14,220419,,,A*4E
$GPGGA,152211.800,4308.4024,N,07729.5976,W,1,06,1.40,125.8,M,-34.4,M,,*5A
lng=-77.493324, lat=43.140064, altitude=126.00, speed=32.77, satellites=6, angle=131.1400, fixquality=1
$GPRMC,152212.000,A,4308.4008,N,07729.5956,W,33.71,132.56,220419,,,A*45
$GPGGA,152212.200,4308.3990,N,07729.5936,W,1,06,1.40,125.6,M,-34.4,M,,*58
lng=-77.493263, lat=43.140014, altitude=125.80, speed=33.71, satellites=6, angle=132.5600, fixquality=1
$GPRMC,152212.400,A,4308.3972,N,07729.5916,W,35.40,135.61,220419,,,A*41
$GPGGA,152212.600,4308.3955,N,07729.5896,W,1,06,1.40,125.4,M,-34.4,M,,*5C
lng=-77.493194, lat=43.139949, altitude=125.60, speed=35.40, satellites=6, angle=135.6100, fixquality=1
$GPRMC,152212.800,A,4308.3936,N,07729.5878,W,36.50,137.78,220419,,,A*4C
$GPGGA,152213.000,4308.3915,N,07729.5859,W,1,06,1.40,125.2,M,-34.4,M,,*5A
lng=-77.493133, lat=43.139892, altitude=125.40, speed=36.50, satellites=6, angle=137.7800, fixquality=1
$GPRMC,152213.200,A,4308.3896,N,07729.5841,W,37.43,140.76,220419,,,A*4B
$GPGGA,152213.400,4308.3878,N,07729.5823,W,1,06,1.40,125.0,M,-34.4,M,,*5B
lng=-77.493064, lat=43.139827, altitude=125.20, speed=37.43, satellites=6, angle=140.7600, fixquality=1
$GPRMC,152213.600,A,4308.3860,N,07729.5807,W,37.49,142.96,220419,,,A*42
$GPGGA,152213.800,4308.3840,N,07729.5791,W,1,06,1.40,124.7,M,-34.4,M,,*5C
lng=-77.493011, lat=43.139770, altitude=125.00, speed=37.49, satellites=6, angle=142.9600, fixquality=1
$GPRMC,152214.000,A,4308.3821,N,07729.5776,W,37.99,146.73,220419,,,A*4D
$GPGGA,152214.200,4308.3801,N,07729.5761,W,1,06,1.40,124.4,M,-34.4,M,,*58
lng=-77.492958, lat=43.139705, altitude=124.70, speed=37.99, satellites=6, angle=146.7300, fixquality=1
$GPRMC,152214.400,A,4308.3781,N,07729.5745,W,38.97,148.56,220419,,,A*44
$GPGGA,152214.600,4308.3762,N,07729.5730,W,1,06,1.40,124.1,M,-34.4,M,,*57
lng=-77.492912, lat=43.139633, altitude=124.40, speed=38.97, satellites=6, angle=148.5600, fixquality=1
$GPRMC,152214.800,A,4308.3741,N,07729.5714,W,39.02,149.59,220419,,,A*43
$GPGGA,152215.000,4308.3721,N,07729.5699,W,1,05,1.65,123.8,M,-34.4,M,,*5F
lng=-77.492851, lat=43.139568, altitude=124.10, speed=39.02, satellites=6, angle=149.5900, fixquality=1
$GPRMC,152215.200,A,4308.3700,N,07729.5685,W,38.94,150.88,220419,,,A*4E
$GPGGA,152215.400,4308.3679,N,07729.5672,W,1,06,1.40,123.5,M,-34.4,M,,*5B
lng=-77.492805, lat=43.139503, altitude=123.80, speed=38.94, satellites=5, angle=150.8800, fixquality=1
$GPRMC,152215.600,A,4308.3659,N,07729.5658,W,38.89,152.40,220419,,,A*4D
$GPGGA,152215.800,4308.3639,N,07729.5645,W,1,06,1.40,123.2,M,-34.4,M,,*50
lng=-77.492767, lat=43.139427, altitude=123.50, speed=38.89, satellites=6, angle=152.4000, fixquality=1
$GPRMC,152216.000,A,4308.3618,N,07729.5633,W,38.88,153.96,220419,,,A*4B
$GPGGA,152216.200,4308.3597,N,07729.5622,W,1,06,1.40,122.9,M,-34.4,M,,*55
lng=-77.492721, lat=43.139362, altitude=123.20, speed=38.88, satellites=6, angle=153.9600, fixquality=1
$GPRMC,152216.400,A,4308.3577,N,07729.5612,W,38.65,156.46,220419,,,A*4D
$GPGGA,152216.600,4308.3557,N,07729.5602,W,1,06,1.40,122.6,M,-34.4,M,,*50
lng=-77.492683, lat=43.139297, altitude=122.90, speed=38.65, satellites=6, angle=156.4600, fixquality=1
$GPRMC,152216.800,A,4308.3536,N,07729.5592,W,38.72,157.62,220419,,,A*4E
$GPGGA,152217.000,4308.3516,N,07729.5582,W,1,06,1.40,122.3,M,-34.4,M,,*5C
lng=-77.492652, lat=43.139225, altitude=122.60, speed=38.72, satellites=6, angle=157.6200, fixquality=1
$GPRMC,152217.200,A,4308.3495,N,07729.5573,W,38.75,159.41,220419,,,A*4A
$GPGGA,152217.400,4308.3475,N,07729.5565,W,1,06,1.40,122.0,M,-34.4,M,,*56
lng=-77.492622, lat=43.139160, altitude=122.30, speed=38.75, satellites=6, angle=159.4100, fixquality=1
$GPRMC,152217.600,A,4308.3454,N,07729.5557,W,38.74,160.98,220419,,,A*4A
$GPGGA,152217.800,4308.3434,N,07729.5549,W,1,06,1.40,121.7,M,-34.4,M,,*55
lng=-77.492591, lat=43.139087, altitude=122.00, speed=38.74, satellites=6, angle=160.9800, fixquality=1
$GPRMC,152218.000,A,4308.3413,N,07729.5542,W,38.68,162.44,220419,,,A*4A
$GPGGA,152218.200,4308.3392,N,07729.5535,W,1,06,1.40,121.4,M,-34.4,M,,*53
lng=-77.492568, lat=43.139022, altitude=121.70, speed=38.68, satellites=6, angle=162.4400, fixquality=1
$GPRMC,152218.400,A,4308.3371,N,07729.5527,W,38.97,163.59,220419,,,A*43
$GPGGA,152218.600,4308.3350,N,07729.5520,W,1,06,1.40,121.1,M,-34.4,M,,*58
lng=-77.492546, lat=43.138950, altitude=121.40, speed=38.97, satellites=6, angle=163.5900, fixquality=1
$GPRMC,152218.800,A,4308.3328,N,07729.5512,W,39.09,164.27,220419,,,A*4D
$GPGGA,152219.000,4308.3307,N,07729.5505,W,1,06,1.40,120.8,M,-34.4,M,,*52
lng=-77.492523, lat=43.138881, altitude=121.10, speed=39.09, satellites=6, angle=164.2700, fixquality=1
$GPRMC,152219.200,A,4308.3286,N,07729.5498,W,39.08,165.05,220419,,,A*40
$GPGGA,152219.400,4308.3264,N,07729.5492,W,1,06,1.40,120.5,M,-34.4,M,,*50
lng=-77.492500, lat=43.138809, altitude=120.80, speed=39.08, satellites=6, angle=165.0500, fixquality=1
$GPRMC,152219.600,A,4308.3242,N,07729.5485,W,39.17,165.65,220419,,,A*48
$GPGGA,152219.800,4308.3221,N,07729.5478,W,1,06,1.40,120.2,M,-34.4,M,,*5E
lng=-77.492469, lat=43.138736, altitude=120.50, speed=39.17, satellites=6, angle=165.6500, fixquality=1
$GPRMC,152220.000,A,4308.3199,N,07729.5471,W,39.42,166.36,220419,,,A*4F
$GPGGA,152220.200,4308.3176,N,07729.5466,W,1,06,1.40,119.8,M,-34.4,M,,*50
lng=-77.492446, lat=43.138664, altitude=120.20, speed=39.42, satellites=6, angle=166.3600, fixquality=1
$GPRMC,152220.400,A,4308.3152,N,07729.5461,W,40.45,167.59,220419,,,A*4C
$GPGGA,152220.600,4308.3128,N,07729.5455,W,1,06,1.40,119.5,M,-34.4,M,,*52
lng=-77.492431, lat=43.138591, altitude=119.80, speed=40.45, satellites=6, angle=167.5900, fixquality=1
$GPRMC,152220.800,A,4308.3104,N,07729.5448,W,41.46,167.62,220419,,,A*42
$GPGGA,152221.000,4308.3080,N,07729.5442,W,1,06,1.40,119.2,M,-34.4,M,,*57
lng=-77.492416, lat=43.138507, altitude=119.50, speed=41.46, satellites=6, angle=167.6200, fixquality=1
$GPRMC,152221.200,A,4308.3056,N,07729.5436,W,42.30,167.72,220419,,,A*45
$GPGGA,152221.400,4308.3032,N,07729.5430,W,1,06,1.40,118.9,M,-34.4,M,,*55
lng=-77.492393, lat=43.138427, altitude=119.20, speed=42.30, satellites=6, angle=167.7200, fixquality=1
$GPRMC,152221.600,A,4308.3008,N,07729.5423,W,42.63,167.70,220419,,,A*4A
$GPGGA,152221.800,4308.2985,N,07729.5416,W,1,06,1.40,118.6,M,-34.4,M,,*56
lng=-77.492378, lat=43.138347, altitude=118.90, speed=42.63, satellites=6, angle=167.7000, fixquality=1
$GPRMC,152222.000,A,4308.2961,N,07729.5408,W,42.72,167.47,220419,,,A*45
$GPGGA,152222.200,4308.2938,N,07729.5401,W,1,06,1.40,118.2,M,-34.4,M,,*5B
lng=-77.492347, lat=43.138263, altitude=118.60, speed=42.72, satellites=6, angle=167.4700, fixquality=1
$GPRMC,152222.400,A,4308.2915,N,07729.5394,W,42.68,166.92,220419,,,A*42
$GPGGA,152222.600,4308.2891,N,07729.5386,W,1,06,1.40,117.9,M,-34.4,M,,*51
lng=-77.492324, lat=43.138191, altitude=118.20, speed=42.68, satellites=6, angle=166.9200, fixquality=1
$GPRMC,152222.800,A,4308.2867,N,07729.5378,W,42.96,166.37,220419,,,A*46
$GPGGA,152223.000,4308.2840,N,07729.5370,W,1,06,1.40,117.5,M,-34.4,M,,*5F
lng=-77.492294, lat=43.138111, altitude=117.90, speed=42.96, satellites=6, angle=166.3700, fixquality=1
$GPRMC,152223.200,A,4308.2816,N,07729.5362,W,43.23,165.63,220419,,,A*4D
$GPGGA,152223.400,4308.2791,N,07729.5353,W,1,06,1.40,117.2,M,-34.4,M,,*5E
lng=-77.492271, lat=43.138027, altitude=117.50, speed=43.23, satellites=6, angle=165.6300, fixquality=1
$GPRMC,152223.600,A,4308.2766,N,07729.5344,W,43.65,165.10,220419,,,A*43
$GPGGA,152223.800,4308.2742,N,07729.5335,W,1,06,1.40,116.9,M,-34.4,M,,*56
lng=-77.492233, lat=43.137939, altitude=117.20, speed=43.65, satellites=6, angle=165.1000, fixquality=1
$GPRMC,152224.000,A,4308.2715,N,07729.5327,W,43.90,164.50,220419,,,A*4C
$GPGGA,152224.200,4308.2689,N,07729.5318,W,1,06,1.40,116.6,M,-34.4,M,,*5D
lng=-77.492210, lat=43.137859, altitude=116.90, speed=43.90, satellites=6, angle=164.5000, fixquality=1
$GPRMC,152224.400,A,4308.2662,N,07729.5311,W,44.18,164.32,220419,,,A*4F
$GPGGA,152224.600,4308.2636,N,07729.5303,W,1,06,1.40,116.3,M,-34.4,M,,*52
lng=-77.492187, lat=43.137767, altitude=116.60, speed=44.18, satellites=6, angle=164.3200, fixquality=1
$GPRMC,152224.800,A,4308.2611,N,07729.5295,W,44.42,164.93,220419,,,A*4E
$GPGGA,152225.000,4308.2586,N,07729.5283,W,1,06,1.40,115.8,M,-34.4,M,,*5C
lng=-77.492156, lat=43.137687, altitude=116.30, speed=44.42, satellites=6, angle=164.9300, fixquality=1
$GPRMC,152225.200,A,4308.2559,N,07729.5274,W,44.15,165.92,220419,,,A*47
$GPGGA,152225.400,4308.2533,N,07729.5264,W,1,06,1.40,115.2,M,-34.4,M,,*55
lng=-77.492118, lat=43.137596, altitude=115.80, speed=44.15, satellites=6, angle=165.9200, fixquality=1
$GPRMC,152225.600,A,4308.2507,N,07729.5257,W,44.21,166.84,220419,,,A*4A
$GPGGA,152225.800,4308.2481,N,07729.5250,W,1,06,1.40,115.0,M,-34.4,M,,*54
lng=-77.492095, lat=43.137508, altitude=115.20, speed=44.21, satellites=6, angle=166.8400, fixquality=1
$GPRMC,152226.000,A,4308.2455,N,07729.5243,W,44.38,166.77,220419,,,A*48
$GPGGA,152226.200,4308.2429,N,07729.5237,W,1,06,1.40,114.7,M,-34.4,M,,*58
lng=-77.492073, lat=43.137428, altitude=115.00, speed=44.38, satellites=6, angle=166.7700, fixquality=1
$GPRMC,152226.400,A,4308.2403,N,07729.5230,W,44.39,166.60,220419,,,A*4C
$GPGGA,152226.600,4308.2377,N,07729.5223,W,1,06,1.40,114.5,M,-34.4,M,,*57
lng=-77.492050, lat=43.137336, altitude=114.70, speed=44.39, satellites=6, angle=166.6000, fixquality=1
$GPRMC,152226.800,A,4308.2351,N,07729.5216,W,44.56,166.75,220419,,,A*49
$GPGGA,152227.000,4308.2326,N,07729.5209,W,1,06,1.40,114.3,M,-34.4,M,,*5A
lng=-77.492027, lat=43.137248, altitude=114.50, speed=44.56, satellites=6, angle=166.7500, fixquality=1
$GPRMC,152227.200,A,4308.2300,N,07729.5202,W,44.23,166.71,220419,,,A*45
$GPGGA,152227.400,4308.2275,N,07729.5195,W,1,06,1.40,114.1,M,-34.4,M,,*5D
lng=-77.491996, lat=43.137165, altitude=114.30, speed=44.23, satellites=6, angle=166.7100, fixquality=1
$GPRMC,152227.600,A,4308.2251,N,07729.5188,W,44.02,166.85,220419,,,A*4D
$GPGGA,152227.800,4308.2226,N,07729.5180,W,1,06,1.40,113.9,M,-34.4,M,,*5C
lng=-77.491981, lat=43.137084, altitude=114.10, speed=44.02, satellites=6, angle=166.8500, fixquality=1
$GPRMC,152228.000,A,4308.2200,N,07729.5173,W,44.11,166.85,220419,,,A*46
$GPGGA,152228.200,4308.2175,N,07729.5166,W,1,06,1.40,113.8,M,-34.4,M,,*55
lng=-77.491950, lat=43.137004, altitude=113.90, speed=44.11, satellites=6, angle=166.8500, fixquality=1
$GPRMC,152228.400,A,4308.2149,N,07729.5159,W,44.17,167.09,220419,,,A*47
$GPGGA,152228.600,4308.2125,N,07729.5152,W,1,06,1.40,113.6,M,-34.4,M,,*5D
lng=-77.491935, lat=43.136913, altitude=113.80, speed=44.17, satellites=6, angle=167.0900, fixquality=1
$GPRMC,152228.800,A,4308.2100,N,07729.5144,W,43.80,166.88,220419,,,A*4B
$GPGGA,152229.000,4308.2075,N,07729.5137,W,1,06,1.40,113.4,M,-34.4,M,,*5F
lng=-77.491905, lat=43.136833, altitude=113.60, speed=43.80, satellites=6, angle=166.8800, fixquality=1
$GPRMC,152229.200,A,4308.2049,N,07729.5131,W,43.60,166.83,220419,,,A*4B
$GPGGA,152229.400,4308.2024,N,07729.5125,W,1,06,1.40,113.2,M,-34.4,M,,*5A
lng=-77.491889, lat=43.136753, altitude=113.40, speed=43.60, satellites=6, angle=166.8300, fixquality=1
$GPRMC,152229.600,A,4308.2000,N,07729.5118,W,43.49,166.86,220419,,,A*47
$GPGGA,152229.800,4308.1976,N,07729.5111,W,1,06,1.40,113.0,M,-34.4,M,,*5E
lng=-77.491859, lat=43.136669, altitude=113.20, speed=43.49, satellites=6, angle=166.8600, fixquality=1
$GPRMC,152230.000,A,4308.1951,N,07729.5104,W,43.37,166.97,220419,,,A*43
$GPGGA,152230.200,4308.1928,N,07729.5097,W,1,05,1.65,112.8,M,-34.4,M,,*55
lng=-77.491836, lat=43.136589, altitude=113.00, speed=43.37, satellites=6, angle=166.9700, fixquality=1
$GPRMC,152230.400,A,4308.1902,N,07729.5092,W,43.09,167.39,220419,,,A*47
$GPGGA,152230.600,4308.1879,N,07729.5085,W,1,06,1.40,112.6,M,-34.4,M,,*5D
lng=-77.491821, lat=43.136508, altitude=112.80, speed=43.09, satellites=5, angle=167.3900, fixquality=1
$GPRMC,152230.800,A,4308.1855,N,07729.5077,W,42.82,167.18,220419,,,A*42
$GPGGA,152231.000,4308.1831,N,07729.5071,W,1,06,1.40,112.4,M,-34.4,M,,*5F
lng=-77.491798, lat=43.136425, altitude=112.60, speed=42.82, satellites=6, angle=167.1800, fixquality=1
$GPRMC,152231.200,A,4308.1806,N,07729.5065,W,42.79,167.07,220419,,,A*46
$GPGGA,152231.400,4308.1782,N,07729.5059,W,1,06,1.40,112.2,M,-34.4,M,,*50
lng=-77.491775, lat=43.136344, altitude=112.40, speed=42.79, satellites=6, angle=167.0700, fixquality=1
$GPRMC,152231.600,A,4308.1758,N,07729.5054,W,42.74,167.16,220419,,,A*49
$GPGGA,152231.800,4308.1733,N,07729.5048,W,1,06,1.40,112.0,M,-34.4,M,,*54
lng=-77.491752, lat=43.136264, altitude=112.20, speed=42.74, satellites=6, angle=167.1600, fixquality=1
$GPRMC,152232.000,A,4308.1709,N,07729.5043,W,42.73,167.07,220419,,,A*49
$GPGGA,152232.200,4308.1685,N,07729.5037,W,1,06,1.40,111.7,M,-34.4,M,,*5D
lng=-77.491737, lat=43.136180, altitude=112.00, speed=42.73, satellites=6, angle=167.0700, fixquality=1
$GPRMC,152232.400,A,4308.1661,N,07729.5030,W,42.67,166.94,220419,,,A*48
$GPGGA,152232.600,4308.1638,N,07729.5023,W,1,06,1.40,111.5,M,-34.4,M,,*58
lng=-77.491714, lat=43.136100, altitude=111.70, speed=42.67, satellites=6, angle=166.9400, fixquality=1
$GPRMC,152232.800,A,4308.1614,N,07729.5017,W,42.59,166.85,220419,,,A*4E
$GPGGA,152233.000,4308.1591,N,07729.5011,W,1,06,1.40,111.3,M,-34.4,M,,*58
lng=-77.491691, lat=43.136028, altitude=111.50, speed=42.59, satellites=6, angle=166.8500, fixquality=1
$GPRMC,152233.200,A,4308.1567,N,07729.5004,W,42.50,167.04,220419,,,A*41
$GPGGA,152233.400,4308.1544,N,07729.4998,W,1,06,1.40,111.0,M,-34.4,M,,*5E
lng=-77.491676, lat=43.135944, altitude=111.30, speed=42.50, satellites=6, angle=167.0400, fixquality=1
$GPRMC,152233.600,A,4308.1520,N,07729.4991,W,42.39,167.13,220419,,,A*4B
$GPGGA,152233.800,4308.1497,N,07729.4986,W,1,06,1.40,110.7,M,-34.4,M,,*54
lng=-77.491653, lat=43.135864, altitude=111.00, speed=42.39, satellites=6, angle=167.1300, fixquality=1
$GPRMC,152234.000,A,4308.1473,N,07729.4980,W,42.39,167.48,220419,,,A*43
$GPGGA,152234.200,4308.1448,N,07729.4974,W,1,06,1.40,110.5,M,-34.4,M,,*54
lng=-77.491630, lat=43.135791, altitude=110.70, speed=42.39, satellites=6, angle=167.4800, fixquality=1
$GPRMC,152234.400,A,4308.1424,N,07729.4968,W,43.16,167.59,220419,,,A*4F
$GPGGA,152234.600,4308.1400,N,07729.4961,W,1,06,1.40,110.2,M,-34.4,M,,*5F
lng=-77.491607, lat=43.135707, altitude=110.50, speed=43.16, satellites=6, angle=167.5900, fixquality=1
$GPRMC,152234.800,A,4308.1376,N,07729.4954,W,43.22,167.44,220419,,,A*47
$GPGGA,152235.000,4308.1352,N,07729.4948,W,1,06,1.40,109.9,M,-34.4,M,,*50
lng=-77.491592, lat=43.135627, altitude=110.20, speed=43.22, satellites=6, angle=167.4400, fixquality=1
$GPRMC,152235.200,A,4308.1329,N,07729.4941,W,43.16,167.49,220419,,,A*48
$GPGGA,152235.400,4308.1305,N,07729.4935,W,1,06,1.40,109.6,M,-34.4,M,,*53
lng=-77.491569, lat=43.135547, altitude=109.90, speed=43.16, satellites=6, angle=167.4900, fixquality=1
$GPRMC,152235.600,A,4308.1282,N,07729.4928,W,42.95,167.74,220419,,,A*47
$GPGGA,152235.800,4308.1259,N,07729.4921,W,1,06,1.40,109.3,M,-34.4,M,,*57
lng=-77.491546, lat=43.135475, altitude=109.60, speed=42.95, satellites=6, angle=167.7400, fixquality=1
$GPRMC,152236.000,A,4308.1234,N,07729.4915,W,42.88,168.13,220419,,,A*43
$GPGGA,152236.200,4308.1210,N,07729.4910,W,1,06,1.40,109.0,M,-34.4,M,,*52
lng=-77.491531, lat=43.135391, altitude=109.30, speed=42.88, satellites=6, angle=168.1300, fixquality=1
$GPRMC,152236.400,A,4308.1185,N,07729.4904,W,42.88,168.90,220419,,,A*45
$GPGGA,152236.600,4308.1160,N,07729.4899,W,1,06,1.40,108.7,M,-34.4,M,,*54
lng=-77.491500, lat=43.135311, altitude=109.00, speed=42.88, satellites=6, angle=168.9000, fixquality=1
$GPRMC,152236.800,A,4308.1136,N,07729.4895,W,42.87,169.90,220419,,,A*46
$GPGGA,152237.000,4308.1111,N,07729.4892,W,1,06,1.40,108.4,M,-34.4,M,,*5D
lng=-77.491485, lat=43.135231, altitude=108.70, speed=42.87, satellites=6, angle=169.9000, fixquality=1
$GPRMC,152237.200,A,4308.1086,N,07729.4888,W,42.82,171.13,220419,,,A*4C
$GPGGA,152237.400,4308.1061,N,07729.4884,W,1,06,1.40,108.1,M,-34.4,M,,*5D
lng=-77.491477, lat=43.135139, altitude=108.40, speed=42.82, satellites=6, angle=171.1300, fixquality=1
$GPRMC,152237.600,A,4308.1036,N,07729.4882,W,42.73,172.59,220419,,,A*4A
$GPGGA,152237.800,4308.1011,N,07729.4881,W,1,06,1.40,107.7,M,-34.4,M,,*5A
lng=-77.491470, lat=43.135059, altitude=108.10, speed=42.73, satellites=6, angle=172.5900, fixquality=1
$GPRMC,152238.000,A,4308.0986,N,07729.4881,W,42.46,174.72,220419,,,A*4A
$GPGGA,152238.200,4308.0962,N,07729.4881,W,1,06,1.40,107.4,M,-34.4,M,,*50
lng=-77.491470, lat=43.134975, altitude=107.70, speed=42.46, satellites=6, angle=174.7200, fixquality=1
$GPRMC,152238.400,A,4308.0937,N,07729.4881,W,42.17,176.55,220419,,,A*47
$GPGGA,152238.600,4308.0912,N,07729.4881,W,1,06,1.40,107.0,M,-34.4,M,,*57
lng=-77.491470, lat=43.134895, altitude=107.40, speed=42.17, satellites=6, angle=176.5500, fixquality=1
$GPRMC,152238.800,A,4308.0887,N,07729.4883,W,42.12,178.51,220419,,,A*4C
$GPGGA,152239.000,4308.0862,N,07729.4884,W,1,06,1.40,106.7,M,-34.4,M,,*55
lng=-77.491470, lat=43.134815, altitude=107.00, speed=42.12, satellites=6, angle=178.5100, fixquality=1
$GPRMC,152239.200,A,4308.0838,N,07729.4885,W,41.89,179.75,220419,,,A*43
$GPGGA,152239.400,4308.0814,N,07729.4886,W,1,05,1.65,106.3,M,-34.4,M,,*52
lng=-77.491470, lat=43.134731, altitude=106.70, speed=41.89, satellites=6, angle=179.7500, fixquality=1
$GPRMC,152239.600,A,4308.0790,N,07729.4887,W,41.81,181.07,220419,,,A*42
$GPGGA,152239.800,4308.0766,N,07729.4889,W,1,05,1.65,106.0,M,-34.4,M,,*58
lng=-77.491477, lat=43.134651, altitude=106.30, speed=41.81, satellites=5, angle=181.0700, fixquality=1
$GPRMC,152240.000,A,4308.0743,N,07729.4892,W,41.49,183.37,220419,,,A*45
$GPGGA,152240.200,4308.0719,N,07729.4896,W,1,05,1.65,105.6,M,-34.4,M,,*5F
lng=-77.491485, lat=43.134571, altitude=106.00, speed=41.49, satellites=5, angle=183.3700, fixquality=1
$GPRMC,152240.400,A,4308.0696,N,07729.4901,W,41.17,185.51,220419,,,A*4E
$GPGGA,152240.600,4308.0673,N,07729.4906,W,1,06,1.40,105.3,M,-34.4,M,,*5F
lng=-77.491500, lat=43.134498, altitude=105.60, speed=41.17, satellites=5, angle=185.5100, fixquality=1
$GPRMC,152240.800,A,4308.0650,N,07729.4911,W,40.94,187.03,220419,,,A*46
$GPGGA,152241.000,4308.0627,N,07729.4917,W,1,06,1.40,105.0,M,-34.4,M,,*5A
lng=-77.491523, lat=43.134414, altitude=105.30, speed=40.94, satellites=6, angle=187.0300, fixquality=1
$GPRMC,152241.200,A,4308.0604,N,07729.4921,W,40.39,187.92,220419,,,A*40
$GPGGA,152241.400,4308.0582,N,07729.4926,W,1,06,1.40,104.6,M,-34.4,M,,*57
lng=-77.491539, lat=43.134342, altitude=105.00, speed=40.39, satellites=6, angle=187.9200, fixquality=1
$GPRMC,152241.600,A,4308.0560,N,07729.4933,W,40.02,189.23,220419,,,A*4A
$GPGGA,152241.800,4308.0538,N,07729.4941,W,1,06,1.40,104.3,M,-34.4,M,,*5E
lng=-77.491554, lat=43.134269, altitude=104.60, speed=40.02, satellites=6, angle=189.2300, fixquality=1
$GPRMC,152242.000,A,4308.0516,N,07729.4949,W,40.31,191.35,220419,,,A*4D
$GPGGA,152242.200,4308.0493,N,07729.4958,W,1,06,1.40,104.0,M,-34.4,M,,*5C
lng=-77.491584, lat=43.134197, altitude=104.30, speed=40.31, satellites=6, angle=191.3500, fixquality=1
$GPRMC,152242.400,A,4308.0471,N,07729.4967,W,40.44,194.02,220419,,,A*46
$GPGGA,152242.600,4308.0450,N,07729.4976,W,1,06,1.40,103.7,M,-34.4,M,,*5B
lng=-77.491607, lat=43.134113, altitude=104.00, speed=40.44, satellites=6, angle=194.0200, fixquality=1
$GPRMC,152242.800,A,4308.0428,N,07729.4985,W,40.25,196.07,220419,,,A*4A
$GPGGA,152243.000,4308.0407,N,07729.4995,W,1,06,1.40,103.5,M,-34.4,M,,*51
lng=-77.491645, lat=43.134048, altitude=103.70, speed=40.25, satellites=6, angle=196.0700, fixquality=1
$GPRMC,152243.200,A,4308.0387,N,07729.5005,W,39.09,198.34,220419,,,A*4D
$GPGGA,152243.400,4308.0367,N,07729.5015,W,1,06,1.40,103.2,M,-34.4,M,,*53
lng=-77.491676, lat=43.133975, altitude=103.50, speed=39.09, satellites=6, angle=198.3400, fixquality=1
$GPRMC,152243.600,A,4308.0347,N,07729.5026,W,37.80,200.18,220419,,,A*47
$GPGGA,152243.800,4308.0328,N,07729.5037,W,1,06,1.40,102.9,M,-34.4,M,,*5E
lng=-77.491706, lat=43.133911, altitude=103.20, speed=37.80, satellites=6, angle=200.1800, fixquality=1
$GPRMC,152244.000,A,4308.0310,N,07729.5049,W,36.83,203.16,220419,,,A*42
$GPGGA,152244.200,4308.0292,N,07729.5062,W,1,06,1.40,102.7,M,-34.4,M,,*5D
lng=-77.491744, lat=43.133846, altitude=102.90, speed=36.83, satellites=6, angle=203.1600, fixquality=1
$GPRMC,152244.400,A,4308.0275,N,07729.5075,W,34.07,205.51,220419,,,A*40
$GPGGA,152244.600,4308.0259,N,07729.5088,W,1,06,1.40,102.4,M,-34.4,M,,*59
lng=-77.491790, lat=43.133789, altitude=102.70, speed=34.07, satellites=6, angle=205.5100, fixquality=1
$GPRMC,152244.800,A,4308.0243,N,07729.5100,W,32.65,207.36,220419,,,A*4B
$GPGGA,152245.000,4308.0227,N,07729.5112,W,1,06,1.40,102.2,M,-34.4,M,,*53
lng=-77.491828, lat=43.133739, altitude=102.40, speed=32.65, satellites=6, angle=207.3600, fixquality=1
$GPRMC,152245.200,A,4308.0212,N,07729.5125,W,30.96,209.24,220419,,,A*40
$GPGGA,152245.400,4308.0198,N,07729.5136,W,1,06,1.40,102.0,M,-34.4,M,,*54
lng=-77.491874, lat=43.133682, altitude=102.20, speed=30.96, satellites=6, angle=209.2400, fixquality=1
$GPRMC,152245.600,A,4308.0184,N,07729.5148,W,29.52,209.84,220419,,,A*49
$GPGGA,152245.800,4308.0170,N,07729.5160,W,1,06,1.40,101.8,M,-34.4,M,,*56
lng=-77.491912, lat=43.133644, altitude=102.00, speed=29.52, satellites=6, angle=209.8400, fixquality=1
$GPRMC,152246.000,A,4308.0157,N,07729.5172,W,28.11,211.00,220419,,,A*48
$GPGGA,152246.200,4308.0144,N,07729.5184,W,1,06,1.40,101.6,M,-34.4,M,,*5C
lng=-77.491950, lat=43.133594, altitude=101.80, speed=28.11, satellites=6, angle=211.0000, fixquality=1
$GPRMC,152246.400,A,4308.0131,N,07729.5195,W,27.07,211.24,220419,,,A*4B
$GPGGA,152246.600,4308.0119,N,07729.5206,W,1,06,1.40,101.5,M,-34.4,M,,*5A
lng=-77.491989, lat=43.133552, altitude=101.60, speed=27.07, satellites=6, angle=211.2400, fixquality=1
$GPRMC,152246.800,A,4308.0106,N,07729.5217,W,26.30,211.41,220419,,,A*4C
$GPGGA,152247.000,4308.0094,N,07729.5228,W,1,06,1.40,101.3,M,-34.4,M,,*53
lng=-77.492027, lat=43.133510, altitude=101.50, speed=26.30, satellites=6, angle=211.4100, fixquality=1
$GPRMC,152247.200,A,4308.0083,N,07729.5238,W,25.52,211.54,220419,,,A*45
$GPGGA,152247.400,4308.0071,N,07729.5249,W,1,06,1.40,101.1,M,-34.4,M,,*59
lng=-77.492065, lat=43.133472, altitude=101.30, speed=25.52, satellites=6, angle=211.5400, fixquality=1
$GPRMC,152247.600,A,4308.0060,N,07729.5258,W,24.76,211.51,220419,,,A*48
$GPGGA,152247.800,4308.0049,N,07729.5267,W,1,06,1.40,100.8,M,-34.4,M,,*5A
lng=-77.492095, lat=43.133430, altitude=101.10, speed=24.76, satellites=6, angle=211.5100, fixquality=1
$GPRMC,152248.000,A,4308.0039,N,07729.5276,W,23.72,211.67,220419,,,A*47
$GPGGA,152248.200,4308.0029,N,07729.5285,W,1,06,1.40,100.5,M,-34.4,M,,*58
lng=-77.492134, lat=43.133399, altitude=100.80, speed=23.72, satellites=6, angle=211.6700, fixquality=1
$GPRMC,152248.400,A,4308.0019,N,07729.5294,W,22.12,212.54,220419,,,A*49
$GPGGA,152248.600,4308.0010,N,07729.5302,W,1,06,1.40,100.2,M,-34.4,M,,*5F
lng=-77.492156, lat=43.133365, altitude=100.50, speed=22.12, satellites=6, angle=212.5400, fixquality=1
$GPRMC,152248.800,A,4308.0001,N,07729.5310,W,20.57,213.42,220419,,,A*44
$GPGGA,152249.000,4307.9994,N,07729.5318,W,1,06,1.40,99.8,M,-34.4,M,,*6B
lng=-77.492179, lat=43.133335, altitude=100.20, speed=20.57, satellites=6, angle=213.4200, fixquality=1
$GPRMC,152249.200,A,4307.9986,N,07729.5325,W,18.85,216.56,220419,,,A*4D
$GPGGA,152249.400,4307.9979,N,07729.5334,W,1,06,1.40,99.5,M,-34.4,M,,*6F
lng=-77.492210, lat=43.133308, altitude=99.80, speed=18.85, satellites=6, angle=216.5600, fixquality=1
$GPRMC,152249.600,A,4307.9972,N,07729.5342,W,17.80,220.75,220419,,,A*4D
$GPGGA,152249.800,4307.9966,N,07729.5350,W,1,06,1.40,99.3,M,-34.4,M,,*69
lng=-77.492233, lat=43.133285, altitude=99.50, speed=17.80, satellites=6, angle=220.7500, fixquality=1
$GPRMC,152250.000,A,4307.9962,N,07729.5358,W,15.24,227.43,220419,,,A*47
$GPGGA,152250.200,4307.9957,N,07729.5365,W,1,06,1.46,99.1,M,-34.4,M,,*6B
lng=-77.492263, lat=43.133266, altitude=99.30, speed=15.24, satellites=6, angle=227.4300, fixquality=1
$GPRMC,152250.400,A,4307.9954,N,07729.5373,W,15.81,232.05,220419,,,A*46
$GPGGA,152250.600,4307.9950,N,07729.5377,W,1,06,1.40,98.7,M,-34.4,M,,*6A
lng=-77.492286, lat=43.133258, altitude=99.10, speed=15.81, satellites=6, angle=232.0500, fixquality=1
$GPRMC,152250.800,A,4307.9947,N,07729.5387,W,16.84,238.31,220419,,,A*48
$GPGGA,152251.000,4307.9944,N,07729.5397,W,1,06,1.40,98.3,M,-34.4,M,,*62
lng=-77.492309, lat=43.133243, altitude=98.70, speed=16.84, satellites=6, angle=238.3100, fixquality=1
$GPRMC,152251.200,A,4307.9940,N,07729.5410,W,16.95,240.41,220419,,,A*45
$GPGGA,152251.400,4307.9937,N,07729.5422,W,1,06,1.40,98.1,M,-34.4,M,,*69
lng=-77.492347, lat=43.133235, altitude=98.30, speed=16.95, satellites=6, angle=240.4100, fixquality=1
$GPRMC,152251.600,A,4307.9935,N,07729.5433,W,16.93,242.47,220419,,,A*40
$GPGGA,152251.800,4307.9934,N,07729.5446,W,1,06,1.40,97.9,M,-34.4,M,,*63
lng=-77.492393, lat=43.133228, altitude=98.10, speed=16.93, satellites=6, angle=242.4700, fixquality=1
$GPRMC,152252.000,A,4307.9934,N,07729.5457,W,16.25,249.35,220419,,,A*45
$GPGGA,152252.200,4307.9936,N,07729.5471,W,1,06,1.40,97.7,M,-34.4,M,,*62
lng=-77.492431, lat=43.133220, altitude=97.90, speed=16.25, satellites=6, angle=249.3500, fixquality=1
$GPRMC,152252.400,A,4307.9940,N,07729.5484,W,16.28,260.04,220419,,,A*48
$GPGGA,152252.600,4307.9944,N,07729.5497,W,1,06,1.40,97.4,M,-34.4,M,,*68
lng=-77.492469, lat=43.133235, altitude=97.70, speed=16.28, satellites=6, angle=260.0400, fixquality=1
$GPRMC,152252.800,A,4307.9948,N,07729.5510,W,16.37,266.24,220419,,,A*4A
$GPGGA,152253.000,4307.9952,N,07729.5524,W,1,06,1.40,97.1,M,-34.4,M,,*64
lng=-77.492515, lat=43.133243, altitude=97.40, speed=16.37, satellites=6, angle=266.2400, fixquality=1
$GPRMC,152253.200,A,4307.9962,N,07729.5538,W,17.16,276.28,220419,,,A*4C
$GPGGA,152253.400,4307.9971,N,07729.5553,W,1,06,1.46,96.8,M,-34.4,M,,*6F
lng=-77.492561, lat=43.133266, altitude=97.10, speed=17.16, satellites=6, angle=276.2800, fixquality=1
$GPRMC,152253.600,A,4307.9981,N,07729.5568,W,18.87,286.00,220419,,,A*42
$GPGGA,152253.800,4307.9991,N,07729.5583,W,1,06,1.46,96.5,M,-34.4,M,,*6D
lng=-77.492607, lat=43.133300, altitude=96.80, speed=18.87, satellites=6, angle=286.0000, fixquality=1
$GPRMC,152254.000,A,4308.0000,N,07729.5599,W,20.99,292.65,220419,,,A*49
$GPGGA,152254.200,4308.0010,N,07729.5615,W,1,06,1.46,96.3,M,-34.4,M,,*6C
lng=-77.492668, lat=43.133335, altitude=96.50, speed=20.99, satellites=6, angle=292.6500, fixquality=1
$GPRMC,152254.400,A,4308.0020,N,07729.5631,W,22.80,296.57,220419,,,A*41
$GPGGA,152254.600,4308.0031,N,07729.5647,W,1,06,1.46,95.9,M,-34.4,M,,*65
lng=-77.492713, lat=43.133365, altitude=96.30, speed=22.80, satellites=6, angle=296.5700, fixquality=1
$GPRMC,152254.800,A,4308.0041,N,07729.5664,W,24.31,299.55,220419,,,A*4B
$GPGGA,152255.000,4308.0057,N,07729.5681,W,1,06,1.46,95.6,M,-34.4,M,,*67
lng=-77.492774, lat=43.133399, altitude=95.90, speed=24.31, satellites=6, angle=299.5500, fixquality=1
$GPRMC,152255.200,A,4308.0070,N,07729.5699,W,27.46,305.04,220419,,,A*43
$GPGGA,152255.400,4308.0082,N,07729.5716,W,1,06,1.40,95.3,M,-34.4,M,,*67
lng=-77.492828, lat=43.133445, altitude=95.60, speed=27.46, satellites=6, angle=305.0400, fixquality=1
$GPRMC,152255.600,A,4308.0094,N,07729.5734,W,28.98,306.64,220419,,,A*42
$GPGGA,152255.800,4308.0106,N,07729.5752,W,1,06,1.40,94.9,M,-34.4,M,,*6D
lng=-77.492889, lat=43.133487, altitude=95.30, speed=28.98, satellites=6, angle=306.6400, fixquality=1
$GPRMC,152256.000,A,4308.0117,N,07729.5771,W,30.19,306.74,220419,,,A*4D
$GPGGA,152256.200,4308.0128,N,07729.5790,W,1,06,1.40,94.6,M,-34.4,M,,*69
lng=-77.492950, lat=43.133529, altitude=94.90, speed=30.19, satellites=6, angle=306.7400, fixquality=1
$GPRMC,152256.400,A,4308.0139,N,07729.5810,W,31.41,306.31,220419,,,A*40
$GPGGA,152256.600,4308.0151,N,07729.5830,W,1,06,1.40,94.2,M,-34.4,M,,*62
lng=-77.493019, lat=43.133560, altitude=94.60, speed=31.41, satellites=6, angle=306.3100, fixquality=1
$GPRMC,152256.800,A,4308.0162,N,07729.5850,W,32.42,305.54,220419,,,A*46
$GPGGA,152257.000,4308.0173,N,07729.5871,W,1,06,1.40,93.8,M,-34.4,M,,*6D
lng=-77.493080, lat=43.133602, altitude=94.20, speed=32.42, satellites=6, angle=305.5400, fixquality=1
$GPRMC,152257.200,A,4308.0184,N,07729.5892,W,33.24,304.79,220419,,,A*44
$GPGGA,152257.400,4308.0195,N,07729.5913,W,1,06,1.40,93.4,M,-34.4,M,,*68
lng=-77.493156, lat=43.133644, altitude=93.80, speed=33.24, satellites=6, angle=304.7900, fixquality=1
$GPRMC,152257.600,A,4308.0207,N,07729.5935,W,33.79,304.50,220419,,,A*47
$GPGGA,152257.800,4308.0218,N,07729.5956,W,1,06,1.40,93.0,M,-34.4,M,,*67
lng=-77.493217, lat=43.133674, altitude=93.40, speed=33.79, satellites=6, angle=304.5000, fixquality=1
$GPRMC,152258.000,A,4308.0230,N,07729.5978,W,34.01,304.43,220419,,,A*49
$GPGGA,152258.200,4308.0241,N,07729.5999,W,1,06,1.40,92.7,M,-34.4,M,,*6B
lng=-77.493293, lat=43.133716, altitude=93.00, speed=34.01, satellites=6, angle=304.4300, fixquality=1
$GPRMC,152258.400,A,4308.0253,N,07729.6021,W,34.25,304.70,220419,,,A*48
$GPGGA,152258.600,4308.0264,N,07729.6044,W,1,06,1.40,92.2,M,-34.4,M,,*67
lng=-77.493370, lat=43.133754, altitude=92.70, speed=34.25, satellites=6, angle=304.7000, fixquality=1
$GPRMC,152258.800,A,4308.0276,N,07729.6066,W,34.41,305.08,220419,,,A*4C
$GPGGA,152259.000,4308.0288,N,07729.6089,W,1,06,1.40,91.9,M,-34.4,M,,*6B
lng=-77.493438, lat=43.133796, altitude=92.20, speed=34.41, satellites=6, angle=305.0800, fixquality=1
$GPRMC,152259.200,A,4308.0300,N,07729.6111,W,34.61,305.00,220419,,,A*4C
$GPGGA,152259.400,4308.0311,N,07729.6134,W,1,06,1.40,91.5,M,-34.4,M,,*65
lng=-77.493522, lat=43.133831, altitude=91.90, speed=34.61, satellites=6, angle=305.0000, fixquality=1
$GPRMC,152259.600,A,4308.0324,N,07729.6157,W,34.84,305.22,220419,,,A*47
$GPGGA,152259.800,4308.0336,N,07729.6180,W,1,06,1.40,91.1,M,-34.4,M,,*67
lng=-77.493598, lat=43.133869, altitude=91.50, speed=34.84, satellites=6, angle=305.2200, fixquality=1
$GPRMC,152300.000,A,4308.0347,N,07729.6204,W,35.09,304.86,220419,,,A*47
$GPGGA,152300.200,4308.0359,N,07729.6227,W,1,06,1.40,90.8,M,-34.4,M,,*6F
lng=-77.493675, lat=43.133911, altitude=91.10, speed=35.09, satellites=6, angle=304.8600, fixquality=1
$GPRMC,152300.400,A,4308.0370,N,07729.6250,W,35.29,304.64,220419,,,A*48
$GPGGA,152300.600,4308.0382,N,07729.6273,W,1,06,1.40,90.5,M,-34.4,M,,*61
lng=-77.493751, lat=43.133953, altitude=90.80, speed=35.29, satellites=6, angle=304.6400, fixquality=1
$GPRMC,152300.800,A,4308.0393,N,07729.6296,W,35.84,304.49,220419,,,A*4B
$GPGGA,152301.000,4308.0405,N,07729.6319,W,1,06,1.40,90.2,M,-34.4,M,,*64
lng=-77.493820, lat=43.133983, altitude=90.50, speed=35.84, satellites=6, angle=304.4900, fixquality=1
$GPRMC,152301.200,A,4308.0416,N,07729.6341,W,35.64,304.40,220419,,,A*46
$GPGGA,152301.400,4308.0427,N,07729.6364,W,1,06,1.40,89.9,M,-34.4,M,,*69
lng=-77.493904, lat=43.134025, altitude=90.20, speed=35.64, satellites=6, angle=304.4000, fixquality=1
$GPRMC,152301.600,A,4308.0438,N,07729.6386,W,35.58,304.33,220419,,,A*4E
$GPGGA,152301.800,4308.0448,N,07729.6407,W,1,06,1.40,89.6,M,-34.4,M,,*61
lng=-77.493980, lat=43.134067, altitude=89.90, speed=35.58, satellites=6, angle=304.3300, fixquality=1
$GPRMC,152302.000,A,4308.0459,N,07729.6429,W,32.97,304.46,220419,,,A*48
$GPGGA,152302.200,4308.0469,N,07729.6449,W,1,06,1.40,89.3,M,-34.4,M,,*64
lng=-77.494049, lat=43.134098, altitude=89.60, speed=32.97, satellites=6, angle=304.4600, fixquality=1
$GPRMC,152302.400,A,4308.0478,N,07729.6469,W,31.23,304.19,220419,,,A*4D
$GPGGA,152302.600,4308.0488,N,07729.6489,W,1,06,1.40,89.0,M,-34.4,M,,*60
lng=-77.494117, lat=43.134132, altitude=89.30, speed=31.23, satellites=6, angle=304.1900, fixquality=1
$GPRMC,152302.800,A,4308.0497,N,07729.6507,W,28.86,304.69,220419,,,A*49
$GPGGA,152303.000,4308.0506,N,07729.6524,W,1,06,1.40,88.7,M,-34.4,M,,*60
lng=-77.494178, lat=43.134162, altitude=89.00, speed=28.86, satellites=6, angle=304.6900, fixquality=1
$GPRMC,152303.200,A,4308.0515,N,07729.6541,W,25.66,306.72,220419,,,A*40
$GPGGA,152303.400,4308.0522,N,07729.6556,W,1,06,1.46,88.5,M,-34.4,M,,*63
lng=-77.494239, lat=43.134189, altitude=88.70, speed=25.66, satellites=6, angle=306.7200, fixquality=1
$GPRMC,152303.600,A,4308.0530,N,07729.6571,W,23.34,305.57,220419,,,A*45
$GPGGA,152303.800,4308.0537,N,07729.6584,W,1,06,1.40,88.2,M,-34.4,M,,*65
lng=-77.494285, lat=43.134220, altitude=88.50, speed=23.34, satellites=6, angle=305.5700, fixquality=1
$GPRMC,152304.000,A,4308.0543,N,07729.6597,W,20.65,304.71,220419,,,A*4A
$GPGGA,152304.200,4308.0549,N,07729.6610,W,1,06,1.46,88.0,M,-34.4,M,,*6B
lng=-77.494331, lat=43.134235, altitude=88.20, speed=20.65, satellites=6, angle=304.7100, fixquality=1
$GPRMC,152304.400,A,4308.0555,N,07729.6621,W,18.18,304.93,220419,,,A*4A
$GPGGA,152304.600,4308.0561,N,07729.6632,W,1,06,1.40,87.7,M,-34.4,M,,*6B
lng=-77.494369, lat=43.134262, altitude=88.00, speed=18.18, satellites=6, angle=304.9300, fixquality=1
$GPRMC,152304.800,A,4308.0566,N,07729.6642,W,16.11,305.08,220419,,,A*47
$GPGGA,152305.000,4308.0571,N,07729.6652,W,1,06,1.46,87.5,M,-34.4,M,,*6F
lng=-77.494400, lat=43.134277, altitude=87.70, speed=16.11, satellites=6, angle=305.0800, fixquality=1
$GPRMC,152305.200,A,4308.0575,N,07729.6661,W,12.95,303.01,220419,,,A*48
$GPGGA,152305.400,4308.0579,N,07729.6669,W,1,06,1.40,87.3,M,-34.4,M,,*6B
lng=-77.494430, lat=43.134292, altitude=87.50, speed=12.95, satellites=6, angle=303.0100, fixquality=1
$GPRMC,152305.600,A,4308.0583,N,07729.6676,W,10.85,300.20,220419,,,A*40
$GPGGA,152305.800,4308.0587,N,07729.6682,W,1,06,1.40,87.0,M,-34.4,M,,*60
lng=-77.494461, lat=43.134300, altitude=87.30, speed=10.85, satellites=6, angle=300.2000, fixquality=1
$GPRMC,152306.000,A,4308.0590,N,07729.6688,W,9.45,298.68,220419,,,A*7E
$GPGGA,152306.200,4308.0593,N,07729.6694,W,1,06,1.40,86.8,M,-34.4,M,,*62
lng=-77.494483, lat=43.134319, altitude=87.00, speed=9.45, satellites=6, angle=298.6800, fixquality=1
$GPRMC,152306.400,A,4308.0596,N,07729.6699,W,8.11,300.48,220419,,,A*7E
$GPGGA,152306.600,4308.0598,N,07729.6703,W,1,06,1.40,86.6,M,-34.4,M,,*6C
lng=-77.494499, lat=43.134326, altitude=86.80, speed=8.11, satellites=6, angle=300.4800, fixquality=1
$GPRMC,152306.800,A,4308.0601,N,07729.6708,W,6.94,300.84,220419,,,A*75
$GPGGA,152307.000,4308.0603,N,07729.6712,W,1,06,1.40,86.4,M,-34.4,M,,*68
lng=-77.494514, lat=43.134334, altitude=86.60, speed=6.94, satellites=6, angle=300.8400, fixquality=1
