Vers 81
USE_SERIAL_FEEDBACK=true
DEVELOPMENT_MODE=false
USE_RMC_ONLY=false

$GPRMC,153551.750,A,4305.1461,N,07740.8145,W,0.04,113.30,220719,,,A*7F
$GPGGA,153552.000,4305.1453,N,07740.8144,W,1,03,6.68,184.4,M,-34.4,M,,*5B
$GPRMC,153552.250,A,4305.1452,N,07740.8143,W,0.07,122.89,220719,,,A*7C
$GPGGA,153552.500,4305.1447,N,07740.8141,W,1,03,6.70,184.4,M,-34.4,M,,*57
$GPRMC,153552.750,A,4305.1441,N,07740.8140,W,0.20,132.64,220719,,,A*7F
$GPGGA,153553.000,4305.1432,N,07740.8137,W,1,03,6.69,184.4,M,-34.4,M,,*58
$GPRMC,153553.250,A,4305.1424,N,07740.8135,W,0.27,151.74,220719,,,A*79
$GPGGA,153553.500,4305.1417,N,07740.8133,W,1,03,6.69,184.4,M,-34.4,M,,*5E
$GPRMC,153553.750,A,4305.1409,N,07740.8131,W,0.34,163.66,220719,,,A*77
$GPGGA,153554.000,4305.1403,N,07740.8130,W,1,03,6.70,184.4,M,-34.4,M,,*52
$GPRMC,153554.250,A,4305.1396,N,07740.8129,W,0.39,167.94,220719,,,A*79
$GPGGA,153554.500,4305.1392,N,07740.8128,W,1,03,6.70,184.4,M,-34.4,M,,*51
$GPRMC,153554.750,A,4305.1388,N,07740.8128,W,0.42,166.80,220719,,,A*7A
$GPGGA,153555.000,4305.1386,N,07740.8127,W,1,03,6.70,184.4,M,-34.4,M,,*5F
$GPRMC,153555.250,A,4305.1384,N,07740.8127,W,0.44,167.19,220719,,,A*7A
$GPGGA,153555.500,4305.1384,N,07740.8128,W,1,03,6.70,184.4,M,-34.4,M,,*57
$GPRMC,153555.750,A,4305.1384,N,07740.8129,W,0.45,177.62,220719,,,A*7D
$GPGGA,153556.000,4305.1385,N,07740.8129,W,1,03,6.70,184.4,M,-34.4,M,,*51
$GPGGA,153556.500,4305.1520,N,07740.8154,W,1,04,2.76,182.1,M,-34.4,M,,*51
$GPRMC,153556.500,A,4305.1520,N,07740.8154,W,0.22,191.61,220719,,A*71
$GPGGA,153556.750,4305.1543,N,07740.8158,W,1,04,2.75,182.0,M,-34.4,M,,*5D
$GPRMC,153556.750,A,4305.1543,N,07740.8158,W,0.25,189.88,220719$GPGGA,153557.000,4305.1557,N,07740.8160,W,1,04,2.75,181.9,M,-34.4,M,,*5A
$GPRMC,153557.250,A,4305.1565,N,07740.8161,W,0.64,170.09,220719,,,A*76
$GPGGA,153557.500,4305.1571,N,07740.8161,W,1,04,2.75,181.7,M,-34.4,M,,*54
$GPRMC,153557.750,A,4305.1575,N,07740.8162,W,0.82,164.83,220719,,,A*7E
$GPGGA,153558.000,4305.1579,N,07740.8163,W,1,04,2.76,181.6,M,-34.4,M,,*56
$GPRMC,153558.250,A,4305.1582,N,07740.8163,W,0.70,162.22,220719,,,A*7D
$GPGGA,153558.500,4305.1583,N,07740.8163,W,1,04,2.75,181.5,M,-34.4,M,,*56
$GPRMC,153558.750,A,4305.1584,N,07740.8163,W,0.66,160.52,220719,,,A*7C
$GPGGA,153559.000,4305.1585,N,07740.8164,W,1,04,2.75,181.4,M,-34.4,M,,*52
$GPRMC,153559.250,A,4305.1585,N,07740.8164,W,0.66,164.78,220719,,,A*72
$GPGGA,153559.500,4305.1585,N,07740.8164,W,1,04,2.75,181.4,M,-34.4,M,,*57
$GPRMC,153559.750,A,4305.1585,N,07740.8164,W,0.63,167.43,220719,,,A*79
$GPGGA,153600.000,4305.1585,N,07740.8165,W,1,04,2.75,181.3,M,-34.4,M,,*5B
$GPRMC,153600.250,A,4305.1585,N,07740.8165,W,0.53,165.97,220719,,,A*7A
$GPGGA,153600.500,4305.1584,N,07740.8164,W,1,04,2.75,181.2,M,-34.4,M,,*5F
$GPRMC,153600.750,A,4305.1584,N,07740.8164,W,0.51,169.40,220719,,,A*7B
$GPGGA,153601.000,4305.1584,N,07740.8164,W,1,04,2.75,181.1,M,-34.4,M,,*58
$GPRMC,153601.250,A,4305.1583,N,07740.8164,W,0.50,173.24,220719,,,A*70
$GPGGA,153601.500,4305.1583,N,07740.8165,W,1,04,2.75,181.1,M,-34.4,M,,*5B
$GPRMC,153601.750,A,4305.1583,N,07740.8165,W,0.42,182.62,220719,,,A*7B
$GPGGA,153602.000,4305.1584,N,07740.8164,W,1,04,2.75,181.0,M,-34.4,M,,*5A
$GPRMC,153602.250,A,4305.1583,N,07740.8164,W,0.24,161.76,220719,,,A*74
$GPGGA,153602.500,4305.1583,N,07740.8163,W,1,07,1.66,180.3,M,-34.4,M,,*5F
$GPRMC,153602.750,A,4305.1581,N,07740.8163,W,0.09,106.46,220719,,,A*79
$GPGGA,153603.000,4305.1581,N,07740.8162,W,1,07,1.66,179.7,M,-34.4,M,,*5A
$GPRMC,153603.250,A,4305.1580,N,07740.8162,W,0.07,56.87,220719,,,A*4A
$GPGGA,153603.500,4305.1578,N,07740.8162,W,1,07,1.66,179.1,M,-34.4,M,,*5F
$GPRMC,153603.750,A,4305.1577,N,07740.8161,W,0.05,45.80,220719,,,A*43
$GPGGA,153604.000,4305.1576,N,07740.8161,W,1,07,1.66,178.5,M,-34.4,M,,*55
$GPRMC,153604.250,A,4305.1575,N,07740.8160,W,0.09,64.57,220719,,,A*47
$GPGGA,153604.500,4305.1576,N,07740.8160,W,1,07,1.66,178.3,M,-34.4,M,,*57
$GPRMC,153604.750,A,4305.1575,N,07740.8160,W,0.12,62.32,220719,,,A*4D
$GPGGA,153605.000,4305.1574,N,07740.8160,W,1,07,1.66,177.9,M,-34.4,M,,*54
$GPRMC,153605.250,A,4305.1574,N,07740.8160,W,0.11,24.60,220719,,,A*4E
$GPGGA,153605.500,4305.1573,N,07740.8160,W,1,07,1.66,177.5,M,-34.4,M,,*5A
$GPRMC,153605.750,A,4305.1572,N,07740.8160,W,0.03,37.22,220719,,,A*4A
$GPGGA,153606.000,4305.1571,N,07740.8159,W,1,07,1.66,177.2,M,-34.4,M,,*53
$GPRMC,153606.250,A,4305.1571,N,07740.8159,W,0.08,75.71,220719,,,A*4E
$GPGGA,153606.500,4305.1570,N,07740.8158,W,1,07,1.66,177.1,M,-34.4,M,,*55
$GPRMC,153606.750,A,4305.1570,N,07740.8158,W,0.12,79.62,220719,,,A*4E
$GPGGA,153607.000,4305.1570,N,07740.8158,W,1,07,1.66,176.9,M,-34.4,M,,*58
$GPRMC,153607.250,A,4305.1570,N,07740.8158,W,0.14,81.98,220719,,,A*4E
$GPGGA,153607.500,4305.1570,N,07740.8158,W,1,07,1.66,176.9,M,-34.4,M,,*5D
$GPRMC,153607.750,A,4305.1570,N,07740.8158,W,0.12,86.74,220719,,,A*48
$GPGGA,153608.000,4305.1570,N,07740.8158,W,1,07,1.66,176.7,M,-34.4,M,,*59
$GPRMC,153608.250,A,4305.1569,N,07740.8158,W,0.08,13.57,220719,,,A*4C
$GPGGA,153608.500,4305.1569,N,07740.8158,W,1,07,2.70,176.5,M,-34.4,M,,*52
$GPRMC,153608.750,A,4305.1568,N,07740.8158,W,0.14,351.04,220719,,,A*76
$GPGGA,153609.000,4305.1568,N,07740.8158,W,1,07,2.70,176.5,M,-34.4,M,,*57
$GPRMC,153609.250,A,4305.1567,N,07740.8158,W,0.01,324.88,220719,,,A*7F
$GPGGA,153609.500,4305.1566,N,07740.8158,W,1,07,1.66,176.4,M,-34.4,M,,*59
$GPRMC,153609.750,A,4305.1566,N,07740.8158,W,0.05,140.83,220719,,,A*74
$GPGGA,153610.000,4305.1565,N,07740.8157,W,1,07,1.66,176.3,M,-34.4,M,,*5F
$GPRMC,153610.250,A,4305.1565,N,07740.8157,W,0.13,138.31,220719,,,A*74
$GPGGA,153610.500,4305.1564,N,07740.8157,W,1,07,1.66,176.3,M,-34.4,M,,*5B
$GPRMC,153610.750,A,4305.1564,N,07740.8157,W,0.15,152.58,220719,,,A*75
$GPGGA,153611.000,4305.1564,N,07740.8157,W,1,07,1.66,176.3,M,-34.4,M,,*5F
$GPRMC,153611.250,A,4305.1564,N,07740.8156,W,0.20,146.73,220719,,,A*7A
$GPGGA,153611.500,4305.1563,N,07740.8156,W,1,07,1.66,176.3,M,-34.4,M,,*5C
$GPRMC,153611.750,A,4305.1564,N,07740.8156,W,0.20,146.43,220719,,,A*7C
$GPGGA,153612.000,4305.1564,N,07740.8156,W,1,07,1.66,176.3,M,-34.4,M,,*5D
$GPRMC,153612.250,A,4305.1564,N,07740.8156,W,0.13,129.21,220719,,,A*77
$GPGGA,153612.500,4305.1564,N,07740.8156,W,1,07,1.66,176.2,M,-34.4,M,,*59
$GPRMC,153612.750,A,4305.1564,N,07740.8155,W,0.16,132.05,220719,,,A*78
$GPGGA,153613.000,4305.1563,N,07740.8155,W,1,07,1.66,176.2,M,-34.4,M,,*59
$GPRMC,153613.250,A,4305.1563,N,07740.8155,W,0.23,139.94,220719,,,A*7E
$GPGGA,153613.500,4305.1563,N,07740.8154,W,1,07,1.66,176.2,M,-34.4,M,,*5D
$GPRMC,153613.750,A,4305.1563,N,07740.8154,W,0.19,134.12,220719,,,A*70
$GPGGA,153614.000,4305.1563,N,07740.8154,W,1,07,1.66,176.2,M,-34.4,M,,*5F
$GPRMC,153614.250,A,4305.1562,N,07740.8154,W,0.18,146.70,220719,,,A*73
$GPGGA,153614.500,4305.1562,N,07740.8154,W,1,07,1.66,176.2,M,-34.4,M,,*5B
$GPRMC,153614.750,A,4305.1562,N,07740.8154,W,0.19,174.94,220719,,,A*7C
$GPGGA,153615.000,4305.1562,N,07740.8153,W,1,07,1.66,176.3,M,-34.4,M,,*59
$GPRMC,153615.250,A,4305.1562,N,07740.8153,W,0.24,158.16,220719,,,A*75
$GPGGA,153615.500,4305.1562,N,07740.8153,W,1,07,1.66,176.4,M,-34.4,M,,*5B
$GPRMC,153615.750,A,4305.1562,N,07740.8153,W,0.15,166.79,220719,,,A*76
$GPGGA,153616.000,4305.1562,N,07740.8152,W,1,07,1.66,176.4,M,-34.4,M,,*5C
$GPRMC,153616.250,A,4305.1562,N,07740.8152,W,0.11,150.09,220719,,,A*77
$GPGGA,153616.500,4305.1561,N,07740.8152,W,1,07,1.66,176.4,M,-34.4,M,,*5A
$GPRMC,153616.750,A,4305.1561,N,07740.8153,W,0.24,184.35,220719,,,A*70
$GPGGA,153617.000,4305.1560,N,07740.8153,W,1,07,1.66,176.4,M,-34.4,M,,*5E
$GPRMC,153617.250,A,4305.1559,N,07740.8152,W,0.32,174.62,220719,,,A*74
$GPGGA,153617.500,4305.1559,N,07740.8152,W,1,07,1.67,176.5,M,-34.4,M,,*50
$GPRMC,153617.750,A,4305.1559,N,07740.8152,W,0.33,178.53,220719,,,A*7E
$GPGGA,153618.000,4305.1559,N,07740.8152,W,1,07,1.67,176.6,M,-34.4,M,,*59
$GPRMC,153618.250,A,4305.1559,N,07740.8152,W,0.23,191.16,220719,,,A*73
$GPGGA,153618.500,4305.1560,N,07740.8153,W,1,07,1.66,176.6,M,-34.4,M,,*56
$GPRMC,153618.750,A,4305.1559,N,07740.8153,W,0.22,203.03,220719,,,A*7A
$GPGGA,153619.000,4305.1559,N,07740.8152,W,1,07,1.66,176.7,M,-34.4,M,,*58
$GPRMC,153619.250,A,4305.1559,N,07740.8152,W,0.28,183.37,220719,,,A*79
$GPGGA,153619.500,4305.1559,N,07740.8152,W,1,07,1.66,176.8,M,-34.4,M,,*52
$GPRMC,153619.750,A,4305.1559,N,07740.8152,W,0.26,202.95,220719,,,A*70
$GPGGA,153620.000,4305.1558,N,07740.8152,W,1,07,1.66,176.9,M,-34.4,M,,*5D
$GPRMC,153620.250,A,4305.1559,N,07740.8152,W,0.22,187.81,220719,,,A*70
$GPGGA,153620.500,4305.1559,N,07740.8152,W,1,07,1.67,177.0,M,-34.4,M,,*50
$GPRMC,153620.750,A,4305.1559,N,07740.8152,W,0.16,188.05,220719,,,A*71
$GPGGA,153621.000,4305.1559,N,07740.8152,W,1,07,1.66,177.1,M,-34.4,M,,*54
$GPRMC,153621.250,A,4305.1560,N,07740.8152,W,0.12,212.11,220719,,,A*7E
$GPGGA,153621.500,4305.1560,N,07740.8152,W,1,07,1.67,177.1,M,-34.4,M,,*5A
$GPRMC,153621.750,A,4305.1560,N,07740.8153,W,0.20,241.65,220719,,,A*7E
$GPGGA,153622.000,4305.1559,N,07740.8153,W,1,07,1.67,177.2,M,-34.4,M,,*54
$GPRMC,153622.250,A,4305.1559,N,07740.8152,W,0.17,193.15,220719,,,A*7C
$GPGGA,153622.500,4305.1559,N,07740.8152,W,1,07,1.67,177.3,M,-34.4,M,,*51
$GPRMC,153622.750,A,4305.1559,N,07740.8152,W,0.17,187.78,220719,,,A*77
$GPGGA,153623.000,4305.1559,N,07740.8152,W,1,07,1.66,177.3,M,-34.4,M,,*54
$GPRMC,153623.250,A,4305.1559,N,07740.8152,W,0.15,190.81,220719,,,A*71
$GPGGA,153623.500,4305.1559,N,07740.8153,W,1,07,1.67,177.3,M,-34.4,M,,*51
$GPRMC,153623.750,A,4305.1559,N,07740.8153,W,0.18,210.01,220719,,,A*7B
$GPGGA,153624.000,4305.1559,N,07740.8153,W,1,07,1.67,177.3,M,-34.4,M,,*53
$GPRMC,153624.250,A,4305.1559,N,07740.8153,W,0.08,232.70,220719,,,A*7E
$GPGGA,153624.500,4305.1559,N,07740.8153,W,1,07,1.67,177.3,M,-34.4,M,,*56
$GPRMC,153624.750,A,4305.1558,N,07740.8153,W,0.12,245.81,220719,,,A*7F
$GPGGA,153625.000,4305.1558,N,07740.8153,W,1,07,1.67,177.3,M,-34.4,M,,*53
$GPRMC,153625.250,A,4305.1558,N,07740.8153,W,0.18,186.56,220719,,,A*77
$GPGGA,153625.500,4305.1558,N,07740.8153,W,1,07,1.66,177.3,M,-34.4,M,,*57
$GPRMC,153625.750,A,4305.1558,N,07740.8153,W,0.21,194.84,220719,,,A*74
$GPGGA,153626.000,4305.1558,N,07740.8153,W,1,07,1.67,177.3,M,-34.4,M,,*50
$GPRMC,153626.250,A,4305.1558,N,07740.8153,W,0.21,197.62,220719,,,A*79
$GPGGA,153626.500,4305.1558,N,07740.8153,W,1,07,1.67,177.3,M,-34.4,M,,*55
$GPRMC,153626.750,A,4305.1557,N,07740.8153,W,0.19,200.96,220719,,,A*7E
$GPGGA,153627.000,4305.1557,N,07740.8153,W,1,07,1.67,177.3,M,-34.4,M,,*5E
$GPRMC,153627.250,A,4305.1557,N,07740.8154,W,0.27,185.11,220719,,,A*71
$GPGGA,153627.500,4305.1557,N,07740.8154,W,1,07,1.67,177.3,M,-34.4,M,,*5C
$GPRMC,153627.750,A,4305.1557,N,07740.8153,W,0.31,168.91,220719,,,A*7F
$GPGGA,153628.000,4305.1557,N,07740.8153,W,1,07,1.67,177.3,M,-34.4,M,,*51
$GPRMC,153628.250,A,4305.1556,N,07740.8153,W,0.23,198.26,220719,,,A*74
$GPGGA,153628.500,4305.1556,N,07740.8153,W,1,07,1.67,177.3,M,-34.4,M,,*55
$GPRMC,153628.750,A,4305.1556,N,07740.8154,W,0.18,185.74,220719,,,A*75
$GPGGA,153629.000,4305.1556,N,07740.8154,W,1,07,1.67,177.3,M,-34.4,M,,*56
$GPRMC,153629.250,A,4305.1556,N,07740.8154,W,0.16,191.56,220719,,,A*7A
$GPGGA,153629.500,4305.1556,N,07740.8154,W,1,07,1.67,177.3,M,-34.4,M,,*53
$GPRMC,153629.750,A,4305.1556,N,07740.8154,W,0.14,216.56,220719,,,A*71
$GPGGA,153630.000,4305.1556,N,07740.8154,W,1,07,1.67,177.3,M,-34.4,M,,*5E
$GPRMC,153630.250,A,4305.1555,N,07740.8154,W,0.09,192.46,220719,,,A*7D
$GPGGA,153630.500,4305.1555,N,07740.8154,W,1,07,1.67,177.3,M,-34.4,M,,*58
$GPRMC,153630.750,A,4305.1555,N,07740.8154,W,0.14,174.86,220719,,,A*70
$GPGGA,153631.000,4305.1555,N,07740.8154,W,1,07,1.67,177.3,M,-34.4,M,,*5C
$GPRMC,153631.250,A,4305.1555,N,07740.8154,W,0.15,144.09,220719,,,A*71
$GPGGA,153631.500,4305.1555,N,07740.8154,W,1,07,1.67,177.3,M,-34.4,M,,*59
$GPRMC,153631.750,A,4305.1555,N,07740.8154,W,0.12,154.27,220719,,,A*7E
$GPGGA,153632.000,4305.1555,N,07740.8154,W,1,07,1.67,177.3,M,-34.4,M,,*5F
$GPRMC,153632.250,A,4305.1555,N,07740.8153,W,0.09,165.75,220719,,,A*70
$GPGGA,153632.500,4305.1555,N,07740.8153,W,1,07,1.67,177.3,M,-34.4,M,,*5D
$GPRMC,153632.750,A,4305.1555,N,07740.8153,W,0.06,143.31,220719,,,A*7E
$GPGGA,153633.000,4305.1555,N,07740.8153,W,1,07,1.67,177.3,M,-34.4,M,,*59
$GPRMC,153633.250,A,4305.1555,N,07740.8153,W,0.02,286.03,220719,,,A*75
$GPGGA,153633.500,4305.1555,N,07740.8153,W,1,07,1.67,177.3,M,-34.4,M,,*5C
$GPRMC,153633.750,A,4305.1555,N,07740.8154,W,0.12,262.26,220719,,,A*7B
$GPGGA,153634.000,4305.1555,N,07740.8154,W,1,07,1.67,177.3,M,-34.4,M,,*59
$GPRMC,153634.250,A,4305.1555,N,07740.8154,W,0.11,221.64,220719,,,A*7B
$GPGGA,153634.500,4305.1555,N,07740.8154,W,1,07,1.67,177.3,M,-34.4,M,,*5C
$GPRMC,153634.750,A,4305.1554,N,07740.8154,W,0.12,157.28,220719,,,A*76
$GPGGA,153635.000,4305.1554,N,07740.8154,W,1,07,1.67,177.3,M,-34.4,M,,*59
$GPRMC,153635.250,A,4305.1554,N,07740.8154,W,0.13,105.38,220719,,,A*75
$GPGGA,153635.500,4305.1554,N,07740.8154,W,1,07,1.67,177.3,M,-34.4,M,,*5C
$GPRMC,153635.750,A,4305.1554,N,07740.8153,W,0.12,96.15,220719,,,A*42
$GPGGA,153636.000,4305.1554,N,07740.8153,W,1,07,1.67,177.3,M,-34.4,M,,*5D
$GPRMC,153636.250,A,4305.1554,N,07740.8153,W,0.16,57.38,220719,,,A*42
$GPGGA,153636.500,4305.1554,N,07740.8153,W,1,07,1.67,177.3,M,-34.4,M,,*58
$GPRMC,153636.750,A,4305.1554,N,07740.8153,W,0.21,38.94,220719,,,A*4C
$GPGGA,153637.000,4305.1555,N,07740.8153,W,1,07,1.67,177.3,M,-34.4,M,,*5D
$GPRMC,153637.250,A,4305.1555,N,07740.8153,W,0.15,29.06,220719,,,A*45
$GPGGA,153637.500,4305.1555,N,07740.8153,W,1,07,1.67,177.3,M,-34.4,M,,*58
$GPRMC,153637.750,A,4305.1555,N,07740.8153,W,0.08,7.81,220719,,,A*7F
$GPGGA,153638.000,4305.1555,N,07740.8153,W,1,07,2.74,177.3,M,-34.4,M,,*53
$GPRMC,153638.250,A,4305.1555,N,07740.8153,W,0.07,328.33,220719,,,A*7D
$GPGGA,153638.500,4305.1555,N,07740.8153,W,1,07,1.67,177.3,M,-34.4,M,,*57
$GPRMC,153638.750,A,4305.1555,N,07740.8153,W,0.07,38.45,220719,,,A*4B
$GPGGA,153639.000,4305.1555,N,07740.8153,W,1,07,1.67,177.3,M,-34.4,M,,*53
$GPRMC,153639.250,A,4305.1555,N,07740.8153,W,0.16,116.95,220719,,,A*7F
$GPGGA,153639.500,4305.1555,N,07740.8152,W,1,07,1.67,177.3,M,-34.4,M,,*57
$GPRMC,153639.750,A,4305.1555,N,07740.8152,W,0.13,93.18,220719,,,A*47
$GPGGA,153640.000,4305.1555,N,07740.8152,W,1,07,1.67,177.3,M,-34.4,M,,*5C
$GPRMC,153640.250,A,4305.1555,N,07740.8152,W,0.11,61.19,220719,,,A*42
$GPGGA,153640.500,4305.1555,N,07740.8152,W,1,07,1.67,177.3,M,-34.4,M,,*59
$GPRMC,153640.750,A,4305.1555,N,07740.8152,W,0.09,72.01,220719,,,A*45
$GPGGA,153641.000,4305.1555,N,07740.8152,W,1,07,1.67,177.3,M,-34.4,M,,*5D
$GPRMC,153641.250,A,4305.1555,N,07740.8152,W,0.03,255.17,220719,,,A*7B
$GPGGA,153641.500,4305.1555,N,07740.8152,W,1,07,1.67,177.3,M,-34.4,M,,*58
$GPRMC,153641.750,A,4305.1555,N,07740.8152,W,0.06,42.42,220719,,,A*4F
$GPGGA,153642.000,4305.1555,N,07740.8152,W,1,07,1.67,177.3,M,-34.4,M,,*5E
$GPRMC,153642.250,A,4305.1555,N,07740.8152,W,0.08,136.96,220719,,,A*7C
$GPGGA,153642.500,4305.1555,N,07740.8152,W,1,07,1.67,177.3,M,-34.4,M,,*5B
$GPRMC,153642.750,A,4305.1555,N,07740.8152,W,0.04,160.15,220719,,,A*7D
$GPGGA,153643.000,4305.1555,N,07740.8152,W,1,07,1.67,177.3,M,-34.4,M,,*5F
$GPRMC,153643.250,A,4305.1555,N,07740.8152,W,0.09,313.72,220719,,,A*73
$GPGGA,153643.500,4305.1555,N,07740.8152,W,1,07,1.67,177.3,M,-34.4,M,,*5A
$GPRMC,153643.750,A,4305.1555,N,07740.8152,W,0.08,325.63,220719,,,A*72
$GPGGA,153644.000,4305.1555,N,07740.8152,W,1,07,1.67,177.3,M,-34.4,M,,*58
$GPRMC,153644.250,A,4305.1555,N,07740.8152,W,0.06,155.44,220719,,,A*7E
$GPGGA,153644.500,4305.1555,N,07740.8152,W,1,07,1.67,177.3,M,-34.4,M,,*5D
$GPRMC,153644.750,A,4305.1555,N,07740.8152,W,0.25,146.48,220719,,,A*74
$GPGGA,153645.000,4305.1555,N,07740.8152,W,1,07,1.67,177.3,M,-34.4,M,,*59
$GPRMC,153645.250,A,4305.1555,N,07740.8151,W,0.17,161.00,220719,,,A*7B
$GPGGA,153645.500,4305.1554,N,07740.8151,W,1,07,1.67,177.3,M,-34.4,M,,*5E
$GPRMC,153645.750,A,4305.1554,N,07740.8151,W,0.12,206.37,220719,,,A*7C
$GPGGA,153646.000,4305.1554,N,07740.8151,W,1,07,1.67,177.3,M,-34.4,M,,*58
$GPRMC,153646.250,A,4305.1554,N,07740.8151,W,0.08,179.17,220719,,,A*78
$GPGGA,153646.500,4305.1554,N,07740.8151,W,1,07,1.67,177.3,M,-34.4,M,,*5D
$GPRMC,153646.750,A,4305.1554,N,07740.8151,W,0.05,159.25,220719,,,A*73
$GPGGA,153647.000,4305.1554,N,07740.8151,W,1,07,1.67,177.3,M,-34.4,M,,*59
$GPRMC,153647.250,A,4305.1554,N,07740.8151,W,0.05,192.11,220719,,,A*77
$GPGGA,153647.500,4305.1554,N,07740.8151,W,1,07,1.67,177.3,M,-34.4,M,,*5C
$GPRMC,153647.750,A,4305.1554,N,07740.8152,W,0.14,202.75,220719,,,A*79
$GPGGA,153648.000,4305.1554,N,07740.8152,W,1,07,1.67,177.3,M,-34.4,M,,*55
$GPRMC,153648.250,A,4305.1554,N,07740.8152,W,0.10,197.17,220719,,,A*7C
$GPGGA,153648.500,4305.1554,N,07740.8152,W,1,07,1.67,177.3,M,-34.4,M,,*50
$GPRMC,153648.750,A,4305.1554,N,07740.8152,W,0.07,164.01,220719,,,A*74
$GPGGA,153649.000,4305.1554,N,07740.8152,W,1,07,1.67,177.3,M,-34.4,M,,*54
$GPRMC,153649.250,A,4305.1554,N,07740.8152,W,0.07,182.67,220719,,,A*78
$GPGGA,153649.500,4305.1553,N,07740.8152,W,1,07,1.67,177.3,M,-34.4,M,,*56
$GPRMC,153649.750,A,4305.1553,N,07740.8152,W,0.02,303.91,220719,,,A*7D
$GPGGA,153650.000,4305.1553,N,07740.8152,W,1,07,1.67,177.3,M,-34.4,M,,*5B
$GPRMC,153650.250,A,4305.1554,N,07740.8152,W,0.09,348.38,220719,,,A*70
$GPGGA,153650.500,4305.1554,N,07740.8152,W,1,07,2.75,177.3,M,-34.4,M,,*59
$GPRMC,153650.750,A,4305.1554,N,07740.8152,W,0.06,351.12,220719,,,A*7A
$GPGGA,153651.000,4305.1554,N,07740.8152,W,1,07,2.75,177.3,M,-34.4,M,,*5D
$GPRMC,153651.250,A,4305.1554,N,07740.8152,W,0.01,87.39,220719,,,A*48
$GPGGA,153651.500,4305.1554,N,07740.8152,W,1,07,1.67,177.3,M,-34.4,M,,*58
$GPRMC,153651.750,A,4305.1554,N,07740.8152,W,0.10,172.27,220719,,,A*79
$GPGGA,153652.000,4305.1554,N,07740.8152,W,1,07,1.67,177.3,M,-34.4,M,,*5E
$GPRMC,153652.250,A,4305.1553,N,07740.8152,W,0.19,181.13,220719,,,A*7A
$GPGGA,153652.500,4305.1553,N,07740.8152,W,1,07,1.67,177.3,M,-34.4,M,,*5C
$GPRMC,153652.750,A,4305.1553,N,07740.8152,W,0.21,174.20,220719,,,A*7E
$GPGGA,153653.000,4305.1553,N,07740.8152,W,1,07,1.67,177.3,M,-34.4,M,,*58
$GPRMC,153653.250,A,4305.1553,N,07740.8152,W,0.17,188.03,220719,,,A*7D
$GPGGA,153653.500,4305.1553,N,07740.8152,W,1,07,1.67,177.3,M,-34.4,M,,*5D
$GPRMC,153653.750,A,4305.1553,N,07740.8152,W,0.16,208.24,220719,,,A*77
$GPGGA,153654.000,4305.1553,N,07740.8152,W,1,07,1.67,177.3,M,-34.4,M,,*5F
$GPRMC,153654.250,A,4305.1552,N,07740.8152,W,0.14,238.45,220719,,,A*72
$GPGGA,153654.500,4305.1552,N,07740.8152,W,1,07,1.67,177.3,M,-34.4,M,,*5B
$GPRMC,153654.750,A,4305.1552,N,07740.8152,W,0.05,167.46,220719,,,A*7D
$GPGGA,153655.000,4305.1552,N,07740.8152,W,1,07,1.67,177.3,M,-34.4,M,,*5F
$GPRMC,153655.250,A,4305.1552,N,07740.8152,W,0.05,186.51,220719,,,A*70
$GPGGA,153655.500,4305.1552,N,07740.8152,W,1,07,1.67,177.3,M,-34.4,M,,*5A
$GPRMC,153655.750,A,4305.1552,N,07740.8152,W,0.10,238.86,220719,,,A*7D
$GPGGA,153656.000,4305.1552,N,07740.8152,W,1,07,1.67,177.3,M,-34.4,M,,*5C
$GPRMC,153656.250,A,4305.1552,N,07740.8152,W,0.09,191.32,220719,,,A*7C
$GPGGA,153656.500,4305.1552,N,07740.8152,W,1,07,1.67,177.3,M,-34.4,M,,*59
$GPRMC,153656.750,A,4305.1552,N,07740.8152,W,0.12,227.21,220719,,,A*7F
$GPGGA,153657.000,4305.1552,N,07740.8152,W,1,07,1.67,177.3,M,-34.4,M,,*5D
$GPRMC,153657.250,A,4305.1552,N,07740.8152,W,0.17,248.67,220719,,,A*75
$GPGGA,153657.500,4305.1552,N,07740.8153,W,1,07,1.67,177.3,M,-34.4,M,,*59
$GPRMC,153657.750,A,4305.1552,N,07740.8153,W,0.11,221.04,220719,,,A*7D
$GPGGA,153658.000,4305.1552,N,07740.8153,W,1,07,1.67,177.3,M,-34.4,M,,*53
$GPRMC,153658.250,A,4305.1552,N,07740.8153,W,0.03,107.87,220719,,,A*78
$GPGGA,153658.500,4305.1552,N,07740.8153,W,1,07,1.67,177.3,M,-34.4,M,,*56
$GPRMC,153658.750,A,4305.1552,N,07740.8153,W,0.07,92.01,220719,,,A*4A
$GPGGA,153659.000,4305.1552,N,07740.8153,W,1,07,1.67,177.3,M,-34.4,M,,*52
$GPRMC,153659.250,A,4305.1552,N,07740.8153,W,0.13,153.80,220719,,,A*7E
$GPGGA,153659.500,4305.1551,N,07740.8153,W,1,07,1.67,177.3,M,-34.4,M,,*54
$GPRMC,153659.750,A,4305.1551,N,07740.8152,W,0.16,135.95,220719,,,A*78
$GPGGA,153700.000,4305.1551,N,07740.8152,W,1,07,1.67,177.3,M,-34.4,M,,*5D
$GPRMC,153700.250,A,4305.1551,N,07740.8152,W,0.16,126.04,220719,,,A*7A
$GPGGA,153700.500,4305.1551,N,07740.8152,W,1,07,1.67,177.3,M,-34.4,M,,*58
$GPRMC,153700.750,A,4305.1551,N,07740.8152,W,0.12,113.44,220719,,,A*79
$GPGGA,153701.000,4305.1551,N,07740.8152,W,1,07,1.67,177.3,M,-34.4,M,,*5C
$GPRMC,153701.250,A,4305.1551,N,07740.8152,W,0.10,162.48,220719,,,A*75
$GPGGA,153701.500,4305.1551,N,07740.8152,W,1,07,1.67,177.3,M,-34.4,M,,*59
$GPRMC,153701.750,A,4305.1551,N,07740.8152,W,0.12,181.48,220719,,,A*7F
$GPGGA,153702.000,4305.1551,N,07740.8152,W,1,07,1.67,177.3,M,-34.4,M,,*5F
$GPRMC,153702.250,A,4305.1551,N,07740.8152,W,0.08,150.70,220719,,,A*75
$GPGGA,153702.500,4305.1551,N,07740.8152,W,1,07,1.67,177.3,M,-34.4,M,,*5A
$GPRMC,153702.750,A,4305.1551,N,07740.8152,W,0.07,179.91,220719,,,A*7B
$GPGGA,153703.000,4305.1551,N,07740.8152,W,1,07,1.67,177.3,M,-34.4,M,,*5E
$GPRMC,153703.250,A,4305.1551,N,07740.8152,W,0.08,278.95,220719,,,A*76
$GPGGA,153703.500,4305.1551,N,07740.8152,W,1,07,1.67,177.3,M,-34.4,M,,*5B
$GPRMC,153703.750,A,4305.1551,N,07740.8152,W,0.16,282.85,220719,,,A*78
$GPGGA,153704.000,4305.1551,N,07740.8152,W,1,07,1.67,177.3,M,-34.4,M,,*59
$GPRMC,153704.250,A,4305.1551,N,07740.8152,W,0.08,278.87,220719,,,A*72
$GPGGA,153704.500,4305.1551,N,07740.8152,W,1,07,1.67,177.3,M,-34.4,M,,*5C
$GPRMC,153704.750,A,4305.1551,N,07740.8152,W,0.11,168.48,220719,,,A*7E
$GPGGA,153705.000,4305.1550,N,07740.8152,W,1,07,1.67,177.3,M,-34.4,M,,*59
$GPRMC,153705.250,A,4305.1550,N,07740.8152,W,0.12,231.36,220719,,,A*7E
$GPGGA,153705.500,4305.1550,N,07740.8152,W,1,07,1.67,177.3,M,-34.4,M,,*5C
$GPRMC,153705.750,A,4305.1550,N,07740.8152,W,0.05,271.95,220719,,,A*70
$GPGGA,153706.000,4305.1550,N,07740.8152,W,1,07,1.67,177.3,M,-34.4,M,,*5A
$GPRMC,153706.250,A,4305.1550,N,07740.8153,W,0.06,331.56,220719,,,A*7E
$GPGGA,153706.500,4305.1550,N,07740.8153,W,1,07,1.67,177.3,M,-34.4,M,,*5E
$GPRMC,153706.750,A,4305.1550,N,07740.8152,W,0.10,108.53,220719,,,A*70
$GPGGA,153707.000,4305.1550,N,07740.8152,W,1,07,1.67,177.3,M,-34.4,M,,*5B
$GPRMC,153707.250,A,4305.1550,N,07740.8152,W,0.07,87.45,220719,,,A*43
$GPGGA,153707.500,4305.1550,N,07740.8152,W,1,07,1.67,177.3,M,-34.4,M,,*5E
$GPRMC,153707.750,A,4305.1550,N,07740.8152,W,0.03,57.12,220719,,,A*4D
$GPGGA,153708.000,4305.1550,N,07740.8152,W,1,07,1.67,177.3,M,-34.4,M,,*54
$GPRMC,153708.250,A,4305.1550,N,07740.8152,W,0.08,84.01,220719,,,A*40
$GPGGA,153708.500,4305.1550,N,07740.8152,W,1,07,1.67,177.3,M,-34.4,M,,*51
$GPRMC,153708.750,A,4305.1550,N,07740.8152,W,0.14,94.82,220719,,,A*42
$GPGGA,153709.000,4305.1550,N,07740.8152,W,1,07,1.67,177.3,M,-34.4,M,,*55
$GPRMC,153709.250,A,4305.1550,N,07740.8152,W,0.11,105.08,220719,,,A*78
$GPGGA,153709.500,4305.1550,N,07740.8152,W,1,07,1.67,177.3,M,-34.4,M,,*50
$GPRMC,153709.750,A,4305.1550,N,07740.8152,W,0.02,64.57,220719,,,A*43
$GPGGA,153710.000,4305.1550,N,07740.8151,W,1,07,1.67,177.3,M,-34.4,M,,*5E
$GPRMC,153710.250,A,4305.1550,N,07740.8151,W,0.03,217.36,220719,,,A*7D
$GPGGA,153710.500,4305.1550,N,07740.8152,W,1,07,1.67,177.3,M,-34.4,M,,*58
$GPRMC,153710.750,A,4305.1550,N,07740.8152,W,0.08,296.93,220719,,,A*76
$GPGGA,153711.000,4305.1550,N,07740.8152,W,1,07,1.67,177.3,M,-34.4,M,,*5C
$GPRMC,153711.250,A,4305.1550,N,07740.8152,W,0.07,198.44,220719,,,A*7A
$GPGGA,153711.500,4305.1550,N,07740.8152,W,1,07,1.67,177.3,M,-34.4,M,,*59
$GPRMC,153711.750,A,4305.1550,N,07740.8152,W,0.09,162.64,220719,,,A*76
$GPGGA,153712.000,4305.1550,N,07740.8152,W,1,07,1.67,177.3,M,-34.4,M,,*5F
$GPRMC,153712.250,A,4305.1550,N,07740.8152,W,0.06,191.81,220719,,,A*78
$GPGGA,153712.500,4305.1550,N,07740.8152,W,1,07,1.67,177.3,M,-34.4,M,,*5A
$GPRMC,153712.750,A,4305.1550,N,07740.8152,W,0.08,197.20,220719,,,A*7E
$GPGGA,153713.000,4305.1550,N,07740.8152,W,1,07,1.67,177.3,M,-34.4,M,,*5E
$GPRMC,153713.250,A,4305.1550,N,07740.8152,W,0.02,244.07,220719,,,A*78
$GPGGA,153713.500,4305.1550,N,07740.8152,W,1,07,1.67,177.3,M,-34.4,M,,*5B
$GPRMC,153713.750,A,4305.1550,N,07740.8152,W,0.01,189.90,220719,,,A*72
$GPGGA,153714.000,4305.1550,N,07740.8152,W,1,07,1.67,177.3,M,-34.4,M,,*59
$GPRMC,153714.250,A,4305.1550,N,07740.8152,W,0.07,165.14,220719,,,A*78
$GPGGA,153714.500,4305.1550,N,07740.8152,W,1,07,1.67,177.3,M,-34.4,M,,*5C
$GPRMC,153714.750,A,4305.1550,N,07740.8152,W,0.03,195.43,220719,,,A*74
$GPGGA,153715.000,4305.1550,N,07740.8152,W,1,07,1.67,177.3,M,-34.4,M,,*58
$GPRMC,153715.250,A,4305.1550,N,07740.8152,W,0.05,150.14,220719,,,A*7D
$GPGGA,153715.500,4305.1550,N,07740.8152,W,1,07,1.67,177.3,M,-34.4,M,,*5D
$GPRMC,153715.750,A,4305.1550,N,07740.8152,W,0.07,145.27,220719,,,A*7E
$GPGGA,153716.000,4305.1550,N,07740.8152,W,1,07,1.67,177.3,M,-34.4,M,,*5B
$GPRMC,153716.250,A,4305.1550,N,07740.8152,W,0.11,191.82,220719,,,A*79
$GPGGA,153716.500,4305.1549,N,07740.8152,W,1,07,1.67,177.3,M,-34.4,M,,*56
$GPRMC,153716.750,A,4305.1549,N,07740.8152,W,0.14,184.67,220719,,,A*7E
$GPGGA,153717.000,4305.1549,N,07740.8152,W,1,07,1.67,177.3,M,-34.4,M,,*52
$GPRMC,153717.250,A,4305.1549,N,07740.8152,W,0.12,187.82,220719,,,A*74
$GPGGA,153717.500,4305.1549,N,07740.8152,W,1,07,1.67,177.3,M,-34.4,M,,*57
$GPRMC,153717.750,A,4305.1549,N,07740.8152,W,0.11,208.40,220719,,,A*78
$GPGGA,153718.000,4305.1549,N,07740.8152,W,1,07,1.67,177.4,M,-34.4,M,,*5A
$GPRMC,153718.250,A,4305.1549,N,07740.8152,W,0.11,266.93,220719,,,A*74
$GPGGA,153718.500,4305.1549,N,07740.8152,W,1,07,1.67,177.4,M,-34.4,M,,*5F
$GPRMC,153718.750,A,4305.1549,N,07740.8152,W,0.09,313.02,220719,,,A*73
$GPGGA,153719.000,4305.1549,N,07740.8152,W,1,07,1.67,177.4,M,-34.4,M,,*5B
$GPRMC,153719.250,A,4305.1549,N,07740.8152,W,0.03,196.55,220719,,,A*70
$GPGGA,153719.500,4305.1549,N,07740.8152,W,1,07,1.67,177.4,M,-34.4,M,,*5E
$GPRMC,153719.750,A,4305.1549,N,07740.8152,W,0.06,196.48,220719,,,A*7C
$GPGGA,153720.000,4305.1549,N,07740.8152,W,1,07,1.67,177.4,M,-34.4,M,,*51
$GPRMC,153720.250,A,4305.1549,N,07740.8152,W,0.17,236.35,220719,,,A*70
$GPGGA,153720.500,4305.1549,N,07740.8153,W,1,07,1.67,177.4,M,-34.4,M,,*55
$GPRMC,153720.750,A,4305.1549,N,07740.8153,W,0.14,223.55,220719,,,A*75
$GPGGA,153721.000,4305.1549,N,07740.8153,W,1,07,1.67,177.4,M,-34.4,M,,*51
$GPRMC,153721.250,A,4305.1549,N,07740.8153,W,0.13,218.19,220719,,,A*76
$GPGGA,153721.500,4305.1548,N,07740.8153,W,1,07,1.67,177.4,M,-34.4,M,,*55
$GPRMC,153721.750,A,4305.1548,N,07740.8153,W,0.18,206.24,220719,,,A*78
$GPGGA,153722.000,4305.1548,N,07740.8153,W,1,07,1.67,177.4,M,-34.4,M,,*53
$GPRMC,153722.250,A,4305.1548,N,07740.8153,W,0.15,177.30,220719,,,A*73
$GPGGA,153722.500,4305.1548,N,07740.8153,W,1,07,1.67,177.4,M,-34.4,M,,*56
$GPRMC,153722.750,A,4305.1548,N,07740.8153,W,0.08,118.79,220719,,,A*7E
$GPGGA,153723.000,4305.1548,N,07740.8153,W,1,07,1.67,177.4,M,-34.4,M,,*52
$GPRMC,153723.250,A,4305.1548,N,07740.8153,W,0.07,314.10,220719,,,A*74
$GPGGA,153723.500,4305.1548,N,07740.8153,W,1,07,1.67,177.4,M,-34.4,M,,*57
$GPRMC,153723.750,A,4305.1548,N,07740.8153,W,0.05,276.62,220719,,,A*73
$GPGGA,153724.000,4305.1548,N,07740.8153,W,1,07,1.67,177.4,M,-34.4,M,,*55
$GPRMC,153724.250,A,4305.1548,N,07740.8153,W,0.16,188.03,220719,,,A*76
$GPGGA,153724.500,4305.1548,N,07740.8153,W,2,07,1.67,177.4,M,-34.4,M,0000,0000*53
$GPRMC,153724.750,A,4305.1547,N,07740.8153,W,0.20,208.54,220719,,,D*75
$GPGGA,153725.000,4305.1547,N,07740.8153,W,2,07,1.67,177.5,M,-34.4,M,0000,0000*59
$GPRMC,153725.250,A,4305.1547,N,07740.8153,W,0.18,202.55,220719,,,D*71
$GPGGA,153725.500,4305.1547,N,07740.8153,W,2,07,1.67,177.6,M,-34.4,M,0000,0000*5F
$GPRMC,153725.750,A,4305.1547,N,07740.8152,W,0.14,191.54,220719,,,D*71
$GPGGA,153726.000,4305.1548,N,07740.8152,W,2,07,1.67,177.6,M,-34.4,M,0000,0000*57
$GPRMC,153726.250,A,4305.1548,N,07740.8152,W,0.04,152.53,220719,,,D*71
$GPGGA,153726.500,4305.1548,N,07740.8152,W,2,07,1.67,177.7,M,-34.4,M,0000,0000*53
$GPRMC,153726.750,A,4305.1548,N,07740.8151,W,0.12,100.74,220719,,,D*72
$GPGGA,153727.000,4305.1547,N,07740.8151,W,2,07,1.67,177.7,M,-34.4,M,0000,0000*5B
$GPRMC,153727.250,A,4305.1547,N,07740.8152,W,0.06,64.37,220719,,,D*4B
$GPGGA,153727.500,4305.1547,N,07740.8151,W,2,07,1.67,177.7,M,-34.4,M,0000,0000*5E
$GPRMC,153727.750,A,4305.1547,N,07740.8151,W,0.13,86.53,220719,,,D*47
$GPGGA,153728.000,4305.1546,N,07740.8152,W,2,07,1.67,177.7,M,-34.4,M,0000,0000*56
$GPRMC,153728.250,A,4305.1546,N,07740.8152,W,0.01,170.09,220719,,,D*7B
$GPGGA,153728.500,4305.1546,N,07740.8152,W,2,07,1.67,177.8,M,-34.4,M,0000,0000*5C
$GPRMC,153728.750,A,4305.1545,N,07740.8152,W,0.06,161.82,220719,,,D*79
$GPGGA,153729.000,4305.1544,N,07740.8152,W,2,07,1.67,177.8,M,-34.4,M,0000,0000*5A
$GPRMC,153729.250,A,4305.1544,N,07740.8152,W,0.11,181.18,220719,,,D*77
$GPGGA,153729.500,4305.1543,N,07740.8152,W,2,07,1.67,177.8,M,-34.4,M,0000,0000*58
$GPRMC,153729.750,A,4305.1543,N,07740.8152,W,0.14,199.42,220719,,,D*76
$GPGGA,153730.000,4305.1543,N,07740.8153,W,2,07,1.67,177.8,M,-34.4,M,0000,0000*54
$GPRMC,153730.250,A,4305.1543,N,07740.8153,W,0.16,264.87,220719,,,D*70
$GPGGA,153730.500,4305.1543,N,07740.8153,W,2,07,1.67,177.8,M,-34.4,M,0000,0000*51
$GPRMC,153730.750,A,4305.1543,N,07740.8153,W,0.14,268.60,220719,,,D*72
$GPGGA,153731.000,4305.1542,N,07740.8153,W,2,07,1.67,177.7,M,-34.4,M,0000,0000*5B
$GPRMC,153731.250,A,4305.1542,N,07740.8153,W,0.04,195.23,220719,,,D*70
$GPGGA,153731.500,4305.1542,N,07740.8153,W,2,07,1.67,177.7,M,-34.4,M,0000,0000*5E
$GPRMC,153731.750,A,4305.1541,N,07740.8153,W,0.07,139.86,220719,,,D*7C
$GPGGA,153732.000,4305.1541,N,07740.8153,W,2,07,1.67,177.7,M,-34.4,M,0000,0000*5B
$GPRMC,153732.250,A,4305.1541,N,07740.8153,W,0.10,122.50,220719,,,D*7D
$GPGGA,153732.500,4305.1541,N,07740.8153,W,2,07,1.67,177.7,M,-34.4,M,0000,0000*5E
$GPRMC,153732.750,A,4305.1541,N,07740.8153,W,0.14,105.80,220719,,,D*74
$GPGGA,153733.000,4305.1540,N,07740.8153,W,2,07,1.67,177.6,M,-34.4,M,0000,0000*5A
$GPRMC,153733.250,A,4305.1540,N,07740.8153,W,0.18,109.32,220719,,,D*78
$GPGGA,153733.500,4305.1541,N,07740.8152,W,2,07,1.67,177.6,M,-34.4,M,0000,0000*5F
$GPRMC,153733.750,A,4305.1541,N,07740.8153,W,0.12,75.55,220719,,,D*4D
$GPGGA,153734.000,4305.1541,N,07740.8153,W,2,07,1.67,177.6,M,-34.4,M,0000,0000*5C
$GPRMC,153734.250,A,4305.1541,N,07740.8152,W,0.11,56.16,220719,,,D*4B
$GPGGA,153734.500,4305.1541,N,07740.8152,W,2,07,1.67,177.5,M,-34.4,M,0000,0000*5B
$GPRMC,153734.750,A,4305.1541,N,07740.8152,W,0.15,45.85,220719,,,D*42
$GPGGA,153735.000,4305.1542,N,07740.8152,W,2,07,1.67,177.5,M,-34.4,M,0000,0000*5C
$GPRMC,153735.250,A,4305.1542,N,07740.8152,W,0.15,4.89,220719,,,D*7C
$GPGGA,153735.500,4305.1542,N,07740.8152,W,2,07,2.80,177.5,M,-34.4,M,0000,0000*53
$GPRMC,153735.750,A,4305.1542,N,07740.8152,W,0.13,23.14,220719,,,D*4E
$GPGGA,153736.000,4305.1541,N,07740.8152,W,2,07,1.67,177.4,M,-34.4,M,0000,0000*5D
$GPRMC,153736.250,A,4305.1541,N,07740.8152,W,0.13,87.27,220719,,,D*45
$GPGGA,153736.500,4305.1541,N,07740.8152,W,2,07,1.67,177.4,M,-34.4,M,0000,0000*58
$GPRMC,153736.750,A,4305.1541,N,07740.8152,W,0.07,56.86,220719,,,D*42
$GPGGA,153737.000,4305.1541,N,07740.8152,W,2,07,1.67,177.4,M,-34.4,M,0000,0000*5C
$GPRMC,153737.250,A,4305.1541,N,07740.8152,W,0.02,257.62,220719,,,D*7A
$GPGGA,153737.500,4305.1541,N,07740.8152,W,2,07,1.67,177.4,M,-34.4,M,0000,0000*59
$GPRMC,153737.750,A,4305.1541,N,07740.8152,W,0.04,249.92,220719,,,D*79
$GPGGA,153738.000,4305.1541,N,07740.8153,W,2,07,1.67,177.4,M,-34.4,M,0000,0000*52
$GPRMC,153738.250,A,4305.1540,N,07740.8153,W,0.03,211.77,220719,,,D*72
$GPGGA,153738.500,4305.1540,N,07740.8153,W,2,07,1.67,177.3,M,-34.4,M,0000,0000*51
$GPRMC,153738.750,A,4305.1540,N,07740.8153,W,0.02,300.11,220719,,,D*77
$GPGGA,153739.000,4305.1540,N,07740.8153,W,2,07,1.67,177.3,M,-34.4,M,0000,0000*55
$GPRMC,153739.250,A,4305.1541,N,07740.8152,W,0.03,5.69,220719,,,D*7B
$GPGGA,153739.500,4305.1541,N,07740.8152,W,2,07,1.67,177.3,M,-34.4,M,0000,0000*50
$GPRMC,153739.750,A,4305.1541,N,07740.8152,W,0.02,28.40,220719,,,D*4B
$GPGGA,153740.000,4305.1541,N,07740.8152,W,2,07,1.67,177.3,M,-34.4,M,0000,0000*5B
$GPRMC,153740.250,A,4305.1541,N,07740.8152,W,0.01,325.91,220719,,,D*71
$GPGGA,153740.500,4305.1541,N,07740.8152,W,2,07,1.67,177.3,M,-34.4,M,0000,0000*5E
$GPRMC,153740.750,A,4305.1541,N,07740.8152,W,0.00,286.61,220719,,,D*72
$GPGGA,153741.000,4305.1541,N,07740.8152,W,2,07,1.67,177.2,M,-34.4,M,0000,0000*5B
$GPRMC,153741.250,A,4305.1542,N,07740.8151,W,0.04,49.89,220719,,,D*45
$GPGGA,153741.500,4305.1543,N,07740.8150,W,2,07,1.67,177.2,M,-34.4,M,0000,0000*5E
$GPRMC,153741.750,A,4305.1543,N,07740.8150,W,0.02,19.37,220719,,,D*46
$GPGGA,153742.000,4305.1543,N,07740.8150,W,2,07,1.67,177.2,M,-34.4,M,0000,0000*58
$GPRMC,153742.250,A,4305.1544,N,07740.8150,W,0.01,284.50,220719,,,D*73
$GPGGA,153742.500,4305.1544,N,07740.8150,W,2,07,1.67,177.2,M,-34.4,M,0000,0000*5A
$GPRMC,153742.750,A,4305.1544,N,07740.8150,W,0.00,37.38,220719,,,D*43
$GPGGA,153743.000,4305.1545,N,07740.8150,W,2,07,1.67,177.3,M,-34.4,M,0000,0000*5E
$GPRMC,153743.250,A,4305.1545,N,07740.8150,W,0.03,357.57,220719,,,D*79
$GPGGA,153743.500,4305.1546,N,07740.8149,W,2,07,1.67,177.3,M,-34.4,M,0000,0000*50
$GPRMC,153743.750,A,4305.1546,N,07740.8149,W,0.02,353.44,220719,,,D*70
$GPGGA,153744.000,4305.1547,N,07740.8149,W,2,07,1.67,177.3,M,-34.4,M,0000,0000*53
$GPRMC,153744.250,A,4305.1547,N,07740.8150,W,0.01,329.34,220719,,,D*72
$GPGGA,153744.500,4305.1547,N,07740.8150,W,2,07,1.67,177.3,M,-34.4,M,0000,0000*5E
$GPRMC,153744.750,A,4305.1547,N,07740.8149,W,0.00,0.00,220719,,,D*71
$GPGGA,153745.000,4305.1547,N,07740.8149,W,2,07,1.67,177.3,M,-34.4,M,0000,0000*52
$GPRMC,153745.250,A,4305.1548,N,07740.8149,W,0.02,39.82,220719,,,D*48
$GPGGA,153745.500,4305.1548,N,07740.8148,W,2,07,1.67,177.4,M,-34.4,M,0000,0000*5E
$GPRMC,153745.750,A,4305.1548,N,07740.8148,W,0.01,137.65,220719,,,D*79
$GPGGA,153746.000,4305.1548,N,07740.8148,W,2,07,1.67,177.4,M,-34.4,M,0000,0000*58
$GPRMC,153746.250,A,4305.1547,N,07740.8148,W,0.00,215.00,220719,,,D*71
$GPGGA,153746.500,4305.1547,N,07740.8148,W,2,07,1.67,177.4,M,-34.4,M,0000,0000*52
$GPRMC,153746.750,A,4305.1547,N,07740.8148,W,0.00,14.43,220719,,,D*40
$GPGGA,153747.000,4305.1547,N,07740.8147,W,2,07,1.67,177.5,M,-34.4,M,0000,0000*58
$GPRMC,153747.250,A,4305.1548,N,07740.8147,W,0.01,109.28,220719,,,D*75
$GPGGA,153747.500,4305.1548,N,07740.8147,W,2,07,1.67,177.5,M,-34.4,M,0000,0000*52
$GPRMC,153747.750,A,4305.1548,N,07740.8146,W,0.00,89.72,220719,,,D*46
$GPGGA,153748.000,4305.1548,N,07740.8146,W,2,07,1.67,177.6,M,-34.4,M,0000,0000*5A
$GPRMC,153748.250,A,4305.1549,N,07740.8146,W,0.01,25.95,220719,,,D*43
$GPGGA,153748.500,4305.1549,N,07740.8146,W,2,07,1.67,177.6,M,-34.4,M,0000,0000*5E
$GPRMC,153748.750,A,4305.1548,N,07740.8146,W,0.01,123.24,220719,,,D*7A
$GPGGA,153749.000,4305.1548,N,07740.8145,W,2,07,1.67,177.6,M,-34.4,M,0000,0000*58
$GPRMC,153749.250,A,4305.1548,N,07740.8145,W,0.02,144.04,220719,,,D*7D
$GPGGA,153749.500,4305.1548,N,07740.8144,W,2,07,1.67,177.6,M,-34.4,M,0000,0000*5C
$GPRMC,153749.750,A,4305.1548,N,07740.8144,W,0.01,215.46,220719,,,D*7B
$GPGGA,153750.000,4305.1547,N,07740.8144,W,2,07,1.67,177.6,M,-34.4,M,0000,0000*5E
$GPRMC,153750.250,A,4305.1547,N,07740.8144,W,0.01,80.62,220719,,,D*41
$GPGGA,153750.500,4305.1547,N,07740.8143,W,2,07,1.67,177.7,M,-34.4,M,0000,0000*5D
$GPRMC,153750.750,A,4305.1547,N,07740.8143,W,0.01,83.65,220719,,,D*47
$GPGGA,153751.000,4305.1547,N,07740.8143,W,2,07,1.67,177.7,M,-34.4,M,0000,0000*59
$GPRMC,153751.250,A,4305.1546,N,07740.8143,W,0.02,174.77,220719,,,D*7B
$GPGGA,153751.500,4305.1545,N,07740.8143,W,2,07,1.67,177.7,M,-34.4,M,0000,0000*5E
$GPRMC,153751.750,A,4305.1545,N,07740.8142,W,0.01,118.92,220719,,,D*7E
$GPGGA,153752.000,4305.1545,N,07740.8142,W,2,07,1.67,177.7,M,-34.4,M,0000,0000*59
$GPRMC,153752.250,A,4305.1546,N,07740.8142,W,0.02,15.10,220719,,,D*4E
$GPGGA,153752.500,4305.1546,N,07740.8142,W,2,07,1.67,177.6,M,-34.4,M,0000,0000*5E
$GPRMC,153752.750,A,4305.1546,N,07740.8142,W,0.00,29.12,220719,,,D*44
$GPGGA,153753.000,4305.1546,N,07740.8141,W,2,07,1.67,177.6,M,-34.4,M,0000,0000*59
$GPRMC,153753.250,A,4305.1545,N,07740.8141,W,0.02,128.53,220719,,,D*77
$GPGGA,153753.500,4305.1545,N,07740.8141,W,2,07,1.67,177.6,M,-34.4,M,0000,0000*5F
$GPRMC,153753.750,A,4305.1545,N,07740.8141,W,0.00,147.60,220719,,,D*79
$GPGGA,153754.000,4305.1545,N,07740.8141,W,2,07,1.67,177.6,M,-34.4,M,0000,0000*5D
$GPRMC,153754.250,A,4305.1545,N,07740.8141,W,0.01,332.25,220719,,,D*7B
$GPGGA,153754.500,4305.1545,N,07740.8141,W,2,07,1.67,177.6,M,-34.4,M,0000,0000*58
$GPRMC,153754.750,A,4305.1544,N,07740.8141,W,0.01,161.91,220719,,,D*74
$GPGGA,153755.000,4305.1544,N,07740.8141,W,2,07,1.67,177.6,M,-34.4,M,0000,0000*5D
$GPRMC,153755.250,A,4305.1543,N,07740.8141,W,0.01,199.68,220719,,,D*76
$GPGGA,153755.500,4305.1543,N,07740.8141,W,2,07,1.67,177.5,M,-34.4,M,0000,0000*5C
$GPRMC,153755.750,A,4305.1543,N,07740.8141,W,0.01,200.60,220719,,,D*78
$GPGGA,153756.000,4305.1542,N,07740.8142,W,2,07,1.67,177.5,M,-34.4,M,0000,0000*58
$GPRMC,153756.250,A,4305.1542,N,07740.8142,W,0.01,235.44,220719,,,D*7C
$GPGGA,153756.500,4305.1541,N,07740.8142,W,2,08,1.23,177.4,M,-34.4,M,0000,0000*50
$GPRMC,153756.750,A,4305.1541,N,07740.8142,W,0.01,150.08,220719,,,D*72
$GPGGA,153757.000,4305.1540,N,07740.8142,W,2,08,1.23,177.3,M,-34.4,M,0000,0000*52
$GPRMC,153757.250,A,4305.1540,N,07740.8142,W,0.00,143.29,220719,,,D*77
$GPGGA,153757.500,4305.1539,N,07740.8142,W,2,08,1.23,177.3,M,-34.4,M,0000,0000*59
$GPRMC,153757.750,A,4305.1539,N,07740.8142,W,0.01,136.01,220719,,,D*75
$GPGGA,153758.000,4305.1539,N,07740.8142,W,2,08,1.23,177.2,M,-34.4,M,0000,0000*52
$GPRMC,153758.250,A,4305.1539,N,07740.8142,W,0.01,54.51,220719,,,D*4F
$GPGGA,153758.500,4305.1539,N,07740.8142,W,2,08,1.23,177.2,M,-34.4,M,0000,0000*57
$GPRMC,153758.750,A,4305.1539,N,07740.8142,W,0.00,27.68,220719,,,D*45
$GPGGA,153759.000,4305.1539,N,07740.8142,W,2,08,1.23,177.1,M,-34.4,M,0000,0000*50
$GPRMC,153759.250,A,4305.1538,N,07740.8142,W,0.00,343.84,220719,,,D*73
$GPGGA,153759.500,4305.1538,N,07740.8142,W,2,08,1.24,177.1,M,-34.4,M,0000,0000*53
$GPRMC,153759.750,A,4305.1538,N,07740.8142,W,0.00,221.42,220719,,,D*79
$GPGGA,153800.000,4305.1537,N,07740.8142,W,2,08,1.23,177.0,M,-34.4,M,0000,0000*5C
$GPRMC,153800.250,A,4305.1537,N,07740.8142,W,0.01,190.52,220719,,,D*79
$GPGGA,153800.500,4305.1536,N,07740.8142,W,2,08,1.23,177.0,M,-34.4,M,0000,0000*58
$GPRMC,153800.750,A,4305.1536,N,07740.8142,W,0.01,207.80,220719,,,D*7F
$GPGGA,153801.000,4305.1535,N,07740.8142,W,2,08,1.23,177.0,M,-34.4,M,0000,0000*5F
$GPRMC,153801.250,A,4305.1535,N,07740.8142,W,0.00,189.13,220719,,,D*76
$GPGGA,153801.500,4305.1535,N,07740.8142,W,2,08,1.23,176.9,M,-34.4,M,0000,0000*52
$GPRMC,153801.750,A,4305.1534,N,07740.8142,W,0.00,176.95,220719,,,D*7C
$GPGGA,153802.000,4305.1534,N,07740.8142,W,2,08,1.24,176.9,M,-34.4,M,0000,0000*52
$GPRMC,153802.250,A,4305.1533,N,07740.8142,W,0.01,193.91,220719,,,D*73
$GPGGA,153802.500,4305.1533,N,07740.8143,W,2,08,1.23,176.8,M,-34.4,M,0000,0000*57
$GPRMC,153802.750,A,4305.1533,N,07740.8143,W,0.01,263.27,220719,,,D*76
$GPGGA,153803.000,4305.1532,N,07740.8143,W,2,08,1.24,176.8,M,-34.4,M,0000,0000*55
$GPRMC,153803.250,A,4305.1532,N,07740.8143,W,0.01,185.76,220719,,,D*7C
$GPGGA,153803.500,4305.1532,N,07740.8143,W,2,08,1.23,176.7,M,-34.4,M,0000,0000*58
$GPRMC,153803.750,A,4305.1531,N,07740.8143,W,0.01,146.15,220719,,,D*70
$GPGGA,153804.000,4305.1532,N,07740.8143,W,2,08,1.24,176.7,M,-34.4,M,0000,0000*5D
$GPRMC,153804.250,A,4305.1532,N,07740.8143,W,0.00,316.60,220719,,,D*75
$GPGGA,153804.500,4305.1532,N,07740.8143,W,2,08,1.23,176.7,M,-34.4,M,0000,0000*5F
$GPRMC,153804.750,A,4305.1532,N,07740.8143,W,0.01,298.11,220719,,,D*70
$GPGGA,153805.000,4305.1532,N,07740.8144,W,2,08,1.23,176.7,M,-34.4,M,0000,0000*5C
$GPRMC,153805.250,A,4305.1531,N,07740.8144,W,0.01,237.66,220719,,,D*75
$GPGGA,153805.500,4305.1531,N,07740.8144,W,2,08,1.23,176.7,M,-34.4,M,0000,0000*5A
$GPRMC,153805.750,A,4305.1531,N,07740.8144,W,0.01,217.28,220719,,,D*78
$GPGGA,153806.000,4305.1531,N,07740.8144,W,2,08,1.24,176.7,M,-34.4,M,0000,0000*5B
$GPRMC,153806.250,A,4305.1531,N,07740.8144,W,0.01,285.15,220719,,,D*7B
$GPGGA,153806.500,4305.1530,N,07740.8145,W,2,08,1.24,176.6,M,-34.4,M,0000,0000*5F
$GPRMC,153806.750,A,4305.1530,N,07740.8145,W,0.00,178.79,220719,,,D*74
$GPGGA,153807.000,4305.1530,N,07740.8145,W,2,08,1.24,176.6,M,-34.4,M,0000,0000*5B
$GPRMC,153807.250,A,4305.1530,N,07740.8145,W,0.00,10.43,220719,,,D*46
$GPGGA,153807.500,4305.1530,N,07740.8144,W,2,08,1.24,176.5,M,-34.4,M,0000,0000*5C
$GPRMC,153807.750,A,4305.1530,N,07740.8144,W,0.01,118.70,220719,,,D*7A
$GPGGA,153808.000,4305.1530,N,07740.8144,W,2,08,1.24,176.5,M,-34.4,M,0000,0000*56
$GPRMC,153808.250,A,4305.1530,N,07740.8144,W,0.01,154.21,220719,,,D*7C
$GPGGA,153808.500,4305.1530,N,07740.8144,W,2,08,1.24,176.5,M,-34.4,M,0000,0000*53
$GPRMC,153808.750,A,4305.1530,N,07740.8144,W,0.01,134.55,220719,,,D*7C
$GPGGA,153809.000,4305.1530,N,07740.8144,W,2,08,1.24,176.5,M,-34.4,M,0000,0000*57
$GPRMC,153809.250,A,4305.1530,N,07740.8144,W,0.01,222.09,220719,,,D*75
$GPGGA,153809.500,4305.1530,N,07740.8144,W,2,08,1.24,176.5,M,-34.4,M,0000,0000*52
$GPRMC,153809.750,A,4305.1530,N,07740.8144,W,0.00,269.14,220719,,,D*72
$GPGGA,153810.000,4305.1530,N,07740.8144,W,2,08,1.24,176.5,M,-34.4,M,0000,0000*5F
$GPRMC,153810.250,A,4305.1530,N,07740.8144,W,0.00,216.53,220719,,,D*74
$GPGGA,153810.500,4305.1530,N,07740.8144,W,2,08,1.24,176.5,M,-34.4,M,0000,0000*5A
$GPRMC,153810.750,A,4305.1530,N,07740.8144,W,0.01,155.98,220719,,,D*73
$GPGGA,153811.000,4305.1530,N,07740.8144,W,2,08,1.24,176.5,M,-34.4,M,0000,0000*5E
$GPRMC,153811.250,A,4305.1530,N,07740.8144,W,0.01,260.94,220719,,,D*7E
$GPGGA,153811.500,4305.1530,N,07740.8144,W,2,08,1.24,176.5,M,-34.4,M,0000,0000*5B
$GPRMC,153811.750,A,4305.1530,N,07740.8144,W,0.01,162.46,220719,,,D*75
$GPGGA,153812.000,4305.1530,N,07740.8144,W,2,08,1.24,176.5,M,-34.4,M,0000,0000*5D
$GPRMC,153812.250,A,4305.1530,N,07740.8144,W,0.01,168.13,220719,,,D*79
$GPGGA,153812.500,4305.1530,N,07740.8144,W,2,08,1.24,176.5,M,-34.4,M,0000,0000*58
$GPRMC,153812.750,A,4305.1530,N,07740.8144,W,0.01,195.52,220719,,,D*7B
$GPGGA,153813.000,4305.1530,N,07740.8144,W,2,08,1.24,176.5,M,-34.4,M,0000,0000*5C
$GPRMC,153813.250,A,4305.1530,N,07740.8144,W,0.01,162.08,220719,,,D*78
$GPGGA,153813.500,4305.1530,N,07740.8144,W,2,08,1.24,176.5,M,-34.4,M,0000,0000*59
$GPRMC,153813.750,A,4305.1530,N,07740.8144,W,0.01,169.50,220719,,,D*7B
$GPGGA,153814.000,4305.1530,N,07740.8144,W,2,08,1.24,176.5,M,-34.4,M,0000,0000*5B
$GPRMC,153814.250,A,4305.1530,N,07740.8144,W,0.01,154.34,220719,,,D*75
$GPGGA,153814.500,4305.1530,N,07740.8144,W,2,08,1.24,176.5,M,-34.4,M,0000,0000*5E
$GPRMC,153814.750,A,4305.1530,N,07740.8145,W,0.01,158.76,220719,,,D*7B
$GPGGA,153815.000,4305.1530,N,07740.8145,W,2,08,1.24,176.5,M,-34.4,M,0000,0000*5B
$GPRMC,153815.250,A,4305.1530,N,07740.8145,W,0.01,159.84,220719,,,D*73
$GPGGA,153815.500,4305.1530,N,07740.8145,W,2,08,1.24,176.5,M,-34.4,M,0000,0000*5E
$GPRMC,153815.750,A,4305.1530,N,07740.8145,W,0.01,185.21,220719,,,D*78
$GPGGA,153816.000,4305.1530,N,07740.8145,W,2,08,1.24,176.5,M,-34.4,M,0000,0000*58
$GPRMC,153816.250,A,4305.1530,N,07740.8145,W,0.01,195.67,220719,,,D*7D
$GPGGA,153816.500,4305.1530,N,07740.8145,W,2,08,1.24,176.5,M,-34.4,M,0000,0000*5D
$GPRMC,153816.750,A,4305.1530,N,07740.8145,W,0.01,198.82,220719,,,D*7E
$GPGGA,153817.000,4305.1530,N,07740.8145,W,2,08,1.24,176.5,M,-34.4,M,0000,0000*59
$GPRMC,153817.250,A,4305.1530,N,07740.8145,W,0.01,154.71,220719,,,D*76
$GPGGA,153817.500,4305.1530,N,07740.8145,W,2,08,1.24,176.5,M,-34.4,M,0000,0000*5C
$GPRMC,153817.750,A,4305.1530,N,07740.8145,W,0.00,0.00,220719,,,D*74
$GPGGA,153818.000,4305.1530,N,07740.8145,W,2,08,1.24,176.5,M,-34.4,M,0000,0000*56
$GPRMC,153818.250,A,4305.1530,N,07740.8145,W,0.00,304.03,220719,,,D*7A
$GPGGA,153818.500,4305.1530,N,07740.8145,W,2,08,1.24,176.5,M,-34.4,M,0000,0000*53
$GPRMC,153818.750,A,4305.1530,N,07740.8145,W,0.01,200.81,220719,,,D*71
$GPGGA,153819.000,4305.1530,N,07740.8145,W,2,08,1.24,176.5,M,-34.4,M,0000,0000*57
$GPRMC,153819.250,A,4305.1530,N,07740.8145,W,0.01,216.14,220719,,,D*7E
$GPGGA,153819.500,4305.1530,N,07740.8145,W,2,08,1.24,176.5,M,-34.4,M,0000,0000*52
$GPRMC,153819.750,A,4305.1530,N,07740.8145,W,0.01,140.26,220719,,,D*7A
$GPGGA,153820.000,4305.1530,N,07740.8145,W,2,08,1.24,176.5,M,-34.4,M,0000,0000*5D
$GPRMC,153820.250,A,4305.1530,N,07740.8145,W,0.01,168.51,220719,,,D*7F
$GPGGA,153820.500,4305.1530,N,07740.8145,W,2,08,1.24,176.5,M,-34.4,M,0000,0000*58
$GPRMC,153820.750,A,4305.1530,N,07740.8145,W,0.01,167.46,220719,,,D*73
$GPGGA,153821.000,4305.1530,N,07740.8145,W,2,08,1.24,176.5,M,-34.4,M,0000,0000*5C
$GPRMC,153821.250,A,4305.1530,N,07740.8145,W,0.01,167.16,220719,,,D*72
$GPGGA,153821.500,4305.1530,N,07740.8145,W,2,08,1.24,176.5,M,-34.4,M,0000,0000*59
$GPRMC,153821.750,A,4305.1530,N,07740.8145,W,0.01,143.83,220719,,,D*7D
$GPGGA,153822.000,4305.1530,N,07740.8145,W,2,08,1.24,176.5,M,-34.4,M,0000,0000*5F
$GPRMC,153822.250,A,4305.1530,N,07740.8145,W,0.01,183.68,220719,,,D*72
$GPGGA,153822.500,4305.1530,N,07740.8145,W,2,08,1.24,176.5,M,-34.4,M,0000,0000*5A
$GPRMC,153822.750,A,4305.1530,N,07740.8145,W,0.01,172.15,220719,,,D*73
$GPGGA,153823.000,4305.1530,N,07740.8145,W,2,08,1.24,176.5,M,-34.4,M,0000,0000*5E
$GPRMC,153823.250,A,4305.1530,N,07740.8145,W,0.00,133.82,220719,,,D*7D
$GPGGA,153823.500,4305.1530,N,07740.8145,W,2,08,1.24,176.5,M,-34.4,M,0000,0000*5B
$GPRMC,153823.750,A,4305.1530,N,07740.8145,W,0.01,145.93,220719,,,D*78
$GPGGA,153824.000,4305.1529,N,07740.8145,W,2,08,1.24,176.5,M,-34.4,M,0000,0000*51
$GPRMC,153824.250,A,4305.1529,N,07740.8145,W,0.01,179.00,220719,,,D*77
$GPGGA,153824.500,4305.1529,N,07740.8145,W,2,08,1.24,176.5,M,-34.4,M,0000,0000*54
$GPRMC,153824.750,A,4305.1529,N,07740.8145,W,0.01,161.75,220719,,,D*79
$GPGGA,153825.000,4305.1529,N,07740.8145,W,2,08,1.24,176.5,M,-34.4,M,0000,0000*50
$GPRMC,153825.250,A,4305.1529,N,07740.8145,W,0.01,168.80,220719,,,D*7E
$GPGGA,153825.500,4305.1529,N,07740.8145,W,2,08,1.24,176.5,M,-34.4,M,0000,0000*55
$GPRMC,153825.750,A,4305.1529,N,07740.8145,W,0.01,155.81,220719,,,D*74
$GPGGA,153826.000,4305.1529,N,07740.8145,W,2,08,1.24,176.5,M,-34.4,M,0000,0000*53
$GPRMC,153826.250,A,4305.1529,N,07740.8145,W,0.01,229.06,220719,,,D*75
$GPGGA,153826.500,4305.1529,N,07740.8145,W,2,08,1.24,176.5,M,-34.4,M,0000,0000*56
$GPRMC,153826.750,A,4305.1529,N,07740.8145,W,0.01,147.50,220719,,,D*78
$GPGGA,153827.000,4305.1529,N,07740.8145,W,2,08,1.24,176.5,M,-34.4,M,0000,0000*52
$GPRMC,153827.250,A,4305.1529,N,07740.8145,W,0.01,294.88,220719,,,D*74
$GPGGA,153827.500,4305.1529,N,07740.8145,W,2,08,1.24,176.5,M,-34.4,M,0000,0000*57
$GPRMC,153827.750,A,4305.1529,N,07740.8145,W,0.01,212.61,220719,,,D*78
$GPGGA,153828.000,4305.1529,N,07740.8145,W,2,08,1.24,176.5,M,-34.4,M,0000,0000*5D
$GPRMC,153828.250,A,4305.1529,N,07740.8145,W,0.00,158.24,220719,,,D*7F
$GPGGA,153828.500,4305.1529,N,07740.8145,W,2,08,1.24,176.5,M,-34.4,M,0000,0000*58
$GPRMC,153828.750,A,4305.1529,N,07740.8145,W,0.01,173.13,220719,,,D*76
$GPGGA,153829.000,4305.1529,N,07740.8145,W,2,08,1.24,176.5,M,-34.4,M,0000,0000*5C
$GPRMC,153829.250,A,4305.1529,N,07740.8145,W,0.01,226.07,220719,,,D*74
$GPGGA,153829.500,4305.1529,N,07740.8145,W,2,08,1.24,176.4,M,-34.4,M,0000,0000*58
$GPRMC,153829.750,A,4305.1529,N,07740.8145,W,0.00,170.55,220719,,,D*77
$GPGGA,153830.000,4305.1529,N,07740.8145,W,2,08,1.24,176.4,M,-34.4,M,0000,0000*55
$GPRMC,153830.250,A,4305.1529,N,07740.8145,W,0.00,224.13,220719,,,D*7A
$GPGGA,153830.500,4305.1529,N,07740.8145,W,2,08,1.24,176.4,M,-34.4,M,0000,0000*50
$GPRMC,153830.750,A,4305.1529,N,07740.8145,W,0.01,172.73,220719,,,D*78
$GPGGA,153831.000,4305.1529,N,07740.8145,W,2,08,1.24,176.4,M,-34.4,M,0000,0000*54
$GPRMC,153831.250,A,4305.1529,N,07740.8145,W,0.01,222.19,220719,,,D*76
$GPGGA,153831.500,4305.1529,N,07740.8145,W,2,08,1.24,176.4,M,-34.4,M,0000,0000*51
$GPRMC,153831.750,A,4305.1529,N,07740.8145,W,0.00,218.66,220719,,,D*73
$GPGGA,153832.000,4305.1529,N,07740.8145,W,2,08,1.24,176.4,M,-34.4,M,0000,0000*57
$GPRMC,153832.250,A,4305.1529,N,07740.8145,W,0.00,216.98,220719,,,D*7A
$GPGGA,153832.500,4305.1529,N,07740.8145,W,2,08,1.24,176.4,M,-34.4,M,0000,0000*52
$GPRMC,153832.750,A,4305.1529,N,07740.8145,W,0.01,194.95,220719,,,D*7A
$GPGGA,153833.000,4305.1529,N,07740.8145,W,2,08,1.24,176.4,M,-34.4,M,0000,0000*56
$GPRMC,153833.250,A,4305.1529,N,07740.8145,W,0.01,117.70,220719,,,D*7E
$GPGGA,153833.500,4305.1529,N,07740.8145,W,2,08,1.24,176.4,M,-34.4,M,0000,0000*53
$GPRMC,153833.750,A,4305.1529,N,07740.8145,W,0.01,146.95,220719,,,D*74
$GPGGA,153834.000,4305.1529,N,07740.8145,W,2,08,1.24,176.4,M,-34.4,M,0000,0000*51
$GPRMC,153834.250,A,4305.1529,N,07740.8145,W,0.01,211.34,220719,,,D*7C
$GPGGA,153834.500,4305.1529,N,07740.8145,W,2,08,1.24,176.4,M,-34.4,M,0000,0000*54
$GPRMC,153834.750,A,4305.1529,N,07740.8145,W,0.01,212.22,220719,,,D*7D
$GPGGA,153835.000,4305.1529,N,07740.8145,W,2,08,1.24,176.4,M,-34.4,M,0000,0000*50
$GPRMC,153835.250,A,4305.1529,N,07740.8145,W,0.01,144.46,220719,,,D*7B
$GPGGA,153835.500,4305.1529,N,07740.8145,W,2,08,1.24,176.4,M,-34.4,M,0000,0000*55
$GPRMC,153835.750,A,4305.1529,N,07740.8145,W,0.00,172.42,220719,,,D*7E
$GPGGA,153836.000,4305.1529,N,07740.8145,W,2,08,1.24,176.4,M,-34.4,M,0000,0000*53
$GPRMC,153836.250,A,4305.1529,N,07740.8145,W,0.01,232.94,220719,,,D*75
$GPGGA,153836.500,4305.1529,N,07740.8145,W,2,08,1.24,176.4,M,-34.4,M,0000,0000*56
$GPRMC,153836.750,A,4305.1529,N,07740.8145,W,0.01,194.41,220719,,,D*77
$GPGGA,153837.000,4305.1529,N,07740.8145,W,2,08,1.24,176.4,M,-34.4,M,0000,0000*52
$GPRMC,153837.250,A,4305.1529,N,07740.8145,W,0.01,116.40,220719,,,D*78
$GPGGA,153837.500,4305.1529,N,07740.8145,W,2,08,1.24,176.4,M,-34.4,M,0000,0000*57
$GPRMC,153837.750,A,4305.1529,N,07740.8145,W,0.00,220.00,220719,,,D*7E
$GPGGA,153838.000,4305.1529,N,07740.8145,W,2,08,1.24,176.4,M,-34.4,M,0000,0000*5D
$GPRMC,153838.250,A,4305.1529,N,07740.8145,W,0.01,148.01,220719,,,D*79
$GPGGA,153838.500,4305.1529,N,07740.8145,W,2,08,1.24,176.4,M,-34.4,M,0000,0000*58
$GPRMC,153838.750,A,4305.1529,N,07740.8145,W,0.00,49.11,220719,,,D*4C
$GPGGA,153839.000,4305.1529,N,07740.8145,W,2,08,1.24,176.4,M,-34.4,M,0000,0000*5C
$GPRMC,153839.250,A,4305.1529,N,07740.8145,W,0.00,297.60,220719,,,D*7F
$GPGGA,153839.500,4305.1529,N,07740.8145,W,2,08,1.24,176.4,M,-34.4,M,0000,0000*59
$GPRMC,153839.750,A,4305.1529,N,07740.8145,W,0.00,111.75,220719,,,D*73
$GPGGA,153840.000,4305.1529,N,07740.8145,W,2,08,1.24,176.4,M,-34.4,M,0000,0000*52
$GPRMC,153840.250,A,4305.1529,N,07740.8145,W,0.00,64.07,220719,,,D*4E
$GPGGA,153840.500,4305.1529,N,07740.8145,W,2,08,1.24,176.4,M,-34.4,M,0000,0000*57
$GPRMC,153840.750,A,4305.1529,N,07740.8145,W,0.00,332.16,220719,,,D*7B
$GPGGA,153841.000,4305.1529,N,07740.8145,W,2,08,1.24,176.4,M,-34.4,M,0000,0000*53
$GPRMC,153841.250,A,4305.1529,N,07740.8145,W,0.00,118.19,220719,,,D*7A
$GPGGA,153841.500,4305.1529,N,07740.8145,W,2,08,1.24,176.4,M,-34.4,M,0000,0000*56
$GPRMC,153841.750,A,4305.1529,N,07740.8145,W,0.00,235.94,220719,,,D*76
$GPGGA,153842.000,4305.1529,N,07740.8145,W,2,08,1.24,176.4,M,-34.4,M,0000,0000*50
$GPRMC,153842.250,A,4305.1529,N,07740.8145,W,0.01,276.60,220719,,,D*7D
$GPGGA,153842.500,4305.1529,N,07740.8145,W,2,08,1.24,176.4,M,-34.4,M,0000,0000*55
$GPRMC,153842.750,A,4305.1529,N,07740.8145,W,0.01,290.92,220719,,,D*7D
$GPGGA,153843.000,4305.1529,N,07740.8145,W,2,08,1.24,176.4,M,-34.4,M,0000,0000*51
$GPRMC,153843.250,A,4305.1529,N,07740.8145,W,0.01,280.00,220719,,,D*73
$GPGGA,153843.500,4305.1529,N,07740.8145,W,2,08,1.24,176.4,M,-34.4,M,0000,0000*54
$GPRMC,153843.750,A,4305.1529,N,07740.8145,W,0.00,0.00,220719,,,D*7D
$GPGGA,153844.000,4305.1529,N,07740.8145,W,2,08,1.24,176.4,M,-34.4,M,0000,0000*56
$GPRMC,153844.250,A,4305.1529,N,07740.8145,W,0.01,309.40,220719,,,D*70
$GPGGA,153844.500,4305.1529,N,07740.8145,W,2,08,1.24,176.4,M,-34.4,M,0000,0000*53
$GPRMC,153844.750,A,4305.1529,N,07740.8145,W,0.00,6.00,220719,,,D*7C
$GPGGA,153845.000,4305.1529,N,07740.8145,W,2,08,1.24,176.4,M,-34.4,M,0000,0000*57
$GPRMC,153845.250,A,4305.1529,N,07740.8145,W,0.00,0.00,220719,,,D*7E
$GPGGA,153845.500,4305.1529,N,07740.8145,W,2,08,1.24,176.4,M,-34.4,M,0000,0000*52
$GPRMC,153845.750,A,4305.1529,N,07740.8145,W,0.00,198.71,220719,,,D*7D
$GPGGA,153846.000,4305.1529,N,07740.8145,W,2,08,1.24,176.4,M,-34.4,M,0000,0000*54
$GPRMC,153846.250,A,4305.1529,N,07740.8145,W,0.01,215.92,220719,,,D*71
$GPGGA,153846.500,4305.1529,N,07740.8145,W,2,08,1.24,176.4,M,-34.4,M,0000,0000*51
$GPRMC,153846.750,A,4305.1529,N,07740.8145,W,0.00,0.00,220719,,,D*78
$GPGGA,153847.000,4305.1529,N,07740.8145,W,2,08,1.24,176.4,M,-34.4,M,0000,0000*55
$GPRMC,153847.250,A,4305.1529,N,07740.8145,W,0.01,283.39,220719,,,D*7E
$GPGGA,153847.500,4305.1529,N,07740.8145,W,2,08,1.24,176.4,M,-34.4,M,0000,0000*50
$GPRMC,153847.750,A,4305.1529,N,07740.8145,W,0.01,316.27,220719,,,D*79
$GPGGA,153848.000,4305.1529,N,07740.8145,W,2,08,1.24,176.4,M,-34.4,M,0000,0000*5A
$GPRMC,153848.250,A,4305.1529,N,07740.8145,W,0.01,98.34,220719,,,D*44
$GPGGA,153848.500,4305.1529,N,07740.8145,W,2,08,1.24,176.4,M,-34.4,M,0000,0000*5F
$GPRMC,153848.750,A,4305.1529,N,07740.8145,W,0.00,100.42,220719,,,D*71
$GPGGA,153849.000,4305.1529,N,07740.8145,W,2,08,1.24,176.4,M,-34.4,M,0000,0000*5B
$GPRMC,153849.250,A,4305.1529,N,07740.8145,W,0.00,184.34,220719,,,D*78
$GPGGA,153849.500,4305.1529,N,07740.8145,W,2,08,1.24,176.4,M,-34.4,M,0000,0000*5E
$GPRMC,153849.750,A,4305.1529,N,07740.8145,W,0.00,274.00,220719,,,D*76
$GPGGA,153850.000,4305.1529,N,07740.8145,W,2,08,1.24,176.4,M,-34.4,M,0000,0000*53
$GPRMC,153850.250,A,4305.1529,N,07740.8145,W,0.00,24.16,220719,,,D*4B
$GPGGA,153850.500,4305.1529,N,07740.8145,W,2,08,1.24,176.4,M,-34.4,M,0000,0000*56
$GPRMC,153850.750,A,4305.1529,N,07740.8145,W,0.00,147.99,220719,,,D*7D
$GPGGA,153851.000,4305.1529,N,07740.8145,W,2,08,1.24,176.4,M,-34.4,M,0000,0000*52
$GPRMC,153851.250,A,4305.1529,N,07740.8145,W,0.01,184.56,220719,,,D*74
$GPGGA,153851.500,4305.1529,N,07740.8145,W,2,08,1.24,176.4,M,-34.4,M,0000,0000*57
$GPRMC,153851.750,A,4305.1529,N,07740.8145,W,0.01,168.43,220719,,,D*77
$GPGGA,153852.000,4305.1529,N,07740.8145,W,2,08,1.24,176.4,M,-34.4,M,0000,0000*51
$GPRMC,153852.250,A,4305.1529,N,07740.8145,W,0.00,261.15,220719,,,D*79
$GPGGA,153852.500,4305.1529,N,07740.8145,W,2,08,1.24,176.4,M,-34.4,M,0000,0000*54
$GPRMC,153852.750,A,4305.1529,N,07740.8145,W,0.00,173.33,220719,,,D*78
$GPGGA,153853.000,4305.1529,N,07740.8145,W,2,08,1.24,176.4,M,-34.4,M,0000,0000*50
$GPRMC,153853.250,A,4305.1529,N,07740.8145,W,0.01,328.83,220719,,,D*7A
$GPGGA,153853.500,4305.1529,N,07740.8145,W,2,08,1.24,176.4,M,-34.4,M,0000,0000*55
$GPRMC,153853.750,A,4305.1529,N,07740.8145,W,0.00,145.46,220719,,,D*7E
$GPGGA,153854.000,4305.1529,N,07740.8145,W,2,08,1.24,176.4,M,-34.4,M,0000,0000*57
$GPRMC,153854.250,A,4305.1529,N,07740.8145,W,0.00,221.20,220719,,,D*7D
$GPGGA,153854.500,4305.1529,N,07740.8145,W,2,08,1.24,176.4,M,-34.4,M,0000,0000*52
$GPRMC,153854.750,A,4305.1529,N,07740.8145,W,0.00,219.01,220719,,,D*70
$GPGGA,153855.000,4305.1529,N,07740.8145,W,2,08,1.24,176.4,M,-34.4,M,0000,0000*56
$GPRMC,153855.250,A,4305.1529,N,07740.8145,W,0.01,229.87,220719,,,D*78
$GPGGA,153855.500,4305.1529,N,07740.8145,W,2,08,1.24,176.4,M,-34.4,M,0000,0000*53
$GPRMC,153855.750,A,4305.1529,N,07740.8145,W,0.01,244.15,220719,,,D*7D
$GPGGA,153856.000,4305.1529,N,07740.8145,W,2,08,1.24,176.4,M,-34.4,M,0000,0000*55
$GPRMC,153856.250,A,4305.1529,N,07740.8145,W,0.01,172.89,220719,,,D*78
$GPGGA,153856.500,4305.1529,N,07740.8145,W,2,08,1.24,176.4,M,-34.4,M,0000,0000*50
$GPRMC,153856.750,A,4305.1529,N,07740.8145,W,0.01,135.64,220719,,,D*7D
$GPGGA,153857.000,4305.1529,N,07740.8145,W,2,08,1.24,176.4,M,-34.4,M,0000,0000*54
$GPRMC,153857.250,A,4305.1529,N,07740.8145,W,0.00,112.68,220719,,,D*71
$GPGGA,153857.500,4305.1529,N,07740.8145,W,2,08,1.24,176.4,M,-34.4,M,0000,0000*51
$GPRMC,153857.750,A,4305.1529,N,07740.8145,W,0.01,289.37,220719,,,D*7E
$GPGGA,153858.000,4305.1529,N,07740.8145,W,2,08,1.24,176.4,M,-34.4,M,0000,0000*5B
$GPRMC,153858.250,A,4305.1529,N,07740.8145,W,0.02,232.08,220719,,,D*7B
$GPGGA,153858.500,4305.1529,N,07740.8145,W,2,08,1.24,176.4,M,-34.4,M,0000,0000*5E
$GPRMC,153858.750,A,4305.1529,N,07740.8145,W,0.01,249.07,220719,,,D*7E
$GPGGA,153859.000,4305.1529,N,07740.8145,W,2,08,1.24,176.4,M,-34.4,M,0000,0000*5A
$GPRMC,153859.250,A,4305.1529,N,07740.8145,W,0.01,228.04,220719,,,D*7E
$GPGGA,153859.500,4305.1529,N,07740.8145,W,2,08,1.24,176.4,M,-34.4,M,0000,0000*5F
$GPRMC,153859.750,A,4305.1529,N,07740.8145,W,0.01,208.70,220719,,,D*7A
$GPGGA,153900.000,4305.1529,N,07740.8145,W,2,08,1.24,176.4,M,-34.4,M,0000,0000*57
$GPRMC,153900.250,A,4305.1529,N,07740.8145,W,0.01,186.04,220719,,,D*74
$GPGGA,153900.500,4305.1529,N,07740.8145,W,2,08,1.24,176.4,M,-34.4,M,0000,0000*52
$GPRMC,153900.750,A,4305.1529,N,07740.8145,W,0.01,166.55,220719,,,D*7B
$GPGGA,153901.000,4305.1528,N,07740.8145,W,2,08,1.24,176.4,M,-34.4,M,0000,0000*57
$GPRMC,153901.250,A,4305.1528,N,07740.8145,W,0.02,214.29,220719,,,D*70
$GPGGA,153901.500,4305.1528,N,07740.8145,W,2,08,1.24,176.4,M,-34.4,M,0000,0000*52
$GPRMC,153901.750,A,4305.1528,N,07740.8145,W,0.01,209.07,220719,,,D*76
$GPGGA,153902.000,4305.1528,N,07740.8145,W,2,08,1.24,176.4,M,-34.4,M,0000,0000*54
$GPRMC,153902.250,A,4305.1528,N,07740.8145,W,0.00,138.81,220719,,,D*7E
$GPGGA,153902.500,4305.1528,N,07740.8145,W,2,08,1.24,176.4,M,-34.4,M,0000,0000*51
$GPRMC,153902.750,A,4305.1528,N,07740.8145,W,0.00,175.90,220719,,,D*72
$GPGGA,153903.000,4305.1528,N,07740.8145,W,2,08,1.24,176.4,M,-34.4,M,0000,0000*55
$GPRMC,153903.250,A,4305.1528,N,07740.8145,W,0.01,221.64,220719,,,D*7E
$GPGGA,153903.500,4305.1528,N,07740.8145,W,2,08,1.24,176.4,M,-34.4,M,0000,0000*50
$GPRMC,153903.750,A,4305.1528,N,07740.8145,W,0.00,233.95,220719,,,D*77
$GPGGA,153904.000,4305.1528,N,07740.8145,W,2,08,1.24,176.4,M,-34.4,M,0000,0000*52
$GPRMC,153904.250,A,4305.1528,N,07740.8145,W,0.01,253.94,220719,,,D*73
$GPGGA,153904.500,4305.1528,N,07740.8145,W,2,08,1.24,176.4,M,-34.4,M,0000,0000*57
$GPRMC,153904.750,A,4305.1528,N,07740.8145,W,0.00,179.53,220719,,,D*77
$GPGGA,153905.000,4305.1528,N,07740.8145,W,2,08,1.24,176.4,M,-34.4,M,0000,0000*53
$GPRMC,153905.250,A,4305.1528,N,07740.8145,W,0.01,194.28,220719,,,D*7D
$GPGGA,153905.500,4305.1528,N,07740.8145,W,2,08,1.24,176.4,M,-34.4,M,0000,0000*56
$GPRMC,153905.750,A,4305.1528,N,07740.8145,W,0.00,244.93,220719,,,D*77
$GPGGA,153906.000,4305.1528,N,07740.8145,W,2,08,1.24,176.4,M,-34.4,M,0000,0000*50
$GPRMC,153906.250,A,4305.1528,N,07740.8145,W,0.00,355.45,220719,,,D*7B
$GPGGA,153906.500,4305.1528,N,07740.8145,W,2,08,1.24,176.4,M,-34.4,M,0000,0000*55
$GPRMC,153906.750,A,4305.1528,N,07740.8145,W,0.00,130.80,220719,,,D*76
$GPGGA,153907.000,4305.1528,N,07740.8145,W,2,08,1.24,176.4,M,-34.4,M,0000,0000*51
$GPRMC,153907.250,A,4305.1528,N,07740.8145,W,0.01,189.21,220719,,,D*7A
$GPGGA,153907.500,4305.1528,N,07740.8145,W,2,08,1.24,176.4,M,-34.4,M,0000,0000*54
$GPRMC,153907.750,A,4305.1528,N,07740.8145,W,0.01,190.72,220719,,,D*71
$GPGGA,153908.000,4305.1528,N,07740.8145,W,2,08,1.24,176.4,M,-34.4,M,0000,0000*5E
$GPRMC,153908.250,A,4305.1528,N,07740.8145,W,0.01,241.74,220719,,,D*72
$GPGGA,153908.500,4305.1528,N,07740.8145,W,2,08,1.24,176.4,M,-34.4,M,0000,0000*5B
$GPRMC,153908.750,A,4305.1528,N,07740.8145,W,0.01,211.59,220719,,,D*7D
$GPGGA,153909.000,4305.1528,N,07740.8145,W,2,08,1.24,176.4,M,-34.4,M,0000,0000*5F
$GPRMC,153909.250,A,4305.1528,N,07740.8145,W,0.00,209.00,220719,,,D*7D
$GPGGA,153909.500,4305.1528,N,07740.8145,W,2,08,1.24,176.4,M,-34.4,M,0000,0000*5A
$GPRMC,153909.750,A,4305.1528,N,07740.8145,W,0.01,190.05,220719,,,D*7F
$GPGGA,153910.000,4305.1528,N,07740.8145,W,2,08,1.24,176.4,M,-34.4,M,0000,0000*57
$GPRMC,153910.250,A,4305.1528,N,07740.8145,W,0.01,186.10,220719,,,D*71
$GPGGA,153910.500,4305.1528,N,07740.8145,W,2,08,1.24,176.4,M,-34.4,M,0000,0000*52
$GPRMC,153910.750,A,4305.1528,N,07740.8145,W,0.01,211.14,220719,,,D*7D
$GPGGA,153911.000,4305.1528,N,07740.8145,W,2,08,1.24,176.4,M,-34.4,M,0000,0000*56
$GPRMC,153911.250,A,4305.1528,N,07740.8145,W,0.01,169.90,220719,,,D*79
$GPGGA,153911.500,4305.1528,N,07740.8145,W,2,08,1.24,176.4,M,-34.4,M,0000,0000*53
$GPRMC,153911.750,A,4305.1528,N,07740.8145,W,0.01,161.46,220719,,,D*7F
$GPGGA,153912.000,4305.1528,N,07740.8145,W,2,08,1.24,176.4,M,-34.4,M,0000,0000*55
