Vers 60
USE_SERIAL_FEEDBACK=true
DEVELOPMENT_MODE=false
USE_RMC_ONLY=false

$GPRMC,130454.250,A,4308.3042,N,07726.2639,W,0.01,225.37,050619,,,D*72
$GPGGA,130454.500,4308.3042,N,07726.2639,W,2,08,1.08,151.7,M,-34.4,M,0000,0000*52
lng=-77.437728, lat=43.138404, altitude=151.80, speed=0.01, satellites=8, angle=225.3700, fixquality=2
$GPRMC,130454.750,A,4308.3042,N,07726.2639,W,0.01,276.70,050619,,,D*72
$GPGGA,130455.000,4308.3042,N,07726.2639,W,2,08,1.08,151.7,M,-34.4,M,0000,0000*56
lng=-77.437728, lat=43.138404, altitude=151.70, speed=0.01, satellites=8, angle=276.7000, fixquality=2
$GPRMC,130455.250,A,4308.3042,N,07726.2639,W,0.01,38.97,050619,,,D*47
$GPGGA,130455.500,4308.3042,N,07726.2639,W,2,08,1.08,151.7,M,-34.4,M,0000,0000*53
lng=-77.437728, lat=43.138404, altitude=151.70, speed=0.01, satellites=8, angle=38.9700, fixquality=2
$GPRMC,130455.750,A,4308.3042,N,07726.2639,W,0.00,84.39,050619,,,D*40
$GPGGA,130456.000,4308.3042,N,07726.2639,W,2,08,1.08,151.7,M,-34.4,M,0000,0000*55
lng=-77.437728, lat=43.138404, altitude=151.70, speed=0.00, satellites=8, angle=84.3900, fixquality=2
$GPRMC,130456.250,A,4308.3042,N,07726.2639,W,0.02,349.96,050619,,,D*73
$GPGGA,130456.500,4308.3042,N,07726.2639,W,2,08,1.08,151.7,M,-34.4,M,0000,0000*50
lng=-77.437728, lat=43.138404, altitude=151.70, speed=0.02, satellites=8, angle=349.9600, fixquality=2
$GPRMC,130456.750,A,4308.3042,N,07726.2639,W,0.01,263.29,050619,,,D*78
$GPGGA,130457.000,4308.3042,N,07726.2639,W,2,08,1.08,151.7,M,-34.4,M,0000,0000*54
lng=-77.437728, lat=43.138404, altitude=151.70, speed=0.01, satellites=8, angle=263.2900, fixquality=2
$GPRMC,130457.250,A,4308.3042,N,07726.2639,W,0.00,11.22,050619,,,D*41
$GPGGA,130457.500,4308.3042,N,07726.2639,W,2,08,1.08,151.7,M,-34.4,M,0000,0000*51
lng=-77.437728, lat=43.138404, altitude=151.70, speed=0.00, satellites=8, angle=11.2200, fixquality=2
$GPRMC,130457.750,A,4308.3042,N,07726.2639,W,0.01,269.52,050619,,,D*7F
$GPGGA,130458.000,4308.3042,N,07726.2639,W,2,08,1.08,151.7,M,-34.4,M,0000,0000*5B
lng=-77.437728, lat=43.138404, altitude=151.70, speed=0.01, satellites=8, angle=269.5200, fixquality=2
$GPRMC,130458.250,A,4308.3042,N,07726.2639,W,0.01,15.24,050619,,,D*4D
$GPGGA,130458.500,4308.3042,N,07726.2639,W,2,08,1.08,151.7,M,-34.4,M,0000,0000*5E
lng=-77.437728, lat=43.138404, altitude=151.70, speed=0.01, satellites=8, angle=15.2400, fixquality=2
$GPRMC,130458.750,A,4308.3042,N,07726.2639,W,0.02,296.06,050619,,,D*72
$GPGGA,130459.000,4308.3042,N,07726.2639,W,2,08,1.08,151.7,M,-34.4,M,0000,0000*5A
lng=-77.437728, lat=43.138404, altitude=151.70, speed=0.02, satellites=8, angle=296.0600, fixquality=2
$GPRMC,130459.250,A,4308.3042,N,07726.2639,W,0.00,0.00,050619,,,D*7F
$GPGGA,130459.500,4308.3042,N,07726.2639,W,2,08,1.08,151.7,M,-34.4,M,0000,0000*5F
lng=-77.437728, lat=43.138404, altitude=151.70, speed=0.00, satellites=8, angle=0.0000, fixquality=2
$GPRMC,130459.750,A,4308.3042,N,07726.2639,W,0.01,231.28,050619,,,D*71
$GPGGA,130500.000,4308.3042,N,07726.2639,W,2,08,1.08,151.7,M,-34.4,M,0000,0000*57
lng=-77.437728, lat=43.138404, altitude=151.70, speed=0.01, satellites=8, angle=231.2800, fixquality=2
$GPRMC,130500.250,A,4308.3042,N,07726.2639,W,0.00,267.51,050619,,,D*75
$GPGGA,130500.500,4308.3042,N,07726.2639,W,2,08,1.08,151.7,M,-34.4,M,0000,0000*52
lng=-77.437728, lat=43.138404, altitude=151.70, speed=0.00, satellites=8, angle=267.5100, fixquality=2
$GPRMC,130500.750,A,4308.3042,N,07726.2639,W,0.01,246.40,050619,,,D*72
$GPGGA,130501.000,4308.3042,N,07726.2639,W,2,08,1.08,151.7,M,-34.4,M,0000,0000*56
lng=-77.437728, lat=43.138404, altitude=151.70, speed=0.01, satellites=8, angle=246.4000, fixquality=2
$GPRMC,130501.250,A,4308.3042,N,07726.2639,W,0.01,105.38,050619,,,D*7D
$GPGGA,130501.500,4308.3042,N,07726.2639,W,2,08,1.08,151.7,M,-34.4,M,0000,0000*53
lng=-77.437728, lat=43.138404, altitude=151.70, speed=0.01, satellites=8, angle=105.3800, fixquality=2
$GPRMC,130501.750,A,4308.3042,N,07726.2639,W,0.00,0.00,050619,,,D*76
$GPGGA,130502.000,4308.3042,N,07726.2639,W,2,08,1.08,151.7,M,-34.4,M,0000,0000*55
lng=-77.437728, lat=43.138404, altitude=151.70, speed=0.00, satellites=8, angle=0.0000, fixquality=2
$GPRMC,130502.250,A,4308.3042,N,07726.2639,W,0.01,211.72,050619,,,D*76
$GPGGA,130502.500,4308.3042,N,07726.2639,W,2,08,1.08,151.7,M,-34.4,M,0000,0000*50
lng=-77.437728, lat=43.138404, altitude=151.70, speed=0.01, satellites=8, angle=211.7200, fixquality=2
$GPRMC,130502.750,A,4308.3042,N,07726.2639,W,0.00,317.78,050619,,,D*7F
$GPGGA,130503.000,4308.3042,N,07726.2639,W,2,08,1.08,151.7,M,-34.4,M,0000,0000*54
lng=-77.437728, lat=43.138404, altitude=151.70, speed=0.00, satellites=8, angle=317.7800, fixquality=2
$GPRMC,130503.250,A,4308.3042,N,07726.2639,W,0.01,132.60,050619,,,D*76
$GPGGA,130503.500,4308.3042,N,07726.2639,W,2,08,1.08,151.7,M,-34.4,M,0000,0000*51
lng=-77.437728, lat=43.138404, altitude=151.70, speed=0.01, satellites=8, angle=132.6000, fixquality=2
$GPRMC,130503.750,A,4308.3042,N,07726.2639,W,0.00,336.56,050619,,,D*71
$GPGGA,130504.000,4308.3042,N,07726.2639,W,2,08,1.08,151.7,M,-34.4,M,0000,0000*53
lng=-77.437728, lat=43.138404, altitude=151.70, speed=0.00, satellites=8, angle=336.5600, fixquality=2
$GPRMC,130504.250,A,4308.3042,N,07726.2639,W,0.01,79.36,050619,,,D*4C
$GPGGA,130504.500,4308.3042,N,07726.2639,W,2,08,1.08,151.7,M,-34.4,M,0000,0000*56
lng=-77.437728, lat=43.138404, altitude=151.70, speed=0.01, satellites=8, angle=79.3600, fixquality=2
$GPRMC,130504.750,A,4308.3042,N,07726.2639,W,0.00,266.45,050619,,,D*70
$GPGGA,130505.000,4308.3042,N,07726.2639,W,2,08,1.08,151.7,M,-34.4,M,0000,0000*52
lng=-77.437728, lat=43.138404, altitude=151.70, speed=0.00, satellites=8, angle=266.4500, fixquality=2
$GPRMC,130505.250,A,4308.3042,N,07726.2639,W,0.01,260.35,050619,,,D*74
$GPGGA,130505.500,4308.3042,N,07726.2639,W,2,08,1.08,151.7,M,-34.4,M,0000,0000*57
lng=-77.437728, lat=43.138404, altitude=151.70, speed=0.01, satellites=8, angle=260.3500, fixquality=2
$GPRMC,130505.750,A,4308.3042,N,07726.2639,W,0.01,331.58,050619,,,D*7F
$GPGGA,130506.000,4308.3042,N,07726.2639,W,2,08,1.08,151.7,M,-34.4,M,0000,0000*51
lng=-77.437728, lat=43.138404, altitude=151.70, speed=0.01, satellites=8, angle=331.5800, fixquality=2
$GPRMC,130506.250,A,4308.3042,N,07726.2639,W,0.01,302.14,050619,,,D*71
$GPGGA,130506.500,4308.3042,N,07726.2639,W,2,08,1.08,151.7,M,-34.4,M,0000,0000*54
lng=-77.437728, lat=43.138404, altitude=151.70, speed=0.01, satellites=8, angle=302.1400, fixquality=2
$GPRMC,130506.750,A,4308.3042,N,07726.2639,W,0.01,233.36,050619,,,D*77
$GPGGA,130507.000,4308.3042,N,07726.2639,W,2,08,1.08,151.7,M,-34.4,M,0000,0000*50
lng=-77.437728, lat=43.138404, altitude=151.70, speed=0.01, satellites=8, angle=233.3600, fixquality=2
$GPRMC,130507.250,A,4308.3042,N,07726.2639,W,0.01,161.92,050619,,,D*79
$GPGGA,130507.500,4308.3042,N,07726.2639,W,2,08,1.08,151.7,M,-34.4,M,0000,0000*55
lng=-77.437728, lat=43.138404, altitude=151.70, speed=0.01, satellites=8, angle=161.9200, fixquality=2
$GPRMC,130507.750,A,4308.3042,N,07726.2639,W,0.00,11.54,050619,,,D*41
$GPGGA,130508.000,4308.3042,N,07726.2639,W,2,08,1.08,151.7,M,-34.4,M,0000,0000*5F
lng=-77.437728, lat=43.138404, altitude=151.70, speed=0.00, satellites=8, angle=11.5400, fixquality=2
$GPRMC,130508.250,A,4308.3042,N,07726.2639,W,0.01,63.38,050619,,,D*45
$GPGGA,130508.500,4308.3042,N,07726.2639,W,2,08,1.08,151.7,M,-34.4,M,0000,0000*5A
lng=-77.437728, lat=43.138404, altitude=151.70, speed=0.01, satellites=8, angle=63.3800, fixquality=2
$GPRMC,130508.750,A,4308.3042,N,07726.2639,W,0.01,152.95,050619,,,D*74
$GPGGA,130509.000,4308.3042,N,07726.2639,W,2,08,1.08,151.7,M,-34.4,M,0000,0000*5E
lng=-77.437728, lat=43.138404, altitude=151.70, speed=0.01, satellites=8, angle=152.9500, fixquality=2
$GPRMC,130509.250,A,4308.3042,N,07726.2639,W,0.00,175.09,050619,,,D*71
$GPGGA,130509.500,4308.3042,N,07726.2639,W,2,08,1.08,151.7,M,-34.4,M,0000,0000*5B
lng=-77.437728, lat=43.138404, altitude=151.70, speed=0.00, satellites=8, angle=175.0900, fixquality=2
$GPRMC,130509.750,A,4308.3042,N,07726.2639,W,0.01,52.80,050619,,,D*40
$GPGGA,130510.000,4308.3042,N,07726.2639,W,2,08,1.08,151.7,M,-34.4,M,0000,0000*56
lng=-77.437728, lat=43.138404, altitude=151.70, speed=0.01, satellites=8, angle=52.8000, fixquality=2
$GPRMC,130510.250,A,4308.3042,N,07726.2639,W,0.00,259.47,050619,,,D*7E
$GPGGA,130510.500,4308.3042,N,07726.2639,W,2,08,1.08,151.7,M,-34.4,M,0000,0000*53
lng=-77.437728, lat=43.138404, altitude=151.70, speed=0.00, satellites=8, angle=259.4700, fixquality=2
$GPRMC,130510.750,A,4308.3042,N,07726.2639,W,0.01,40.68,050619,,,D*4D
$GPGGA,130511.000,4308.3042,N,07726.2639,W,2,08,1.08,151.7,M,-34.4,M,0000,0000*57
lng=-77.437728, lat=43.138404, altitude=151.70, speed=0.01, satellites=8, angle=40.6800, fixquality=2
$GPRMC,130511.250,A,4308.3042,N,07726.2639,W,0.01,236.87,050619,,,D*7B
$GPGGA,130511.500,4308.3042,N,07726.2639,W,2,08,1.08,151.7,M,-34.4,M,0000,0000*52
lng=-77.437728, lat=43.138404, altitude=151.70, speed=0.01, satellites=8, angle=236.8700, fixquality=2
$GPRMC,130511.750,A,4308.3042,N,07726.2639,W,0.00,233.48,050619,,,D*79
$GPGGA,130512.000,4308.3042,N,07726.2639,W,2,08,1.08,151.7,M,-34.4,M,0000,0000*54
lng=-77.437728, lat=43.138404, altitude=151.70, speed=0.00, satellites=8, angle=233.4800, fixquality=2
$GPRMC,130512.250,A,4308.3042,N,07726.2639,W,0.00,303.70,050619,,,D*76
$GPGGA,130512.500,4308.3042,N,07726.2639,W,2,08,1.08,151.7,M,-34.4,M,0000,0000*51
lng=-77.437728, lat=43.138404, altitude=151.70, speed=0.00, satellites=8, angle=303.7000, fixquality=2
$GPRMC,130512.750,A,4308.3042,N,07726.2639,W,0.01,220.01,050619,,,D*74
$GPGGA,130513.000,4308.3042,N,07726.2639,W,2,08,1.08,151.7,M,-34.4,M,0000,0000*55
lng=-77.437728, lat=43.138404, altitude=151.70, speed=0.01, satellites=8, angle=220.0100, fixquality=2
$GPRMC,130513.250,A,4308.3042,N,07726.2639,W,0.01,45.18,050619,,,D*49
$GPGGA,130513.500,4308.3042,N,07726.2639,W,2,08,1.08,151.7,M,-34.4,M,0000,0000*50
lng=-77.437728, lat=43.138404, altitude=151.70, speed=0.01, satellites=8, angle=45.1800, fixquality=2
$GPRMC,130513.750,A,4308.3042,N,07726.2639,W,0.01,129.08,050619,,,D*76
$GPGGA,130514.000,4308.3042,N,07726.2639,W,2,08,1.08,151.7,M,-34.4,M,0000,0000*52
lng=-77.437728, lat=43.138404, altitude=151.70, speed=0.01, satellites=8, angle=129.0800, fixquality=2
$GPRMC,130514.250,A,4308.3042,N,07726.2639,W,0.01,311.95,050619,,,D*79
$GPGGA,130514.500,4308.3042,N,07726.2639,W,2,08,1.08,151.7,M,-34.4,M,0000,0000*57
lng=-77.437728, lat=43.138404, altitude=151.70, speed=0.01, satellites=8, angle=311.9500, fixquality=2
$GPRMC,130514.750,A,4308.3042,N,07726.2639,W,0.01,174.99,050619,,,D*71
$GPGGA,130515.000,4308.3042,N,07726.2639,W,2,08,1.08,151.7,M,-34.4,M,0000,0000*53
lng=-77.437728, lat=43.138404, altitude=151.70, speed=0.01, satellites=8, angle=174.9900, fixquality=2
$GPRMC,130515.250,A,4308.3042,N,07726.2639,W,0.01,212.94,050619,,,D*7B
$GPGGA,130515.500,4308.3042,N,07726.2639,W,2,08,1.08,151.7,M,-34.4,M,0000,0000*56
lng=-77.437728, lat=43.138404, altitude=151.70, speed=0.01, satellites=8, angle=212.9400, fixquality=2
$GPRMC,130515.750,A,4308.3042,N,07726.2639,W,0.01,357.12,050619,,,D*70
$GPGGA,130516.000,4308.3042,N,07726.2639,W,2,08,1.08,151.7,M,-34.4,M,0000,0000*50
lng=-77.437728, lat=43.138404, altitude=151.70, speed=0.01, satellites=8, angle=357.1200, fixquality=2
$GPRMC,130516.250,A,4308.3042,N,07726.2639,W,0.01,110.50,050619,,,D*71
$GPGGA,130516.500,4308.3042,N,07726.2639,W,2,08,1.08,151.7,M,-34.4,M,0000,0000*55
lng=-77.437728, lat=43.138404, altitude=151.70, speed=0.01, satellites=8, angle=110.5000, fixquality=2
$GPRMC,130516.750,A,4308.3042,N,07726.2639,W,0.00,28.07,050619,,,D*4D
$GPGGA,130517.000,4308.3042,N,07726.2639,W,2,08,1.08,151.7,M,-34.4,M,0000,0000*51
lng=-77.437728, lat=43.138404, altitude=151.70, speed=0.00, satellites=8, angle=28.0700, fixquality=2
$GPRMC,130517.250,A,4308.3042,N,07726.2639,W,0.00,101.46,050619,,,D*76
$GPGGA,130517.500,4308.3042,N,07726.2639,W,2,08,1.08,151.7,M,-34.4,M,0000,0000*54
lng=-77.437728, lat=43.138404, altitude=151.70, speed=0.00, satellites=8, angle=101.4600, fixquality=2
$GPRMC,130517.750,A,4308.3042,N,07726.2639,W,0.01,325.30,050619,,,D*77
$GPGGA,130518.000,4308.3042,N,07726.2639,W,2,08,1.08,151.7,M,-34.4,M,0000,0000*5E
lng=-77.437728, lat=43.138404, altitude=151.70, speed=0.01, satellites=8, angle=325.3000, fixquality=2
$GPRMC,130518.250,A,4308.3042,N,07726.2639,W,0.01,103.57,050619,,,D*7A
$GPGGA,130518.500,4308.3042,N,07726.2639,W,2,08,1.08,151.7,M,-34.4,M,0000,0000*5B
lng=-77.437728, lat=43.138404, altitude=151.70, speed=0.01, satellites=8, angle=103.5700, fixquality=2
$GPRMC,130518.750,A,4308.3042,N,07726.2639,W,0.00,329.03,050619,,,D*75
$GPGGA,130519.000,4308.3042,N,07726.2639,W,2,08,1.08,151.7,M,-34.4,M,0000,0000*5F
lng=-77.437728, lat=43.138404, altitude=151.70, speed=0.00, satellites=8, angle=329.0300, fixquality=2
$GPRMC,130519.250,A,4308.3042,N,07726.2639,W,0.01,78.52,050619,,,D*43
$GPGGA,130519.500,4308.3042,N,07726.2639,W,2,08,1.08,151.7,M,-34.4,M,0000,0000*5A
lng=-77.437728, lat=43.138404, altitude=151.70, speed=0.01, satellites=8, angle=78.5200, fixquality=2
$GPRMC,130519.750,A,4308.3042,N,07726.2639,W,0.01,98.38,050619,,,D*44
$GPGGA,130520.000,4308.3042,N,07726.2639,W,2,08,1.08,151.7,M,-34.4,M,0000,0000*55
lng=-77.437728, lat=43.138404, altitude=151.70, speed=0.01, satellites=8, angle=98.3800, fixquality=2
$GPRMC,130520.250,A,4308.3042,N,07726.2639,W,0.01,47.19,050619,,,D*4A
$GPGGA,130520.500,4308.3042,N,07726.2639,W,2,08,1.08,151.7,M,-34.4,M,0000,0000*50
lng=-77.437728, lat=43.138404, altitude=151.70, speed=0.01, satellites=8, angle=47.1900, fixquality=2
$GPRMC,130520.750,A,4308.3042,N,07726.2639,W,0.02,312.71,050619,,,D*71
$GPGGA,130521.000,4308.3042,N,07726.2639,W,2,08,1.08,151.7,M,-34.4,M,0000,0000*54
lng=-77.437728, lat=43.138404, altitude=151.70, speed=0.02, satellites=8, angle=312.7100, fixquality=2
$GPRMC,130521.250,A,4308.3042,N,07726.2639,W,0.00,297.48,050619,,,D*71
$GPGGA,130521.500,4308.3042,N,07726.2639,W,2,08,1.08,151.7,M,-34.4,M,0000,0000*51
lng=-77.437728, lat=43.138404, altitude=151.70, speed=0.00, satellites=8, angle=297.4800, fixquality=2
$GPRMC,130521.750,A,4308.3042,N,07726.2639,W,0.00,26.01,050619,,,D*41
$GPGGA,130522.000,4308.3042,N,07726.2639,W,2,08,1.08,151.7,M,-34.4,M,0000,0000*57
lng=-77.437728, lat=43.138404, altitude=151.70, speed=0.00, satellites=8, angle=26.0100, fixquality=2
$GPRMC,130522.250,A,4308.3042,N,07726.2639,W,0.01,21.45,050619,,,D*41
$GPGGA,130522.500,4308.3042,N,07726.2639,W,2,08,1.08,151.7,M,-34.4,M,0000,0000*52
lng=-77.437728, lat=43.138404, altitude=151.70, speed=0.01, satellites=8, angle=21.4500, fixquality=2
$GPRMC,130522.750,A,4308.3042,N,07726.2639,W,0.01,265.29,050619,,,D*7C
$GPGGA,130523.000,4308.3042,N,07726.2639,W,2,08,1.08,151.7,M,-34.4,M,0000,0000*56
lng=-77.437728, lat=43.138404, altitude=151.70, speed=0.01, satellites=8, angle=265.2900, fixquality=2
$GPRMC,130523.250,A,4308.3042,N,07726.2639,W,0.01,24.60,050619,,,D*42
$GPGGA,130523.500,4308.3042,N,07726.2639,W,2,08,1.08,151.7,M,-34.4,M,0000,0000*53
lng=-77.437728, lat=43.138404, altitude=151.70, speed=0.01, satellites=8, angle=24.6000, fixquality=2
$GPRMC,130523.750,A,4308.3042,N,07726.2639,W,0.00,0.00,050619,,,D*76
$GPGGA,130524.000,4308.3042,N,07726.2639,W,2,08,1.08,151.7,M,-34.4,M,0000,0000*51
lng=-77.437728, lat=43.138404, altitude=151.70, speed=0.00, satellites=8, angle=0.0000, fixquality=2
$GPRMC,130524.250,A,4308.3042,N,07726.2639,W,0.01,240.62,050619,,,D*77
$GPGGA,130524.500,4308.3042,N,07726.2639,W,2,08,1.08,151.7,M,-34.4,M,0000,0000*54
lng=-77.437728, lat=43.138404, altitude=151.70, speed=0.01, satellites=8, angle=240.6200, fixquality=2
$GPRMC,130524.750,A,4308.3042,N,07726.2639,W,0.01,138.51,050619,,,D*7E
$GPGGA,130525.000,4308.3042,N,07726.2639,W,2,08,1.08,151.7,M,-34.4,M,0000,0000*50
lng=-77.437728, lat=43.138404, altitude=151.70, speed=0.01, satellites=8, angle=138.5100, fixquality=2
$GPRMC,130525.250,A,4308.3042,N,07726.2639,W,0.01,130.29,050619,,,D*7D
$GPGGA,130525.500,4308.3042,N,07726.2639,W,2,08,1.08,151.7,M,-34.4,M,0000,0000*55
lng=-77.437728, lat=43.138404, altitude=151.70, speed=0.01, satellites=8, angle=130.2900, fixquality=2
$GPRMC,130525.750,A,4308.3042,N,07726.2639,W,0.01,25.42,050619,,,D*40
$GPGGA,130526.000,4308.3042,N,07726.2639,W,2,08,1.08,151.7,M,-34.4,M,0000,0000*53
lng=-77.437728, lat=43.138404, altitude=151.70, speed=0.01, satellites=8, angle=25.4200, fixquality=2
$GPRMC,130526.250,A,4308.3042,N,07726.2639,W,0.01,238.88,050619,,,D*7E
$GPGGA,130526.500,4308.3042,N,07726.2639,W,2,08,1.08,151.7,M,-34.4,M,0000,0000*56
lng=-77.437728, lat=43.138404, altitude=151.70, speed=0.01, satellites=8, angle=238.8800, fixquality=2
$GPRMC,130526.750,A,4308.3042,N,07726.2639,W,0.01,353.30,050619,,,D*74
$GPGGA,130527.000,4308.3042,N,07726.2639,W,2,08,1.08,151.7,M,-34.4,M,0000,0000*52
lng=-77.437728, lat=43.138404, altitude=151.70, speed=0.01, satellites=8, angle=353.3000, fixquality=2
$GPRMC,130527.250,A,4308.3042,N,07726.2639,W,0.00,216.83,050619,,,D*79
$GPGGA,130527.500,4308.3042,N,07726.2639,W,2,08,1.08,151.7,M,-34.4,M,0000,0000*57
lng=-77.437728, lat=43.138404, altitude=151.70, speed=0.00, satellites=8, angle=216.8300, fixquality=2
$GPRMC,130527.750,A,4308.3042,N,07726.2639,W,0.00,318.83,050619,,,D*73
$GPGGA,130528.000,4308.3042,N,07726.2639,W,2,08,1.08,151.7,M,-34.4,M,0000,0000*5D
lng=-77.437728, lat=43.138404, altitude=151.70, speed=0.00, satellites=8, angle=318.8300, fixquality=2
$GPRMC,130528.250,A,4308.3042,N,07726.2639,W,0.01,106.25,050619,,,D*79
$GPGGA,130528.500,4308.3042,N,07726.2639,W,2,08,1.08,151.7,M,-34.4,M,0000,0000*58
lng=-77.437728, lat=43.138404, altitude=151.70, speed=0.01, satellites=8, angle=106.2500, fixquality=2
$GPRMC,130528.750,A,4308.3042,N,07726.2639,W,0.01,150.69,050619,,,D*77
$GPGGA,130529.000,4308.3042,N,07726.2639,W,2,08,1.08,151.7,M,-34.4,M,0000,0000*5C
lng=-77.437728, lat=43.138404, altitude=151.70, speed=0.01, satellites=8, angle=150.6900, fixquality=2
$GPRMC,130529.250,A,4308.3042,N,07726.2639,W,0.01,133.62,050619,,,D*7D
$GPGGA,130529.500,4308.3042,N,07726.2639,W,2,08,1.08,151.7,M,-34.4,M,0000,0000*59
lng=-77.437728, lat=43.138404, altitude=151.70, speed=0.01, satellites=8, angle=133.6200, fixquality=2
$GPRMC,130529.750,A,4308.3042,N,07726.2639,W,0.00,134.42,050619,,,D*7C
$GPGGA,130530.000,4308.3042,N,07726.2639,W,2,08,1.08,151.7,M,-34.4,M,0000,0000*54
lng=-77.437728, lat=43.138404, altitude=151.70, speed=0.00, satellites=8, angle=134.4200, fixquality=2
$GPRMC,130530.250,A,4308.3042,N,07726.2639,W,0.01,140.99,050619,,,D*75
$GPGGA,130530.500,4308.3042,N,07726.2639,W,2,08,1.08,151.7,M,-34.4,M,0000,0000*51
lng=-77.437728, lat=43.138404, altitude=151.70, speed=0.01, satellites=8, angle=140.9900, fixquality=2
$GPRMC,130530.750,A,4308.3042,N,07726.2639,W,0.00,16.64,050619,,,D*41
$GPGGA,130531.000,4308.3042,N,07726.2639,W,2,08,1.08,151.7,M,-34.4,M,0000,0000*55
lng=-77.437728, lat=43.138404, altitude=151.70, speed=0.00, satellites=8, angle=16.6400, fixquality=2
$GPRMC,130531.250,A,4308.3042,N,07726.2639,W,0.01,102.61,050619,,,D*75
$GPGGA,130531.500,4308.3042,N,07726.2639,W,2,08,1.08,151.7,M,-34.4,M,0000,0000*50
lng=-77.437728, lat=43.138404, altitude=151.70, speed=0.01, satellites=8, angle=102.6100, fixquality=2
$GPRMC,130531.750,A,4308.3042,N,07726.2639,W,0.00,312.70,050619,,,D*72
$GPGGA,130532.000,4308.3042,N,07726.2639,W,2,08,1.08,151.7,M,-34.4,M,0000,0000*56
lng=-77.437728, lat=43.138404, altitude=151.70, speed=0.00, satellites=8, angle=312.7000, fixquality=2
$GPRMC,130532.250,A,4308.3042,N,07726.2639,W,0.01,130.71,050619,,,D*76
$GPGGA,130532.500,4308.3042,N,07726.2639,W,2,08,1.08,151.7,M,-34.4,M,0000,0000*53
lng=-77.437728, lat=43.138404, altitude=151.70, speed=0.01, satellites=8, angle=130.7100, fixquality=2
$GPRMC,130532.750,A,4308.3042,N,07726.2639,W,0.02,129.80,050619,,,D*76
$GPGGA,130533.000,4308.3042,N,07726.2639,W,2,08,1.08,151.7,M,-34.4,M,0000,0000*57
lng=-77.437728, lat=43.138404, altitude=151.70, speed=0.02, satellites=8, angle=129.8000, fixquality=2
$GPRMC,130533.250,A,4308.3042,N,07726.2639,W,0.01,306.90,050619,,,D*7F
$GPGGA,130533.500,4308.3042,N,07726.2639,W,2,08,1.08,151.7,M,-34.4,M,0000,0000*52
lng=-77.437728, lat=43.138404, altitude=151.70, speed=0.01, satellites=8, angle=306.9000, fixquality=2
$GPRMC,130533.750,A,4308.3042,N,07726.2639,W,0.01,157.46,050619,,,D*77
$GPGGA,130534.000,4308.3042,N,07726.2639,W,2,08,1.08,151.7,M,-34.4,M,0000,0000*50
lng=-77.437728, lat=43.138404, altitude=151.70, speed=0.01, satellites=8, angle=157.4600, fixquality=2
$GPRMC,130534.250,A,4308.3042,N,07726.2639,W,0.01,319.56,050619,,,D*7C
$GPGGA,130534.500,4308.3042,N,07726.2639,W,2,08,1.08,151.7,M,-34.4,M,0000,0000*55
lng=-77.437728, lat=43.138404, altitude=151.70, speed=0.01, satellites=8, angle=319.5600, fixquality=2
$GPRMC,130534.750,A,4308.3042,N,07726.2639,W,0.01,233.67,050619,,,D*72
$GPGGA,130535.000,4308.3042,N,07726.2639,W,2,08,1.08,151.7,M,-34.4,M,0000,0000*51
lng=-77.437728, lat=43.138404, altitude=151.70, speed=0.01, satellites=8, angle=233.6700, fixquality=2
$GPRMC,130535.250,A,4308.3042,N,07726.2639,W,0.00,217.69,050619,,,D*7F
$GPGGA,130535.500,4308.3042,N,07726.2639,W,2,08,1.08,151.7,M,-34.4,M,0000,0000*54
lng=-77.437728, lat=43.138404, altitude=151.70, speed=0.00, satellites=8, angle=217.6900, fixquality=2
$GPRMC,130535.750,A,4308.3042,N,07726.2639,W,0.02,218.29,050619,,,D*73
$GPGGA,130536.000,4308.3042,N,07726.2639,W,2,08,1.08,151.7,M,-34.4,M,0000,0000*52
lng=-77.437728, lat=43.138404, altitude=151.70, speed=0.02, satellites=8, angle=218.2900, fixquality=2
$GPRMC,130536.250,A,4308.3042,N,07726.2639,W,0.00,215.85,050619,,,D*7C
$GPGGA,130536.500,4308.3042,N,07726.2639,W,2,08,1.08,151.7,M,-34.4,M,0000,0000*57
lng=-77.437728, lat=43.138404, altitude=151.70, speed=0.00, satellites=8, angle=215.8500, fixquality=2
$GPRMC,130536.750,A,4308.3042,N,07726.2639,W,0.00,7.12,050619,,,D*76
$GPGGA,130537.000,4308.3042,N,07726.2639,W,2,08,1.08,151.7,M,-34.4,M,0000,0000*53
lng=-77.437728, lat=43.138404, altitude=151.70, speed=0.00, satellites=8, angle=7.1200, fixquality=2
$GPRMC,130537.250,A,4308.3042,N,07726.2639,W,0.01,34.85,050619,,,D*4D
$GPGGA,130537.500,4308.3042,N,07726.2639,W,2,08,1.08,151.7,M,-34.4,M,0000,0000*56
lng=-77.437728, lat=43.138404, altitude=151.70, speed=0.01, satellites=8, angle=34.8500, fixquality=2
$GPRMC,130537.750,A,4308.3042,N,07726.2639,W,0.00,125.23,050619,,,D*74
$GPGGA,130538.000,4308.3042,N,07726.2639,W,2,08,1.08,151.7,M,-34.4,M,0000,0000*5C
lng=-77.437728, lat=43.138404, altitude=151.70, speed=0.00, satellites=8, angle=125.2300, fixquality=2
$GPRMC,130538.250,A,4308.3042,N,07726.2639,W,0.01,181.97,050619,,,D*7E
$GPGGA,130538.500,4308.3042,N,07726.2639,W,2,08,1.08,151.7,M,-34.4,M,0000,0000*59
lng=-77.437728, lat=43.138404, altitude=151.70, speed=0.01, satellites=8, angle=181.9700, fixquality=2
$GPRMC,130538.750,A,4308.3042,N,07726.2639,W,0.01,49.84,050619,,,D*4C
$GPGGA,130539.000,4308.3042,N,07726.2639,W,2,08,1.08,151.7,M,-34.4,M,0000,0000*5D
lng=-77.437728, lat=43.138404, altitude=151.70, speed=0.01, satellites=8, angle=49.8400, fixquality=2
$GPRMC,130539.250,A,4308.3042,N,07726.2639,W,0.01,250.03,050619,,,D*7D
$GPGGA,130539.500,4308.3042,N,07726.2639,W,2,08,1.08,151.7,M,-34.4,M,0000,0000*58
lng=-77.437728, lat=43.138404, altitude=151.70, speed=0.01, satellites=8, angle=250.0300, fixquality=2
$GPRMC,130539.750,A,4308.3042,N,07726.2639,W,0.02,148.73,050619,,,D*76
$GPGGA,130540.000,4308.3042,N,07726.2639,W,2,08,1.08,151.7,M,-34.4,M,0000,0000*53
lng=-77.437728, lat=43.138404, altitude=151.70, speed=0.02, satellites=8, angle=148.7300, fixquality=2
$GPRMC,130540.250,A,4308.3043,N,07726.2639,W,0.02,112.43,050619,,,D*70
$GPGGA,130540.500,4308.3043,N,07726.2639,W,2,08,1.08,151.7,M,-34.4,M,0000,0000*57
lng=-77.437728, lat=43.138404, altitude=151.70, speed=0.02, satellites=8, angle=112.4300, fixquality=2
$GPRMC,130540.750,A,4308.3043,N,07726.2639,W,0.01,321.29,050619,,,D*78
$GPGGA,130541.000,4308.3043,N,07726.2639,W,2,08,1.08,151.7,M,-34.4,M,0000,0000*53
lng=-77.437728, lat=43.138404, altitude=151.70, speed=0.01, satellites=8, angle=321.2900, fixquality=2
$GPRMC,130541.250,A,4308.3043,N,07726.2639,W,0.02,26.66,050619,,,D*40
$GPGGA,130541.500,4308.3043,N,07726.2639,W,2,08,1.08,151.7,M,-34.4,M,0000,0000*56
lng=-77.437728, lat=43.138404, altitude=151.70, speed=0.02, satellites=8, angle=26.6600, fixquality=2
$GPRMC,130541.750,A,4308.3043,N,07726.2639,W,0.01,68.91,050619,,,D*44
$GPGGA,130542.000,4308.3043,N,07726.2639,W,2,08,1.08,151.7,M,-34.4,M,0000,0000*50
lng=-77.437728, lat=43.138404, altitude=151.70, speed=0.01, satellites=8, angle=68.9100, fixquality=2
$GPRMC,130542.250,A,4308.3043,N,07726.2639,W,0.01,199.13,050619,,,D*77
$GPGGA,130542.500,4308.3043,N,07726.2639,W,2,08,1.08,151.7,M,-34.4,M,0000,0000*55
lng=-77.437728, lat=43.138404, altitude=151.70, speed=0.01, satellites=8, angle=199.1300, fixquality=2
$GPRMC,130542.750,A,4308.3043,N,07726.2639,W,0.00,9.29,050619,,,D*72
$GPGGA,130543.000,4308.3043,N,07726.2639,W,2,08,1.08,151.7,M,-34.4,M,0000,0000*51
lng=-77.437728, lat=43.138404, altitude=151.70, speed=0.00, satellites=8, angle=9.2900, fixquality=2
$GPRMC,130543.250,A,4308.3043,N,07726.2639,W,0.01,63.67,050619,,,D*41
$GPGGA,130543.500,4308.3043,N,07726.2639,W,2,08,1.08,151.7,M,-34.4,M,0000,0000*54
lng=-77.437728, lat=43.138404, altitude=151.70, speed=0.01, satellites=8, angle=63.6700, fixquality=2
$GPRMC,130543.750,A,4308.3043,N,07726.2639,W,0.00,21.48,050619,,,D*4E
$GPGGA,130544.000,4308.3043,N,07726.2639,W,2,08,1.08,151.7,M,-34.4,M,0000,0000*56
lng=-77.437728, lat=43.138404, altitude=151.70, speed=0.00, satellites=8, angle=21.4800, fixquality=2
$GPRMC,130544.250,A,4308.3043,N,07726.2639,W,0.00,113.76,050619,,,D*71
$GPGGA,130544.500,4308.3043,N,07726.2639,W,2,08,1.08,151.7,M,-34.4,M,0000,0000*53
lng=-77.437728, lat=43.138404, altitude=151.70, speed=0.00, satellites=8, angle=113.7600, fixquality=2
$GPRMC,130544.750,A,4308.3043,N,07726.2639,W,0.01,149.77,050619,,,D*7B
$GPGGA,130545.000,4308.3043,N,07726.2639,W,2,08,1.08,151.7,M,-34.4,M,0000,0000*57
lng=-77.437728, lat=43.138404, altitude=151.70, speed=0.01, satellites=8, angle=149.7700, fixquality=2
$GPRMC,130545.250,A,4308.3043,N,07726.2639,W,0.01,238.94,050619,,,D*77
$GPGGA,130545.500,4308.3043,N,07726.2639,W,2,08,1.08,151.7,M,-34.4,M,0000,0000*52
lng=-77.437728, lat=43.138404, altitude=151.70, speed=0.01, satellites=8, angle=238.9400, fixquality=2
$GPRMC,130545.750,A,4308.3043,N,07726.2639,W,0.00,23.96,050619,,,D*49
$GPGGA,130546.000,4308.3043,N,07726.2639,W,2,08,1.08,151.7,M,-34.4,M,0000,0000*54
lng=-77.437728, lat=43.138404, altitude=151.70, speed=0.00, satellites=8, angle=23.9600, fixquality=2
$GPRMC,130546.250,A,4308.3043,N,07726.2639,W,0.01,338.74,050619,,,D*7B
$GPGGA,130546.500,4308.3043,N,07726.2639,W,2,08,1.08,151.7,M,-34.4,M,0000,0000*51
lng=-77.437728, lat=43.138404, altitude=151.70, speed=0.01, satellites=8, angle=338.7400, fixquality=2
$GPRMC,130546.750,A,4308.3043,N,07726.2639,W,0.01,88.66,050619,,,D*45
$GPGGA,130547.000,4308.3043,N,07726.2639,W,2,08,1.08,151.7,M,-34.4,M,0000,0000*55
lng=-77.437728, lat=43.138404, altitude=151.70, speed=0.01, satellites=8, angle=88.6600, fixquality=2
$GPRMC,130547.250,A,4308.3043,N,07726.2639,W,0.02,207.02,050619,,,D*75
$GPGGA,130547.500,4308.3043,N,07726.2639,W,2,08,1.08,151.7,M,-34.4,M,0000,0000*50
lng=-77.437728, lat=43.138404, altitude=151.70, speed=0.02, satellites=8, angle=207.0200, fixquality=2
$GPRMC,130547.750,A,4308.3043,N,07726.2639,W,0.01,348.60,050619,,,D*7D
$GPGGA,130548.000,4308.3043,N,07726.2639,W,2,08,1.08,151.7,M,-34.4,M,0000,0000*5A
lng=-77.437728, lat=43.138404, altitude=151.70, speed=0.01, satellites=8, angle=348.6000, fixquality=2
$GPRMC,130548.250,A,4308.3043,N,07726.2639,W,0.00,0.00,050619,,,D*7F
$GPGGA,130548.500,4308.3043,N,07726.2639,W,2,08,1.08,151.7,M,-34.4,M,0000,0000*5F
lng=-77.437728, lat=43.138404, altitude=151.70, speed=0.00, satellites=8, angle=0.0000, fixquality=2
$GPRMC,130548.750,A,4308.3043,N,07726.2639,W,0.00,338.43,050619,,,D*75
$GPGGA,130549.000,4308.3043,N,07726.2639,W,2,08,1.08,151.7,M,-34.4,M,0000,0000*5B
lng=-77.437728, lat=43.138404, altitude=151.70, speed=0.00, satellites=8, angle=338.4300, fixquality=2
$GPRMC,130549.250,A,4308.3043,N,07726.2639,W,0.01,115.31,050619,,,D*78
$GPGGA,130549.500,4308.3043,N,07726.2639,W,2,08,1.08,151.7,M,-34.4,M,0000,0000*5E
lng=-77.437728, lat=43.138404, altitude=151.70, speed=0.01, satellites=8, angle=115.3100, fixquality=2
$GPRMC,130549.750,A,4308.3043,N,07726.2639,W,0.01,119.30,050619,,,D*70
$GPGGA,130550.000,4308.3043,N,07726.2639,W,2,08,1.08,151.7,M,-34.4,M,0000,0000*53
lng=-77.437728, lat=43.138404, altitude=151.70, speed=0.01, satellites=8, angle=119.3000, fixquality=2
$GPRMC,130550.250,A,4308.3043,N,07726.2639,W,0.01,328.70,050619,,,D*79
$GPGGA,130550.500,4308.3043,N,07726.2639,W,2,08,1.08,151.7,M,-34.4,M,0000,0000*56
lng=-77.437728, lat=43.138404, altitude=151.70, speed=0.01, satellites=8, angle=328.7000, fixquality=2
$GPRMC,130550.750,A,4308.3043,N,07726.2639,W,0.01,8.90,050619,,,D*73
$GPGGA,130551.000,4308.3043,N,07726.2639,W,2,08,1.08,151.7,M,-34.4,M,0000,0000*52
lng=-77.437728, lat=43.138404, altitude=151.70, speed=0.01, satellites=8, angle=8.9000, fixquality=2
$GPRMC,130551.250,A,4308.3043,N,07726.2639,W,0.01,147.83,050619,,,D*7F
$GPGGA,130551.500,4308.3043,N,07726.2639,W,2,08,1.08,151.7,M,-34.4,M,0000,0000*57
lng=-77.437728, lat=43.138404, altitude=151.70, speed=0.01, satellites=8, angle=147.8300, fixquality=2
$GPRMC,130551.750,A,4308.3043,N,07726.2639,W,0.01,181.74,050619,,,D*78
$GPGGA,130552.000,4308.3043,N,07726.2639,W,2,08,1.08,151.7,M,-34.4,M,0000,0000*51
lng=-77.437728, lat=43.138404, altitude=151.70, speed=0.01, satellites=8, angle=181.7400, fixquality=2
$GPRMC,130552.250,A,4308.3043,N,07726.2639,W,0.01,332.16,050619,,,D*70
$GPGGA,130552.500,4308.3043,N,07726.2639,W,2,08,1.08,151.7,M,-34.4,M,0000,0000*54
lng=-77.437728, lat=43.138404, altitude=151.70, speed=0.01, satellites=8, angle=332.1600, fixquality=2
$GPRMC,130552.750,A,4308.3043,N,07726.2639,W,0.04,9.53,050619,,,D*7A
$GPGGA,130553.000,4308.3043,N,07726.2639,W,2,08,1.08,151.7,M,-34.4,M,0000,0000*50
lng=-77.437728, lat=43.138404, altitude=151.70, speed=0.04, satellites=8, angle=9.5300, fixquality=2
$GPRMC,130553.250,A,4308.3043,N,07726.2639,W,0.66,6.20,050619,,,D*71
$GPGGA,130553.500,4308.3043,N,07726.2639,W,2,08,1.08,151.7,M,-34.4,M,0000,0000*55
lng=-77.437728, lat=43.138404, altitude=151.70, speed=0.66, satellites=8, angle=6.2000, fixquality=2
$GPRMC,130553.750,A,4308.3043,N,07726.2639,W,0.18,11.04,050619,,,D*4D
$GPGGA,130554.000,4308.3043,N,07726.2639,W,2,08,1.08,151.7,M,-34.4,M,0000,0000*57
lng=-77.437728, lat=43.138404, altitude=151.70, speed=0.18, satellites=8, angle=11.0400, fixquality=2
$GPRMC,130554.250,A,4308.3043,N,07726.2639,W,0.19,22.64,050619,,,D*48
$GPGGA,130554.500,4308.3043,N,07726.2639,W,2,08,1.02,151.7,M,-34.4,M,0000,0000*58
lng=-77.437728, lat=43.138404, altitude=151.70, speed=0.19, satellites=8, angle=22.6400, fixquality=2
$GPRMC,130554.750,A,4308.3046,N,07726.2639,W,4.03,3.41,050619,,,D*73
$GPGGA,130555.000,4308.3049,N,07726.2639,W,2,08,1.08,151.7,M,-34.4,M,0000,0000*5C
lng=-77.437728, lat=43.138412, altitude=151.70, speed=4.03, satellites=8, angle=3.4100, fixquality=2
$GPRMC,130555.250,A,4308.3052,N,07726.2639,W,4.82,0.35,050619,,,D*7B
$GPGGA,130555.500,4308.3056,N,07726.2638,W,2,08,1.08,151.7,M,-34.4,M,0000,0000*56
lng=-77.437728, lat=43.138420, altitude=151.70, speed=4.82, satellites=8, angle=0.3500, fixquality=2
$GPRMC,130555.750,A,4308.3059,N,07726.2638,W,5.66,359.27,050619,,,D*73
$GPGGA,130556.000,4308.3064,N,07726.2639,W,2,08,1.08,151.8,M,-34.4,M,0000,0000*5F
lng=-77.437728, lat=43.138427, altitude=151.70, speed=5.66, satellites=8, angle=359.2700, fixquality=2
$GPRMC,130556.250,A,4308.3068,N,07726.2639,W,6.20,356.96,050619,,,D*72
$GPGGA,130556.500,4308.3073,N,07726.2639,W,2,08,1.08,151.7,M,-34.4,M,0000,0000*53
lng=-77.437728, lat=43.138442, altitude=151.80, speed=6.20, satellites=8, angle=356.9600, fixquality=2
$GPRMC,130556.750,A,4308.3077,N,07726.2639,W,6.54,355.53,050619,,,D*70
$GPGGA,130557.000,4308.3082,N,07726.2640,W,2,08,1.08,151.7,M,-34.4,M,0000,0000*57
lng=-77.437728, lat=43.138462, altitude=151.70, speed=6.54, satellites=8, angle=355.5300, fixquality=2
$GPRMC,130557.250,A,4308.3086,N,07726.2640,W,6.47,357.23,050619,,,D*73
$GPGGA,130557.500,4308.3091,N,07726.2640,W,2,08,1.08,151.7,M,-34.4,M,0000,0000*50
lng=-77.437736, lat=43.138477, altitude=151.70, speed=6.47, satellites=8, angle=357.2300, fixquality=2
$GPRMC,130557.750,A,4308.3095,N,07726.2641,W,6.41,355.57,050619,,,D*72
$GPGGA,130558.000,4308.3100,N,07726.2642,W,2,08,1.09,151.7,M,-34.4,M,0000,0000*50
lng=-77.437736, lat=43.138492, altitude=151.70, speed=6.41, satellites=8, angle=355.5700, fixquality=2
$GPRMC,130558.250,A,4308.3104,N,07726.2642,W,6.22,351.24,050619,,,D*77
$GPGGA,130558.500,4308.3109,N,07726.2643,W,2,08,1.08,151.6,M,-34.4,M,0000,0000*5D
lng=-77.437736, lat=43.138507, altitude=151.70, speed=6.22, satellites=8, angle=351.2400, fixquality=2
$GPRMC,130558.750,A,4308.3113,N,07726.2644,W,5.88,350.31,050619,,,D*74
$GPGGA,130559.000,4308.3117,N,07726.2645,W,2,08,1.08,151.6,M,-34.4,M,0000,0000*50
lng=-77.437736, lat=43.138526, altitude=151.60, speed=5.88, satellites=8, angle=350.3100, fixquality=2
$GPRMC,130559.250,A,4308.3120,N,07726.2646,W,4.75,353.65,050619,,,D*73
$GPGGA,130559.500,4308.3123,N,07726.2646,W,2,08,1.08,151.5,M,-34.4,M,0000,0000*52
lng=-77.437744, lat=43.138534, altitude=151.60, speed=4.75, satellites=8, angle=353.6500, fixquality=2
$GPRMC,130559.750,A,4308.3125,N,07726.2645,W,3.73,7.25,050619,,,D*77
$GPGGA,130600.000,4308.3127,N,07726.2644,W,2,08,1.08,151.6,M,-34.4,M,0000,0000*5D
lng=-77.437744, lat=43.138542, altitude=151.50, speed=3.73, satellites=8, angle=7.2500, fixquality=2
$GPRMC,130600.250,A,4308.3130,N,07726.2644,W,3.85,17.16,050619,,,D*40
$GPGGA,130600.500,4308.3133,N,07726.2643,W,2,08,1.02,151.6,M,-34.4,M,0000,0000*50
lng=-77.437736, lat=43.138549, altitude=151.60, speed=3.85, satellites=8, angle=17.1600, fixquality=2
$GPRMC,130600.750,A,4308.3136,N,07726.2641,W,4.78,23.44,050619,,,D*43
$GPGGA,130601.000,4308.3139,N,07726.2639,W,2,08,1.08,151.6,M,-34.4,M,0000,0000*59
lng=-77.437736, lat=43.138557, altitude=151.60, speed=4.78, satellites=8, angle=23.4400, fixquality=2
$GPRMC,130601.250,A,4308.3142,N,07726.2637,W,4.59,30.33,050619,,,D*44
$GPGGA,130601.500,4308.3144,N,07726.2635,W,2,07,1.12,151.5,M,-34.4,M,0000,0000*5D
lng=-77.437728, lat=43.138565, altitude=151.60, speed=4.59, satellites=8, angle=30.3300, fixquality=2
$GPRMC,130601.750,A,4308.3146,N,07726.2632,W,4.22,49.77,050619,,,D*42
$GPGGA,130602.000,4308.3148,N,07726.2629,W,2,08,1.09,151.6,M,-34.4,M,0000,0000*5C
lng=-77.437721, lat=43.138572, altitude=151.50, speed=4.22, satellites=7, angle=49.7700, fixquality=2
$GPRMC,130602.250,A,4308.3150,N,07726.2625,W,4.45,56.11,050619,,,D*4A
$GPGGA,130602.500,4308.3151,N,07726.2622,W,2,08,1.09,151.5,M,-34.4,M,0000,0000*59
lng=-77.437713, lat=43.138584, altitude=151.60, speed=4.45, satellites=8, angle=56.1100, fixquality=2
$GPRMC,130602.750,A,4308.3152,N,07726.2618,W,3.90,69.11,050619,,,D*40
$GPGGA,130603.000,4308.3153,N,07726.2615,W,2,08,1.08,151.5,M,-34.4,M,0000,0000*5A
lng=-77.437698, lat=43.138591, altitude=151.50, speed=3.90, satellites=8, angle=69.1100, fixquality=2
$GPRMC,130603.250,A,4308.3153,N,07726.2612,W,3.37,80.75,050619,,,D*47
$GPGGA,130603.500,4308.3153,N,07726.2609,W,2,08,1.02,151.5,M,-34.4,M,0000,0000*58
lng=-77.437690, lat=43.138591, altitude=151.50, speed=3.37, satellites=8, angle=80.7500, fixquality=2
$GPRMC,130603.750,A,4308.3153,N,07726.2607,W,2.78,90.05,050619,,,D*4A
$GPGGA,130604.000,4308.3153,N,07726.2605,W,2,08,1.02,151.5,M,-34.4,M,0000,0000*56
lng=-77.437675, lat=43.138591, altitude=151.50, speed=2.78, satellites=8, angle=90.0500, fixquality=2
$GPRMC,130604.250,A,4308.3153,N,07726.2604,W,1.47,93.74,050619,,,D*41
$GPGGA,130604.500,4308.3153,N,07726.2605,W,2,08,1.02,151.5,M,-34.4,M,0000,0000*53
lng=-77.437667, lat=43.138591, altitude=151.50, speed=1.47, satellites=8, angle=93.7400, fixquality=2
$GPRMC,130604.750,A,4308.3153,N,07726.2606,W,1.00,264.19,050619,,,D*74
$GPGGA,130605.000,4308.3153,N,07726.2609,W,2,08,1.02,151.6,M,-34.4,M,0000,0000*58
lng=-77.437675, lat=43.138591, altitude=151.50, speed=1.00, satellites=8, angle=264.1900, fixquality=2
$GPRMC,130605.250,A,4308.3153,N,07726.2611,W,1.75,265.97,050619,,,D*73
$GPGGA,130605.500,4308.3153,N,07726.2615,W,2,08,1.02,151.6,M,-34.4,M,0000,0000*50
lng=-77.437690, lat=43.138591, altitude=151.60, speed=1.75, satellites=8, angle=265.9700, fixquality=2
$GPRMC,130605.750,A,4308.3154,N,07726.2619,W,3.93,271.74,050619,,,D*7B
$GPGGA,130606.000,4308.3154,N,07726.2625,W,2,08,1.09,151.6,M,-34.4,M,0000,0000*59
lng=-77.437698, lat=43.138591, altitude=151.60, speed=3.93, satellites=8, angle=271.7400, fixquality=2
$GPRMC,130606.250,A,4308.3154,N,07726.2631,W,6.12,271.10,050619,,,D*79
$GPGGA,130606.500,4308.3154,N,07726.2638,W,2,08,1.09,151.6,M,-34.4,M,0000,0000*50
lng=-77.437721, lat=43.138591, altitude=151.60, speed=6.12, satellites=8, angle=271.1000, fixquality=2
$GPRMC,130606.750,A,4308.3154,N,07726.2646,W,7.61,271.44,050619,,,D*78
$GPGGA,130607.000,4308.3155,N,07726.2654,W,2,08,1.09,151.6,M,-34.4,M,0000,0000*5F
lng=-77.437744, lat=43.138591, altitude=151.60, speed=7.61, satellites=8, angle=271.4400, fixquality=2
$GPRMC,130607.250,A,4308.3155,N,07726.2663,W,9.31,275.09,050619,,,D*7C
$GPGGA,130607.500,4308.3156,N,07726.2674,W,2,08,1.09,151.6,M,-34.4,M,0000,0000*5B
lng=-77.437767, lat=43.138591, altitude=151.60, speed=9.31, satellites=8, angle=275.0900, fixquality=2
$GPRMC,130607.750,A,4308.3157,N,07726.2685,W,11.28,273.78,050619,,,D*42
$GPGGA,130608.000,4308.3158,N,07726.2697,W,2,08,1.08,151.5,M,-34.4,M,0000,0000*50
lng=-77.437812, lat=43.138599, altitude=151.60, speed=11.28, satellites=8, angle=273.7800, fixquality=2
$GPRMC,130608.250,A,4308.3159,N,07726.2710,W,12.10,273.95,050619,,,D*40
$GPGGA,130608.500,4308.3161,N,07726.2723,W,2,08,1.02,151.5,M,-34.4,M,0000,0000*5B
lng=-77.437850, lat=43.138599, altitude=151.50, speed=12.10, satellites=8, angle=273.9500, fixquality=2
$GPRMC,130608.750,A,4308.3163,N,07726.2736,W,13.45,276.86,050619,,,D*4E
$GPGGA,130609.000,4308.3165,N,07726.2749,W,2,08,1.08,151.4,M,-34.4,M,0000,0000*5C
lng=-77.437889, lat=43.138607, altitude=151.50, speed=13.45, satellites=8, angle=276.8600, fixquality=2
$GPRMC,130609.250,A,4308.3167,N,07726.2762,W,13.42,278.16,050619,,,D*4F
$GPGGA,130609.500,4308.3170,N,07726.2775,W,2,08,1.08,151.3,M,-34.4,M,0000,0000*55
lng=-77.437942, lat=43.138614, altitude=151.40, speed=13.42, satellites=8, angle=278.1600, fixquality=2
$GPRMC,130609.750,A,4308.3172,N,07726.2789,W,14.38,280.81,050619,,,D*48
$GPGGA,130610.000,4308.3175,N,07726.2803,W,2,08,1.08,151.4,M,-34.4,M,0000,0000*54
lng=-77.437980, lat=43.138622, altitude=151.30, speed=14.38, satellites=8, angle=280.8100, fixquality=2
$GPRMC,130610.250,A,4308.3177,N,07726.2817,W,15.00,283.05,050619,,,D*4D
$GPGGA,130610.500,4308.3180,N,07726.2831,W,2,08,1.02,151.4,M,-34.4,M,0000,0000*50
lng=-77.438026, lat=43.138629, altitude=151.40, speed=15.00, satellites=8, angle=283.0500, fixquality=2
$GPRMC,130610.750,A,4308.3184,N,07726.2845,W,15.44,286.86,050619,,,D*4D
$GPGGA,130611.000,4308.3188,N,07726.2860,W,2,08,1.09,151.4,M,-34.4,M,0000,0000*53
lng=-77.438079, lat=43.138637, altitude=151.40, speed=15.44, satellites=8, angle=286.8600, fixquality=2
$GPRMC,130611.250,A,4308.3192,N,07726.2875,W,15.98,290.12,050619,,,D*46
$GPGGA,130611.500,4308.3196,N,07726.2889,W,2,08,1.02,151.4,M,-34.4,M,0000,0000*55
lng=-77.438125, lat=43.138656, altitude=151.40, speed=15.98, satellites=8, angle=290.1200, fixquality=2
$GPRMC,130611.750,A,4308.3201,N,07726.2903,W,16.49,294.44,050619,,,D*42
$GPGGA,130612.000,4308.3206,N,07726.2918,W,2,08,1.02,151.4,M,-34.4,M,0000,0000*50
lng=-77.438179, lat=43.138671, altitude=151.40, speed=16.49, satellites=8, angle=294.4400, fixquality=2
$GPRMC,130612.250,A,4308.3210,N,07726.2931,W,16.77,296.39,050619,,,D*40
$GPGGA,130612.500,4308.3214,N,07726.2944,W,2,08,1.02,151.5,M,-34.4,M,0000,0000*5E
lng=-77.438217, lat=43.138679, altitude=151.40, speed=16.77, satellites=8, angle=296.3900, fixquality=2
$GPRMC,130612.750,A,4308.3219,N,07726.2955,W,15.84,299.43,050619,,,D*43
$GPGGA,130613.000,4308.3223,N,07726.2968,W,2,08,1.08,151.6,M,-34.4,M,0000,0000*59
lng=-77.438255, lat=43.138694, altitude=151.50, speed=15.84, satellites=8, angle=299.4300, fixquality=2
$GPRMC,130613.250,A,4308.3228,N,07726.2982,W,16.61,301.79,050619,,,D*4E
$GPGGA,130613.500,4308.3234,N,07726.2996,W,2,08,1.02,151.7,M,-34.4,M,0000,0000*50
lng=-77.438308, lat=43.138713, altitude=151.60, speed=16.61, satellites=8, angle=301.7900, fixquality=2
$GPRMC,130613.750,A,4308.3240,N,07726.3010,W,17.57,305.25,050619,,,D*4F
$GPGGA,130614.000,4308.3247,N,07726.3024,W,2,08,1.09,151.8,M,-34.4,M,0000,0000*53
lng=-77.438346, lat=43.138736, altitude=151.70, speed=17.57, satellites=8, angle=305.2500, fixquality=2
$GPRMC,130614.250,A,4308.3254,N,07726.3038,W,18.31,306.55,050619,,,D*49
$GPGGA,130614.500,4308.3262,N,07726.3053,W,2,08,1.08,151.8,M,-34.4,M,0000,0000*50
lng=-77.438392, lat=43.138751, altitude=151.80, speed=18.31, satellites=8, angle=306.5500, fixquality=2
$GPRMC,130614.750,A,4308.3270,N,07726.3068,W,18.82,307.10,050619,,,D*47
$GPGGA,130615.000,4308.3277,N,07726.3083,W,2,08,1.09,151.8,M,-34.4,M,0000,0000*5C
lng=-77.438446, lat=43.138786, altitude=151.80, speed=18.82, satellites=8, angle=307.1000, fixquality=2
$GPRMC,130615.250,A,4308.3285,N,07726.3099,W,19.41,305.99,050619,,,D*4A
$GPGGA,130615.500,4308.3293,N,07726.3116,W,2,08,1.02,151.8,M,-34.4,M,0000,0000*55
lng=-77.438499, lat=43.138809, altitude=151.80, speed=19.41, satellites=8, angle=305.9900, fixquality=2
$GPRMC,130615.750,A,4308.3301,N,07726.3132,W,20.03,305.10,050619,,,D*4F
$GPGGA,130616.000,4308.3309,N,07726.3149,W,2,08,1.09,151.8,M,-34.4,M,0000,0000*50
lng=-77.438552, lat=43.138835, altitude=151.80, speed=20.03, satellites=8, angle=305.1000, fixquality=2
$GPRMC,130616.250,A,4308.3317,N,07726.3166,W,20.14,304.50,050619,,,D*4C
$GPGGA,130616.500,4308.3325,N,07726.3182,W,2,08,1.02,151.8,M,-34.4,M,0000,0000*57
lng=-77.438606, lat=43.138858, altitude=151.80, speed=20.14, satellites=8, angle=304.5000, fixquality=2
$GPRMC,130616.750,A,4308.3333,N,07726.3199,W,20.37,302.65,050619,,,D*4E
$GPGGA,130617.000,4308.3341,N,07726.3216,W,2,08,1.09,151.8,M,-34.4,M,0000,0000*54
lng=-77.438667, lat=43.138893, altitude=151.80, speed=20.37, satellites=8, angle=302.6500, fixquality=2
$GPRMC,130617.250,A,4308.3349,N,07726.3234,W,20.80,302.37,050619,,,D*48
$GPGGA,130617.500,4308.3357,N,07726.3251,W,2,08,1.09,151.8,M,-34.4,M,0000,0000*55
lng=-77.438720, lat=43.138916, altitude=151.80, speed=20.80, satellites=8, angle=302.3700, fixquality=2
$GPRMC,130617.750,A,4308.3364,N,07726.3269,W,21.16,301.85,050619,,,D*4E
$GPGGA,130618.000,4308.3372,N,07726.3286,W,2,08,1.09,151.9,M,-34.4,M,0000,0000*53
lng=-77.438774, lat=43.138938, altitude=151.80, speed=21.16, satellites=8, angle=301.8500, fixquality=2
$GPRMC,130618.250,A,4308.3380,N,07726.3305,W,21.58,302.40,050619,,,D*45
$GPGGA,130618.500,4308.3390,N,07726.3321,W,2,08,1.02,152.1,M,-34.4,M,0000,0000*56
lng=-77.438842, lat=43.138965, altitude=151.90, speed=21.58, satellites=8, angle=302.4000, fixquality=2
$GPRMC,130618.750,A,4308.3398,N,07726.3339,W,21.74,302.25,050619,,,D*4B
$GPGGA,130619.000,4308.3406,N,07726.3357,W,2,08,1.02,152.9,M,-34.4,M,0000,0000*53
lng=-77.438896, lat=43.138996, altitude=152.10, speed=21.74, satellites=8, angle=302.2500, fixquality=2
$GPRMC,130619.250,A,4308.3414,N,07726.3375,W,21.97,302.48,050619,,,D*42
$GPGGA,130619.500,4308.3422,N,07726.3393,W,2,08,1.02,153.2,M,-34.4,M,0000,0000*52
lng=-77.438957, lat=43.139022, altitude=152.90, speed=21.97, satellites=8, angle=302.4800, fixquality=2
$GPRMC,130619.750,A,4308.3431,N,07726.3411,W,22.21,302.98,050619,,,D*46
$GPGGA,130620.000,4308.3439,N,07726.3430,W,2,08,1.09,153.5,M,-34.4,M,0000,0000*55
lng=-77.439018, lat=43.139053, altitude=153.20, speed=22.21, satellites=8, angle=302.9800, fixquality=2
$GPRMC,130620.250,A,4308.3448,N,07726.3448,W,22.52,303.84,050619,,,D*43
$GPGGA,130620.500,4308.3457,N,07726.3466,W,2,08,1.09,153.8,M,-34.4,M,0000,0000*56
lng=-77.439079, lat=43.139080, altitude=153.50, speed=22.52, satellites=8, angle=303.8400, fixquality=2
$GPRMC,130620.750,A,4308.3467,N,07726.3484,W,22.80,304.89,050619,,,D*4E
$GPGGA,130621.000,4308.3476,N,07726.3502,W,2,08,1.09,153.9,M,-34.4,M,0000,0000*53
lng=-77.439140, lat=43.139110, altitude=153.80, speed=22.80, satellites=8, angle=304.8900, fixquality=2
$GPRMC,130621.250,A,4308.3485,N,07726.3520,W,23.03,307.30,050619,,,D*42
$GPGGA,130621.500,4308.3495,N,07726.3538,W,2,08,1.09,154.1,M,-34.4,M,0000,0000*5D
lng=-77.439201, lat=43.139144, altitude=153.90, speed=23.03, satellites=8, angle=307.3000, fixquality=2
$GPRMC,130621.750,A,4308.3506,N,07726.3555,W,23.38,310.28,050619,,,D*48
$GPGGA,130622.000,4308.3517,N,07726.3572,W,2,08,1.09,154.2,M,-34.4,M,0000,0000*5D
lng=-77.439254, lat=43.139175, altitude=154.10, speed=23.38, satellites=8, angle=310.2800, fixquality=2
$GPRMC,130622.250,A,4308.3528,N,07726.3589,W,23.41,312.02,050619,,,D*47
$GPGGA,130622.500,4308.3540,N,07726.3605,W,2,07,1.12,154.4,M,-34.4,M,0000,0000*5A
lng=-77.439315, lat=43.139217, altitude=154.20, speed=23.41, satellites=8, angle=312.0200, fixquality=2
$GPRMC,130622.750,A,4308.3551,N,07726.3622,W,23.66,315.96,050619,,,D*41
$GPGGA,130623.000,4308.3563,N,07726.3637,W,2,08,1.02,154.6,M,-34.4,M,0000,0000*52
lng=-77.439369, lat=43.139247, altitude=154.40, speed=23.66, satellites=7, angle=315.9600, fixquality=2
$GPRMC,130623.250,A,4308.3576,N,07726.3652,W,23.94,319.73,050619,,,D*4D
$GPGGA,130623.500,4308.3589,N,07726.3667,W,2,08,1.02,154.8,M,-34.4,M,0000,0000*58
lng=-77.439422, lat=43.139289, altitude=154.60, speed=23.94, satellites=8, angle=319.7300, fixquality=2
$GPRMC,130623.750,A,4308.3602,N,07726.3681,W,24.29,323.59,050619,,,D*46
$GPGGA,130624.000,4308.3616,N,07726.3694,W,2,08,1.09,154.9,M,-34.4,M,0000,0000*59
lng=-77.439468, lat=43.139339, altitude=154.80, speed=24.29, satellites=8, angle=323.5900, fixquality=2
$GPRMC,130624.250,A,4308.3631,N,07726.3707,W,24.04,327.02,050619,,,D*4E
$GPGGA,130624.500,4308.3645,N,07726.3719,W,2,07,1.12,155.1,M,-34.4,M,0000,0000*52
lng=-77.439506, lat=43.139389, altitude=154.90, speed=24.04, satellites=8, angle=327.0200, fixquality=2
$GPRMC,130624.750,A,4308.3660,N,07726.3730,W,23.96,330.75,050619,,,D*41
$GPGGA,130625.000,4308.3675,N,07726.3740,W,2,07,1.10,155.3,M,-34.4,M,0000,0000*59
lng=-77.439552, lat=43.139438, altitude=155.10, speed=23.96, satellites=7, angle=330.7500, fixquality=2
$GPRMC,130625.250,A,4308.3690,N,07726.3750,W,23.32,333.40,050619,,,D*47
$GPGGA,130625.500,4308.3707,N,07726.3758,W,2,07,1.10,155.5,M,-34.4,M,0000,0000*57
lng=-77.439582, lat=43.139484, altitude=155.30, speed=23.32, satellites=7, angle=333.4000, fixquality=2
$GPRMC,130625.750,A,4308.3723,N,07726.3766,W,24.41,341.20,050619,,,D*4E
$GPGGA,130626.000,4308.3739,N,07726.3773,W,2,07,1.10,155.7,M,-34.4,M,0000,0000*57
lng=-77.439605, lat=43.139533, altitude=155.50, speed=24.41, satellites=7, angle=341.2000, fixquality=2
$GPRMC,130626.250,A,4308.3756,N,07726.3779,W,24.74,346.22,050619,,,D*47
$GPGGA,130626.500,4308.3773,N,07726.3784,W,2,07,1.12,155.9,M,-34.4,M,0000,0000*58
lng=-77.439628, lat=43.139591, altitude=155.70, speed=24.74, satellites=7, angle=346.2200, fixquality=2
$GPRMC,130626.750,A,4308.3790,N,07726.3789,W,24.95,350.37,050619,,,D*4B
$GPGGA,130627.000,4308.3807,N,07726.3792,W,2,07,1.12,156.2,M,-34.4,M,0000,0000*5F
lng=-77.439651, lat=43.139648, altitude=155.90, speed=24.95, satellites=7, angle=350.3700, fixquality=2
$GPRMC,130627.250,A,4308.3825,N,07726.3794,W,25.03,356.22,050619,,,D*4E
$GPGGA,130627.500,4308.3842,N,07726.3796,W,2,07,1.12,156.5,M,-34.4,M,0000,0000*58
lng=-77.439659, lat=43.139705, altitude=156.20, speed=25.03, satellites=7, angle=356.2200, fixquality=2
$GPRMC,130627.750,A,4308.3859,N,07726.3795,W,25.09,0.85,050619,,,D*46
$GPGGA,130628.000,4308.3877,N,07726.3794,W,2,08,1.09,156.7,M,-34.4,M,0000,0000*51
lng=-77.439659, lat=43.139762, altitude=156.50, speed=25.09, satellites=7, angle=0.8500, fixquality=2
$GPRMC,130628.250,A,4308.3895,N,07726.3792,W,25.33,2.64,050619,,,D*4F
$GPGGA,130628.500,4308.3912,N,07726.3789,W,2,08,1.02,157.0,M,-34.4,M,0000,0000*57
lng=-77.439659, lat=43.139827, altitude=156.70, speed=25.33, satellites=8, angle=2.6400, fixquality=2
$GPRMC,130628.750,A,4308.3929,N,07726.3786,W,24.38,6.39,050619,,,D*4F
$GPGGA,130629.000,4308.3945,N,07726.3783,W,2,08,1.09,157.3,M,-34.4,M,0000,0000*53
lng=-77.439643, lat=43.139884, altitude=157.00, speed=24.38, satellites=8, angle=6.3900, fixquality=2
$GPRMC,130629.250,A,4308.3962,N,07726.3780,W,24.54,7.83,050619,,,D*48
$GPGGA,130629.500,4308.3980,N,07726.3776,W,2,08,1.09,157.6,M,-34.4,M,0000,0000*50
lng=-77.439628, lat=43.139934, altitude=157.30, speed=24.54, satellites=8, angle=7.8300, fixquality=2
$GPRMC,130629.750,A,4308.3997,N,07726.3771,W,24.82,10.11,050619,,,D*7F
$GPGGA,130630.000,4308.4014,N,07726.3766,W,2,08,1.09,157.8,M,-34.4,M,0000,0000*51
lng=-77.439613, lat=43.139999, altitude=157.60, speed=24.82, satellites=8, angle=10.1100, fixquality=2
$GPRMC,130630.250,A,4308.4031,N,07726.3761,W,24.83,10.91,050619,,,D*78
$GPGGA,130630.500,4308.4048,N,07726.3755,W,2,08,1.09,158.1,M,-34.4,M,0000,0000*5B
lng=-77.439598, lat=43.140056, altitude=157.80, speed=24.83, satellites=8, angle=10.9100, fixquality=2
$GPRMC,130630.750,A,4308.4065,N,07726.3750,W,24.62,12.28,050619,,,D*71
$GPGGA,130631.000,4308.4081,N,07726.3745,W,2,08,1.09,158.3,M,-34.4,M,0000,0000*59
lng=-77.439582, lat=43.140113, altitude=158.10, speed=24.62, satellites=8, angle=12.2800, fixquality=2
$GPRMC,130631.250,A,4308.4098,N,07726.3740,W,24.04,12.44,050619,,,D*7C
$GPGGA,130631.500,4308.4114,N,07726.3734,W,2,08,1.09,158.6,M,-34.4,M,0000,0000*52
lng=-77.439567, lat=43.140159, altitude=158.30, speed=24.04, satellites=8, angle=12.4400, fixquality=2
$GPRMC,130631.750,A,4308.4130,N,07726.3729,W,23.75,12.26,050619,,,D*70
$GPGGA,130632.000,4308.4147,N,07726.3725,W,2,08,1.09,158.8,M,-34.4,M,0000,0000*5C
lng=-77.439552, lat=43.140216, altitude=158.60, speed=23.75, satellites=8, angle=12.2600, fixquality=2
$GPRMC,130632.250,A,4308.4163,N,07726.3720,W,23.24,10.10,050619,,,D*7A
$GPGGA,130632.500,4308.4179,N,07726.3716,W,2,08,1.09,159.1,M,-34.4,M,0000,0000*5C
lng=-77.439537, lat=43.140274, altitude=158.80, speed=23.24, satellites=8, angle=10.1000, fixquality=2
$GPRMC,130632.750,A,4308.4195,N,07726.3712,W,22.87,9.73,050619,,,D*42
$GPGGA,130633.000,4308.4211,N,07726.3708,W,2,08,1.09,159.4,M,-34.4,M,0000,0000*5F
lng=-77.439521, lat=43.140323, altitude=159.10, speed=22.87, satellites=8, angle=9.7300, fixquality=2
$GPRMC,130633.250,A,4308.4226,N,07726.3704,W,22.43,9.40,050619,,,D*42
$GPGGA,130633.500,4308.4242,N,07726.3700,W,2,08,1.09,159.6,M,-34.4,M,0000,0000*56
lng=-77.439506, lat=43.140373, altitude=159.40, speed=22.43, satellites=8, angle=9.4000, fixquality=2
$GPRMC,130633.750,A,4308.4257,N,07726.3696,W,21.88,9.65,050619,,,D*48
$GPGGA,130634.000,4308.4272,N,07726.3693,W,2,08,1.09,159.8,M,-34.4,M,0000,0000*52
lng=-77.439491, lat=43.140430, altitude=159.60, speed=21.88, satellites=8, angle=9.6500, fixquality=2
$GPRMC,130634.250,A,4308.4287,N,07726.3690,W,21.33,9.00,050619,,,D*42
$GPGGA,130634.500,4308.4300,N,07726.3686,W,2,08,1.09,159.7,M,-34.4,M,0000,0000*58
lng=-77.439483, lat=43.140480, altitude=159.80, speed=21.33, satellites=8, angle=9.0000, fixquality=2
$GPRMC,130634.750,A,4308.4315,N,07726.3682,W,20.40,9.41,050619,,,D*4E
$GPGGA,130635.000,4308.4329,N,07726.3679,W,2,08,1.09,159.6,M,-34.4,M,0000,0000*56
lng=-77.439468, lat=43.140525, altitude=159.70, speed=20.40, satellites=8, angle=9.4100, fixquality=2
$GPRMC,130635.250,A,4308.4343,N,07726.3676,W,19.87,9.48,050619,,,D*4A
$GPGGA,130635.500,4308.4357,N,07726.3672,W,2,08,1.09,159.4,M,-34.4,M,0000,0000*53
lng=-77.439460, lat=43.140567, altitude=159.60, speed=19.87, satellites=8, angle=9.4800, fixquality=2
$GPRMC,130635.750,A,4308.4371,N,07726.3669,W,19.41,9.77,050619,,,D*46
$GPGGA,130636.000,4308.4384,N,07726.3666,W,2,08,1.09,159.5,M,-34.4,M,0000,0000*5F
lng=-77.439445, lat=43.140617, altitude=159.40, speed=19.41, satellites=8, angle=9.7700, fixquality=2
$GPRMC,130636.250,A,4308.4397,N,07726.3663,W,18.70,9.82,050619,,,D*4B
$GPGGA,130636.500,4308.4410,N,07726.3660,W,2,08,1.09,159.7,M,-34.4,M,0000,0000*54
lng=-77.439437, lat=43.140659, altitude=159.50, speed=18.70, satellites=8, angle=9.8200, fixquality=2
$GPRMC,130636.750,A,4308.4423,N,07726.3657,W,17.80,10.10,050619,,,D*72
$GPGGA,130637.000,4308.4435,N,07726.3654,W,2,08,1.09,159.9,M,-34.4,M,0000,0000*5E
lng=-77.439430, lat=43.140705, altitude=159.70, speed=17.80, satellites=8, angle=10.1000, fixquality=2
$GPRMC,130637.250,A,4308.4447,N,07726.3651,W,16.76,9.82,050619,,,D*49
$GPGGA,130637.500,4308.4459,N,07726.3648,W,2,08,1.09,160.1,M,-34.4,M,0000,0000*5E
lng=-77.439422, lat=43.140747, altitude=159.90, speed=16.76, satellites=8, angle=9.8200, fixquality=2
$GPRMC,130637.750,A,4308.4470,N,07726.3645,W,15.00,9.76,050619,,,D*44
$GPGGA,130638.000,4308.4480,N,07726.3641,W,2,08,1.09,160.4,M,-34.4,M,0000,0000*5C
lng=-77.439407, lat=43.140781, altitude=160.10, speed=15.00, satellites=8, angle=9.7600, fixquality=2
$GPRMC,130638.250,A,4308.4490,N,07726.3638,W,13.40,9.14,050619,,,D*4C
$GPGGA,130638.500,4308.4500,N,07726.3635,W,2,08,1.09,160.5,M,-34.4,M,0000,0000*52
lng=-77.439399, lat=43.140819, altitude=160.40, speed=13.40, satellites=8, angle=9.1400, fixquality=2
$GPRMC,130638.750,A,4308.4509,N,07726.3633,W,12.99,8.95,050619,,,D*4E
$GPGGA,130639.000,4308.4517,N,07726.3631,W,2,08,1.09,160.6,M,-34.4,M,0000,0000*57
lng=-77.439384, lat=43.140846, altitude=160.50, speed=12.99, satellites=8, angle=8.9500, fixquality=2
$GPRMC,130639.250,A,4308.4525,N,07726.3628,W,12.08,9.17,050619,,,D*4D
$GPGGA,130639.500,4308.4533,N,07726.3626,W,2,08,1.09,160.7,M,-34.4,M,0000,0000*53
lng=-77.439376, lat=43.140876, altitude=160.60, speed=12.08, satellites=8, angle=9.1700, fixquality=2
$GPRMC,130639.750,A,4308.4540,N,07726.3625,W,10.41,9.25,050619,,,D*48
$GPGGA,130640.000,4308.4546,N,07726.3624,W,2,08,1.09,160.8,M,-34.4,M,0000,0000*57
lng=-77.439369, lat=43.140903, altitude=160.70, speed=10.41, satellites=8, angle=9.2500, fixquality=2
$GPRMC,130640.250,A,4308.4551,N,07726.3623,W,8.24,9.69,050619,,,D*77
$GPGGA,130640.500,4308.4555,N,07726.3622,W,2,08,1.09,160.9,M,-34.4,M,0000,0000*57
lng=-77.439369, lat=43.140918, altitude=160.80, speed=8.24, satellites=8, angle=9.6900, fixquality=2
$GPRMC,130640.750,A,4308.4558,N,07726.3622,W,5.82,9.32,050619,,,D*75
$GPGGA,130641.000,4308.4561,N,07726.3621,W,2,08,1.09,161.1,M,-34.4,M,0000,0000*5E
lng=-77.439369, lat=43.140926, altitude=160.90, speed=5.82, satellites=8, angle=9.3200, fixquality=2
$GPRMC,130641.250,A,4308.4563,N,07726.3621,W,3.46,9.51,050619,,,D*71
$GPGGA,130641.500,4308.4564,N,07726.3621,W,2,08,1.09,161.2,M,-34.4,M,0000,0000*5D
lng=-77.439369, lat=43.140933, altitude=161.10, speed=3.46, satellites=8, angle=9.5100, fixquality=2
$GPRMC,130641.750,A,4308.4564,N,07726.3621,W,0.11,9.51,050619,,,D*72
$GPGGA,130642.000,4308.4563,N,07726.3622,W,2,08,1.09,161.2,M,-34.4,M,0000,0000*5F
lng=-77.439369, lat=43.140941, altitude=161.20, speed=0.11, satellites=8, angle=9.5100, fixquality=2
$GPRMC,130642.250,A,4308.4563,N,07726.3622,W,0.03,9.51,050619,,,D*73
$GPGGA,130642.500,4308.4563,N,07726.3622,W,2,08,1.02,161.2,M,-34.4,M,0000,0000*51
lng=-77.439369, lat=43.140933, altitude=161.20, speed=0.03, satellites=8, angle=9.5100, fixquality=2
$GPRMC,130642.750,A,4308.4563,N,07726.3623,W,0.02,9.51,050619,,,D*76
$GPGGA,130643.000,4308.4563,N,07726.3623,W,2,08,1.09,161.3,M,-34.4,M,0000,0000*5E
lng=-77.439369, lat=43.140933, altitude=161.20, speed=0.02, satellites=8, angle=9.5100, fixquality=2
$GPRMC,130643.250,A,4308.4563,N,07726.3623,W,0.02,9.51,050619,,,D*72
$GPGGA,130643.500,4308.4563,N,07726.3623,W,2,08,1.09,161.4,M,-34.4,M,0000,0000*5C
lng=-77.439369, lat=43.140933, altitude=161.30, speed=0.02, satellites=8, angle=9.5100, fixquality=2
$GPRMC,130643.750,A,4308.4564,N,07726.3623,W,0.04,9.51,050619,,,D*76
$GPGGA,130644.000,4308.4564,N,07726.3623,W,2,08,1.09,161.5,M,-34.4,M,0000,0000*58
lng=-77.439369, lat=43.140941, altitude=161.40, speed=0.04, satellites=8, angle=9.5100, fixquality=2
$GPRMC,130644.250,A,4308.4565,N,07726.3623,W,0.07,9.51,050619,,,D*76
$GPGGA,130644.500,4308.4568,N,07726.3618,W,2,08,1.09,161.9,M,-34.4,M,0000,0000*55
lng=-77.439369, lat=43.140941, altitude=161.50, speed=0.07, satellites=8, angle=9.5100, fixquality=2
$GPRMC,130644.750,A,4308.4572,N,07726.3617,W,0.34,9.51,050619,,,D*72
$GPGGA,130645.000,4308.4574,N,07726.3617,W,2,08,1.09,161.9,M,-34.4,M,0000,0000*53
lng=-77.439361, lat=43.140949, altitude=161.90, speed=0.34, satellites=8, angle=9.5100, fixquality=2
$GPRMC,130645.250,A,4308.4576,N,07726.3617,W,4.79,4.32,050619,,,D*77
$GPGGA,130645.500,4308.4579,N,07726.3617,W,2,08,1.09,162.0,M,-34.4,M,0000,0000*51
lng=-77.439361, lat=43.140956, altitude=161.90, speed=4.79, satellites=8, angle=4.3200, fixquality=2
$GPRMC,130645.750,A,4308.4582,N,07726.3616,W,5.87,358.84,050619,,,D*7F
$GPGGA,130646.000,4308.4585,N,07726.3618,W,2,08,1.09,162.2,M,-34.4,M,0000,0000*59
lng=-77.439361, lat=43.140968, altitude=162.00, speed=5.87, satellites=8, angle=358.8400, fixquality=2
$GPRMC,130646.250,A,4308.4589,N,07726.3619,W,6.76,350.18,050619,,,D*7D
$GPGGA,130646.500,4308.4593,N,07726.3620,W,2,08,1.09,162.3,M,-34.4,M,0000,0000*51
lng=-77.439361, lat=43.140983, altitude=162.20, speed=6.76, satellites=8, angle=350.1800, fixquality=2
$GPRMC,130646.750,A,4308.4598,N,07726.3621,W,7.27,342.33,050619,,,D*7C
$GPGGA,130647.000,4308.4604,N,07726.3622,W,2,08,1.09,162.4,M,-34.4,M,0000,0000*5D
lng=-77.439369, lat=43.140998, altitude=162.30, speed=7.27, satellites=8, angle=342.3300, fixquality=2
$GPRMC,130647.250,A,4308.4610,N,07726.3624,W,8.30,332.23,050619,,,D*71
$GPGGA,130647.500,4308.4615,N,07726.3628,W,2,08,1.09,162.5,M,-34.4,M,0000,0000*53
lng=-77.439369, lat=43.141014, altitude=162.40, speed=8.30, satellites=8, angle=332.2300, fixquality=2
$GPRMC,130647.750,A,4308.4620,N,07726.3633,W,8.61,330.05,050619,,,D*73
$GPGGA,130648.000,4308.4624,N,07726.3638,W,2,08,1.02,162.6,M,-34.4,M,0000,0000*52
lng=-77.439384, lat=43.141033, altitude=162.50, speed=8.61, satellites=8, angle=330.0500, fixquality=2
$GPRMC,130648.250,A,4308.4628,N,07726.3644,W,8.65,322.75,050619,,,D*71
$GPGGA,130648.500,4308.4632,N,07726.3651,W,2,08,1.02,162.8,M,-34.4,M,0000,0000*51
lng=-77.439407, lat=43.141048, altitude=162.60, speed=8.65, satellites=8, angle=322.7500, fixquality=2
$GPRMC,130648.750,A,4308.4635,N,07726.3659,W,9.32,310.35,050619,,,D*72
$GPGGA,130649.000,4308.4638,N,07726.3668,W,2,08,1.02,162.9,M,-34.4,M,0000,0000*54
lng=-77.439430, lat=43.141056, altitude=162.80, speed=9.32, satellites=8, angle=310.3500, fixquality=2
$GPRMC,130649.250,A,4308.4640,N,07726.3676,W,9.55,302.39,050619,,,D*77
$GPGGA,130649.500,4308.4643,N,07726.3684,W,2,08,1.02,163.1,M,-34.4,M,0000,0000*56
lng=-77.439460, lat=43.141063, altitude=162.90, speed=9.55, satellites=8, angle=302.3900, fixquality=2
$GPRMC,130649.750,A,4308.4646,N,07726.3693,W,9.98,293.71,050619,,,D*7B
$GPGGA,130650.000,4308.4648,N,07726.3703,W,2,08,1.02,163.1,M,-34.4,M,0000,0000*5E
lng=-77.439483, lat=43.141071, altitude=163.10, speed=9.98, satellites=8, angle=293.7100, fixquality=2
$GPRMC,130650.250,A,4308.4649,N,07726.3713,W,10.48,288.17,050619,,,D*4F
$GPGGA,130650.500,4308.4650,N,07726.3724,W,2,08,1.02,163.2,M,-34.4,M,0000,0000*54
lng=-77.439521, lat=43.141078, altitude=163.10, speed=10.48, satellites=8, angle=288.1700, fixquality=2
$GPRMC,130650.750,A,4308.4650,N,07726.3734,W,10.89,282.53,050619,,,D*40
$GPGGA,130651.000,4308.4651,N,07726.3745,W,2,08,1.02,163.2,M,-34.4,M,0000,0000*56
lng=-77.439559, lat=43.141078, altitude=163.20, speed=10.89, satellites=8, angle=282.5300, fixquality=2
$GPRMC,130651.250,A,4308.4651,N,07726.3756,W,11.01,279.52,050619,,,D*45
