Vers 81
USE_SERIAL_FEEDBACK=true
DEVELOPMENT_MODE=false
USE_RMC_ONLY=false

$GPRMC,164532.250,A,4305.1462,N,07740.8151,W,0.00,274.43,220719,,,D*7A
$GPGGA,164532.500,4305.1462,N,07740.8151,W,2,09,1.11,171.0,M,-34.4,M,0000,0000*54
$GPRMC,164532.750,A,4305.1462,N,07740.8151,W,0.02,292.97,220719,,,D*7C
$GPGGA,164533.000,4305.1462,N,07740.8151,W,2,09,1.11,171.0,M,-34.4,M,0000,0000*50
$GPRMC,164533.250,A,4305.1462,N,07740.8151,W,0.01,329.76,220719,,,D*75
$GPGGA,164533.500,4305.1462,N,07740.8151,W,2,10,0.94,171.0,M,-34.4,M,0000,0000*51
$GPRMC,164533.750,A,4305.1462,N,07740.8151,W,0.01,209.78,220719,,,D*7D
$GPGGA,164534.000,4305.1462,N,07740.8151,W,2,09,1.11,171.0,M,-34.4,M,0000,0000*57
$GPRMC,164534.250,A,4305.1462,N,07740.8151,W,0.01,194.22,220719,,,D*77
$GPGGA,164534.500,4305.1462,N,07740.8151,W,2,10,0.94,171.0,M,-34.4,M,0000,0000*56
$GPRMC,164534.750,A,4305.1462,N,07740.8151,W,0.01,253.65,220719,,,D*79
$GPGGA,164535.000,4305.1462,N,07740.8151,W,2,09,1.11,171.0,M,-34.4,M,0000,0000*56
$GPRMC,164535.250,A,4305.1462,N,07740.8151,W,0.01,49.34,220719,,,D*40
$GPGGA,164535.500,4305.1462,N,07740.8151,W,2,09,1.11,171.0,M,-34.4,M,0000,0000*53
$GPRMC,164535.750,A,4305.1462,N,07740.8151,W,0.00,316.70,220719,,,D*7D
$GPGGA,164536.000,4305.1462,N,07740.8151,W,2,09,1.11,171.0,M,-34.4,M,0000,0000*55
$GPRMC,164536.250,A,4305.1462,N,07740.8151,W,0.01,254.89,220719,,,D*7B
$GPGGA,164536.500,4305.1462,N,07740.8151,W,2,09,1.11,171.0,M,-34.4,M,0000,0000*50
$GPRMC,164536.750,A,4305.1462,N,07740.8151,W,0.00,272.87,220719,,,D*75
$GPGGA,164537.000,4305.1462,N,07740.8151,W,2,10,0.94,171.0,M,-34.4,M,0000,0000*50
$GPRMC,164537.250,A,4305.1462,N,07740.8151,W,0.01,342.62,220719,,,D*79
$GPGGA,164537.500,4305.1462,N,07740.8151,W,2,09,1.11,171.0,M,-34.4,M,0000,0000*51
$GPRMC,164537.750,A,4305.1462,N,07740.8151,W,0.00,259.48,220719,,,D*7E
$GPGGA,164538.000,4305.1462,N,07740.8151,W,2,10,0.94,171.0,M,-34.4,M,0000,0000*5F
$GPRMC,164538.250,A,4305.1462,N,07740.8151,W,0.00,89.31,220719,,,D*45
$GPGGA,164538.500,4305.1462,N,07740.8151,W,2,09,1.11,171.0,M,-34.4,M,0000,0000*5E
$GPRMC,164538.750,A,4305.1462,N,07740.8151,W,0.00,348.79,220719,,,D*72
$GPGGA,164539.000,4305.1462,N,07740.8151,W,2,09,1.11,171.0,M,-34.4,M,0000,0000*5A
$GPRMC,164539.250,A,4305.1462,N,07740.8151,W,0.01,155.80,220719,,,D*7F
$GPGGA,164539.500,4305.1462,N,07740.8151,W,2,09,1.11,171.0,M,-34.4,M,0000,0000*5F
$GPRMC,164539.750,A,4305.1462,N,07740.8151,W,0.00,37.01,220719,,,D*47
$GPGGA,164540.000,4305.1462,N,07740.8151,W,2,09,1.11,171.0,M,-34.4,M,0000,0000*54
$GPRMC,164540.250,A,4305.1462,N,07740.8151,W,0.00,334.71,220719,,,D*7B
$GPGGA,164540.500,4305.1462,N,07740.8151,W,2,09,1.11,171.0,M,-34.4,M,0000,0000*51
$GPRMC,164540.750,A,4305.1462,N,07740.8151,W,0.01,266.86,220719,,,D*71
$GPGGA,164541.000,4305.1462,N,07740.8151,W,2,09,1.11,171.0,M,-34.4,M,0000,0000*55
$GPRMC,164541.250,A,4305.1462,N,07740.8151,W,0.01,274.56,220719,,,D*7B
$GPGGA,164541.500,4305.1462,N,07740.8151,W,2,09,1.11,171.0,M,-34.4,M,0000,0000*50
$GPRMC,164541.750,A,4305.1462,N,07740.8151,W,0.00,266.65,220719,,,D*7C
$GPGGA,164542.000,4305.1462,N,07740.8151,W,2,09,1.11,171.0,M,-34.4,M,0000,0000*56
$GPRMC,164542.250,A,4305.1462,N,07740.8151,W,0.01,235.71,220719,,,D*78
$GPGGA,164542.500,4305.1462,N,07740.8151,W,2,09,1.11,171.0,M,-34.4,M,0000,0000*53
$GPRMC,164542.750,A,4305.1462,N,07740.8151,W,0.00,290.41,220719,,,D*70
$GPGGA,164543.000,4305.1462,N,07740.8151,W,2,09,1.11,171.0,M,-34.4,M,0000,0000*57
$GPRMC,164543.250,A,4305.1462,N,07740.8151,W,0.02,149.07,220719,,,D*73
$GPGGA,164543.500,4305.1462,N,07740.8151,W,2,09,1.11,171.0,M,-34.4,M,0000,0000*52
$GPRMC,164543.750,A,4305.1462,N,07740.8151,W,0.02,25.58,220719,,,D*47
$GPGGA,164544.000,4305.1462,N,07740.8151,W,2,09,1.11,171.0,M,-34.4,M,0000,0000*50
$GPRMC,164544.250,A,4305.1462,N,07740.8151,W,0.01,227.86,220719,,,D*75
$GPGGA,164544.500,4305.1462,N,07740.8151,W,2,09,1.11,171.0,M,-34.4,M,0000,0000*55
$GPRMC,164544.750,A,4305.1462,N,07740.8151,W,0.00,312.67,220719,,,D*79
$GPGGA,164545.000,4305.1462,N,07740.8151,W,2,09,1.11,171.0,M,-34.4,M,0000,0000*51
$GPRMC,164545.250,A,4305.1462,N,07740.8151,W,0.01,70.18,220719,,,D*43
$GPGGA,164545.500,4305.1462,N,07740.8151,W,2,09,1.11,171.0,M,-34.4,M,0000,0000*54
$GPRMC,164545.750,A,4305.1462,N,07740.8151,W,0.00,0.00,220719,,,D*79
$GPGGA,164546.000,4305.1462,N,07740.8151,W,2,09,1.11,171.0,M,-34.4,M,0000,0000*52
$GPRMC,164546.250,A,4305.1462,N,07740.8151,W,0.00,25.03,220719,,,D*4B
$GPGGA,164546.500,4305.1462,N,07740.8151,W,2,09,1.11,171.0,M,-34.4,M,0000,0000*57
$GPRMC,164546.750,A,4305.1462,N,07740.8152,W,0.00,277.30,220719,,,D*78
$GPGGA,164547.000,4305.1462,N,07740.8152,W,2,09,1.11,171.0,M,-34.4,M,0000,0000*50
$GPRMC,164547.250,A,4305.1462,N,07740.8152,W,0.01,281.81,220719,,,D*7E
$GPGGA,164547.500,4305.1462,N,07740.8152,W,2,09,1.11,171.0,M,-34.4,M,0000,0000*55
$GPRMC,164547.750,A,4305.1462,N,07740.8152,W,0.00,359.98,220719,,,D*76
$GPGGA,164548.000,4305.1462,N,07740.8152,W,2,09,1.11,171.0,M,-34.4,M,0000,0000*5F
$GPRMC,164548.250,A,4305.1462,N,07740.8152,W,0.00,314.02,220719,,,D*76
$GPGGA,164548.500,4305.1462,N,07740.8152,W,2,09,1.11,171.0,M,-34.4,M,0000,0000*5A
$GPRMC,164548.750,A,4305.1462,N,07740.8152,W,0.00,279.06,220719,,,D*7D
$GPGGA,164549.000,4305.1462,N,07740.8152,W,2,09,1.11,171.0,M,-34.4,M,0000,0000*5E
$GPRMC,164549.250,A,4305.1462,N,07740.8152,W,0.01,191.29,220719,,,D*70
$GPGGA,164549.500,4305.1462,N,07740.8152,W,2,09,1.11,171.0,M,-34.4,M,0000,0000*5B
$GPRMC,164549.750,A,4305.1462,N,07740.8152,W,0.01,185.63,220719,,,D*7E
$GPGGA,164550.000,4305.1462,N,07740.8152,W,2,09,1.11,171.0,M,-34.4,M,0000,0000*56
$GPRMC,164550.250,A,4305.1462,N,07740.8152,W,0.00,290.28,220719,,,D*7A
$GPGGA,164550.500,4305.1462,N,07740.8152,W,2,09,1.11,171.0,M,-34.4,M,0000,0000*53
$GPRMC,164550.750,A,4305.1462,N,07740.8152,W,0.00,250.75,220719,,,D*7B
$GPGGA,164551.000,4305.1462,N,07740.8152,W,2,09,1.11,171.0,M,-34.4,M,0000,0000*57
$GPRMC,164551.250,A,4305.1462,N,07740.8152,W,0.01,286.73,220719,,,D*73
$GPGGA,164551.500,4305.1462,N,07740.8152,W,2,09,1.11,171.0,M,-34.4,M,0000,0000*52
$GPRMC,164551.750,A,4305.1462,N,07740.8152,W,0.01,252.28,220719,,,D*71
$GPGGA,164552.000,4305.1462,N,07740.8152,W,2,09,1.11,171.0,M,-34.4,M,0000,0000*54
$GPRMC,164552.250,A,4305.1462,N,07740.8152,W,0.01,294.57,220719,,,D*75
$GPGGA,164552.500,4305.1462,N,07740.8152,W,2,09,1.11,171.0,M,-34.4,M,0000,0000*51
$GPRMC,164552.750,A,4305.1462,N,07740.8152,W,0.00,21.59,220719,,,D*43
$GPGGA,164553.000,4305.1462,N,07740.8152,W,2,09,1.11,171.0,M,-34.4,M,0000,0000*55
$GPRMC,164553.250,A,4305.1462,N,07740.8152,W,0.00,171.06,220719,,,D*79
$GPGGA,164553.500,4305.1462,N,07740.8152,W,2,09,1.11,171.0,M,-34.4,M,0000,0000*50
$GPRMC,164553.750,A,4305.1462,N,07740.8152,W,0.01,306.92,220719,,,D*72
$GPGGA,164554.000,4305.1462,N,07740.8152,W,2,09,1.11,171.0,M,-34.4,M,0000,0000*52
$GPRMC,164554.250,A,4305.1462,N,07740.8152,W,0.00,287.09,220719,,,D*7B
$GPGGA,164554.500,4305.1462,N,07740.8152,W,2,09,1.11,171.0,M,-34.4,M,0000,0000*57
$GPRMC,164554.750,A,4305.1462,N,07740.8152,W,0.00,341.16,220719,,,D*7B
$GPGGA,164555.000,4305.1462,N,07740.8152,W,2,09,1.11,171.0,M,-34.4,M,0000,0000*53
$GPRMC,164555.250,A,4305.1462,N,07740.8152,W,0.00,246.21,220719,,,D*7D
$GPGGA,164555.500,4305.1462,N,07740.8152,W,2,09,1.11,171.0,M,-34.4,M,0000,0000*56
$GPRMC,164555.750,A,4305.1462,N,07740.8152,W,0.00,0.00,220719,,,D*7B
$GPGGA,164556.000,4305.1462,N,07740.8152,W,2,09,1.11,171.0,M,-34.4,M,0000,0000*50
$GPRMC,164556.250,A,4305.1462,N,07740.8152,W,0.01,256.91,220719,,,D*75
$GPGGA,164556.500,4305.1462,N,07740.8152,W,2,09,1.11,171.0,M,-34.4,M,0000,0000*55
$GPRMC,164556.750,A,4305.1462,N,07740.8152,W,0.01,273.58,220719,,,D*72
$GPGGA,164557.000,4305.1462,N,07740.8152,W,2,09,1.11,171.0,M,-34.4,M,0000,0000*51
$GPRMC,164557.250,A,4305.1462,N,07740.8152,W,0.00,221.44,220719,,,D*7D
$GPGGA,164557.500,4305.1462,N,07740.8152,W,2,09,1.11,171.0,M,-34.4,M,0000,0000*54
$GPRMC,164557.750,A,4305.1462,N,07740.8152,W,0.00,35.48,220719,,,D*43
$GPGGA,164558.000,4305.1462,N,07740.8152,W,2,09,1.11,171.0,M,-34.4,M,0000,0000*5E
$GPRMC,164558.250,A,4305.1462,N,07740.8152,W,0.00,87.43,220719,,,D*4B
$GPGGA,164558.500,4305.1462,N,07740.8152,W,2,09,1.11,171.0,M,-34.4,M,0000,0000*5B
$GPRMC,164558.750,A,4305.1462,N,07740.8152,W,0.00,1.01,220719,,,D*76
$GPGGA,164559.000,4305.1462,N,07740.8152,W,2,09,1.11,171.0,M,-34.4,M,0000,0000*5F
$GPRMC,164559.250,A,4305.1462,N,07740.8152,W,0.01,313.90,220719,,,D*7B
$GPGGA,164559.500,4305.1462,N,07740.8152,W,2,09,1.11,171.0,M,-34.4,M,0000,0000*5A
$GPRMC,164559.750,A,4305.1462,N,07740.8152,W,0.01,291.71,220719,,,D*7A
$GPGGA,164600.000,4305.1462,N,07740.8152,W,2,09,1.11,171.0,M,-34.4,M,0000,0000*50
$GPRMC,164600.250,A,4305.1462,N,07740.8152,W,0.01,274.85,220719,,,D*70
$GPGGA,164600.500,4305.1462,N,07740.8152,W,2,09,1.11,171.0,M,-34.4,M,0000,0000*55
$GPRMC,164600.750,A,4305.1462,N,07740.8152,W,0.00,54.22,220719,,,D*49
$GPGGA,164601.000,4305.1462,N,07740.8152,W,2,09,1.11,171.0,M,-34.4,M,0000,0000*51
$GPRMC,164601.250,A,4305.1462,N,07740.8152,W,0.01,144.29,220719,,,D*77
$GPGGA,164601.500,4305.1462,N,07740.8152,W,2,09,1.11,171.0,M,-34.4,M,0000,0000*54
$GPRMC,164601.750,A,4305.1462,N,07740.8152,W,0.00,351.31,220719,,,D*7C
$GPGGA,164602.000,4305.1462,N,07740.8152,W,2,09,1.11,171.0,M,-34.4,M,0000,0000*52
$GPRMC,164602.250,A,4305.1462,N,07740.8152,W,0.00,270.60,220719,,,D*7C
$GPGGA,164602.500,4305.1462,N,07740.8152,W,2,09,1.11,171.0,M,-34.4,M,0000,0000*57
$GPRMC,164602.750,A,4305.1462,N,07740.8152,W,0.00,268.48,220719,,,D*7A
$GPGGA,164603.000,4305.1462,N,07740.8152,W,2,09,1.11,171.0,M,-34.4,M,0000,0000*53
$GPRMC,164603.250,A,4305.1462,N,07740.8152,W,0.01,282.52,220719,,,D*70
$GPGGA,164603.500,4305.1462,N,07740.8152,W,2,09,1.11,171.0,M,-34.4,M,0000,0000*56
$GPRMC,164603.750,A,4305.1462,N,07740.8152,W,0.01,271.51,220719,,,D*7A
$GPGGA,164604.000,4305.1462,N,07740.8152,W,2,09,1.11,171.0,M,-34.4,M,0000,0000*54
$GPRMC,164604.250,A,4305.1462,N,07740.8152,W,0.01,309.59,220719,,,D*7E
$GPGGA,164604.500,4305.1462,N,07740.8152,W,2,09,1.11,171.0,M,-34.4,M,0000,0000*51
$GPRMC,164604.750,A,4305.1462,N,07740.8152,W,0.00,301.98,220719,,,D*7F
$GPGGA,164605.000,4305.1462,N,07740.8152,W,2,09,1.11,171.0,M,-34.4,M,0000,0000*55
$GPRMC,164605.250,A,4305.1462,N,07740.8152,W,0.01,283.29,220719,,,D*7B
$GPGGA,164605.500,4305.1462,N,07740.8152,W,2,09,1.11,171.0,M,-34.4,M,0000,0000*50
$GPRMC,164605.750,A,4305.1462,N,07740.8152,W,0.01,306.81,220719,,,D*70
$GPGGA,164606.000,4305.1462,N,07740.8152,W,2,09,1.11,171.0,M,-34.4,M,0000,0000*56
$GPRMC,164606.250,A,4305.1462,N,07740.8152,W,0.00,0.00,220719,,,D*7B
$GPGGA,164606.500,4305.1462,N,07740.8152,W,2,09,1.11,171.0,M,-34.4,M,0000,0000*53
$GPRMC,164606.750,A,4305.1462,N,07740.8152,W,0.00,282.52,220719,,,D*71
$GPGGA,164607.000,4305.1462,N,07740.8152,W,2,09,1.11,171.0,M,-34.4,M,0000,0000*57
$GPRMC,164607.250,A,4305.1462,N,07740.8152,W,0.00,270.15,220719,,,D*7B
$GPGGA,164607.500,4305.1462,N,07740.8152,W,2,09,1.11,171.0,M,-34.4,M,0000,0000*52
$GPRMC,164607.750,A,4305.1462,N,07740.8152,W,0.01,316.36,220719,,,D*7F
$GPGGA,164608.000,4305.1462,N,07740.8152,W,2,09,1.11,171.0,M,-34.4,M,0000,0000*58
$GPRMC,164608.250,A,4305.1463,N,07740.8152,W,0.01,315.40,220719,,,D*76
$GPGGA,164608.500,4305.1463,N,07740.8152,W,2,09,1.11,171.0,M,-34.4,M,0000,0000*5C
$GPRMC,164608.750,A,4305.1463,N,07740.8152,W,0.01,319.12,220719,,,D*78
$GPGGA,164609.000,4305.1463,N,07740.8152,W,2,09,1.11,171.1,M,-34.4,M,0000,0000*59
$GPRMC,164609.250,A,4305.1463,N,07740.8152,W,0.01,295.04,220719,,,D*7E
$GPGGA,164609.500,4305.1463,N,07740.8152,W,2,09,1.11,171.1,M,-34.4,M,0000,0000*5C
$GPRMC,164609.750,A,4305.1463,N,07740.8152,W,0.00,249.19,220719,,,D*77
$GPGGA,164610.000,4305.1463,N,07740.8152,W,2,09,1.11,171.1,M,-34.4,M,0000,0000*51
$GPRMC,164610.250,A,4305.1463,N,07740.8152,W,0.01,282.26,220719,,,D*70
$GPGGA,164610.500,4305.1463,N,07740.8152,W,2,09,1.11,171.1,M,-34.4,M,0000,0000*54
$GPRMC,164610.750,A,4305.1463,N,07740.8152,W,0.01,291.88,220719,,,D*73
$GPGGA,164611.000,4305.1463,N,07740.8152,W,2,09,1.11,171.1,M,-34.4,M,0000,0000*50
$GPRMC,164611.250,A,4305.1463,N,07740.8152,W,0.01,334.82,220719,,,D*73
$GPGGA,164611.500,4305.1463,N,07740.8152,W,2,09,1.10,171.1,M,-34.4,M,0000,0000*54
$GPRMC,164611.750,A,4305.1463,N,07740.8152,W,0.00,300.26,220719,,,D*7E
$GPGGA,164612.000,4305.1463,N,07740.8152,W,2,09,1.11,171.1,M,-34.4,M,0000,0000*53
$GPRMC,164612.250,A,4305.1463,N,07740.8152,W,0.00,294.11,220719,,,D*70
$GPGGA,164612.500,4305.1463,N,07740.8152,W,2,09,1.11,171.1,M,-34.4,M,0000,0000*56
$GPRMC,164612.750,A,4305.1463,N,07740.8152,W,0.00,275.27,220719,,,D*7F
$GPGGA,164613.000,4305.1463,N,07740.8152,W,2,09,1.10,171.1,M,-34.4,M,0000,0000*53
$GPRMC,164613.250,A,4305.1463,N,07740.8153,W,0.02,318.58,220719,,,D*7A
$GPGGA,164613.500,4305.1463,N,07740.8153,W,2,09,1.10,171.1,M,-34.4,M,0000,0000*57
$GPRMC,164613.750,A,4305.1463,N,07740.8153,W,0.03,282.71,220719,,,D*77
$GPGGA,164614.000,4305.1463,N,07740.8153,W,2,09,1.10,171.1,M,-34.4,M,0000,0000*55
$GPRMC,164614.250,A,4305.1463,N,07740.8153,W,0.00,223.35,220719,,,D*7D
$GPGGA,164614.500,4305.1463,N,07740.8153,W,2,09,1.11,171.1,M,-34.4,M,0000,0000*51
$GPRMC,164614.750,A,4305.1463,N,07740.8153,W,0.01,260.89,220719,,,D*79
$GPGGA,164615.000,4305.1463,N,07740.8153,W,2,09,1.10,171.1,M,-34.4,M,0000,0000*54
$GPRMC,164615.250,A,4305.1463,N,07740.8153,W,0.01,202.62,220719,,,D*7C
$GPGGA,164615.500,4305.1463,N,07740.8153,W,2,09,1.11,171.1,M,-34.4,M,0000,0000*50
$GPRMC,164615.750,A,4305.1463,N,07740.8153,W,0.01,227.65,220719,,,D*79
$GPGGA,164616.000,4305.1463,N,07740.8153,W,2,09,1.11,171.1,M,-34.4,M,0000,0000*56
$GPRMC,164616.250,A,4305.1463,N,07740.8153,W,0.02,164.99,220719,,,D*7B
$GPGGA,164616.500,4305.1463,N,07740.8153,W,2,09,1.10,171.1,M,-34.4,M,0000,0000*52
$GPRMC,164616.750,A,4305.1463,N,07740.8153,W,0.01,302.04,220719,,,D*7B
$GPGGA,164617.000,4305.1463,N,07740.8153,W,2,09,1.10,171.1,M,-34.4,M,0000,0000*56
$GPRMC,164617.250,A,4305.1463,N,07740.8153,W,0.01,332.03,220719,,,D*7B
$GPGGA,164617.500,4305.1463,N,07740.8153,W,2,09,1.10,171.1,M,-34.4,M,0000,0000*53
$GPRMC,164617.750,A,4305.1463,N,07740.8153,W,0.01,344.96,220719,,,D*73
$GPGGA,164618.000,4305.1463,N,07740.8153,W,2,09,1.10,171.1,M,-34.4,M,0000,0000*59
$GPRMC,164618.250,A,4305.1463,N,07740.8153,W,0.02,71.60,220719,,,D*46
$GPGGA,164618.500,4305.1463,N,07740.8153,W,2,09,1.10,171.1,M,-34.4,M,0000,0000*5C
$GPRMC,164618.750,A,4305.1463,N,07740.8153,W,0.01,40.12,220719,,,D*47
$GPGGA,164619.000,4305.1463,N,07740.8153,W,2,08,1.14,171.1,M,-34.4,M,0000,0000*5D
$GPRMC,164619.250,A,4305.1463,N,07740.8153,W,0.01,338.22,220719,,,D*7C
$GPGGA,164619.500,4305.1463,N,07740.8153,W,2,08,1.14,171.1,M,-34.4,M,0000,0000*58
$GPRMC,164619.750,A,4305.1463,N,07740.8153,W,0.00,33.47,220719,,,D*43
$GPGGA,164620.000,4305.1463,N,07740.8153,W,2,09,1.10,171.1,M,-34.4,M,0000,0000*52
$GPRMC,164620.250,A,4305.1463,N,07740.8153,W,0.00,27.41,220719,,,D*4F
$GPGGA,164620.500,4305.1463,N,07740.8153,W,2,09,1.10,171.1,M,-34.4,M,0000,0000*57
$GPRMC,164620.750,A,4305.1463,N,07740.8153,W,0.01,308.36,220719,,,D*75
$GPGGA,164621.000,4305.1463,N,07740.8153,W,2,09,1.10,171.1,M,-34.4,M,0000,0000*53
$GPRMC,164621.250,A,4305.1463,N,07740.8153,W,0.01,215.52,220719,,,D*7E
$GPGGA,164621.500,4305.1463,N,07740.8153,W,2,09,1.10,171.1,M,-34.4,M,0000,0000*56
$GPRMC,164621.750,A,4305.1463,N,07740.8153,W,0.01,275.47,220719,,,D*79
$GPGGA,164622.000,4305.1463,N,07740.8153,W,2,08,1.14,171.1,M,-34.4,M,0000,0000*55
$GPRMC,164622.250,A,4305.1463,N,07740.8153,W,0.00,268.98,220719,,,D*70
$GPGGA,164622.500,4305.1463,N,07740.8153,W,2,09,1.10,171.1,M,-34.4,M,0000,0000*55
$GPRMC,164622.750,A,4305.1463,N,07740.8153,W,0.01,50.17,220719,,,D*4A
$GPGGA,164623.000,4305.1463,N,07740.8153,W,2,09,1.10,171.1,M,-34.4,M,0000,0000*51
$GPRMC,164623.250,A,4305.1463,N,07740.8153,W,0.01,244.80,220719,,,D*77
$GPGGA,164623.500,4305.1463,N,07740.8153,W,2,09,1.10,171.1,M,-34.4,M,0000,0000*54
$GPRMC,164623.750,A,4305.1463,N,07740.8153,W,0.01,38.42,220719,,,D*45
$GPGGA,164624.000,4305.1463,N,07740.8153,W,2,09,1.10,171.1,M,-34.4,M,0000,0000*56
$GPRMC,164624.250,A,4305.1463,N,07740.8153,W,0.00,242.68,220719,,,D*71
$GPGGA,164624.500,4305.1463,N,07740.8153,W,2,09,1.10,171.1,M,-34.4,M,0000,0000*53
$GPRMC,164624.750,A,4305.1463,N,07740.8153,W,0.00,313.38,220719,,,D*74
$GPGGA,164625.000,4305.1463,N,07740.8153,W,2,09,1.10,171.1,M,-34.4,M,0000,0000*57
$GPRMC,164625.250,A,4305.1463,N,07740.8153,W,0.00,0.00,220719,,,D*7A
$GPGGA,164625.500,4305.1463,N,07740.8153,W,2,09,1.10,171.0,M,-34.4,M,0000,0000*53
$GPRMC,164625.750,A,4305.1463,N,07740.8153,W,0.01,343.17,220719,,,D*7C
$GPGGA,164626.000,4305.1463,N,07740.8154,W,2,09,1.10,171.0,M,-34.4,M,0000,0000*52
$GPRMC,164626.250,A,4305.1463,N,07740.8154,W,0.01,175.56,220719,,,D*7F
$GPGGA,164626.500,4305.1463,N,07740.8154,W,2,09,1.10,171.0,M,-34.4,M,0000,0000*57
$GPRMC,164626.750,A,4305.1464,N,07740.8154,W,0.01,274.79,220719,,,D*72
$GPGGA,164627.000,4305.1464,N,07740.8154,W,2,09,1.10,171.0,M,-34.4,M,0000,0000*54
$GPRMC,164627.250,A,4305.1464,N,07740.8154,W,0.01,297.56,220719,,,D*76
$GPGGA,164627.500,4305.1464,N,07740.8154,W,2,09,1.10,171.0,M,-34.4,M,0000,0000*51
$GPRMC,164627.750,A,4305.1464,N,07740.8155,W,0.00,101.80,220719,,,D*74
$GPGGA,164628.000,4305.1464,N,07740.8155,W,2,09,1.10,171.1,M,-34.4,M,0000,0000*5B
$GPRMC,164628.250,A,4305.1464,N,07740.8155,W,0.01,321.66,220719,,,D*77
$GPGGA,164628.500,4305.1464,N,07740.8155,W,2,09,1.10,171.1,M,-34.4,M,0000,0000*5E
$GPRMC,164628.750,A,4305.1465,N,07740.8155,W,0.01,256.24,220719,,,D*74
$GPGGA,164629.000,4305.1465,N,07740.8155,W,2,09,1.10,171.0,M,-34.4,M,0000,0000*5A
$GPRMC,164629.250,A,4305.1465,N,07740.8156,W,0.01,208.08,220719,,,D*76
$GPGGA,164629.500,4305.1465,N,07740.8156,W,2,09,1.10,171.0,M,-34.4,M,0000,0000*5C
$GPRMC,164629.750,A,4305.1465,N,07740.8156,W,0.01,54.98,220719,,,D*41
$GPGGA,164630.000,4305.1465,N,07740.8157,W,2,09,1.10,171.0,M,-34.4,M,0000,0000*50
$GPRMC,164630.250,A,4305.1465,N,07740.8157,W,0.00,132.44,220719,,,D*7C
$GPGGA,164630.500,4305.1466,N,07740.8157,W,2,09,1.10,170.9,M,-34.4,M,0000,0000*5E
$GPRMC,164630.750,A,4305.1466,N,07740.8158,W,0.01,326.27,220719,,,D*76
$GPGGA,164631.000,4305.1466,N,07740.8158,W,2,08,1.14,170.9,M,-34.4,M,0000,0000*50
$GPRMC,164631.250,A,4305.1466,N,07740.8158,W,0.01,97.12,220719,,,D*4D
$GPGGA,164631.500,4305.1466,N,07740.8158,W,2,08,1.14,170.9,M,-34.4,M,0000,0000*55
$GPRMC,164631.750,A,4305.1466,N,07740.8159,W,0.00,314.01,220719,,,D*72
$GPGGA,164632.000,4305.1466,N,07740.8159,W,2,08,1.14,170.9,M,-34.4,M,0000,0000*52
$GPRMC,164632.250,A,4305.1466,N,07740.8159,W,0.00,281.89,220719,,,D*79
$GPGGA,164632.500,4305.1466,N,07740.8159,W,2,09,1.10,170.8,M,-34.4,M,0000,0000*53
$GPRMC,164632.750,A,4305.1466,N,07740.8160,W,0.00,216.47,220719,,,D*7A
$GPGGA,164633.000,4305.1466,N,07740.8160,W,2,09,1.10,170.9,M,-34.4,M,0000,0000*5C
$GPRMC,164633.250,A,4305.1467,N,07740.8160,W,0.00,195.14,220719,,,D*71
$GPGGA,164633.500,4305.1467,N,07740.8160,W,2,09,1.10,170.9,M,-34.4,M,0000,0000*58
$GPRMC,164633.750,A,4305.1467,N,07740.8160,W,0.00,0.00,220719,,,D*7C
$GPGGA,164634.000,4305.1467,N,07740.8161,W,2,09,1.10,170.9,M,-34.4,M,0000,0000*5B
$GPRMC,164634.250,A,4305.1467,N,07740.8161,W,0.00,320.66,220719,,,D*7E
$GPGGA,164634.500,4305.1467,N,07740.8161,W,2,09,1.10,170.9,M,-34.4,M,0000,0000*5E
$GPRMC,164634.750,A,4305.1467,N,07740.8161,W,0.00,0.00,220719,,,D*7A
$GPGGA,164635.000,4305.1467,N,07740.8161,W,2,09,1.10,170.9,M,-34.4,M,0000,0000*5A
$GPRMC,164635.250,A,4305.1467,N,07740.8162,W,0.00,0.00,220719,,,D*7D
$GPGGA,164635.500,4305.1467,N,07740.8162,W,2,09,1.10,170.9,M,-34.4,M,0000,0000*5C
$GPRMC,164635.750,A,4305.1467,N,07740.8162,W,0.00,141.57,220719,,,D*7E
$GPGGA,164636.000,4305.1468,N,07740.8162,W,2,09,1.10,170.9,M,-34.4,M,0000,0000*55
$GPRMC,164636.250,A,4305.1468,N,07740.8162,W,0.00,122.75,220719,,,D*72
$GPGGA,164636.500,4305.1468,N,07740.8163,W,2,09,1.10,170.9,M,-34.4,M,0000,0000*51
$GPRMC,164636.750,A,4305.1468,N,07740.8163,W,0.00,296.86,220719,,,D*76
$GPGGA,164637.000,4305.1468,N,07740.8163,W,2,09,1.10,170.9,M,-34.4,M,0000,0000*55
$GPRMC,164637.250,A,4305.1468,N,07740.8163,W,0.00,338.87,220719,,,D*76
$GPGGA,164637.500,4305.1468,N,07740.8163,W,2,09,1.10,170.9,M,-34.4,M,0000,0000*50
$GPRMC,164637.750,A,4305.1468,N,07740.8163,W,0.00,0.00,220719,,,D*74
$GPGGA,164638.000,4305.1468,N,07740.8163,W,2,09,1.10,170.9,M,-34.4,M,0000,0000*5A
$GPRMC,164638.250,A,4305.1468,N,07740.8164,W,0.00,263.31,220719,,,D*7C
$GPGGA,164638.500,4305.1468,N,07740.8164,W,2,09,1.10,170.9,M,-34.4,M,0000,0000*58
$GPRMC,164638.750,A,4305.1468,N,07740.8164,W,0.00,0.00,220719,,,D*7C
$GPGGA,164639.000,4305.1468,N,07740.8164,W,2,09,1.10,171.0,M,-34.4,M,0000,0000*54
$GPRMC,164639.250,A,4305.1468,N,07740.8164,W,0.00,0.00,220719,,,D*78
$GPGGA,164639.500,4305.1468,N,07740.8165,W,2,09,1.10,170.9,M,-34.4,M,0000,0000*58
$GPRMC,164639.750,A,4305.1468,N,07740.8165,W,0.03,4.60,220719,,,D*7D
$GPGGA,164640.000,4305.1468,N,07740.8165,W,2,09,1.10,170.9,M,-34.4,M,0000,0000*53
$GPRMC,164640.250,A,4305.1468,N,07740.8165,W,0.01,163.87,220719,,,D*7D
$GPGGA,164640.500,4305.1468,N,07740.8166,W,2,09,1.10,170.9,M,-34.4,M,0000,0000*55
$GPRMC,164640.750,A,4305.1468,N,07740.8166,W,0.01,145.92,220719,,,D*7B
$GPGGA,164641.000,4305.1469,N,07740.8166,W,2,09,1.10,170.9,M,-34.4,M,0000,0000*50
$GPRMC,164641.250,A,4305.1468,N,07740.8167,W,0.02,212.54,220719,,,D*76
$GPGGA,164641.500,4305.1468,N,07740.8167,W,2,09,1.10,170.9,M,-34.4,M,0000,0000*55
$GPRMC,164641.750,A,4305.1469,N,07740.8167,W,0.00,269.49,220719,,,D*70
$GPGGA,164642.000,4305.1469,N,07740.8168,W,2,09,1.10,170.9,M,-34.4,M,0000,0000*5D
$GPRMC,164642.250,A,4305.1469,N,07740.8168,W,0.00,185.38,220719,,,D*7E
$GPGGA,164642.500,4305.1469,N,07740.8168,W,2,09,1.10,170.9,M,-34.4,M,0000,0000*58
$GPRMC,164642.750,A,4305.1469,N,07740.8169,W,0.00,196.17,220719,,,D*75
$GPGGA,164643.000,4305.1469,N,07740.8169,W,2,09,1.10,170.9,M,-34.4,M,0000,0000*5D
$GPRMC,164643.250,A,4305.1468,N,07740.8169,W,0.00,140.06,220719,,,D*7B
$GPGGA,164643.500,4305.1468,N,07740.8169,W,2,09,1.10,170.9,M,-34.4,M,0000,0000*59
$GPRMC,164643.750,A,4305.1468,N,07740.8170,W,0.00,144.34,220719,,,D*73
$GPGGA,164644.000,4305.1468,N,07740.8170,W,2,09,1.10,170.9,M,-34.4,M,0000,0000*53
$GPRMC,164644.250,A,4305.1468,N,07740.8170,W,0.00,292.51,220719,,,D*7A
$GPGGA,164644.500,4305.1468,N,07740.8171,W,2,09,1.10,170.8,M,-34.4,M,0000,0000*56
$GPRMC,164644.750,A,4305.1468,N,07740.8171,W,0.00,282.58,220719,,,D*76
$GPGGA,164645.000,4305.1468,N,07740.8171,W,2,09,1.10,170.8,M,-34.4,M,0000,0000*52
$GPRMC,164645.250,A,4305.1468,N,07740.8171,W,0.00,110.85,220719,,,D*7A
$GPGGA,164645.500,4305.1468,N,07740.8172,W,2,09,1.10,170.8,M,-34.4,M,0000,0000*54
$GPRMC,164645.750,A,4305.1468,N,07740.8172,W,0.00,0.00,220719,,,D*71
$GPGGA,164646.000,4305.1468,N,07740.8172,W,2,09,1.10,170.8,M,-34.4,M,0000,0000*52
$GPRMC,164646.250,A,4305.1468,N,07740.8172,W,0.00,176.65,220719,,,D*74
$GPGGA,164646.500,4305.1468,N,07740.8173,W,2,09,1.10,170.7,M,-34.4,M,0000,0000*59
$GPRMC,164646.750,A,4305.1468,N,07740.8173,W,0.00,5.70,220719,,,D*71
$GPGGA,164647.000,4305.1468,N,07740.8173,W,2,09,1.10,170.7,M,-34.4,M,0000,0000*5D
$GPRMC,164647.250,A,4305.1468,N,07740.8173,W,0.00,299.44,220719,,,D*75
$GPGGA,164647.500,4305.1468,N,07740.8174,W,2,09,1.10,170.7,M,-34.4,M,0000,0000*5F
$GPRMC,164647.750,A,4305.1468,N,07740.8174,W,0.00,247.78,220719,,,D*7B
$GPGGA,164648.000,4305.1468,N,07740.8174,W,2,09,1.10,170.7,M,-34.4,M,0000,0000*55
$GPRMC,164648.250,A,4305.1468,N,07740.8174,W,0.01,319.50,220719,,,D*70
$GPGGA,164648.500,4305.1468,N,07740.8174,W,2,09,1.10,170.7,M,-34.4,M,0000,0000*50
$GPRMC,164648.750,A,4305.1468,N,07740.8175,W,0.00,256.19,220719,,,D*72
$GPGGA,164649.000,4305.1468,N,07740.8175,W,2,09,1.10,170.7,M,-34.4,M,0000,0000*55
$GPRMC,164649.250,A,4305.1468,N,07740.8175,W,0.01,226.16,220719,,,D*7F
$GPGGA,164649.500,4305.1468,N,07740.8175,W,2,09,1.10,170.7,M,-34.4,M,0000,0000*50
$GPRMC,164649.750,A,4305.1468,N,07740.8175,W,0.00,222.30,220719,,,D*7B
$GPGGA,164650.000,4305.1468,N,07740.8175,W,2,09,1.10,170.7,M,-34.4,M,0000,0000*5D
$GPRMC,164650.250,A,4305.1468,N,07740.8175,W,0.00,205.56,220719,,,D*73
$GPGGA,164650.500,4305.1468,N,07740.8175,W,2,09,1.10,170.7,M,-34.4,M,0000,0000*58
$GPRMC,164650.750,A,4305.1468,N,07740.8175,W,0.00,186.96,220719,,,D*72
$GPGGA,164651.000,4305.1468,N,07740.8175,W,2,08,1.14,170.7,M,-34.4,M,0000,0000*59
$GPRMC,164651.250,A,4305.1468,N,07740.8175,W,0.00,208.70,220719,,,D*7B
$GPGGA,164651.500,4305.1468,N,07740.8175,W,2,09,1.10,170.7,M,-34.4,M,0000,0000*59
$GPRMC,164651.750,A,4305.1468,N,07740.8175,W,0.00,75.86,220719,,,D*4F
$GPGGA,164652.000,4305.1468,N,07740.8175,W,2,09,1.10,170.7,M,-34.4,M,0000,0000*5F
$GPRMC,164652.250,A,4305.1468,N,07740.8175,W,0.01,255.35,220719,,,D*70
$GPGGA,164652.500,4305.1468,N,07740.8175,W,2,09,1.10,170.7,M,-34.4,M,0000,0000*5A
$GPRMC,164652.750,A,4305.1468,N,07740.8175,W,0.00,324.16,220719,,,D*72
$GPGGA,164653.000,4305.1468,N,07740.8175,W,2,09,1.10,170.7,M,-34.4,M,0000,0000*5E
$GPRMC,164653.250,A,4305.1468,N,07740.8175,W,0.00,333.50,220719,,,D*72
$GPGGA,164653.500,4305.1468,N,07740.8175,W,2,10,0.94,170.7,M,-34.4,M,0000,0000*5E
$GPRMC,164653.750,A,4305.1468,N,07740.8175,W,0.00,343.60,220719,,,D*73
$GPGGA,164654.000,4305.1468,N,07740.8175,W,2,09,1.10,170.7,M,-34.4,M,0000,0000*59
$GPRMC,164654.250,A,4305.1468,N,07740.8175,W,0.00,0.00,220719,,,D*73
$GPGGA,164654.500,4305.1468,N,07740.8175,W,2,09,1.10,170.7,M,-34.4,M,0000,0000*5C
$GPRMC,164654.750,A,4305.1468,N,07740.8175,W,0.00,210.70,220719,,,D*72
$GPGGA,164655.000,4305.1468,N,07740.8175,W,2,08,1.14,170.7,M,-34.4,M,0000,0000*5D
$GPRMC,164655.250,A,4305.1468,N,07740.8175,W,0.00,289.66,220719,,,D*71
$GPGGA,164655.500,4305.1468,N,07740.8175,W,2,08,1.14,170.7,M,-34.4,M,0000,0000*58
$GPRMC,164655.750,A,4305.1468,N,07740.8175,W,0.00,247.89,220719,,,D*77
$GPGGA,164656.000,4305.1468,N,07740.8175,W,2,08,1.14,170.7,M,-34.4,M,0000,0000*5E
$GPRMC,164656.250,A,4305.1468,N,07740.8175,W,0.01,287.27,220719,,,D*78
$GPGGA,164656.500,4305.1468,N,07740.8175,W,2,09,1.10,170.7,M,-34.4,M,0000,0000*5E
$GPRMC,164656.750,A,4305.1468,N,07740.8175,W,0.00,280.77,220719,,,D*7E
$GPGGA,164657.000,4305.1468,N,07740.8175,W,2,09,1.10,170.7,M,-34.4,M,0000,0000*5A
$GPRMC,164657.250,A,4305.1468,N,07740.8175,W,0.01,66.77,220719,,,D*41
$GPGGA,164657.500,4305.1468,N,07740.8175,W,2,09,1.10,170.7,M,-34.4,M,0000,0000*5F
$GPRMC,164657.750,A,4305.1468,N,07740.8175,W,0.01,74.89,220719,,,D*46
$GPGGA,164658.000,4305.1468,N,07740.8175,W,2,09,1.10,170.7,M,-34.4,M,0000,0000*55
$GPRMC,164658.250,A,4305.1468,N,07740.8175,W,0.01,345.89,220719,,,D*7D
$GPGGA,164658.500,4305.1468,N,07740.8175,W,2,09,1.10,170.7,M,-34.4,M,0000,0000*50
$GPRMC,164658.750,A,4305.1468,N,07740.8175,W,0.01,310.30,220719,,,D*7A
$GPGGA,164659.000,4305.1468,N,07740.8175,W,2,09,1.10,170.7,M,-34.4,M,0000,0000*54
$GPRMC,164659.250,A,4305.1468,N,07740.8175,W,0.01,34.81,220719,,,D*41
$GPGGA,164659.500,4305.1468,N,07740.8175,W,2,09,1.10,170.7,M,-34.4,M,0000,0000*51
$GPRMC,164659.750,A,4305.1468,N,07740.8175,W,0.01,20.26,220719,,,D*4C
$GPGGA,164700.000,4305.1468,N,07740.8175,W,2,09,1.10,170.7,M,-34.4,M,0000,0000*59
$GPRMC,164700.250,A,4305.1468,N,07740.8175,W,0.01,18.02,220719,,,D*49
$GPGGA,164700.500,4305.1468,N,07740.8175,W,2,09,1.10,170.7,M,-34.4,M,0000,0000*5C
$GPRMC,164700.750,A,4305.1468,N,07740.8175,W,0.01,351.14,220719,,,D*75
$GPGGA,164701.000,4305.1468,N,07740.8175,W,2,09,1.10,170.7,M,-34.4,M,0000,0000*58
$GPRMC,164701.250,A,4305.1468,N,07740.8175,W,0.01,5.90,220719,,,D*7F
$GPGGA,164701.500,4305.1468,N,07740.8175,W,2,09,1.10,170.7,M,-34.4,M,0000,0000*5D
$GPRMC,164701.750,A,4305.1468,N,07740.8175,W,0.00,0.45,220719,,,D*76
$GPGGA,164702.000,4305.1468,N,07740.8175,W,2,09,1.10,170.7,M,-34.4,M,0000,0000*5B
$GPRMC,164702.250,A,4305.1468,N,07740.8175,W,0.01,330.59,220719,,,D*7C
$GPGGA,164702.500,4305.1468,N,07740.8175,W,2,09,1.10,170.7,M,-34.4,M,0000,0000*5E
$GPRMC,164702.750,A,4305.1468,N,07740.8175,W,0.01,317.34,220719,,,D*77
$GPGGA,164703.000,4305.1468,N,07740.8175,W,2,09,1.10,170.7,M,-34.4,M,0000,0000*5A
$GPRMC,164703.250,A,4305.1468,N,07740.8175,W,0.03,301.41,220719,,,D*74
$GPGGA,164703.500,4305.1468,N,07740.8175,W,2,09,1.10,170.7,M,-34.4,M,0000,0000*5F
$GPRMC,164703.750,A,4305.1468,N,07740.8175,W,0.01,311.70,220719,,,D*70
$GPGGA,164704.000,4305.1468,N,07740.8175,W,2,09,1.10,170.7,M,-34.4,M,0000,0000*5D
$GPRMC,164704.250,A,4305.1468,N,07740.8175,W,0.01,324.48,220719,,,D*7F
$GPGGA,164704.500,4305.1468,N,07740.8175,W,2,09,1.10,170.7,M,-34.4,M,0000,0000*58
$GPRMC,164704.750,A,4305.1468,N,07740.8175,W,0.01,320.31,220719,,,D*70
$GPGGA,164705.000,4305.1468,N,07740.8175,W,2,09,1.10,170.7,M,-34.4,M,0000,0000*5C
$GPRMC,164705.250,A,4305.1468,N,07740.8175,W,0.02,346.19,220719,,,D*7D
$GPGGA,164705.500,4305.1468,N,07740.8175,W,2,09,1.10,170.7,M,-34.4,M,0000,0000*59
$GPRMC,164705.750,A,4305.1468,N,07740.8175,W,0.03,328.62,220719,,,D*7D
$GPGGA,164706.000,4305.1468,N,07740.8175,W,2,09,1.02,170.7,M,-34.4,M,0000,0000*5C
$GPRMC,164706.250,A,4305.1468,N,07740.8175,W,0.10,307.43,220719,,,D*77
$GPGGA,164706.500,4305.1468,N,07740.8175,W,2,10,0.91,170.7,M,-34.4,M,0000,0000*5A
$GPRMC,164706.750,A,4305.1469,N,07740.8176,W,0.34,300.65,220719,,,D*75
$GPGGA,164707.000,4305.1469,N,07740.8176,W,2,10,0.91,170.7,M,-34.4,M,0000,0000*5C
$GPRMC,164707.250,A,4305.1469,N,07740.8176,W,0.47,287.31,220719,,,D*7A
$GPGGA,164707.500,4305.1469,N,07740.8177,W,2,10,0.91,170.7,M,-34.4,M,0000,0000*58
$GPRMC,164707.750,A,4305.1469,N,07740.8177,W,0.46,289.23,220719,,,D*72
$GPGGA,164708.000,4305.1469,N,07740.8177,W,2,10,0.91,170.7,M,-34.4,M,0000,0000*52
$GPRMC,164708.250,A,4305.1469,N,07740.8178,W,0.40,293.99,220719,,,D*7B
$GPGGA,164708.500,4305.1469,N,07740.8178,W,2,10,0.91,170.7,M,-34.4,M,0000,0000*58
$GPRMC,164708.750,A,4305.1469,N,07740.8178,W,0.31,315.29,220719,,,D*7C
$GPGGA,164709.000,4305.1470,N,07740.8179,W,2,10,0.91,170.7,M,-34.4,M,0000,0000*55
$GPRMC,164709.250,A,4305.1470,N,07740.8179,W,0.22,13.36,220719,,,D*48
$GPGGA,164709.500,4305.1470,N,07740.8179,W,2,10,0.94,170.7,M,-34.4,M,0000,0000*55
$GPRMC,164709.750,A,4305.1470,N,07740.8178,W,0.37,56.73,220719,,,D*48
$GPGGA,164710.000,4305.1470,N,07740.8178,W,2,10,0.91,170.7,M,-34.4,M,0000,0000*5C
$GPRMC,164710.250,A,4305.1470,N,07740.8178,W,0.79,89.66,220719,,,D*49
$GPGGA,164710.500,4305.1470,N,07740.8175,W,2,10,0.91,170.7,M,-34.4,M,0000,0000*54
$GPRMC,164710.750,A,4305.1470,N,07740.8172,W,1.37,92.73,220719,,,D*43
$GPGGA,164711.000,4305.1468,N,07740.8167,W,2,10,0.91,170.7,M,-34.4,M,0000,0000*5A
$GPRMC,164711.250,A,4305.1467,N,07740.8163,W,3.16,100.07,220719,,,D*79
$GPGGA,164711.500,4305.1467,N,07740.8158,W,2,10,0.91,170.7,M,-34.4,M,0000,0000*5C
$GPRMC,164711.750,A,4305.1467,N,07740.8154,W,4.16,96.80,220719,,,D*4E
$GPGGA,164712.000,4305.1467,N,07740.8150,W,2,10,0.94,170.7,M,-34.4,M,0000,0000*57
$GPRMC,164712.250,A,4305.1467,N,07740.8145,W,4.93,92.38,220719,,,D*42
$GPGGA,164712.500,4305.1467,N,07740.8139,W,2,10,0.94,170.7,M,-34.4,M,0000,0000*5D
$GPRMC,164712.750,A,4305.1468,N,07740.8133,W,5.50,89.19,220719,,,D*4E
$GPGGA,164713.000,4305.1468,N,07740.8127,W,2,10,0.94,170.7,M,-34.4,M,0000,0000*59
$GPRMC,164713.250,A,4305.1469,N,07740.8121,W,6.13,85.45,220719,,,D*49
$GPGGA,164713.500,4305.1470,N,07740.8115,W,2,10,0.94,170.7,M,-34.4,M,0000,0000*54
$GPRMC,164713.750,A,4305.1470,N,07740.8109,W,6.77,82.95,220719,,,D*46
$GPGGA,164714.000,4305.1471,N,07740.8101,W,2,10,0.94,170.6,M,-34.4,M,0000,0000*53
$GPRMC,164714.250,A,4305.1472,N,07740.8094,W,7.17,85.28,220719,,,D*45
$GPGGA,164714.500,4305.1472,N,07740.8087,W,2,10,0.94,170.6,M,-34.4,M,0000,0000*5A
$GPRMC,164714.750,A,4305.1472,N,07740.8080,W,7.48,87.59,220719,,,D*4B
$GPGGA,164715.000,4305.1472,N,07740.8072,W,2,10,0.94,170.6,M,-34.4,M,0000,0000*54
$GPRMC,164715.250,A,4305.1473,N,07740.8065,W,7.66,88.62,220719,,,D*4E
$GPGGA,164715.500,4305.1473,N,07740.8057,W,2,10,0.94,170.7,M,-34.4,M,0000,0000*56
$GPRMC,164715.750,A,4305.1473,N,07740.8048,W,8.30,88.57,220719,,,D*4E
$GPGGA,164716.000,4305.1473,N,07740.8040,W,2,10,0.94,170.7,M,-34.4,M,0000,0000*56
$GPRMC,164716.250,A,4305.1474,N,07740.8031,W,8.52,89.01,220719,,,D*47
$GPGGA,164716.500,4305.1474,N,07740.8023,W,2,10,0.94,170.6,M,-34.4,M,0000,0000*50
$GPRMC,164716.750,A,4305.1475,N,07740.8014,W,8.89,87.39,220719,,,D*47
$GPGGA,164717.000,4305.1475,N,07740.8005,W,2,10,0.94,170.5,M,-34.4,M,0000,0000*52
$GPRMC,164717.250,A,4305.1476,N,07740.7996,W,9.54,88.11,220719,,,D*48
$GPGGA,164717.500,4305.1476,N,07740.7986,W,2,10,0.94,170.4,M,-34.4,M,0000,0000*58
$GPRMC,164717.750,A,4305.1476,N,07740.7977,W,10.03,87.87,220719,,,D*78
$GPGGA,164718.000,4305.1477,N,07740.7967,W,2,10,0.94,170.3,M,-34.4,M,0000,0000*5B
$GPRMC,164718.250,A,4305.1479,N,07740.7956,W,10.81,84.93,220719,,,D*72
$GPGGA,164718.500,4305.1480,N,07740.7945,W,2,10,0.94,170.2,M,-34.4,M,0000,0000*57
$GPRMC,164718.750,A,4305.1482,N,07740.7933,W,11.44,85.20,220719,,,D*71
$GPGGA,164719.000,4305.1483,N,07740.7922,W,2,10,0.94,170.2,M,-34.4,M,0000,0000*51
$GPRMC,164719.250,A,4305.1484,N,07740.7910,W,12.20,86.22,220719,,,D*72
$GPGGA,164719.500,4305.1484,N,07740.7898,W,2,10,0.94,170.1,M,-34.4,M,0000,0000*50
$GPRMC,164719.750,A,4305.1485,N,07740.7885,W,12.54,88.00,220719,,,D*76
$GPGGA,164720.000,4305.1485,N,07740.7872,W,2,10,0.94,170.0,M,-34.4,M,0000,0000*5B
$GPRMC,164720.250,A,4305.1485,N,07740.7859,W,12.62,88.00,220719,,,D*7D
$GPGGA,164720.500,4305.1485,N,07740.7847,W,2,10,0.94,169.9,M,-34.4,M,0000,0000*59
$GPRMC,164720.750,A,4305.1485,N,07740.7834,W,12.76,87.11,220719,,,D*79
$GPGGA,164721.000,4305.1486,N,07740.7822,W,2,10,0.94,169.7,M,-34.4,M,0000,0000*53
$GPRMC,164721.250,A,4305.1486,N,07740.7810,W,12.57,87.75,220719,,,D*79
$GPGGA,164721.500,4305.1485,N,07740.7799,W,2,10,0.94,169.6,M,-34.4,M,0000,0000*5B
$GPRMC,164721.750,A,4305.1485,N,07740.7788,W,11.95,87.53,220719,,,D*78
$GPGGA,164722.000,4305.1485,N,07740.7777,W,2,10,0.94,169.5,M,-34.4,M,0000,0000*5E
$GPRMC,164722.250,A,4305.1485,N,07740.7766,W,11.30,89.59,220719,,,D*75
$GPGGA,164722.500,4305.1484,N,07740.7756,W,2,10,0.94,169.5,M,-34.4,M,0000,0000*59
$GPRMC,164722.750,A,4305.1484,N,07740.7745,W,11.22,90.56,220719,,,D*74
$GPGGA,164723.000,4305.1484,N,07740.7734,W,2,10,0.94,169.5,M,-34.4,M,0000,0000*59
$GPRMC,164723.250,A,4305.1484,N,07740.7723,W,11.24,91.72,220719,,,D*71
$GPGGA,164723.500,4305.1483,N,07740.7713,W,2,10,0.94,169.5,M,-34.4,M,0000,0000*5E
$GPRMC,164723.750,A,4305.1482,N,07740.7702,W,11.25,92.88,220719,,,D*76
$GPGGA,164724.000,4305.1481,N,07740.7692,W,2,10,0.94,169.5,M,-34.4,M,0000,0000*56
$GPRMC,164724.250,A,4305.1481,N,07740.7681,W,10.97,95.26,220719,,,D*76
$GPGGA,164724.500,4305.1480,N,07740.7671,W,2,10,0.94,169.6,M,-34.4,M,0000,0000*5C
$GPRMC,164724.750,A,4305.1479,N,07740.7662,W,10.17,98.51,220719,,,D*7C
$GPGGA,164725.000,4305.1479,N,07740.7654,W,2,10,0.94,169.5,M,-34.4,M,0000,0000*5A
$GPRMC,164725.250,A,4305.1478,N,07740.7646,W,9.06,102.54,220719,,,D*70
$GPGGA,164725.500,4305.1477,N,07740.7638,W,2,10,0.94,169.3,M,-34.4,M,0000,0000*5D
$GPRMC,164725.750,A,4305.1472,N,07740.7638,W,7.77,105.37,220719,,,D*7C
$GPGGA,164726.000,4305.1470,N,07740.7634,W,2,10,0.94,169.2,M,-34.4,M,0000,0000*51
$GPRMC,164726.250,A,4305.1470,N,07740.7630,W,6.14,109.74,220719,,,D*7F
$GPGGA,164726.500,4305.1469,N,07740.7627,W,2,10,0.94,169.2,M,-34.4,M,0000,0000*5E
$GPRMC,164726.750,A,4305.1468,N,07740.7625,W,4.63,116.05,220719,,,D*7D
$GPGGA,164727.000,4305.1467,N,07740.7623,W,2,10,0.94,169.2,M,-34.4,M,0000,0000*50
$GPRMC,164727.250,A,4305.1466,N,07740.7623,W,3.05,120.99,220719,,,D*76
$GPGGA,164727.500,4305.1464,N,07740.7624,W,2,10,0.91,169.2,M,-34.4,M,0000,0000*54
$GPRMC,164727.750,A,4305.1463,N,07740.7624,W,2.47,120.99,220719,,,D*76
$GPGGA,164728.000,4305.1461,N,07740.7624,W,2,10,0.91,169.1,M,-34.4,M,0000,0000*58
$GPRMC,164728.250,A,4305.1461,N,07740.7623,W,2.29,120.99,220719,,,D*71
$GPGGA,164728.500,4305.1458,N,07740.7622,W,2,10,0.91,169.1,M,-34.4,M,0000,0000*51
$GPRMC,164728.750,A,4305.1457,N,07740.7621,W,3.06,115.00,220719,,,D*79
$GPGGA,164729.000,4305.1455,N,07740.7619,W,2,10,0.91,169.1,M,-34.4,M,0000,0000*50
$GPRMC,164729.250,A,4305.1454,N,07740.7618,W,4.52,108.96,220719,,,D*71
$GPGGA,164729.500,4305.1455,N,07740.7615,W,2,10,0.94,169.1,M,-34.4,M,0000,0000*5C
$GPRMC,164729.750,A,4305.1455,N,07740.7610,W,5.83,107.31,220719,,,D*72
$GPGGA,164730.000,4305.1456,N,07740.7605,W,2,10,0.94,169.1,M,-34.4,M,0000,0000*53
$GPRMC,164730.250,A,4305.1457,N,07740.7599,W,7.26,102.18,220719,,,D*7C
$GPGGA,164730.500,4305.1458,N,07740.7594,W,2,09,1.28,169.2,M,-34.4,M,0000,0000*5E
$GPRMC,164730.750,A,4305.1458,N,07740.7588,W,7.82,95.42,220719,,,D*48
$GPGGA,164731.000,4305.1459,N,07740.7581,W,2,09,1.28,169.2,M,-34.4,M,0000,0000*5F
$GPRMC,164731.250,A,4305.1462,N,07740.7574,W,8.80,85.54,220719,,,D*4D
$GPGGA,164731.500,4305.1465,N,07740.7566,W,2,09,1.28,169.1,M,-34.4,M,0000,0000*5F
$GPRMC,164731.750,A,4305.1467,N,07740.7558,W,9.60,76.00,220719,,,D*41
$GPGGA,164732.000,4305.1472,N,07740.7551,W,2,10,0.94,169.0,M,-34.4,M,0000,0000*54
$GPRMC,164732.250,A,4305.1476,N,07740.7544,W,10.19,62.96,220719,,,D*76
$GPGGA,164732.500,4305.1480,N,07740.7536,W,2,10,0.94,168.9,M,-34.4,M,0000,0000*55
$GPRMC,164732.750,A,4305.1485,N,07740.7527,W,11.34,55.07,220719,,,D*78
$GPGGA,164733.000,4305.1490,N,07740.7518,W,2,10,0.94,168.9,M,-34.4,M,0000,0000*5C
$GPRMC,164733.250,A,4305.1497,N,07740.7510,W,12.22,48.12,220719,,,D*77
$GPGGA,164733.500,4305.1505,N,07740.7499,W,2,10,0.94,168.9,M,-34.4,M,0000,0000*5C
$GPRMC,164733.750,A,4305.1513,N,07740.7490,W,12.43,42.82,220719,,,D*72
$GPGGA,164734.000,4305.1522,N,07740.7482,W,2,10,0.94,168.9,M,-34.4,M,0000,0000*51
$GPRMC,164734.250,A,4305.1533,N,07740.7475,W,12.23,33.42,220719,,,D*75
$GPGGA,164734.500,4305.1545,N,07740.7468,W,2,09,1.28,169.2,M,-34.4,M,0000,0000*55
$GPRMC,164734.750,A,4305.1556,N,07740.7462,W,13.03,28.15,220719,,,D*7E
$GPGGA,164735.000,4305.1566,N,07740.7457,W,2,10,0.91,169.2,M,-34.4,M,0000,0000*57
$GPRMC,164735.250,A,4305.1577,N,07740.7454,W,13.99,19.67,220719,,,D*78
$GPGGA,164735.500,4305.1589,N,07740.7452,W,2,10,0.94,169.0,M,-34.4,M,0000,0000*51
$GPRMC,164735.750,A,4305.1601,N,07740.7450,W,15.64,11.75,220719,,,D*74
$GPGGA,164736.000,4305.1614,N,07740.7448,W,2,10,0.94,168.9,M,-34.4,M,0000,0000*53
$GPRMC,164736.250,A,4305.1627,N,07740.7448,W,17.51,5.77,220719,,,D*4C
$GPGGA,164736.500,4305.1639,N,07740.7447,W,2,10,0.94,168.7,M,-34.4,M,0000,0000*58
$GPRMC,164736.750,A,4305.1652,N,07740.7447,W,18.16,2.92,220719,,,D*44
$GPGGA,164737.000,4305.1665,N,07740.7447,W,2,10,0.94,168.6,M,-34.4,M,0000,0000*54
$GPRMC,164737.250,A,4305.1678,N,07740.7447,W,18.88,1.37,220719,,,D*43
$GPGGA,164737.500,4305.1692,N,07740.7447,W,2,10,0.94,168.5,M,-34.4,M,0000,0000*5A
$GPRMC,164737.750,A,4305.1706,N,07740.7447,W,19.19,0.11,220719,,,D*42
$GPGGA,164738.000,4305.1720,N,07740.7447,W,2,10,0.94,168.3,M,-34.4,M,0000,0000*5E
$GPRMC,164738.250,A,4305.1734,N,07740.7447,W,19.42,359.62,220719,,,D*4C
$GPGGA,164738.500,4305.1748,N,07740.7448,W,2,10,0.94,168.0,M,-34.4,M,0000,0000*59
$GPRMC,164738.750,A,4305.1761,N,07740.7448,W,19.66,358.95,220719,,,D*49
$GPGGA,164739.000,4305.1776,N,07740.7448,W,2,10,0.94,167.8,M,-34.4,M,0000,0000*57
$GPRMC,164739.250,A,4305.1789,N,07740.7449,W,19.85,358.87,220719,,,D*44
$GPGGA,164739.500,4305.1803,N,07740.7450,W,2,10,0.94,167.4,M,-34.4,M,0000,0000*5A
$GPRMC,164739.750,A,4305.1817,N,07740.7450,W,19.85,358.21,220719,,,D*4D
$GPGGA,164740.000,4305.1831,N,07740.7450,W,2,10,0.94,167.1,M,-34.4,M,0000,0000*55
$GPRMC,164740.250,A,4305.1845,N,07740.7451,W,19.85,358.51,220719,,,D*47
$GPGGA,164740.500,4305.1859,N,07740.7451,W,2,10,0.94,166.8,M,-34.4,M,0000,0000*57
$GPRMC,164740.750,A,4305.1873,N,07740.7451,W,19.57,358.52,220719,,,D*4B
$GPGGA,164741.000,4305.1887,N,07740.7451,W,2,10,0.94,166.5,M,-34.4,M,0000,0000*5D
$GPRMC,164741.250,A,4305.1901,N,07740.7452,W,19.61,357.99,220719,,,D*45
$GPGGA,164741.500,4305.1916,N,07740.7453,W,2,10,0.94,166.3,M,-34.4,M,0000,0000*55
$GPRMC,164741.750,A,4305.1930,N,07740.7453,W,19.69,357.56,220719,,,D*48
$GPGGA,164742.000,4305.1944,N,07740.7454,W,2,10,0.94,166.0,M,-34.4,M,0000,0000*50
$GPRMC,164742.250,A,4305.1958,N,07740.7454,W,19.66,357.71,220719,,,D*4D
$GPGGA,164742.500,4305.1972,N,07740.7455,W,2,10,0.94,165.6,M,-34.4,M,0000,0000*54
$GPRMC,164742.750,A,4305.1985,N,07740.7455,W,19.63,357.68,220719,,,D*44
$GPGGA,164743.000,4305.1999,N,07740.7456,W,2,10,0.94,165.3,M,-34.4,M,0000,0000*53
$GPRMC,164743.250,A,4305.2013,N,07740.7457,W,19.96,357.49,220719,,,D*4E
$GPGGA,164743.500,4305.2028,N,07740.7457,W,2,10,0.94,165.0,M,-34.4,M,0000,0000*54
$GPRMC,164743.750,A,4305.2042,N,07740.7458,W,20.24,358.03,220719,,,D*42
$GPGGA,164744.000,4305.2056,N,07740.7458,W,2,10,0.94,164.7,M,-34.4,M,0000,0000*56
$GPRMC,164744.250,A,4305.2071,N,07740.7459,W,20.33,358.65,220719,,,D*47
$GPGGA,164744.500,4305.2085,N,07740.7459,W,2,10,0.94,164.5,M,-34.4,M,0000,0000*5E
$GPRMC,164744.750,A,4305.2099,N,07740.7460,W,20.34,358.65,220719,,,D*49
$GPGGA,164745.000,4305.2112,N,07740.7460,W,2,10,0.94,164.1,M,-34.4,M,0000,0000*5B
$GPRMC,164745.250,A,4305.2126,N,07740.7460,W,20.26,358.82,220719,,,D*42
$GPGGA,164745.500,4305.2140,N,07740.7461,W,2,10,0.94,163.7,M,-34.4,M,0000,0000*59
$GPRMC,164745.750,A,4305.2155,N,07740.7461,W,20.24,359.25,220719,,,D*4C
$GPGGA,164746.000,4305.2170,N,07740.7461,W,2,10,0.94,163.5,M,-34.4,M,0000,0000*5E
$GPRMC,164746.250,A,4305.2184,N,07740.7461,W,20.57,0.19,220719,,,D*42
$GPGGA,164746.500,4305.2198,N,07740.7461,W,2,10,0.94,163.1,M,-34.4,M,0000,0000*59
$GPRMC,164746.750,A,4305.2211,N,07740.7461,W,20.16,0.06,220719,,,D*43
$GPGGA,164747.000,4305.2225,N,07740.7461,W,2,10,0.94,162.8,M,-34.4,M,0000,0000*50
$GPRMC,164747.250,A,4305.2239,N,07740.7461,W,20.06,0.36,220719,,,D*4F
$GPGGA,164747.500,4305.2252,N,07740.7461,W,2,10,0.94,162.5,M,-34.4,M,0000,0000*58
$GPRMC,164747.750,A,4305.2266,N,07740.7461,W,19.99,0.04,220719,,,D*4D
$GPGGA,164748.000,4305.2280,N,07740.7461,W,2,10,0.94,162.2,M,-34.4,M,0000,0000*5A
$GPRMC,164748.250,A,4305.2293,N,07740.7462,W,19.92,359.41,220719,,,D*4B
$GPGGA,164748.500,4305.2307,N,07740.7462,W,2,10,0.94,161.9,M,-34.4,M,0000,0000*5A
$GPRMC,164748.750,A,4305.2321,N,07740.7462,W,19.83,359.17,220719,,,D*45
$GPGGA,164749.000,4305.2335,N,07740.7462,W,2,10,0.94,161.6,M,-34.4,M,0000,0000*50
$GPRMC,164749.250,A,4305.2348,N,07740.7463,W,19.21,358.92,220719,,,D*4B
$GPGGA,164749.500,4305.2362,N,07740.7463,W,2,10,0.94,161.4,M,-34.4,M,0000,0000*54
$GPRMC,164749.750,A,4305.2375,N,07740.7464,W,18.50,358.98,220719,,,D*4A
$GPGGA,164750.000,4305.2387,N,07740.7464,W,2,10,0.94,161.2,M,-34.4,M,0000,0000*53
$GPRMC,164750.250,A,4305.2399,N,07740.7464,W,17.09,359.04,220719,,,D*42
$GPGGA,164750.500,4305.2410,N,07740.7465,W,2,10,0.94,161.0,M,-34.4,M,0000,0000*5C
$GPRMC,164750.750,A,4305.2422,N,07740.7466,W,15.82,359.05,220719,,,D*42
$GPGGA,164751.000,4305.2433,N,07740.7468,W,2,10,0.94,160.8,M,-34.4,M,0000,0000*5D
$GPRMC,164751.250,A,4305.2442,N,07740.7469,W,13.54,357.83,220719,,,D*42
$GPGGA,164751.500,4305.2451,N,07740.7470,W,2,10,0.94,160.8,M,-34.4,M,0000,0000*55
$GPRMC,164751.750,A,4305.2459,N,07740.7470,W,11.33,0.42,220719,,,D*4A
$GPGGA,164752.000,4305.2465,N,07740.7470,W,2,10,0.94,160.7,M,-34.4,M,0000,0000*5B
$GPRMC,164752.250,A,4305.2469,N,07740.7470,W,8.52,1.00,220719,,,D*77
$GPGGA,164752.500,4305.2474,N,07740.7470,W,2,10,0.94,160.6,M,-34.4,M,0000,0000*5F
$GPRMC,164752.750,A,4305.2478,N,07740.7469,W,6.78,4.39,220719,,,D*73
$GPGGA,164753.000,4305.2480,N,07740.7468,W,2,10,0.94,160.4,M,-34.4,M,0000,0000*5B
$GPRMC,164753.250,A,4305.2482,N,07740.7469,W,4.52,3.53,220719,,,D*73
$GPGGA,164753.500,4305.2484,N,07740.7469,W,2,10,0.94,160.3,M,-34.4,M,0000,0000*5C
$GPRMC,164753.750,A,4305.2486,N,07740.7469,W,3.67,1.52,220719,,,D*70
$GPGGA,164754.000,4305.2487,N,07740.7469,W,2,10,0.94,160.1,M,-34.4,M,0000,0000*5F
$GPRMC,164754.250,A,4305.2490,N,07740.7470,W,4.56,1.23,220719,,,D*7E
$GPGGA,164754.500,4305.2494,N,07740.7470,W,2,10,0.94,160.3,M,-34.4,M,0000,0000*52
$GPRMC,164754.750,A,4305.2498,N,07740.7470,W,6.19,358.21,220719,,,D*77
$GPGGA,164755.000,4305.2502,N,07740.7471,W,2,10,0.94,160.4,M,-34.4,M,0000,0000*5E
$GPRMC,164755.250,A,4305.2506,N,07740.7472,W,8.00,358.95,220719,,,D*7E
$GPGGA,164755.500,4305.2512,N,07740.7473,W,2,10,0.94,160.5,M,-34.4,M,0000,0000*59
$GPRMC,164755.750,A,4305.2518,N,07740.7474,W,9.67,358.29,220719,,,D*75
$GPGGA,164756.000,4305.2524,N,07740.7474,W,2,10,0.94,160.6,M,-34.4,M,0000,0000*5E
$GPRMC,164756.250,A,4305.2531,N,07740.7475,W,11.29,359.02,220719,,,D*42
$GPGGA,164756.500,4305.2539,N,07740.7475,W,2,10,0.94,160.6,M,-34.4,M,0000,0000*56
$GPRMC,164756.750,A,4305.2548,N,07740.7475,W,12.55,358.86,220719,,,D*4C
$GPGGA,164757.000,4305.2557,N,07740.7475,W,2,10,0.94,160.6,M,-34.4,M,0000,0000*5A
$GPRMC,164757.250,A,4305.2566,N,07740.7475,W,14.08,359.39,220719,,,D*4F
$GPGGA,164757.500,4305.2576,N,07740.7475,W,2,10,0.94,160.8,M,-34.4,M,0000,0000*52
$GPRMC,164757.750,A,4305.2587,N,07740.7476,W,15.35,359.13,220719,,,D*41
$GPGGA,164758.000,4305.2598,N,07740.7476,W,2,10,0.94,160.7,M,-34.4,M,0000,0000*54
$GPRMC,164758.250,A,4305.2609,N,07740.7476,W,16.81,358.87,220719,,,D*4E
$GPGGA,164758.500,4305.2621,N,07740.7477,W,2,10,0.94,160.7,M,-34.4,M,0000,0000*51
$GPRMC,164758.750,A,4305.2634,N,07740.7477,W,17.97,359.25,220719,,,D*4B
$GPGGA,164759.000,4305.2646,N,07740.7477,W,2,10,0.94,160.7,M,-34.4,M,0000,0000*54
$GPRMC,164759.250,A,4305.2658,N,07740.7479,W,19.11,359.39,220719,,,D*46
$GPGGA,164759.500,4305.2672,N,07740.7478,W,2,10,0.94,160.8,M,-34.4,M,0000,0000*56
$GPRMC,164759.750,A,4305.2686,N,07740.7479,W,20.20,358.69,220719,,,D*4C
$GPGGA,164800.000,4305.2700,N,07740.7480,W,2,10,0.94,160.8,M,-34.4,M,0000,0000*53
$GPRMC,164800.250,A,4305.2714,N,07740.7481,W,21.12,358.36,220719,,,D*4D
$GPGGA,164800.500,4305.2729,N,07740.7482,W,2,10,0.94,160.9,M,-34.4,M,0000,0000*5E
$GPRMC,164800.750,A,4305.2743,N,07740.7483,W,21.87,358.79,220719,,,D*4F
$GPGGA,164801.000,4305.2758,N,07740.7484,W,2,10,0.94,160.9,M,-34.4,M,0000,0000*5A
$GPRMC,164801.250,A,4305.2774,N,07740.7484,W,22.53,358.43,220719,,,D*4B
$GPGGA,164801.500,4305.2790,N,07740.7485,W,2,10,0.94,160.8,M,-34.4,M,0000,0000*5B
$GPRMC,164801.750,A,4305.2806,N,07740.7485,W,23.14,358.48,220719,,,D*4C
$GPGGA,164802.000,4305.2823,N,07740.7486,W,2,10,0.94,160.9,M,-34.4,M,0000,0000*58
$GPRMC,164802.250,A,4305.2839,N,07740.7486,W,23.54,359.20,220719,,,D*4E
$GPGGA,164802.500,4305.2856,N,07740.7486,W,2,10,0.94,160.9,M,-34.4,M,0000,0000*5F
$GPRMC,164802.750,A,4305.2872,N,07740.7487,W,23.29,358.90,220719,,,D*45
$GPGGA,164803.000,4305.2888,N,07740.7487,W,2,10,0.94,160.9,M,-34.4,M,0000,0000*59
$GPRMC,164803.250,A,4305.2904,N,07740.7487,W,22.93,358.90,220719,,,D*41
$GPGGA,164803.500,4305.2920,N,07740.7487,W,2,10,0.94,160.9,M,-34.4,M,0000,0000*5F
$GPRMC,164803.750,A,4305.2935,N,07740.7488,W,22.56,359.07,220719,,,D*4F
$GPGGA,164804.000,4305.2951,N,07740.7487,W,2,10,0.94,160.9,M,-34.4,M,0000,0000*5B
$GPRMC,164804.250,A,4305.2966,N,07740.7487,W,22.10,359.50,220719,,,D*44
$GPGGA,164804.500,4305.2981,N,07740.7487,W,2,10,0.94,160.8,M,-34.4,M,0000,0000*52
$GPRMC,164804.750,A,4305.2996,N,07740.7488,W,21.58,359.34,220719,,,D*4C
$GPGGA,164805.000,4305.3012,N,07740.7488,W,2,10,0.94,160.7,M,-34.4,M,0000,0000*54
$GPRMC,164805.250,A,4305.3027,N,07740.7488,W,21.41,359.17,220719,,,D*43
$GPGGA,164805.500,4305.3041,N,07740.7487,W,2,10,0.94,160.5,M,-34.4,M,0000,0000*5A
$GPRMC,164805.750,A,4305.3056,N,07740.7487,W,20.95,358.96,220719,,,D*4F
$GPGGA,164806.000,4305.3071,N,07740.7487,W,2,10,0.94,160.4,M,-34.4,M,0000,0000*5E
$GPRMC,164806.250,A,4305.3085,N,07740.7488,W,20.55,358.93,220719,,,D*41
$GPGGA,164806.500,4305.3100,N,07740.7488,W,2,10,0.94,160.3,M,-34.4,M,0000,0000*54
$GPRMC,164806.750,A,4305.3114,N,07740.7489,W,20.13,358.73,220719,,,D*40
$GPGGA,164807.000,4305.3128,N,07740.7489,W,2,10,0.94,160.2,M,-34.4,M,0000,0000*5A
$GPRMC,164807.250,A,4305.3141,N,07740.7489,W,19.79,358.44,220719,,,D*46
$GPGGA,164807.500,4305.3155,N,07740.7490,W,2,10,0.94,160.2,M,-34.4,M,0000,0000*5D
$GPRMC,164807.750,A,4305.3168,N,07740.7491,W,19.49,358.70,220719,,,D*45
$GPGGA,164808.000,4305.3182,N,07740.7491,W,2,10,0.94,160.2,M,-34.4,M,0000,0000*5C
$GPRMC,164808.250,A,4305.3195,N,07740.7491,W,18.84,358.69,220719,,,D*45
$GPGGA,164808.500,4305.3208,N,07740.7492,W,2,10,0.94,160.2,M,-34.4,M,0000,0000*5B
$GPRMC,164808.750,A,4305.3221,N,07740.7492,W,18.13,358.73,220719,,,D*4A
$GPGGA,164809.000,4305.3233,N,07740.7493,W,2,10,0.94,160.2,M,-34.4,M,0000,0000*56
$GPRMC,164809.250,A,4305.3245,N,07740.7493,W,17.11,358.84,220719,,,D*48
$GPGGA,164809.500,4305.3257,N,07740.7493,W,2,10,0.94,160.2,M,-34.4,M,0000,0000*51
$GPRMC,164809.750,A,4305.3268,N,07740.7494,W,15.75,359.04,220719,,,D*4C
$GPGGA,164810.000,4305.3279,N,07740.7494,W,2,09,0.99,160.1,M,-34.4,M,0000,0000*51
$GPRMC,164810.250,A,4305.3288,N,07740.7494,W,14.30,358.97,220719,,,D*44
$GPGGA,164810.500,4305.3298,N,07740.7494,W,2,09,0.99,160.1,M,-34.4,M,0000,0000*5B
$GPRMC,164810.750,A,4305.3307,N,07740.7493,W,13.05,358.77,220719,,,D*4F
$GPGGA,164811.000,4305.3315,N,07740.7494,W,2,09,0.99,160.1,M,-34.4,M,0000,0000*5B
$GPRMC,164811.250,A,4305.3324,N,07740.7494,W,12.00,358.55,220719,,,D*49
$GPGGA,164811.500,4305.3331,N,07740.7494,W,2,09,0.99,160.1,M,-34.4,M,0000,0000*58
$GPRMC,164811.750,A,4305.3338,N,07740.7494,W,9.69,359.67,220719,,,D*74
$GPGGA,164812.000,4305.3345,N,07740.7494,W,2,09,0.99,160.1,M,-34.4,M,0000,0000*5D
$GPRMC,164812.250,A,4305.3350,N,07740.7494,W,7.14,0.08,220719,,,D*7E
$GPGGA,164812.500,4305.3355,N,07740.7494,W,2,09,0.98,160.1,M,-34.4,M,0000,0000*58
$GPRMC,164812.750,A,4305.3359,N,07740.7494,W,4.40,0.37,220719,,,D*7C
$GPGGA,164813.000,4305.3361,N,07740.7494,W,2,09,0.98,160.0,M,-34.4,M,0000,0000*5A
$GPRMC,164813.250,A,4305.3364,N,07740.7494,W,2.65,1.69,220719,,,D*7D
$GPGGA,164813.500,4305.3365,N,07740.7494,W,2,09,0.99,160.0,M,-34.4,M,0000,0000*5A
$GPRMC,164813.750,A,4305.3367,N,07740.7494,W,2.50,1.69,220719,,,D*7D
$GPGGA,164814.000,4305.3369,N,07740.7493,W,2,09,0.99,159.9,M,-34.4,M,0000,0000*50
$GPRMC,164814.250,A,4305.3372,N,07740.7493,W,4.16,0.39,220719,,,D*7C
$GPGGA,164814.500,4305.3375,N,07740.7493,W,2,09,0.99,159.9,M,-34.4,M,0000,0000*58
$GPRMC,164814.750,A,4305.3379,N,07740.7493,W,5.09,358.55,220719,,,D*79
$GPGGA,164815.000,4305.3383,N,07740.7493,W,2,09,0.99,159.8,M,-34.4,M,0000,0000*54
$GPRMC,164815.250,A,4305.3386,N,07740.7493,W,5.61,357.64,220719,,,D*7E
$GPGGA,164815.500,4305.3391,N,07740.7494,W,2,10,0.94,159.7,M,-34.4,M,0000,0000*5F
$GPRMC,164815.750,A,4305.3395,N,07740.7496,W,6.72,349.42,220719,,,D*76
$GPGGA,164816.000,4305.3401,N,07740.7500,W,2,09,0.99,159.7,M,-34.4,M,0000,0000*5E
$GPRMC,164816.250,A,4305.3406,N,07740.7504,W,8.46,335.24,220719,,,D*75
$GPGGA,164816.500,4305.3411,N,07740.7509,W,2,09,0.98,159.6,M,-34.4,M,0000,0000*53
$GPRMC,164816.750,A,4305.3416,N,07740.7516,W,9.40,322.14,220719,,,D*70
$GPGGA,164817.000,4305.3422,N,07740.7523,W,2,09,0.99,159.6,M,-34.4,M,0000,0000*5E
$GPRMC,164817.250,A,4305.3428,N,07740.7531,W,11.09,318.17,220719,,,D*42
$GPGGA,164817.500,4305.3434,N,07740.7539,W,2,09,0.99,159.7,M,-34.4,M,0000,0000*56
$GPRMC,164817.750,A,4305.3439,N,07740.7549,W,11.50,313.69,220719,,,D*46
$GPGGA,164818.000,4305.3445,N,07740.7559,W,2,09,0.99,159.6,M,-34.4,M,0000,0000*5D
$GPRMC,164818.250,A,4305.3448,N,07740.7572,W,12.43,301.71,220719,,,D*49
$GPGGA,164818.500,4305.3447,N,07740.7592,W,2,09,0.99,159.4,M,-34.4,M,0000,0000*5F
$GPRMC,164818.750,A,4305.3448,N,07740.7611,W,15.35,283.76,220719,,,D*40
$GPGGA,164819.000,4305.3448,N,07740.7630,W,2,10,0.94,159.4,M,-34.4,M,0000,0000*5A
$GPRMC,164819.250,A,4305.3448,N,07740.7648,W,17.32,276.55,220719,,,D*46
$GPGGA,164819.500,4305.3448,N,07740.7668,W,2,10,0.94,159.3,M,-34.4,M,0000,0000*55
$GPRMC,164819.750,A,4305.3448,N,07740.7687,W,18.81,272.55,220719,,,D*43
$GPGGA,164820.000,4305.3448,N,07740.7707,W,2,10,0.94,159.3,M,-34.4,M,0000,0000*52
$GPRMC,164820.250,A,4305.3447,N,07740.7726,W,19.47,270.13,220719,,,D*42
$GPGGA,164820.500,4305.3446,N,07740.7746,W,2,10,0.94,159.2,M,-34.4,M,0000,0000*5D
$GPRMC,164820.750,A,4305.3445,N,07740.7766,W,20.19,267.60,220719,,,D*42
$GPGGA,164821.000,4305.3443,N,07740.7786,W,2,10,0.94,159.0,M,-34.4,M,0000,0000*52
$GPRMC,164821.250,A,4305.3442,N,07740.7806,W,20.67,265.81,220719,,,D*4C
$GPGGA,164821.500,4305.3441,N,07740.7826,W,2,10,0.94,158.9,M,-34.4,M,0000,0000*58
$GPRMC,164821.750,A,4305.3439,N,07740.7848,W,21.10,264.84,220719,,,D*4A
$GPGGA,164822.000,4305.3437,N,07740.7870,W,2,10,0.94,158.8,M,-34.4,M,0000,0000*5D
$GPRMC,164822.250,A,4305.3435,N,07740.7891,W,21.71,264.33,220719,,,D*4F
$GPGGA,164822.500,4305.3434,N,07740.7912,W,2,10,0.94,158.8,M,-34.4,M,0000,0000*5E
$GPRMC,164822.750,A,4305.3433,N,07740.7933,W,22.19,264.01,220719,,,D*49
$GPGGA,164823.000,4305.3431,N,07740.7956,W,2,10,0.94,158.7,M,-34.4,M,0000,0000*50
$GPRMC,164823.250,A,4305.3429,N,07740.7979,W,22.58,263.85,220719,,,D*46
$GPGGA,164823.500,4305.3427,N,07740.8001,W,2,10,0.94,158.8,M,-34.4,M,0000,0000*59
$GPRMC,164823.750,A,4305.3426,N,07740.8023,W,22.74,264.29,220719,,,D*4A
$GPGGA,164824.000,4305.3425,N,07740.8045,W,2,10,0.94,158.7,M,-34.4,M,0000,0000*56
$GPRMC,164824.250,A,4305.3424,N,07740.8068,W,22.66,265.42,220719,,,D*4A
$GPGGA,164824.500,4305.3423,N,07740.8091,W,2,10,0.94,158.8,M,-34.4,M,0000,0000*53
$GPRMC,164824.750,A,4305.3423,N,07740.8115,W,22.93,266.00,220719,,,D*4C
$GPGGA,164825.000,4305.3423,N,07740.8138,W,2,10,0.94,158.9,M,-34.4,M,0000,0000*54
$GPRMC,164825.250,A,4305.3424,N,07740.8162,W,23.17,267.52,220719,,,D*44
$GPGGA,164825.500,4305.3424,N,07740.8186,W,2,10,0.94,159.0,M,-34.4,M,0000,0000*5B
$GPRMC,164825.750,A,4305.3424,N,07740.8209,W,23.16,268.61,220719,,,D*41
$GPGGA,164826.000,4305.3425,N,07740.8232,W,2,10,0.94,159.2,M,-34.4,M,0000,0000*52
$GPRMC,164826.250,A,4305.3426,N,07740.8256,W,23.06,269.38,220719,,,D*43
$GPGGA,164826.500,4305.3426,N,07740.8278,W,2,10,0.94,159.2,M,-34.4,M,0000,0000*5A
$GPRMC,164826.750,A,4305.3427,N,07740.8301,W,22.79,269.58,220719,,,D*4B
$GPGGA,164827.000,4305.3427,N,07740.8324,W,2,10,0.94,159.2,M,-34.4,M,0000,0000*57
$GPRMC,164827.250,A,4305.3428,N,07740.8347,W,22.52,270.06,220719,,,D*48
$GPGGA,164827.500,4305.3428,N,07740.8369,W,2,10,0.94,159.2,M,-34.4,M,0000,0000*54
$GPRMC,164827.750,A,4305.3427,N,07740.8390,W,22.25,269.44,220719,,,D*46
$GPGGA,164828.000,4305.3427,N,07740.8412,W,2,10,0.94,159.2,M,-34.4,M,0000,0000*5A
$GPRMC,164828.250,A,4305.3428,N,07740.8433,W,21.88,269.92,220719,,,D*42
$GPGGA,164828.500,4305.3428,N,07740.8454,W,2,10,0.94,159.2,M,-34.4,M,0000,0000*52
$GPRMC,164828.750,A,4305.3427,N,07740.8475,W,21.41,269.69,220719,,,D*4B
$GPGGA,164829.000,4305.3427,N,07740.8495,W,2,10,0.94,159.3,M,-34.4,M,0000,0000*55
$GPRMC,164829.250,A,4305.3426,N,07740.8515,W,20.93,269.99,220719,,,D*48
$GPGGA,164829.500,4305.3426,N,07740.8535,W,2,09,0.99,159.4,M,-34.4,M,0000,0000*58
$GPRMC,164829.750,A,4305.3427,N,07740.8554,W,20.54,271.37,220719,,,D*4F
$GPGGA,164830.000,4305.3428,N,07740.8573,W,2,09,0.99,159.3,M,-34.4,M,0000,0000*5E
$GPRMC,164830.250,A,4305.3429,N,07740.8593,W,20.30,272.55,220719,,,D*42
$GPGGA,164830.500,4305.3430,N,07740.8612,W,2,10,0.94,159.4,M,-34.4,M,0000,0000*54
$GPRMC,164830.750,A,4305.3431,N,07740.8631,W,19.99,272.46,220719,,,D*4E
$GPGGA,164831.000,4305.3432,N,07740.8650,W,2,10,0.94,159.4,M,-34.4,M,0000,0000*54
$GPRMC,164831.250,A,4305.3434,N,07740.8668,W,19.72,273.14,220719,,,D*40
$GPGGA,164831.500,4305.3435,N,07740.8686,W,2,09,0.99,159.3,M,-34.4,M,0000,0000*5F
$GPRMC,164831.750,A,4305.3437,N,07740.8704,W,19.43,274.45,220719,,,D*4C
$GPGGA,164832.000,4305.3439,N,07740.8721,W,2,10,0.94,159.3,M,-34.4,M,0000,0000*5C
$GPRMC,164832.250,A,4305.3440,N,07740.8738,W,18.72,276.14,220719,,,D*40
$GPGGA,164832.500,4305.3442,N,07740.8755,W,2,10,0.94,159.3,M,-34.4,M,0000,0000*56
$GPRMC,164832.750,A,4305.3444,N,07740.8772,W,18.30,278.09,220719,,,D*4B
$GPGGA,164833.000,4305.3446,N,07740.8788,W,2,10,0.94,159.2,M,-34.4,M,0000,0000*57
$GPRMC,164833.250,A,4305.3449,N,07740.8804,W,17.87,280.30,220719,,,D*42
$GPGGA,164833.500,4305.3452,N,07740.8819,W,2,09,0.99,159.0,M,-34.4,M,0000,0000*57
$GPRMC,164833.750,A,4305.3455,N,07740.8835,W,17.10,283.92,220719,,,D*4D
$GPGGA,164834.000,4305.3459,N,07740.8847,W,2,09,0.99,158.8,M,-34.4,M,0000,0000*5C
$GPRMC,164834.250,A,4305.3464,N,07740.8859,W,16.25,288.96,220719,,,D*4F
$GPGGA,164834.500,4305.3469,N,07740.8872,W,2,09,0.99,158.8,M,-34.4,M,0000,0000*5C
$GPRMC,164834.750,A,4305.3475,N,07740.8885,W,15.73,293.11,220719,,,D*4E
$GPGGA,164835.000,4305.3481,N,07740.8898,W,2,10,0.94,158.7,M,-34.4,M,0000,0000*50
$GPRMC,164835.250,A,4305.3485,N,07740.8911,W,15.13,297.85,220719,,,D*46
$GPGGA,164835.500,4305.3490,N,07740.8923,W,2,09,0.98,158.5,M,-34.4,M,0000,0000*52
$GPRMC,164835.750,A,4305.3494,N,07740.8934,W,14.32,301.50,220719,,,D*40
$GPGGA,164836.000,4305.3499,N,07740.8944,W,2,10,0.94,158.2,M,-34.4,M,0000,0000*5F
$GPRMC,164836.250,A,4305.3505,N,07740.8954,W,13.10,305.70,220719,,,D*48
$GPGGA,164836.500,4305.3511,N,07740.8962,W,2,10,0.94,157.9,M,-34.4,M,0000,0000*5B
$GPRMC,164836.750,A,4305.3516,N,07740.8971,W,12.08,310.48,220719,,,D*4F
$GPGGA,164837.000,4305.3521,N,07740.8977,W,2,09,0.98,157.8,M,-34.4,M,0000,0000*5D
$GPRMC,164837.250,A,4305.3524,N,07740.8982,W,9.75,313.43,220719,,,D*7E
$GPGGA,164837.500,4305.3526,N,07740.8984,W,2,09,0.99,157.5,M,-34.4,M,0000,0000*5F
$GPRMC,164837.750,A,4305.3529,N,07740.8989,W,7.73,314.34,220719,,,D*72
$GPGGA,164838.000,4305.3532,N,07740.8993,W,2,09,0.99,157.3,M,-34.4,M,0000,0000*50
$GPRMC,164838.250,A,4305.3535,N,07740.8998,W,7.24,316.84,220719,,,D*7E
$GPGGA,164838.500,4305.3538,N,07740.9002,W,2,09,0.99,157.3,M,-34.4,M,0000,0000*5F
$GPRMC,164838.750,A,4305.3543,N,07740.9006,W,7.65,322.52,220719,,,D*7C
$GPGGA,164839.000,4305.3548,N,07740.9009,W,2,09,0.99,157.4,M,-34.4,M,0000,0000*50
$GPRMC,164839.250,A,4305.3554,N,07740.9013,W,8.13,333.85,220719,,,D*7E
$GPGGA,164839.500,4305.3559,N,07740.9016,W,2,09,0.98,157.8,M,-34.4,M,0000,0000*56
$GPRMC,164839.750,A,4305.3566,N,07740.9019,W,8.97,341.61,220719,,,D*73
$GPGGA,164840.000,4305.3573,N,07740.9020,W,2,09,0.99,157.9,M,-34.4,M,0000,0000*50
$GPRMC,164840.250,A,4305.3581,N,07740.9021,W,10.12,355.34,220719,,,D*4B
$GPGGA,164840.500,4305.3589,N,07740.9021,W,2,09,0.99,157.7,M,-34.4,M,0000,0000*5F
$GPRMC,164840.750,A,4305.3597,N,07740.9021,W,10.54,4.23,220719,,,D*4A
$GPGGA,164841.000,4305.3605,N,07740.9019,W,2,09,0.99,157.8,M,-34.4,M,0000,0000*58
$GPRMC,164841.250,A,4305.3613,N,07740.9015,W,11.70,16.42,220719,,,D*75
$GPGGA,164841.500,4305.3622,N,07740.9010,W,2,09,0.98,158.1,M,-34.4,M,0000,0000*56
$GPRMC,164841.750,A,4305.3632,N,07740.9002,W,12.65,26.62,220719,,,D*73
$GPGGA,164842.000,4305.3640,N,07740.8993,W,2,09,0.98,158.3,M,-34.4,M,0000,0000*55
$GPRMC,164842.250,A,4305.3648,N,07740.8984,W,14.27,37.06,220719,,,D*7C
$GPGGA,164842.500,4305.3657,N,07740.8973,W,2,09,0.99,158.5,M,-34.4,M,0000,0000*5F
$GPRMC,164842.750,A,4305.3665,N,07740.8962,W,15.60,40.76,220719,,,D*7B
$GPGGA,164843.000,4305.3674,N,07740.8952,W,2,09,0.98,158.7,M,-34.4,M,0000,0000*5A
$GPRMC,164843.250,A,4305.3684,N,07740.8940,W,17.12,41.02,220719,,,D*75
$GPGGA,164843.500,4305.3694,N,07740.8928,W,2,09,0.98,159.0,M,-34.4,M,0000,0000*5A
$GPRMC,164843.750,A,4305.3704,N,07740.8916,W,18.16,41.11,220719,,,D*73
$GPGGA,164844.000,4305.3714,N,07740.8904,W,2,09,0.98,159.2,M,-34.4,M,0000,0000*5D
$GPRMC,164844.250,A,4305.3725,N,07740.8890,W,19.54,40.64,220719,,,D*79
$GPGGA,164844.500,4305.3736,N,07740.8877,W,2,09,0.98,159.5,M,-34.4,M,0000,0000*5A
$GPRMC,164844.750,A,4305.3747,N,07740.8864,W,20.61,39.84,220719,,,D*7F
$GPGGA,164845.000,4305.3759,N,07740.8850,W,2,09,0.98,159.7,M,-34.4,M,0000,0000*50
$GPRMC,164845.250,A,4305.3771,N,07740.8835,W,21.58,38.98,220719,,,D*7D
$GPGGA,164845.500,4305.3784,N,07740.8822,W,2,09,0.98,159.8,M,-34.4,M,0000,0000*5F
$GPRMC,164845.750,A,4305.3796,N,07740.8807,W,22.30,38.55,220719,,,D*7C
$GPGGA,164846.000,4305.3809,N,07740.8793,W,2,09,0.98,159.9,M,-34.4,M,0000,0000*57
$GPRMC,164846.250,A,4305.3822,N,07740.8778,W,23.41,38.20,220719,,,D*78
$GPGGA,164846.500,4305.3835,N,07740.8763,W,2,09,0.98,160.1,M,-34.4,M,0000,0000*50
$GPRMC,164846.750,A,4305.3849,N,07740.8748,W,24.04,38.25,220719,,,D*70
$GPGGA,164847.000,4305.3862,N,07740.8733,W,2,09,0.98,160.1,M,-34.4,M,0000,0000*53
$GPRMC,164847.250,A,4305.3876,N,07740.8718,W,24.76,37.44,220719,,,D*70
$GPGGA,164847.500,4305.3891,N,07740.8702,W,2,09,0.98,160.1,M,-34.4,M,0000,0000*58
$GPRMC,164847.750,A,4305.3905,N,07740.8687,W,25.45,37.13,220719,,,D*74
