Vers 60
USE_SERIAL_FEEDBACK=true
DEVELOPMENT_MODE=false
USE_RMC_ONLY=false

$GPRMC,175935.750,A,4305.1459,N,07740.7886,W,0.41,5.98,190619,,,A*7B
$GPGGA,175936.000,4305.1459,N,07740.7886,W,1,07,1.37,175.9,M,-34.4,M,,*59
lng=-77.679809, lat=43.085765, altitude=176.60, speed=0.41, satellites=7, angle=5.9800, fixquality=1
$GPRMC,175936.250,A,4305.1459,N,07740.7886,W,0.37,0.47,190619,,,A*7B
$GPGGA,175936.500,4305.1459,N,07740.7886,W,1,07,1.37,176.2,M,-34.4,M,,*54
lng=-77.679809, lat=43.085765, altitude=175.90, speed=0.37, satellites=7, angle=0.4700, fixquality=1
$GPRMC,175936.750,A,4305.1459,N,07740.7886,W,0.34,14.65,190619,,,A*48
$GPGGA,175937.000,4305.1459,N,07740.7886,W,1,07,1.37,176.4,M,-34.4,M,,*56
lng=-77.679809, lat=43.085765, altitude=176.20, speed=0.34, satellites=7, angle=14.6500, fixquality=1
$GPRMC,175937.250,A,4305.1460,N,07740.7886,W,0.36,16.04,190619,,,A*41
$GPGGA,175937.500,4305.1460,N,07740.7886,W,1,07,1.30,176.7,M,-34.4,M,,*5D
lng=-77.679809, lat=43.085765, altitude=176.40, speed=0.36, satellites=7, angle=16.0400, fixquality=1
$GPRMC,175937.750,A,4305.1462,N,07740.7887,W,0.49,17.96,190619,,,A*45
$GPGGA,175938.000,4305.1464,N,07740.7887,W,1,07,1.30,176.9,M,-34.4,M,,*5C
lng=-77.679809, lat=43.085765, altitude=176.70, speed=0.49, satellites=7, angle=17.9600, fixquality=1
$GPRMC,175938.250,A,4305.1465,N,07740.7887,W,0.80,8.18,190619,,,A*75
$GPGGA,175938.500,4305.1467,N,07740.7887,W,1,07,1.37,177.2,M,-34.4,M,,*57
lng=-77.679809, lat=43.085773, altitude=176.90, speed=0.80, satellites=7, angle=8.1800, fixquality=1
$GPRMC,175938.750,A,4305.1469,N,07740.7887,W,0.96,0.24,190619,,,A*7C
$GPGGA,175939.000,4305.1470,N,07740.7888,W,1,07,1.37,177.7,M,-34.4,M,,*5F
lng=-77.679809, lat=43.085781, altitude=177.20, speed=0.96, satellites=7, angle=0.2400, fixquality=1
$GPRMC,175939.250,A,4305.1472,N,07740.7888,W,1.12,1.97,190619,,,A*79
$GPGGA,175939.500,4305.1473,N,07740.7888,W,1,07,1.37,178.0,M,-34.4,M,,*51
lng=-77.679809, lat=43.085781, altitude=177.70, speed=1.12, satellites=7, angle=1.9700, fixquality=1
$GPRMC,175939.750,A,4305.1474,N,07740.7889,W,1.04,2.77,190619,,,A*71
$GPGGA,175940.000,4305.1475,N,07740.7889,W,1,07,1.37,178.0,M,-34.4,M,,*5D
lng=-77.679817, lat=43.085792, altitude=178.00, speed=1.04, satellites=7, angle=2.7700, fixquality=1
$GPRMC,175940.250,A,4305.1476,N,07740.7889,W,0.94,4.75,190619,,,A*74
$GPGGA,175940.500,4305.1477,N,07740.7889,W,1,07,1.37,178.2,M,-34.4,M,,*58
lng=-77.679817, lat=43.085792, altitude=178.00, speed=0.94, satellites=7, angle=4.7500, fixquality=1
$GPRMC,175940.750,A,4305.1477,N,07740.7890,W,0.91,1.82,190619,,,A*70
$GPGGA,175941.000,4305.1478,N,07740.7891,W,1,07,1.37,178.5,M,-34.4,M,,*5D
lng=-77.679817, lat=43.085792, altitude=178.20, speed=0.91, satellites=7, angle=1.8200, fixquality=1
$GPRMC,175941.250,A,4305.1479,N,07740.7891,W,0.93,351.83,190619,,,A*7E
$GPGGA,175941.500,4305.1480,N,07740.7892,W,1,07,1.37,178.9,M,-34.4,M,,*50
lng=-77.679817, lat=43.085800, altitude=178.50, speed=0.93, satellites=7, angle=351.8300, fixquality=1
$GPRMC,175941.750,A,4305.1481,N,07740.7892,W,0.86,350.55,190619,,,A*71
$GPGGA,175942.000,4305.1482,N,07740.7892,W,1,07,1.37,179.1,M,-34.4,M,,*5D
lng=-77.679817, lat=43.085800, altitude=178.90, speed=0.86, satellites=7, angle=350.5500, fixquality=1
$GPRMC,175942.250,A,4305.1483,N,07740.7893,W,0.80,348.96,190619,,,A*74
$GPGGA,175942.500,4305.1484,N,07740.7893,W,1,07,1.37,179.3,M,-34.4,M,,*5D
lng=-77.679817, lat=43.085807, altitude=179.10, speed=0.80, satellites=7, angle=348.9600, fixquality=1
$GPRMC,175942.750,A,4305.1485,N,07740.7894,W,0.86,344.09,190619,,,A*7C
$GPGGA,175943.000,4305.1486,N,07740.7894,W,1,07,1.30,179.6,M,-34.4,M,,*5E
lng=-77.679824, lat=43.085807, altitude=179.30, speed=0.86, satellites=7, angle=344.0900, fixquality=1
$GPRMC,175943.250,A,4305.1487,N,07740.7895,W,0.94,336.70,190619,,,A*73
$GPGGA,175943.500,4305.1488,N,07740.7897,W,1,07,1.30,179.9,M,-34.4,M,,*59
lng=-77.679824, lat=43.085815, altitude=179.60, speed=0.94, satellites=7, angle=336.7000, fixquality=1
$GPRMC,175943.750,A,4305.1490,N,07740.7899,W,1.24,321.94,190619,,,A*7A
$GPGGA,175944.000,4305.1491,N,07740.7900,W,1,07,1.30,180.1,M,-34.4,M,,*52
lng=-77.679832, lat=43.085815, altitude=179.90, speed=1.24, satellites=7, angle=321.9400, fixquality=1
$GPRMC,175944.250,A,4305.1492,N,07740.7902,W,1.42,318.37,190619,,,A*7A
$GPGGA,175944.500,4305.1494,N,07740.7903,W,1,07,1.30,180.2,M,-34.4,M,,*52
lng=-77.679832, lat=43.085823, altitude=180.10, speed=1.42, satellites=7, angle=318.3700, fixquality=1
$GPRMC,175944.750,A,4305.1495,N,07740.7904,W,1.44,316.37,190619,,,A*76
$GPGGA,175945.000,4305.1495,N,07740.7904,W,1,07,1.30,180.4,M,-34.4,M,,*56
lng=-77.679840, lat=43.085823, altitude=180.20, speed=1.44, satellites=7, angle=316.3700, fixquality=1
$GPRMC,175945.250,A,4305.1495,N,07740.7905,W,1.22,312.71,190619,,,A*75
$GPGGA,175945.500,4305.1495,N,07740.7905,W,1,07,1.30,180.6,M,-34.4,M,,*50
lng=-77.679840, lat=43.085823, altitude=180.40, speed=1.22, satellites=7, angle=312.7100, fixquality=1
$GPRMC,175945.750,A,4305.1495,N,07740.7905,W,0.88,312.32,190619,,,A*76
$GPGGA,175946.000,4305.1495,N,07740.7905,W,1,07,1.30,181.0,M,-34.4,M,,*51
lng=-77.679840, lat=43.085823, altitude=180.60, speed=0.88, satellites=7, angle=312.3200, fixquality=1
$GPRMC,175946.250,A,4305.1495,N,07740.7904,W,0.37,316.02,190619,,,A*72
$GPGGA,175946.500,4305.1494,N,07740.7902,W,1,07,1.30,181.3,M,-34.4,M,,*51
lng=-77.679840, lat=43.085823, altitude=181.00, speed=0.37, satellites=7, angle=316.0200, fixquality=1
$GPRMC,175946.750,A,4305.1494,N,07740.7901,W,0.19,94.78,190619,,,A*4B
$GPGGA,175947.000,4305.1493,N,07740.7898,W,1,07,1.30,181.4,M,-34.4,M,,*57
lng=-77.679832, lat=43.085823, altitude=181.30, speed=0.19, satellites=7, angle=94.7800, fixquality=1
$GPRMC,175947.250,A,4305.1492,N,07740.7895,W,0.93,115.02,190619,,,A*72
$GPGGA,175947.500,4305.1491,N,07740.7892,W,1,07,1.30,181.6,M,-34.4,M,,*58
lng=-77.679824, lat=43.085823, altitude=181.40, speed=0.93, satellites=7, angle=115.0200, fixquality=1
$GPRMC,175947.750,A,4305.1489,N,07740.7886,W,2.00,111.03,190619,,,A*72
$GPGGA,175948.000,4305.1489,N,07740.7881,W,1,07,1.30,181.7,M,-34.4,M,,*58
lng=-77.679809, lat=43.085815, altitude=181.60, speed=2.00, satellites=7, angle=111.0300, fixquality=1
$GPRMC,175948.250,A,4305.1488,N,07740.7876,W,4.63,104.09,190619,,,A*7B
$GPGGA,175948.500,4305.1488,N,07740.7870,W,1,07,1.37,181.9,M,-34.4,M,,*5B
lng=-77.679794, lat=43.085815, altitude=181.70, speed=4.63, satellites=7, angle=104.0900, fixquality=1
$GPRMC,175948.750,A,4305.1487,N,07740.7862,W,6.77,96.57,190619,,,A*42
$GPGGA,175949.000,4305.1487,N,07740.7854,W,1,07,1.37,181.9,M,-34.4,M,,*56
lng=-77.679771, lat=43.085815, altitude=181.90, speed=6.77, satellites=7, angle=96.5700, fixquality=1
$GPRMC,175949.250,A,4305.1487,N,07740.7846,W,8.23,93.94,190619,,,A*45
$GPGGA,175949.500,4305.1487,N,07740.7837,W,1,07,1.37,182.1,M,-34.4,M,,*5D
lng=-77.679740, lat=43.085815, altitude=181.90, speed=8.23, satellites=7, angle=93.9400, fixquality=1
$GPRMC,175949.750,A,4305.1486,N,07740.7829,W,8.76,93.16,190619,,,A*42
$GPGGA,175950.000,4305.1487,N,07740.7820,W,1,07,1.37,182.3,M,-34.4,M,,*54
lng=-77.679710, lat=43.085807, altitude=182.10, speed=8.76, satellites=7, angle=93.1600, fixquality=1
$GPRMC,175950.250,A,4305.1487,N,07740.7811,W,9.07,91.90,190619,,,A*4E
$GPGGA,175950.500,4305.1487,N,07740.7802,W,1,07,1.37,182.4,M,-34.4,M,,*56
lng=-77.679687, lat=43.085815, altitude=182.30, speed=9.07, satellites=7, angle=91.9000, fixquality=1
$GPRMC,175950.750,A,4305.1487,N,07740.7791,W,10.27,91.75,190619,,,A*7D
$GPGGA,175951.000,4305.1487,N,07740.7780,W,1,07,1.37,182.4,M,-34.4,M,,*57
lng=-77.679656, lat=43.085815, altitude=182.40, speed=10.27, satellites=7, angle=91.7500, fixquality=1
$GPRMC,175951.250,A,4305.1488,N,07740.7769,W,11.27,89.72,190619,,,A*7E
$GPGGA,175951.500,4305.1488,N,07740.7758,W,1,07,1.37,182.4,M,-34.4,M,,*58
lng=-77.679611, lat=43.085815, altitude=182.40, speed=11.27, satellites=7, angle=89.7200, fixquality=1
$GPRMC,175951.750,A,4305.1488,N,07740.7746,W,11.75,90.62,190619,,,A*78
$GPGGA,175952.000,4305.1487,N,07740.7735,W,1,07,1.37,182.5,M,-34.4,M,,*5B
lng=-77.679573, lat=43.085815, altitude=182.40, speed=11.75, satellites=7, angle=90.6200, fixquality=1
$GPRMC,175952.250,A,4305.1487,N,07740.7723,W,11.62,91.15,190619,,,A*75
$GPGGA,175952.500,4305.1487,N,07740.7712,W,1,07,1.37,182.4,M,-34.4,M,,*5A
lng=-77.679542, lat=43.085815, altitude=182.50, speed=11.62, satellites=7, angle=91.1500, fixquality=1
$GPRMC,175952.750,A,4305.1486,N,07740.7702,W,11.13,94.49,190619,,,A*78
$GPGGA,175953.000,4305.1486,N,07740.7691,W,1,07,1.37,182.3,M,-34.4,M,,*52
lng=-77.679496, lat=43.085807, altitude=182.40, speed=11.13, satellites=7, angle=94.4900, fixquality=1
$GPRMC,175953.250,A,4305.1484,N,07740.7681,W,10.50,99.15,190619,,,A*76
$GPGGA,175953.500,4305.1483,N,07740.7671,W,1,07,1.37,182.0,M,-34.4,M,,*5F
lng=-77.679466, lat=43.085807, altitude=182.30, speed=10.50, satellites=7, angle=99.1500, fixquality=1
$GPRMC,175953.750,A,4305.1481,N,07740.7663,W,9.26,104.54,190619,,,A*73
$GPGGA,175954.000,4305.1480,N,07740.7655,W,1,07,1.37,181.8,M,-34.4,M,,*53
lng=-77.679435, lat=43.085800, altitude=182.00, speed=9.26, satellites=7, angle=104.5400, fixquality=1
$GPRMC,175954.250,A,4305.1479,N,07740.7648,W,7.45,104.92,190619,,,A*7E
$GPGGA,175954.500,4305.1478,N,07740.7642,W,1,07,1.37,181.6,M,-34.4,M,,*59
lng=-77.679412, lat=43.085800, altitude=181.80, speed=7.45, satellites=7, angle=104.9200, fixquality=1
$GPRMC,175954.750,A,4305.1478,N,07740.7638,W,5.47,104.12,190619,,,A*75
$GPGGA,175955.000,4305.1477,N,07740.7633,W,1,07,1.37,181.4,M,-34.4,M,,*56
lng=-77.679397, lat=43.085800, altitude=181.60, speed=5.47, satellites=7, angle=104.1200, fixquality=1
$GPRMC,175955.250,A,4305.1477,N,07740.7629,W,4.39,102.22,190619,,,A*73
$GPGGA,175955.500,4305.1477,N,07740.7625,W,1,07,1.37,181.1,M,-34.4,M,,*51
lng=-77.679374, lat=43.085792, altitude=181.40, speed=4.39, satellites=7, angle=102.2200, fixquality=1
$GPRMC,175955.750,A,4305.1477,N,07740.7621,W,4.31,96.11,190619,,,A*4A
$GPGGA,175956.000,4305.1476,N,07740.7616,W,1,07,1.37,180.8,M,-34.4,M,,*5E
lng=-77.679367, lat=43.085792, altitude=181.10, speed=4.31, satellites=7, angle=96.1100, fixquality=1
$GPRMC,175956.250,A,4305.1475,N,07740.7612,W,4.42,99.49,190619,,,A*48
$GPGGA,175956.500,4305.1475,N,07740.7608,W,1,07,1.37,180.5,M,-34.4,M,,*5A
lng=-77.679351, lat=43.085792, altitude=180.80, speed=4.42, satellites=7, angle=99.4900, fixquality=1
$GPRMC,175956.750,A,4305.1474,N,07740.7602,W,5.49,99.80,190619,,,A*42
$GPGGA,175957.000,4305.1474,N,07740.7596,W,1,07,1.37,180.2,M,-34.4,M,,*5C
lng=-77.679336, lat=43.085792, altitude=180.50, speed=5.49, satellites=7, angle=99.8000, fixquality=1
$GPRMC,175957.250,A,4305.1473,N,07740.7590,W,6.55,97.59,190619,,,A*4D
$GPGGA,175957.500,4305.1472,N,07740.7583,W,1,07,1.37,180.0,M,-34.4,M,,*59
lng=-77.679313, lat=43.085792, altitude=180.20, speed=6.55, satellites=7, angle=97.5900, fixquality=1
$GPRMC,175957.750,A,4305.1471,N,07740.7576,W,7.30,97.62,190619,,,A*48
$GPGGA,175958.000,4305.1471,N,07740.7569,W,1,07,1.37,179.9,M,-34.4,M,,*5B
lng=-77.679298, lat=43.085781, altitude=180.00, speed=7.30, satellites=7, angle=97.6200, fixquality=1
$GPRMC,175958.250,A,4305.1470,N,07740.7561,W,7.91,93.02,190619,,,A*4C
$GPGGA,175958.500,4305.1470,N,07740.7554,W,1,07,1.37,179.8,M,-34.4,M,,*50
lng=-77.679267, lat=43.085781, altitude=179.90, speed=7.91, satellites=7, angle=93.0200, fixquality=1
$GPRMC,175958.750,A,4305.1471,N,07740.7546,W,7.99,88.45,190619,,,A*4C
$GPGGA,175959.000,4305.1472,N,07740.7537,W,1,07,1.37,179.7,M,-34.4,M,,*5C
lng=-77.679237, lat=43.085781, altitude=179.80, speed=7.99, satellites=7, angle=88.4500, fixquality=1
$GPRMC,175959.250,A,4305.1476,N,07740.7528,W,9.07,73.54,190619,,,A*4A
$GPGGA,175959.500,4305.1480,N,07740.7520,W,1,07,1.37,179.9,M,-34.4,M,,*5C
lng=-77.679214, lat=43.085792, altitude=179.70, speed=9.07, satellites=7, angle=73.5400, fixquality=1
$GPRMC,175959.750,A,4305.1484,N,07740.7511,W,9.71,63.23,190619,,,A*48
$GPGGA,180000.000,4305.1488,N,07740.7503,W,1,07,1.37,179.9,M,-34.4,M,,*5F
lng=-77.679183, lat=43.085807, altitude=179.90, speed=9.71, satellites=7, angle=63.2300, fixquality=1
$GPRMC,180000.250,A,4305.1494,N,07740.7495,W,10.48,55.98,190619,,,A*79
$GPGGA,180000.500,4305.1500,N,07740.7487,W,1,07,1.37,179.9,M,-34.4,M,,*56
lng=-77.679161, lat=43.085823, altitude=179.90, speed=10.48, satellites=7, angle=55.9800, fixquality=1
$GPRMC,180000.750,A,4305.1506,N,07740.7480,W,11.25,47.41,190619,,,A*7F
$GPGGA,180001.000,4305.1514,N,07740.7473,W,1,07,1.37,179.9,M,-34.4,M,,*5C
lng=-77.679130, lat=43.085838, altitude=179.90, speed=11.25, satellites=7, angle=47.4100, fixquality=1
$GPRMC,180001.250,A,4305.1522,N,07740.7467,W,12.03,36.67,190619,,,A*71
$GPGGA,180001.500,4305.1532,N,07740.7462,W,1,07,1.37,179.7,M,-34.4,M,,*53
lng=-77.679107, lat=43.085872, altitude=179.90, speed=12.03, satellites=7, angle=36.6700, fixquality=1
$GPRMC,180001.750,A,4305.1541,N,07740.7457,W,12.84,27.10,190619,,,A*7D
$GPGGA,180002.000,4305.1550,N,07740.7452,W,1,07,1.37,179.6,M,-34.4,M,,*53
lng=-77.679092, lat=43.085903, altitude=179.70, speed=12.84, satellites=7, angle=27.1000, fixquality=1
$GPRMC,180002.250,A,4305.1560,N,07740.7448,W,13.15,20.95,190619,,,A*75
$GPGGA,180002.500,4305.1569,N,07740.7445,W,1,06,1.73,179.6,M,-34.4,M,,*5B
lng=-77.679077, lat=43.085929, altitude=179.60, speed=13.15, satellites=7, angle=20.9500, fixquality=1
$GPRMC,180002.750,A,4305.1580,N,07740.7442,W,13.92,14.15,190619,,,A*74
$GPGGA,180003.000,4305.1592,N,07740.7441,W,1,07,1.37,179.6,M,-34.4,M,,*5E
lng=-77.679069, lat=43.085971, altitude=179.60, speed=13.92, satellites=6, angle=14.1500, fixquality=1
$GPRMC,180003.250,A,4305.1603,N,07740.7439,W,15.03,8.65,190619,,,A*40
$GPGGA,180003.500,4305.1616,N,07740.7438,W,1,07,1.37,179.7,M,-34.4,M,,*5B
lng=-77.679069, lat=43.086002, altitude=179.60, speed=15.03, satellites=7, angle=8.6500, fixquality=1
$GPRMC,180003.750,A,4305.1629,N,07740.7437,W,16.56,4.21,190619,,,A*4C
$GPGGA,180004.000,4305.1643,N,07740.7437,W,1,07,1.37,179.7,M,-34.4,M,,*56
lng=-77.679061, lat=43.086051, altitude=179.70, speed=16.56, satellites=7, angle=4.2100, fixquality=1
$GPRMC,180004.250,A,4305.1656,N,07740.7436,W,17.48,1.75,190619,,,A*4D
$GPGGA,180004.500,4305.1670,N,07740.7436,W,1,07,1.37,179.6,M,-34.4,M,,*53
lng=-77.679061, lat=43.086093, altitude=179.70, speed=17.48, satellites=7, angle=1.7500, fixquality=1
$GPRMC,180004.750,A,4305.1685,N,07740.7436,W,18.59,359.90,190619,,,A*4C
$GPGGA,180005.000,4305.1699,N,07740.7437,W,1,07,1.37,179.6,M,-34.4,M,,*51
lng=-77.679061, lat=43.086139, altitude=179.60, speed=18.59, satellites=7, angle=359.9000, fixquality=1
$GPRMC,180005.250,A,4305.1714,N,07740.7437,W,19.41,358.69,190619,,,A*4F
$GPGGA,180005.500,4305.1728,N,07740.7438,W,1,07,1.37,179.5,M,-34.4,M,,*53
lng=-77.679061, lat=43.086189, altitude=179.60, speed=19.41, satellites=7, angle=358.6900, fixquality=1
$GPRMC,180005.750,A,4305.1743,N,07740.7439,W,20.11,358.21,190619,,,A*45
$GPGGA,180006.000,4305.1758,N,07740.7439,W,1,07,1.37,179.5,M,-34.4,M,,*53
lng=-77.679069, lat=43.086238, altitude=179.50, speed=20.11, satellites=7, angle=358.2100, fixquality=1
$GPRMC,180006.250,A,4305.1773,N,07740.7440,W,20.49,357.65,190619,,,A*4C
$GPGGA,180006.500,4305.1789,N,07740.7441,W,1,07,1.37,179.4,M,-34.4,M,,*54
lng=-77.679069, lat=43.086288, altitude=179.50, speed=20.49, satellites=7, angle=357.6500, fixquality=1
$GPRMC,180006.750,A,4305.1804,N,07740.7442,W,20.76,357.64,190619,,,A*49
$GPGGA,180007.000,4305.1819,N,07740.7443,W,1,07,1.37,179.2,M,-34.4,M,,*52
lng=-77.679069, lat=43.086338, altitude=179.40, speed=20.76, satellites=7, angle=357.6400, fixquality=1
$GPRMC,180007.250,A,4305.1834,N,07740.7444,W,20.88,357.60,190619,,,A*4D
$GPGGA,180007.500,4305.1849,N,07740.7445,W,1,07,1.37,179.2,M,-34.4,M,,*54
lng=-77.679077, lat=43.086391, altitude=179.20, speed=20.88, satellites=7, angle=357.6000, fixquality=1
$GPRMC,180007.750,A,4305.1864,N,07740.7446,W,20.87,358.61,190619,,,A*4E
$GPGGA,180008.000,4305.1878,N,07740.7447,W,1,07,1.37,179.1,M,-34.4,M,,*5D
lng=-77.679077, lat=43.086441, altitude=179.20, speed=20.87, satellites=7, angle=358.6100, fixquality=1
$GPRMC,180008.250,A,4305.1893,N,07740.7447,W,20.86,358.83,190619,,,A*40
$GPGGA,180008.500,4305.1908,N,07740.7448,W,1,07,1.37,179.0,M,-34.4,M,,*50
lng=-77.679077, lat=43.086490, altitude=179.10, speed=20.86, satellites=7, angle=358.8300, fixquality=1
$GPRMC,180008.750,A,4305.1923,N,07740.7449,W,21.03,358.98,190619,,,A*47
$GPGGA,180009.000,4305.1939,N,07740.7450,W,1,07,1.37,178.9,M,-34.4,M,,*57
lng=-77.679084, lat=43.086540, altitude=179.00, speed=21.03, satellites=7, angle=358.9800, fixquality=1
$GPRMC,180009.250,A,4305.1954,N,07740.7450,W,21.31,358.69,190619,,,A*44
$GPGGA,180009.500,4305.1970,N,07740.7451,W,1,07,1.37,178.7,M,-34.4,M,,*50
lng=-77.679084, lat=43.086589, altitude=178.90, speed=21.31, satellites=7, angle=358.6900, fixquality=1
$GPRMC,180009.750,A,4305.1985,N,07740.7452,W,21.45,358.72,190619,,,A*46
$GPGGA,180010.000,4305.2001,N,07740.7453,W,1,07,1.37,178.6,M,-34.4,M,,*52
lng=-77.679084, lat=43.086647, altitude=178.70, speed=21.45, satellites=7, angle=358.7200, fixquality=1
$GPRMC,180010.250,A,4305.2016,N,07740.7454,W,21.51,358.94,190619,,,A*40
$GPGGA,180010.500,4305.2031,N,07740.7454,W,1,07,1.37,178.5,M,-34.4,M,,*50
lng=-77.679092, lat=43.086692, altitude=178.60, speed=21.51, satellites=7, angle=358.9400, fixquality=1
$GPRMC,180010.750,A,4305.2047,N,07740.7455,W,21.52,358.60,190619,,,A*48
$GPGGA,180011.000,4305.2062,N,07740.7456,W,1,07,1.37,178.4,M,-34.4,M,,*51
lng=-77.679092, lat=43.086742, altitude=178.50, speed=21.52, satellites=7, angle=358.6000, fixquality=1
$GPRMC,180011.250,A,4305.2078,N,07740.7456,W,21.46,358.80,190619,,,A*48
$GPGGA,180011.500,4305.2094,N,07740.7456,W,1,07,1.37,178.3,M,-34.4,M,,*5A
lng=-77.679092, lat=43.086799, altitude=178.40, speed=21.46, satellites=7, angle=358.8000, fixquality=1
$GPRMC,180011.750,A,4305.2109,N,07740.7457,W,21.69,358.99,190619,,,A*4E
$GPGGA,180012.000,4305.2125,N,07740.7457,W,1,07,1.37,178.2,M,-34.4,M,,*57
lng=-77.679092, lat=43.086849, altitude=178.30, speed=21.69, satellites=7, angle=358.9900, fixquality=1
$GPRMC,180012.250,A,4305.2141,N,07740.7458,W,21.84,359.01,190619,,,A*48
$GPGGA,180012.500,4305.2157,N,07740.7459,W,1,07,1.37,178.0,M,-34.4,M,,*5B
lng=-77.679092, lat=43.086898, altitude=178.20, speed=21.84, satellites=7, angle=359.0100, fixquality=1
$GPRMC,180012.750,A,4305.2173,N,07740.7460,W,22.24,358.30,190619,,,A*4D
$GPGGA,180013.000,4305.2189,N,07740.7460,W,1,07,1.37,177.9,M,-34.4,M,,*50
lng=-77.679100, lat=43.086956, altitude=178.00, speed=22.24, satellites=7, angle=358.3000, fixquality=1
$GPRMC,180013.250,A,4305.2205,N,07740.7461,W,22.38,358.01,190619,,,A*45
$GPGGA,180013.500,4305.2221,N,07740.7462,W,1,07,1.37,177.7,M,-34.4,M,,*58
lng=-77.679100, lat=43.087013, altitude=177.90, speed=22.38, satellites=7, angle=358.0100, fixquality=1
$GPRMC,180013.750,A,4305.2237,N,07740.7462,W,22.49,358.54,190619,,,A*44
$GPGGA,180014.000,4305.2253,N,07740.7463,W,1,07,1.37,177.6,M,-34.4,M,,*5F
lng=-77.679100, lat=43.087059, altitude=177.70, speed=22.49, satellites=7, angle=358.5400, fixquality=1
$GPRMC,180014.250,A,4305.2270,N,07740.7463,W,22.81,358.72,190619,,,A*44
$GPGGA,180014.500,4305.2286,N,07740.7464,W,1,07,1.37,177.4,M,-34.4,M,,*57
lng=-77.679100, lat=43.087116, altitude=177.60, speed=22.81, satellites=7, angle=358.7200, fixquality=1
$GPRMC,180014.750,A,4305.2302,N,07740.7464,W,22.84,358.77,190619,,,A*42
$GPGGA,180015.000,4305.2318,N,07740.7465,W,1,07,1.37,177.2,M,-34.4,M,,*52
lng=-77.679107, lat=43.087165, altitude=177.40, speed=22.84, satellites=7, angle=358.7700, fixquality=1
$GPRMC,180015.250,A,4305.2333,N,07740.7465,W,22.78,359.19,190619,,,A*4F
$GPGGA,180015.500,4305.2348,N,07740.7466,W,1,07,1.37,177.0,M,-34.4,M,,*53
lng=-77.679107, lat=43.087223, altitude=177.20, speed=22.78, satellites=7, angle=359.1900, fixquality=1
$GPRMC,180015.750,A,4305.2363,N,07740.7466,W,22.08,359.68,190619,,,A*4D
$GPGGA,180016.000,4305.2378,N,07740.7466,W,1,07,1.37,176.8,M,-34.4,M,,*5F
lng=-77.679107, lat=43.087272, altitude=177.00, speed=22.08, satellites=7, angle=359.6800, fixquality=1
$GPRMC,180016.250,A,4305.2393,N,07740.7466,W,21.36,0.43,190619,,,A*4C
$GPGGA,180016.500,4305.2407,N,07740.7466,W,1,07,1.37,176.8,M,-34.4,M,,*55
lng=-77.679107, lat=43.087322, altitude=176.80, speed=21.36, satellites=7, angle=0.4300, fixquality=1
$GPRMC,180016.750,A,4305.2420,N,07740.7466,W,20.04,1.12,190619,,,A*43
$GPGGA,180017.000,4305.2432,N,07740.7465,W,1,07,1.37,176.8,M,-34.4,M,,*54
lng=-77.679107, lat=43.087368, altitude=176.80, speed=20.04, satellites=7, angle=1.1200, fixquality=1
$GPRMC,180017.250,A,4305.2445,N,07740.7465,W,18.81,1.56,190619,,,A*41
$GPGGA,180017.500,4305.2456,N,07740.7464,W,1,07,1.37,176.9,M,-34.4,M,,*53
lng=-77.679107, lat=43.087409, altitude=176.80, speed=18.81, satellites=7, angle=1.5600, fixquality=1
$GPRMC,180017.750,A,4305.2465,N,07740.7463,W,16.31,1.60,190619,,,A*40
$GPGGA,180018.000,4305.2475,N,07740.7463,W,1,07,1.37,177.1,M,-34.4,M,,*56
lng=-77.679100, lat=43.087444, altitude=176.90, speed=16.31, satellites=7, angle=1.6000, fixquality=1
$GPRMC,180018.250,A,4305.2484,N,07740.7462,W,14.26,0.24,190619,,,A*41
$GPGGA,180018.500,4305.2493,N,07740.7462,W,1,07,1.37,176.9,M,-34.4,M,,*53
lng=-77.679100, lat=43.087474, altitude=177.10, speed=14.26, satellites=7, angle=0.2400, fixquality=1
$GPRMC,180018.750,A,4305.2501,N,07740.7461,W,11.90,358.98,190619,,,A*4A
$GPGGA,180019.000,4305.2507,N,07740.7460,W,1,07,1.37,176.9,M,-34.4,M,,*59
lng=-77.679100, lat=43.087501, altitude=176.90, speed=11.90, satellites=7, angle=358.9800, fixquality=1
$GPRMC,180019.250,A,4305.2513,N,07740.7460,W,9.61,358.37,190619,,,A*7E
$GPGGA,180019.500,4305.2516,N,07740.7460,W,1,07,1.37,176.6,M,-34.4,M,,*53
lng=-77.679100, lat=43.087524, altitude=176.90, speed=9.61, satellites=7, angle=358.3700, fixquality=1
$GPRMC,180019.750,A,4305.2519,N,07740.7459,W,6.44,357.05,190619,,,A*7D
$GPGGA,180020.000,4305.2520,N,07740.7458,W,1,07,1.37,176.3,M,-34.4,M,,*57
lng=-77.679100, lat=43.087532, altitude=176.60, speed=6.44, satellites=7, angle=357.0500, fixquality=1
$GPRMC,180020.250,A,4305.2522,N,07740.7458,W,4.02,358.48,190619,,,A*7D
$GPGGA,180020.500,4305.2523,N,07740.7457,W,1,07,1.37,176.1,M,-34.4,M,,*5C
lng=-77.679092, lat=43.087532, altitude=176.30, speed=4.02, satellites=7, angle=358.4800, fixquality=1
$GPRMC,180020.750,A,4305.2524,N,07740.7457,W,2.69,358.14,190619,,,A*73
$GPGGA,180021.000,4305.2525,N,07740.7457,W,1,07,1.37,176.1,M,-34.4,M,,*5E
lng=-77.679092, lat=43.087539, altitude=176.10, speed=2.69, satellites=7, angle=358.1400, fixquality=1
$GPRMC,180021.250,A,4305.2527,N,07740.7457,W,2.66,358.14,190619,,,A*7B
$GPGGA,180021.500,4305.2530,N,07740.7457,W,1,07,1.37,175.7,M,-34.4,M,,*5A
lng=-77.679092, lat=43.087547, altitude=176.10, speed=2.66, satellites=7, angle=358.1400, fixquality=1
$GPRMC,180021.750,A,4305.2535,N,07740.7457,W,5.46,358.87,190619,,,A*72
$GPGGA,180022.000,4305.2540,N,07740.7457,W,1,07,1.37,175.3,M,-34.4,M,,*5F
lng=-77.679092, lat=43.087558, altitude=175.70, speed=5.46, satellites=7, angle=358.8700, fixquality=1
$GPRMC,180022.250,A,4305.2545,N,07740.7457,W,7.30,358.06,190619,,,A*79
$GPGGA,180022.500,4305.2551,N,07740.7457,W,1,07,1.37,174.9,M,-34.4,M,,*51
lng=-77.679092, lat=43.087574, altitude=175.30, speed=7.30, satellites=7, angle=358.0600, fixquality=1
$GPRMC,180022.750,A,4305.2558,N,07740.7458,W,9.29,358.07,190619,,,A*78
$GPGGA,180023.000,4305.2565,N,07740.7458,W,1,07,1.37,174.5,M,-34.4,M,,*51
lng=-77.679092, lat=43.087596, altitude=174.90, speed=9.29, satellites=7, angle=358.0700, fixquality=1
$GPRMC,180023.250,A,4305.2573,N,07740.7459,W,11.01,357.29,190619,,,A*44
$GPGGA,180023.500,4305.2581,N,07740.7459,W,1,07,1.37,174.0,M,-34.4,M,,*5A
lng=-77.679100, lat=43.087623, altitude=174.50, speed=11.01, satellites=7, angle=357.2900, fixquality=1
$GPRMC,180023.750,A,4305.2591,N,07740.7460,W,12.97,355.49,190619,,,A*4F
$GPGGA,180024.000,4305.2602,N,07740.7461,W,1,07,1.37,173.4,M,-34.4,M,,*58
lng=-77.679100, lat=43.087654, altitude=174.00, speed=12.97, satellites=7, angle=355.4900, fixquality=1
$GPRMC,180024.250,A,4305.2613,N,07740.7461,W,16.12,358.35,190619,,,A*4A
$GPGGA,180024.500,4305.2623,N,07740.7462,W,1,07,1.37,172.6,M,-34.4,M,,*5E
lng=-77.679100, lat=43.087688, altitude=173.40, speed=16.12, satellites=7, angle=358.3500, fixquality=1
$GPRMC,180024.750,A,4305.2635,N,07740.7463,W,17.62,358.15,190619,,,A*4D
$GPGGA,180025.000,4305.2646,N,07740.7463,W,1,07,1.37,172.0,M,-34.4,M,,*5E
lng=-77.679100, lat=43.087726, altitude=172.60, speed=17.62, satellites=7, angle=358.1500, fixquality=1
$GPRMC,180025.250,A,4305.2659,N,07740.7464,W,19.08,357.50,190619,,,A*48
$GPGGA,180025.500,4305.2671,N,07740.7465,W,1,07,1.37,171.5,M,-34.4,M,,*5F
lng=-77.679107, lat=43.087768, altitude=172.00, speed=19.08, satellites=7, angle=357.5000, fixquality=1
$GPRMC,180025.750,A,4305.2685,N,07740.7466,W,20.14,357.36,190619,,,A*49
$GPGGA,180026.000,4305.2698,N,07740.7467,W,1,07,1.37,171.0,M,-34.4,M,,*59
lng=-77.679107, lat=43.087810, altitude=171.50, speed=20.14, satellites=7, angle=357.3600, fixquality=1
$GPRMC,180026.250,A,4305.2713,N,07740.7468,W,21.18,357.58,190619,,,A*4A
$GPGGA,180026.500,4305.2727,N,07740.7469,W,1,07,1.37,170.6,M,-34.4,M,,*50
lng=-77.679107, lat=43.087856, altitude=171.00, speed=21.18, satellites=7, angle=357.5800, fixquality=1
$GPRMC,180026.750,A,4305.2743,N,07740.7470,W,22.10,357.47,190619,,,A*46
$GPGGA,180027.000,4305.2758,N,07740.7471,W,1,07,1.37,170.1,M,-34.4,M,,*52
lng=-77.679115, lat=43.087905, altitude=170.60, speed=22.10, satellites=7, angle=357.4700, fixquality=1
$GPRMC,180027.250,A,4305.2774,N,07740.7472,W,23.00,357.49,190619,,,A*4A
$GPGGA,180027.500,4305.2790,N,07740.7473,W,1,07,1.37,169.7,M,-34.4,M,,*5F
lng=-77.679115, lat=43.087955, altitude=170.10, speed=23.00, satellites=7, angle=357.4900, fixquality=1
$GPRMC,180027.750,A,4305.2807,N,07740.7474,W,23.72,357.24,190619,,,A*4C
$GPGGA,180028.000,4305.2824,N,07740.7475,W,1,07,1.37,169.3,M,-34.4,M,,*57
lng=-77.679122, lat=43.088012, altitude=169.70, speed=23.72, satellites=7, angle=357.2400, fixquality=1
$GPRMC,180028.250,A,4305.2841,N,07740.7476,W,24.28,357.43,190619,,,A*4F
$GPGGA,180028.500,4305.2858,N,07740.7477,W,1,07,1.37,168.9,M,-34.4,M,,*50
lng=-77.679122, lat=43.088069, altitude=169.30, speed=24.28, satellites=7, angle=357.4300, fixquality=1
$GPRMC,180028.750,A,4305.2876,N,07740.7478,W,25.07,357.19,190619,,,A*43
$GPGGA,180029.000,4305.2893,N,07740.7479,W,1,07,1.37,168.6,M,-34.4,M,,*52
lng=-77.679130, lat=43.088127, altitude=168.90, speed=25.07, satellites=7, angle=357.1900, fixquality=1
$GPRMC,180029.250,A,4305.2911,N,07740.7480,W,25.10,357.47,190619,,,A*4D
$GPGGA,180029.500,4305.2929,N,07740.7480,W,1,07,1.37,168.5,M,-34.4,M,,*52
lng=-77.679130, lat=43.088184, altitude=168.60, speed=25.10, satellites=7, angle=357.4700, fixquality=1
$GPRMC,180029.750,A,4305.2947,N,07740.7481,W,24.69,357.60,190619,,,A*40
$GPGGA,180030.000,4305.2964,N,07740.7482,W,1,07,1.37,168.3,M,-34.4,M,,*52
lng=-77.679130, lat=43.088249, altitude=168.50, speed=24.69, satellites=7, angle=357.6000, fixquality=1
$GPRMC,180030.250,A,4305.2982,N,07740.7482,W,24.47,357.91,190619,,,A*45
$GPGGA,180030.500,4305.2999,N,07740.7483,W,1,07,1.37,168.2,M,-34.4,M,,*55
lng=-77.679130, lat=43.088306, altitude=168.30, speed=24.47, satellites=7, angle=357.9100, fixquality=1
$GPRMC,180030.750,A,4305.3016,N,07740.7484,W,24.26,358.24,190619,,,A*45
$GPGGA,180031.000,4305.3033,N,07740.7484,W,1,07,1.37,168.2,M,-34.4,M,,*5E
lng=-77.679145, lat=43.088363, altitude=168.20, speed=24.26, satellites=7, angle=358.2400, fixquality=1
$GPRMC,180031.250,A,4305.3050,N,07740.7484,W,23.71,358.20,190619,,,A*42
$GPGGA,180031.500,4305.3067,N,07740.7485,W,1,07,1.37,168.2,M,-34.4,M,,*5B
lng=-77.679145, lat=43.088420, altitude=168.20, speed=23.71, satellites=7, angle=358.2000, fixquality=1
$GPRMC,180031.750,A,4305.3083,N,07740.7485,W,23.47,358.41,190619,,,A*4A
$GPGGA,180032.000,4305.3100,N,07740.7486,W,1,07,1.37,168.1,M,-34.4,M,,*5D
lng=-77.679145, lat=43.088466, altitude=168.20, speed=23.47, satellites=7, angle=358.4100, fixquality=1
$GPRMC,180032.250,A,4305.3116,N,07740.7486,W,23.08,358.37,190619,,,A*48
$GPGGA,180032.500,4305.3132,N,07740.7486,W,1,07,1.37,168.2,M,-34.4,M,,*5A
lng=-77.679145, lat=43.088523, altitude=168.10, speed=23.08, satellites=7, angle=358.3700, fixquality=1
$GPRMC,180032.750,A,4305.3149,N,07740.7486,W,22.74,358.53,190619,,,A*4F
$GPGGA,180033.000,4305.3165,N,07740.7486,W,1,07,1.37,168.3,M,-34.4,M,,*5D
lng=-77.679145, lat=43.088581, altitude=168.20, speed=22.74, satellites=7, angle=358.5300, fixquality=1
$GPRMC,180033.250,A,4305.3181,N,07740.7487,W,22.31,358.84,190619,,,A*45
$GPGGA,180033.500,4305.3197,N,07740.7487,W,1,07,1.37,168.4,M,-34.4,M,,*53
lng=-77.679145, lat=43.088630, altitude=168.30, speed=22.31, satellites=7, angle=358.8400, fixquality=1
$GPRMC,180033.750,A,4305.3213,N,07740.7487,W,22.22,358.70,190619,,,A*41
$GPGGA,180034.000,4305.3229,N,07740.7487,W,1,07,1.37,168.7,M,-34.4,M,,*54
lng=-77.679145, lat=43.088687, altitude=168.40, speed=22.22, satellites=7, angle=358.7000, fixquality=1
$GPRMC,180034.250,A,4305.3244,N,07740.7488,W,21.41,358.71,190619,,,A*49
$GPGGA,180034.500,4305.3259,N,07740.7488,W,1,07,1.37,168.7,M,-34.4,M,,*59
lng=-77.679153, lat=43.088737, altitude=168.70, speed=21.41, satellites=7, angle=358.7100, fixquality=1
$GPRMC,180034.750,A,4305.3273,N,07740.7487,W,20.00,358.59,190619,,,A*49
$GPGGA,180035.000,4305.3287,N,07740.7487,W,1,07,1.37,169.2,M,-34.4,M,,*55
lng=-77.679145, lat=43.088787, altitude=168.70, speed=20.00, satellites=7, angle=358.5900, fixquality=1
$GPRMC,180035.250,A,4305.3301,N,07740.7487,W,19.00,358.66,190619,,,A*4F
$GPGGA,180035.500,4305.3314,N,07740.7487,W,1,07,1.37,169.5,M,-34.4,M,,*5C
lng=-77.679145, lat=43.088832, altitude=169.20, speed=19.00, satellites=7, angle=358.6600, fixquality=1
$GPRMC,180035.750,A,4305.3326,N,07740.7486,W,16.50,359.72,190619,,,A*40
$GPGGA,180036.000,4305.3337,N,07740.7486,W,1,07,1.37,169.9,M,-34.4,M,,*56
lng=-77.679145, lat=43.088874, altitude=169.50, speed=16.50, satellites=7, angle=359.7200, fixquality=1
$GPRMC,180036.250,A,4305.3348,N,07740.7486,W,13.68,359.93,190619,,,A*4F
$GPGGA,180036.500,4305.3357,N,07740.7485,W,1,07,1.37,170.1,M,-34.4,M,,*56
lng=-77.679145, lat=43.088916, altitude=169.90, speed=13.68, satellites=7, angle=359.9300, fixquality=1
$GPRMC,180036.750,A,4305.3365,N,07740.7485,W,11.03,3.61,190619,,,A*48
$GPGGA,180037.000,4305.3372,N,07740.7484,W,1,07,1.37,170.3,M,-34.4,M,,*56
lng=-77.679145, lat=43.088939, altitude=170.10, speed=11.03, satellites=7, angle=3.6100, fixquality=1
$GPRMC,180037.250,A,4305.3379,N,07740.7483,W,9.07,8.81,190619,,,A*7F
$GPGGA,180037.500,4305.3384,N,07740.7482,W,1,07,1.37,170.5,M,-34.4,M,,*5A
lng=-77.679145, lat=43.088966, altitude=170.30, speed=9.07, satellites=7, angle=8.8100, fixquality=1
$GPRMC,180037.750,A,4305.3388,N,07740.7481,W,6.46,14.08,190619,,,A*40
$GPGGA,180038.000,4305.3392,N,07740.7480,W,1,07,1.37,170.8,M,-34.4,M,,*58
lng=-77.679130, lat=43.088981, altitude=170.50, speed=6.46, satellites=7, angle=14.0800, fixquality=1
$GPRMC,180038.250,A,4305.3395,N,07740.7479,W,5.11,17.22,190619,,,A*4B
$GPGGA,180038.500,4305.3398,N,07740.7478,W,1,07,1.37,170.9,M,-34.4,M,,*51
lng=-77.679130, lat=43.088989, altitude=170.80, speed=5.11, satellites=7, angle=17.2200, fixquality=1
$GPRMC,180038.750,A,4305.3401,N,07740.7477,W,4.66,13.94,190619,,,A*42
$GPGGA,180039.000,4305.3404,N,07740.7476,W,1,07,1.37,171.1,M,-34.4,M,,*50
lng=-77.679122, lat=43.089004, altitude=170.90, speed=4.66, satellites=7, angle=13.9400, fixquality=1
$GPRMC,180039.250,A,4305.3407,N,07740.7475,W,4.37,7.67,190619,,,A*7F
$GPGGA,180039.500,4305.3410,N,07740.7475,W,1,07,1.37,171.5,M,-34.4,M,,*57
lng=-77.679122, lat=43.089012, altitude=171.10, speed=4.37, satellites=7, angle=7.6700, fixquality=1
$GPRMC,180039.750,A,4305.3414,N,07740.7475,W,4.89,357.46,190619,,,A*78
$GPGGA,180040.000,4305.3419,N,07740.7475,W,1,07,1.37,171.8,M,-34.4,M,,*58
lng=-77.679122, lat=43.089023, altitude=171.50, speed=4.89, satellites=7, angle=357.4600, fixquality=1
$GPRMC,180040.250,A,4305.3422,N,07740.7477,W,5.67,348.14,190619,,,A*7C
$GPGGA,180040.500,4305.3427,N,07740.7479,W,1,07,1.37,171.8,M,-34.4,M,,*5C
lng=-77.679122, lat=43.089038, altitude=171.80, speed=5.67, satellites=7, angle=348.1400, fixquality=1
$GPRMC,180040.750,A,4305.3432,N,07740.7482,W,7.28,337.99,190619,,,A*76
$GPGGA,180041.000,4305.3437,N,07740.7487,W,1,07,1.37,171.7,M,-34.4,M,,*57
lng=-77.679130, lat=43.089054, altitude=171.80, speed=7.28, satellites=7, angle=337.9900, fixquality=1
$GPRMC,180041.250,A,4305.3442,N,07740.7492,W,8.73,328.74,190619,,,A*78
$GPGGA,180041.500,4305.3447,N,07740.7498,W,1,07,1.37,171.7,M,-34.4,M,,*5B
lng=-77.679153, lat=43.089069, altitude=171.70, speed=8.73, satellites=7, angle=328.7400, fixquality=1
$GPRMC,180041.750,A,4305.3451,N,07740.7505,W,10.25,316.70,190619,,,A*43
$GPGGA,180042.000,4305.3457,N,07740.7514,W,1,07,1.37,171.7,M,-34.4,M,,*59
lng=-77.679176, lat=43.089088, altitude=171.70, speed=10.25, satellites=7, angle=316.7000, fixquality=1
$GPRMC,180042.250,A,4305.3461,N,07740.7524,W,11.93,308.83,190619,,,A*4A
$GPGGA,180042.500,4305.3465,N,07740.7535,W,1,07,1.31,171.5,M,-34.4,M,,*5A
lng=-77.679206, lat=43.089103, altitude=171.70, speed=11.93, satellites=7, angle=308.8300, fixquality=1
$GPRMC,180042.750,A,4305.3470,N,07740.7547,W,14.10,301.62,190619,,,A*42
$GPGGA,180043.000,4305.3475,N,07740.7559,W,1,07,1.37,171.4,M,-34.4,M,,*52
lng=-77.679244, lat=43.089118, altitude=171.50, speed=14.10, satellites=7, angle=301.6200, fixquality=1
$GPRMC,180043.250,A,4305.3480,N,07740.7573,W,15.48,298.31,190619,,,A*45
$GPGGA,180043.500,4305.3483,N,07740.7588,W,1,07,1.31,171.3,M,-34.4,M,,*53
lng=-77.679290, lat=43.089134, altitude=171.40, speed=15.48, satellites=7, angle=298.3100, fixquality=1
$GPRMC,180043.750,A,4305.3485,N,07740.7605,W,17.45,290.68,190619,,,A*4C
$GPGGA,180044.000,4305.3487,N,07740.7623,W,1,07,1.31,171.0,M,-34.4,M,,*54
lng=-77.679344, lat=43.089145, altitude=171.30, speed=17.45, satellites=7, angle=290.6800, fixquality=1
$GPRMC,180044.250,A,4305.3488,N,07740.7641,W,18.66,285.16,190619,,,A*40
$GPGGA,180044.500,4305.3489,N,07740.7659,W,1,07,1.31,170.8,M,-34.4,M,,*5B
lng=-77.679405, lat=43.089145, altitude=171.00, speed=18.66, satellites=7, angle=285.1600, fixquality=1
$GPRMC,180044.750,A,4305.3490,N,07740.7679,W,19.88,280.81,190619,,,A*4D
$GPGGA,180045.000,4305.3491,N,07740.7699,W,1,07,1.38,170.6,M,-34.4,M,,*5D
lng=-77.679466, lat=43.089153, altitude=170.80, speed=19.88, satellites=7, angle=280.8100, fixquality=1
$GPRMC,180045.250,A,4305.3493,N,07740.7719,W,20.79,278.49,190619,,,A*4A
$GPGGA,180045.500,4305.3493,N,07740.7740,W,1,07,1.31,170.4,M,-34.4,M,,*54
lng=-77.679534, lat=43.089153, altitude=170.60, speed=20.79, satellites=7, angle=278.4900, fixquality=1
$GPRMC,180045.750,A,4305.3492,N,07740.7762,W,21.70,275.42,190619,,,A*4C
$GPGGA,180046.000,4305.3491,N,07740.7784,W,1,07,1.38,170.1,M,-34.4,M,,*54
lng=-77.679603, lat=43.089153, altitude=170.40, speed=21.70, satellites=7, angle=275.4200, fixquality=1
$GPRMC,180046.250,A,4305.3490,N,07740.7807,W,22.74,272.53,190619,,,A*44
$GPGGA,180046.500,4305.3489,N,07740.7830,W,1,07,1.31,169.9,M,-34.4,M,,*51
lng=-77.679679, lat=43.089153, altitude=170.10, speed=22.74, satellites=7, angle=272.5300, fixquality=1
$GPRMC,180046.750,A,4305.3488,N,07740.7853,W,23.72,270.94,190619,,,A*47
$GPGGA,180047.000,4305.3488,N,07740.7876,W,1,07,1.38,169.6,M,-34.4,M,,*50
lng=-77.679756, lat=43.089145, altitude=169.90, speed=23.72, satellites=7, angle=270.9400, fixquality=1
$GPRMC,180047.250,A,4305.3487,N,07740.7900,W,24.10,270.31,190619,,,A*47
$GPGGA,180047.500,4305.3486,N,07740.7923,W,1,07,1.38,169.3,M,-34.4,M,,*5F
lng=-77.679832, lat=43.089145, altitude=169.60, speed=24.10, satellites=7, angle=270.3100, fixquality=1
$GPRMC,180047.750,A,4305.3485,N,07740.7946,W,24.15,269.29,190619,,,A*46
$GPGGA,180048.000,4305.3484,N,07740.7970,W,1,07,1.38,169.0,M,-34.4,M,,*52
lng=-77.679908, lat=43.089145, altitude=169.30, speed=24.15, satellites=7, angle=269.2900, fixquality=1
$GPRMC,180048.250,A,4305.3484,N,07740.7993,W,24.02,268.61,190619,,,A*4E
$GPGGA,180048.500,4305.3481,N,07740.8015,W,1,07,1.38,168.6,M,-34.4,M,,*50
lng=-77.679985, lat=43.089145, altitude=169.00, speed=24.02, satellites=7, angle=268.6100, fixquality=1
$GPRMC,180048.750,A,4305.3480,N,07740.8038,W,23.80,267.74,190619,,,A*4E
$GPGGA,180049.000,4305.3478,N,07740.8061,W,1,07,1.38,168.3,M,-34.4,M,,*54
lng=-77.680061, lat=43.089134, altitude=168.60, speed=23.80, satellites=7, angle=267.7400, fixquality=1
$GPRMC,180049.250,A,4305.3477,N,07740.8084,W,23.48,267.67,190619,,,A*43
$GPGGA,180049.500,4305.3477,N,07740.8106,W,1,07,1.38,168.0,M,-34.4,M,,*5D
lng=-77.680145, lat=43.089126, altitude=168.30, speed=23.48, satellites=7, angle=267.6700, fixquality=1
$GPRMC,180049.750,A,4305.3476,N,07740.8128,W,22.97,267.89,190619,,,A*43
$GPGGA,180050.000,4305.3476,N,07740.8150,W,1,07,1.38,167.8,M,-34.4,M,,*55
lng=-77.680213, lat=43.089126, altitude=168.00, speed=22.97, satellites=7, angle=267.8900, fixquality=1
$GPRMC,180050.250,A,4305.3475,N,07740.8171,W,22.53,268.34,190619,,,A*40
$GPGGA,180050.500,4305.3475,N,07740.8192,W,1,07,1.38,167.6,M,-34.4,M,,*53
lng=-77.680282, lat=43.089126, altitude=167.80, speed=22.53, satellites=7, angle=268.3400, fixquality=1
$GPRMC,180050.750,A,4305.3474,N,07740.8214,W,22.13,268.42,190619,,,A*41
$GPGGA,180051.000,4305.3474,N,07740.8234,W,1,07,1.38,167.5,M,-34.4,M,,*5A
lng=-77.680351, lat=43.089118, altitude=167.60, speed=22.13, satellites=7, angle=268.4200, fixquality=1
$GPRMC,180051.250,A,4305.3473,N,07740.8255,W,21.74,268.62,190619,,,A*47
$GPGGA,180051.500,4305.3473,N,07740.8276,W,1,07,1.38,167.5,M,-34.4,M,,*5E
lng=-77.680427, lat=43.089118, altitude=167.50, speed=21.74, satellites=7, angle=268.6200, fixquality=1
$GPRMC,180051.750,A,4305.3472,N,07740.8296,W,21.31,268.49,190619,,,A*44
$GPGGA,180052.000,4305.3472,N,07740.8316,W,1,07,1.38,167.5,M,-34.4,M,,*5E
lng=-77.680496, lat=43.089118, altitude=167.50, speed=21.31, satellites=7, angle=268.4900, fixquality=1
$GPRMC,180052.250,A,4305.3471,N,07740.8337,W,21.17,268.31,190619,,,A*40
$GPGGA,180052.500,4305.3471,N,07740.8357,W,1,07,1.38,167.6,M,-34.4,M,,*5E
lng=-77.680557, lat=43.089118, altitude=167.50, speed=21.17, satellites=7, angle=268.3100, fixquality=1
$GPRMC,180052.750,A,4305.3471,N,07740.8376,W,20.69,268.26,190619,,,A*4E
$GPGGA,180053.000,4305.3470,N,07740.8396,W,1,07,1.38,167.7,M,-34.4,M,,*57
lng=-77.680625, lat=43.089118, altitude=167.60, speed=20.69, satellites=7, angle=268.2600, fixquality=1
$GPRMC,180053.250,A,4305.3470,N,07740.8416,W,20.58,267.48,190619,,,A*4F
$GPGGA,180053.500,4305.3469,N,07740.8435,W,1,07,1.38,167.7,M,-34.4,M,,*54
lng=-77.680694, lat=43.089118, altitude=167.70, speed=20.58, satellites=7, angle=267.4800, fixquality=1
$GPRMC,180053.750,A,4305.3468,N,07740.8455,W,20.58,266.70,190619,,,A*4E
$GPGGA,180054.000,4305.3468,N,07740.8475,W,1,07,1.38,167.9,M,-34.4,M,,*5D
lng=-77.680763, lat=43.089111, altitude=167.70, speed=20.58, satellites=7, angle=266.7000, fixquality=1
$GPRMC,180054.250,A,4305.3467,N,07740.8495,W,20.80,266.75,190619,,,A*4F
$GPGGA,180054.500,4305.3467,N,07740.8515,W,1,07,1.38,167.9,M,-34.4,M,,*50
lng=-77.680824, lat=43.089111, altitude=167.90, speed=20.80, satellites=7, angle=266.7500, fixquality=1
$GPRMC,180054.750,A,4305.3467,N,07740.8535,W,21.21,267.96,190619,,,A*47
$GPGGA,180055.000,4305.3468,N,07740.8555,W,1,07,1.38,168.1,M,-34.4,M,,*58
lng=-77.680892, lat=43.089111, altitude=167.90, speed=21.21, satellites=7, angle=267.9600, fixquality=1
$GPRMC,180055.250,A,4305.3469,N,07740.8576,W,21.44,269.37,190619,,,A*4C
$GPGGA,180055.500,4305.3469,N,07740.8597,W,1,07,1.38,168.1,M,-34.4,M,,*52
lng=-77.680953, lat=43.089111, altitude=168.10, speed=21.44, satellites=7, angle=269.3700, fixquality=1
$GPRMC,180055.750,A,4305.3471,N,07740.8618,W,21.78,270.75,190619,,,A*4A
$GPGGA,180056.000,4305.3472,N,07740.8639,W,1,07,1.38,168.0,M,-34.4,M,,*58
lng=-77.681030, lat=43.089118, altitude=168.10, speed=21.78, satellites=7, angle=270.7500, fixquality=1
$GPRMC,180056.250,A,4305.3473,N,07740.8660,W,21.86,271.70,190619,,,A*44
$GPGGA,180056.500,4305.3474,N,07740.8680,W,1,07,1.38,168.1,M,-34.4,M,,*58
lng=-77.681106, lat=43.089118, altitude=168.00, speed=21.86, satellites=7, angle=271.7000, fixquality=1
$GPRMC,180056.750,A,4305.3476,N,07740.8701,W,21.75,272.94,190619,,,A*47
$GPGGA,180057.000,4305.3478,N,07740.8721,W,1,07,1.38,168.2,M,-34.4,M,,*59
lng=-77.681167, lat=43.089126, altitude=168.10, speed=21.75, satellites=7, angle=272.9400, fixquality=1
$GPRMC,180057.250,A,4305.3480,N,07740.8741,W,21.44,274.44,190619,,,A*47
$GPGGA,180057.500,4305.3482,N,07740.8761,W,1,07,1.31,168.2,M,-34.4,M,,*54
lng=-77.681236, lat=43.089134, altitude=168.20, speed=21.44, satellites=7, angle=274.4400, fixquality=1
$GPRMC,180057.750,A,4305.3485,N,07740.8780,W,20.59,275.73,190619,,,A*42
$GPGGA,180058.000,4305.3490,N,07740.8799,W,1,07,1.38,168.3,M,-34.4,M,,*52
lng=-77.681297, lat=43.089145, altitude=168.20, speed=20.59, satellites=7, angle=275.7300, fixquality=1
$GPRMC,180058.250,A,4305.3495,N,07740.8817,W,20.05,279.82,190619,,,A*43
$GPGGA,180058.500,4305.3501,N,07740.8835,W,1,07,1.38,168.4,M,-34.4,M,,*50
lng=-77.681365, lat=43.089160, altitude=168.30, speed=20.05, satellites=7, angle=279.8200, fixquality=1
$GPRMC,180058.750,A,4305.3507,N,07740.8852,W,19.31,285.03,190619,,,A*4A
$GPGGA,180059.000,4305.3513,N,07740.8869,W,1,07,1.38,168.5,M,-34.4,M,,*5F
lng=-77.681419, lat=43.089176, altitude=168.40, speed=19.31, satellites=7, angle=285.0300, fixquality=1
$GPRMC,180059.250,A,4305.3518,N,07740.8885,W,18.77,289.32,190619,,,A*47
$GPGGA,180059.500,4305.3524,N,07740.8901,W,1,07,1.38,168.6,M,-34.4,M,,*52
lng=-77.681480, lat=43.089191, altitude=168.50, speed=18.77, satellites=7, angle=289.3200, fixquality=1
$GPRMC,180059.750,A,4305.3530,N,07740.8916,W,17.82,294.10,190619,,,A*4A
$GPGGA,180100.000,4305.3536,N,07740.8930,W,1,07,1.38,168.7,M,-34.4,M,,*5A
lng=-77.681526, lat=43.089218, altitude=168.60, speed=17.82, satellites=7, angle=294.1000, fixquality=1
$GPRMC,180100.250,A,4305.3542,N,07740.8944,W,16.77,298.13,190619,,,A*44
$GPGGA,180100.500,4305.3548,N,07740.8956,W,1,07,1.38,168.8,M,-34.4,M,,*59
lng=-77.681571, lat=43.089233, altitude=168.70, speed=16.77, satellites=7, angle=298.1300, fixquality=1
$GPRMC,180100.750,A,4305.3553,N,07740.8967,W,14.98,302.26,190619,,,A*47
$GPGGA,180101.000,4305.3559,N,07740.8977,W,1,06,1.47,168.9,M,-34.4,M,,*56
lng=-77.681610, lat=43.089256, altitude=168.80, speed=14.98, satellites=7, angle=302.2600, fixquality=1
$GPRMC,180101.250,A,4305.3564,N,07740.8985,W,12.41,307.48,190619,,,A*44
$GPGGA,180101.500,4305.3568,N,07740.8991,W,1,06,1.47,169.1,M,-34.4,M,,*50
lng=-77.681640, lat=43.089275, altitude=168.90, speed=12.41, satellites=6, angle=307.4800, fixquality=1
$GPRMC,180101.750,A,4305.3571,N,07740.8997,W,8.96,310.37,190619,,,A*79
$GPGGA,180102.000,4305.3573,N,07740.9002,W,1,06,1.47,169.1,M,-34.4,M,,*5E
lng=-77.681663, lat=43.089282, altitude=169.10, speed=8.96, satellites=6, angle=310.3700, fixquality=1
$GPRMC,180102.250,A,4305.3574,N,07740.9007,W,6.25,307.11,190619,,,A*7F
$GPGGA,180102.500,4305.3575,N,07740.9009,W,1,06,1.42,169.1,M,-34.4,M,,*53
lng=-77.681678, lat=43.089290, altitude=169.10, speed=6.25, satellites=6, angle=307.1100, fixquality=1
$GPRMC,180102.750,A,4305.3575,N,07740.9011,W,2.84,305.37,190619,,,A*75
$GPGGA,180103.000,4305.3574,N,07740.9011,W,1,05,1.61,169.1,M,-34.4,M,,*5D
lng=-77.681678, lat=43.089290, altitude=169.10, speed=2.84, satellites=6, angle=305.3700, fixquality=1
$GPRMC,180103.250,A,4305.3574,N,07740.9011,W,0.09,305.37,190619,,,A*77
$GPGGA,180103.500,4305.3572,N,07740.9010,W,1,05,1.61,169.0,M,-34.4,M,,*5E
lng=-77.681678, lat=43.089290, altitude=169.10, speed=0.09, satellites=5, angle=305.3700, fixquality=1
$GPRMC,180103.750,A,4305.3571,N,07740.9009,W,0.06,305.37,190619,,,A*71
$GPGGA,180104.000,4305.3570,N,07740.9008,W,1,05,1.61,168.7,M,-34.4,M,,*51
lng=-77.681678, lat=43.089282, altitude=169.00, speed=0.06, satellites=5, angle=305.3700, fixquality=1
$GPRMC,180104.250,A,4305.3568,N,07740.9007,W,0.09,305.37,190619,,,A*7A
$GPGGA,180104.500,4305.3567,N,07740.9005,W,1,05,1.61,168.5,M,-34.4,M,,*5D
lng=-77.681678, lat=43.089282, altitude=168.70, speed=0.09, satellites=5, angle=305.3700, fixquality=1
$GPRMC,180104.750,A,4305.3566,N,07740.9004,W,0.09,305.37,190619,,,A*72
$GPGGA,180105.000,4305.3566,N,07740.9004,W,1,06,1.42,168.3,M,-34.4,M,,*5D
lng=-77.681671, lat=43.089275, altitude=168.50, speed=0.09, satellites=5, angle=305.3700, fixquality=1
$GPRMC,180105.250,A,4305.3564,N,07740.9005,W,0.05,305.37,190619,,,A*79
$GPGGA,180105.500,4305.3564,N,07740.9006,W,1,06,1.42,168.1,M,-34.4,M,,*5A
lng=-77.681671, lat=43.089275, altitude=168.30, speed=0.05, satellites=6, angle=305.3700, fixquality=1
$GPRMC,180105.750,A,4305.3562,N,07740.9007,W,0.02,305.37,190619,,,A*7F
$GPGGA,180106.000,4305.3562,N,07740.9007,W,1,06,1.42,167.8,M,-34.4,M,,*5D
lng=-77.681678, lat=43.089267, altitude=168.10, speed=0.02, satellites=6, angle=305.3700, fixquality=1
$GPRMC,180106.250,A,4305.3562,N,07740.9007,W,0.00,305.37,190619,,,A*7B
$GPGGA,180106.500,4305.3562,N,07740.9007,W,1,06,1.42,167.7,M,-34.4,M,,*57
lng=-77.681678, lat=43.089267, altitude=167.80, speed=0.00, satellites=6, angle=305.3700, fixquality=1
$GPRMC,180106.750,A,4305.3562,N,07740.9007,W,0.16,305.37,190619,,,A*79
$GPGGA,180107.000,4305.3563,N,07740.9007,W,1,06,1.47,167.7,M,-34.4,M,,*57
lng=-77.681678, lat=43.089267, altitude=167.70, speed=0.16, satellites=6, angle=305.3700, fixquality=1
$GPRMC,180107.250,A,4305.3565,N,07740.9008,W,0.26,305.37,190619,,,A*76
$GPGGA,180107.500,4305.3569,N,07740.9007,W,1,06,1.47,167.8,M,-34.4,M,,*57
lng=-77.681678, lat=43.089275, altitude=167.70, speed=0.26, satellites=6, angle=305.3700, fixquality=1
$GPRMC,180107.750,A,4305.3577,N,07740.9006,W,5.88,11.61,190619,,,A*4A
$GPGGA,180108.000,4305.3585,N,07740.9004,W,1,06,1.47,167.9,M,-34.4,M,,*5D
lng=-77.681671, lat=43.089298, altitude=167.80, speed=5.88, satellites=6, angle=11.6100, fixquality=1
$GPRMC,180108.250,A,4305.3592,N,07740.9002,W,8.57,16.20,190619,,,A*42
$GPGGA,180108.500,4305.3601,N,07740.8997,W,1,06,1.42,168.0,M,-34.4,M,,*56
lng=-77.681671, lat=43.089321, altitude=167.90, speed=8.57, satellites=6, angle=16.2000, fixquality=1
$GPRMC,180108.750,A,4305.3610,N,07740.8991,W,11.97,27.00,190619,,,A*78
$GPGGA,180109.000,4305.3621,N,07740.8983,W,1,06,1.47,168.2,M,-34.4,M,,*52
lng=-77.681648, lat=43.089347, altitude=168.00, speed=11.97, satellites=6, angle=27.0000, fixquality=1
$GPRMC,180109.250,A,4305.3631,N,07740.8973,W,15.51,33.67,190619,,,A*79
$GPGGA,180109.500,4305.3642,N,07740.8964,W,1,06,1.47,168.3,M,-34.4,M,,*5A
lng=-77.681625, lat=43.089389, altitude=168.20, speed=15.51, satellites=6, angle=33.6700, fixquality=1
$GPRMC,180109.750,A,4305.3652,N,07740.8952,W,18.21,37.91,190619,,,A*7D
$GPGGA,180110.000,4305.3665,N,07740.8941,W,1,06,1.47,168.5,M,-34.4,M,,*53
lng=-77.681587, lat=43.089420, altitude=168.30, speed=18.21, satellites=6, angle=37.9100, fixquality=1
$GPRMC,180110.250,A,4305.3678,N,07740.8928,W,21.17,38.47,190619,,,A*7E
$GPGGA,180110.500,4305.3691,N,07740.8915,W,1,06,1.47,168.6,M,-34.4,M,,*5F
lng=-77.681541, lat=43.089462, altitude=168.50, speed=21.17, satellites=6, angle=38.4700, fixquality=1
$GPRMC,180110.750,A,4305.3704,N,07740.8900,W,23.19,39.72,190619,,,A*70
$GPGGA,180111.000,4305.3718,N,07740.8886,W,1,06,1.47,168.7,M,-34.4,M,,*51
lng=-77.681503, lat=43.089511, altitude=168.60, speed=23.19, satellites=6, angle=39.7200, fixquality=1
$GPRMC,180111.250,A,4305.3733,N,07740.8870,W,25.06,39.80,190619,,,A*73
$GPGGA,180111.500,4305.3748,N,07740.8854,W,1,06,1.42,168.9,M,-34.4,M,,*55
lng=-77.681449, lat=43.089557, altitude=168.70, speed=25.06, satellites=6, angle=39.8000, fixquality=1
$GPRMC,180111.750,A,4305.3764,N,07740.8838,W,27.25,40.20,190619,,,A*7F
$GPGGA,180112.000,4305.3782,N,07740.8820,W,1,06,1.42,169.0,M,-34.4,M,,*5E
lng=-77.681396, lat=43.089607, altitude=168.90, speed=27.25, satellites=6, angle=40.2000, fixquality=1
$GPRMC,180112.250,A,4305.3798,N,07740.8802,W,29.69,39.22,190619,,,A*79
$GPGGA,180112.500,4305.3816,N,07740.8784,W,1,06,1.42,169.0,M,-34.4,M,,*58
lng=-77.681343, lat=43.089664, altitude=169.00, speed=29.69, satellites=6, angle=39.2200, fixquality=1
$GPRMC,180112.750,A,4305.3834,N,07740.8766,W,31.56,38.66,190619,,,A*7C
$GPGGA,180113.000,4305.3852,N,07740.8747,W,1,06,1.42,169.0,M,-34.4,M,,*53
lng=-77.681274, lat=43.089721, altitude=169.00, speed=31.56, satellites=6, angle=38.6600, fixquality=1
$GPRMC,180113.250,A,4305.3870,N,07740.8728,W,32.07,38.74,190619,,,A*76
$GPGGA,180113.500,4305.3888,N,07740.8709,W,1,06,1.42,169.0,M,-34.4,M,,*5B
lng=-77.681205, lat=43.089786, altitude=169.00, speed=32.07, satellites=6, angle=38.7400, fixquality=1
$GPRMC,180113.750,A,4305.3908,N,07740.8689,W,32.73,37.99,190619,,,A*78
$GPGGA,180114.000,4305.3927,N,07740.8670,W,1,06,1.42,169.0,M,-34.4,M,,*52
lng=-77.681152, lat=43.089843, altitude=169.00, speed=32.73, satellites=6, angle=37.9900, fixquality=1
$GPRMC,180114.250,A,4305.3947,N,07740.8650,W,34.67,37.93,190619,,,A*7C
$GPGGA,180114.500,4305.3967,N,07740.8629,W,1,06,1.42,169.0,M,-34.4,M,,*5F
lng=-77.681083, lat=43.089908, altitude=169.00, speed=34.67, satellites=6, angle=37.9300, fixquality=1
$GPRMC,180114.750,A,4305.3988,N,07740.8609,W,36.05,37.67,190619,,,A*7B
$GPGGA,180115.000,4305.4008,N,07740.8588,W,1,06,1.42,169.0,M,-34.4,M,,*54
lng=-77.681015, lat=43.089981, altitude=169.00, speed=36.05, satellites=6, angle=37.6700, fixquality=1
$GPRMC,180115.250,A,4305.4029,N,07740.8567,W,36.49,37.83,190619,,,A*73
$GPGGA,180115.500,4305.4050,N,07740.8545,W,1,06,1.42,169.0,M,-34.4,M,,*5D
lng=-77.680946, lat=43.090045, altitude=169.00, speed=36.49, satellites=6, angle=37.8300, fixquality=1
$GPRMC,180115.750,A,4305.4071,N,07740.8523,W,37.12,38.50,190619,,,A*75
$GPGGA,180116.000,4305.4092,N,07740.8501,W,1,06,1.42,169.0,M,-34.4,M,,*55
lng=-77.680877, lat=43.090122, altitude=169.00, speed=37.12, satellites=6, angle=38.5000, fixquality=1
$GPRMC,180116.250,A,4305.4113,N,07740.8479,W,37.57,38.16,190619,,,A*7B
$GPGGA,180116.500,4305.4134,N,07740.8457,W,1,06,1.42,168.9,M,-34.4,M,,*57
lng=-77.680793, lat=43.090187, altitude=169.00, speed=37.57, satellites=6, angle=38.1600, fixquality=1
$GPRMC,180116.750,A,4305.4155,N,07740.8435,W,37.79,37.80,190619,,,A*78
$GPGGA,180117.000,4305.4176,N,07740.8413,W,1,06,1.42,168.9,M,-34.4,M,,*55
lng=-77.680717, lat=43.090259, altitude=168.90, speed=37.79, satellites=6, angle=37.8000, fixquality=1
$GPRMC,180117.250,A,4305.4197,N,07740.8391,W,37.53,37.58,190619,,,A*76
$GPGGA,180117.500,4305.4217,N,07740.8369,W,1,06,1.42,168.8,M,-34.4,M,,*5F
lng=-77.680648, lat=43.090332, altitude=168.90, speed=37.53, satellites=6, angle=37.5800, fixquality=1
$GPRMC,180117.750,A,4305.4238,N,07740.8347,W,37.16,37.67,190619,,,A*73
$GPGGA,180118.000,4305.4258,N,07740.8325,W,1,06,1.42,168.7,M,-34.4,M,,*59
lng=-77.680572, lat=43.090396, altitude=168.80, speed=37.16, satellites=6, angle=37.6700, fixquality=1
$GPRMC,180118.250,A,4305.4279,N,07740.8304,W,36.71,37.71,190619,,,A*7C
$GPGGA,180118.500,4305.4299,N,07740.8282,W,1,06,1.42,168.6,M,-34.4,M,,*5C
lng=-77.680511, lat=43.090461, altitude=168.70, speed=36.71, satellites=6, angle=37.7100, fixquality=1
$GPRMC,180118.750,A,4305.4319,N,07740.8260,W,36.61,37.65,190619,,,A*79
$GPGGA,180119.000,4305.4339,N,07740.8239,W,1,06,1.42,168.4,M,-34.4,M,,*51
lng=-77.680435, lat=43.090534, altitude=168.60, speed=36.61, satellites=6, angle=37.6500, fixquality=1
$GPRMC,180119.250,A,4305.4359,N,07740.8217,W,36.96,37.56,190619,,,A*71
$GPGGA,180119.500,4305.4380,N,07740.8195,W,1,06,1.42,168.3,M,-34.4,M,,*54
lng=-77.680366, lat=43.090599, altitude=168.40, speed=36.96, satellites=6, angle=37.5600, fixquality=1
$GPRMC,180119.750,A,4305.4401,N,07740.8173,W,37.36,37.48,190619,,,A*7B
$GPGGA,180120.000,4305.4422,N,07740.8151,W,1,06,1.42,168.2,M,-34.4,M,,*5D
lng=-77.680290, lat=43.090663, altitude=168.30, speed=37.36, satellites=6, angle=37.4800, fixquality=1
$GPRMC,180120.250,A,4305.4443,N,07740.8128,W,38.14,37.32,190619,,,A*7E
$GPGGA,180120.500,4305.4465,N,07740.8106,W,1,06,1.42,168.0,M,-34.4,M,,*5B
lng=-77.680213, lat=43.090740, altitude=168.20, speed=38.14, satellites=6, angle=37.3200, fixquality=1
$GPRMC,180120.750,A,4305.4488,N,07740.8083,W,39.18,37.19,190619,,,A*78
$GPGGA,180121.000,4305.4511,N,07740.8060,W,1,06,1.42,167.9,M,-34.4,M,,*5A
lng=-77.680137, lat=43.090812, altitude=168.00, speed=39.18, satellites=6, angle=37.1900, fixquality=1
$GPRMC,180121.250,A,4305.4534,N,07740.8037,W,40.18,36.94,190619,,,A*7F
$GPGGA,180121.500,4305.4557,N,07740.8013,W,1,06,1.42,167.8,M,-34.4,M,,*58
lng=-77.680061, lat=43.090892, altitude=167.90, speed=40.18, satellites=6, angle=36.9400, fixquality=1
$GPRMC,180121.750,A,4305.4582,N,07740.7990,W,41.28,36.63,190619,,,A*76
$GPGGA,180122.000,4305.4606,N,07740.7966,W,1,06,1.42,167.7,M,-34.4,M,,*52
lng=-77.679977, lat=43.090965, altitude=167.80, speed=41.28, satellites=6, angle=36.6300, fixquality=1
$GPRMC,180122.250,A,4305.4630,N,07740.7942,W,42.32,36.48,190619,,,A*74
$GPGGA,180122.500,4305.4655,N,07740.7918,W,1,06,1.42,167.6,M,-34.4,M,,*59
lng=-77.679908, lat=43.091049, altitude=167.70, speed=42.32, satellites=6, angle=36.4800, fixquality=1
$GPRMC,180122.750,A,4305.4680,N,07740.7895,W,42.88,36.01,190619,,,A*7D
$GPGGA,180123.000,4305.4705,N,07740.7871,W,1,06,1.42,167.6,M,-34.4,M,,*57
lng=-77.679824, lat=43.091129, altitude=167.60, speed=42.88, satellites=6, angle=36.0100, fixquality=1
$GPRMC,180123.250,A,4305.4730,N,07740.7848,W,43.08,35.25,190619,,,A*7F
$GPGGA,180123.500,4305.4755,N,07740.7825,W,1,06,1.42,167.6,M,-34.4,M,,*56
lng=-77.679740, lat=43.091220, altitude=167.60, speed=43.08, satellites=6, angle=35.2500, fixquality=1
$GPRMC,180123.750,A,4305.4781,N,07740.7803,W,43.33,33.90,190619,,,A*7F
$GPGGA,180124.000,4305.4808,N,07740.7782,W,1,06,1.42,167.6,M,-34.4,M,,*51
lng=-77.679672, lat=43.091300, altitude=167.60, speed=43.33, satellites=6, angle=33.9000, fixquality=1
$GPRMC,180124.250,A,4305.4835,N,07740.7760,W,43.62,32.15,190619,,,A*7F
$GPGGA,180124.500,4305.4862,N,07740.7740,W,1,06,1.42,167.6,M,-34.4,M,,*56
lng=-77.679595, lat=43.091388, altitude=167.60, speed=43.62, satellites=6, angle=32.1500, fixquality=1
$GPRMC,180124.750,A,4305.4890,N,07740.7721,W,43.92,29.98,190619,,,A*70
$GPGGA,180125.000,4305.4918,N,07740.7702,W,1,06,1.42,167.5,M,-34.4,M,,*5B
lng=-77.679534, lat=43.091480, altitude=167.60, speed=43.92, satellites=6, angle=29.9800, fixquality=1
$GPRMC,180125.250,A,4305.4947,N,07740.7683,W,44.09,28.11,190619,,,A*73
$GPGGA,180125.500,4305.4974,N,07740.7665,W,1,06,1.42,167.6,M,-34.4,M,,*57
lng=-77.679466, lat=43.091575, altitude=167.50, speed=44.09, satellites=6, angle=28.1100, fixquality=1
$GPRMC,180125.750,A,4305.5003,N,07740.7648,W,43.79,26.05,190619,,,A*72
$GPGGA,180126.000,4305.5032,N,07740.7631,W,1,06,1.47,167.6,M,-34.4,M,,*5F
lng=-77.679412, lat=43.091674, altitude=167.60, speed=43.79, satellites=6, angle=26.0500, fixquality=1
$GPRMC,180126.250,A,4305.5060,N,07740.7615,W,43.55,24.66,190619,,,A*70
$GPGGA,180126.500,4305.5088,N,07740.7599,W,1,07,1.38,167.6,M,-34.4,M,,*53
lng=-77.679359, lat=43.091762, altitude=167.60, speed=43.55, satellites=6, angle=24.6600, fixquality=1
$GPRMC,180126.750,A,4305.5116,N,07740.7583,W,43.47,23.86,190619,,,A*73
$GPGGA,180127.000,4305.5143,N,07740.7566,W,1,07,1.38,167.5,M,-34.4,M,,*52
lng=-77.679306, lat=43.091861, altitude=167.60, speed=43.47, satellites=7, angle=23.8600, fixquality=1
$GPRMC,180127.250,A,4305.5170,N,07740.7550,W,42.97,23.86,190619,,,A*75
$GPGGA,180127.500,4305.5198,N,07740.7534,W,1,07,1.38,167.5,M,-34.4,M,,*56
lng=-77.679244, lat=43.091953, altitude=167.50, speed=42.97, satellites=7, angle=23.8600, fixquality=1
$GPRMC,180127.750,A,4305.5225,N,07740.7518,W,42.91,23.23,190619,,,A*76
$GPGGA,180128.000,4305.5252,N,07740.7503,W,1,07,1.38,167.3,M,-34.4,M,,*5B
lng=-77.679199, lat=43.092041, altitude=167.50, speed=42.91, satellites=7, angle=23.2300, fixquality=1
$GPRMC,180128.250,A,4305.5279,N,07740.7488,W,42.65,22.73,190619,,,A*72
$GPGGA,180128.500,4305.5306,N,07740.7473,W,1,07,1.38,167.3,M,-34.4,M,,*58
lng=-77.679153, lat=43.092128, altitude=167.30, speed=42.65, satellites=7, angle=22.7300, fixquality=1
$GPRMC,180128.750,A,4305.5333,N,07740.7459,W,41.16,22.08,190619,,,A*7F
$GPGGA,180129.000,4305.5359,N,07740.7445,W,1,07,1.38,167.3,M,-34.4,M,,*53
lng=-77.679100, lat=43.092220, altitude=167.30, speed=41.16, satellites=7, angle=22.0800, fixquality=1
$GPRMC,180129.250,A,4305.5386,N,07740.7432,W,40.82,20.91,190619,,,A*76
$GPGGA,180129.500,4305.5413,N,07740.7419,W,1,07,1.38,167.3,M,-34.4,M,,*56
lng=-77.679054, lat=43.092308, altitude=167.30, speed=40.82, satellites=7, angle=20.9100, fixquality=1
$GPRMC,180129.750,A,4305.5440,N,07740.7407,W,40.57,19.44,190619,,,A*72
$GPGGA,180130.000,4305.5466,N,07740.7395,W,1,07,1.38,167.4,M,-34.4,M,,*5D
lng=-77.679008, lat=43.092399, altitude=167.30, speed=40.57, satellites=7, angle=19.4400, fixquality=1
$GPRMC,180130.250,A,4305.5493,N,07740.7383,W,40.16,18.11,190619,,,A*7E
$GPGGA,180130.500,4305.5520,N,07740.7372,W,1,07,1.38,167.3,M,-34.4,M,,*55
lng=-77.678970, lat=43.092487, altitude=167.40, speed=40.16, satellites=7, angle=18.1100, fixquality=1
$GPRMC,180130.750,A,4305.5547,N,07740.7362,W,39.99,16.23,190619,,,A*7A
$GPGGA,180131.000,4305.5573,N,07740.7352,W,1,08,1.33,167.1,M,-34.4,M,,*53
lng=-77.678939, lat=43.092578, altitude=167.30, speed=39.99, satellites=7, angle=16.2300, fixquality=1
$GPRMC,180131.250,A,4305.5599,N,07740.7342,W,39.75,15.21,190619,,,A*7C
$GPGGA,180131.500,4305.5625,N,07740.7332,W,1,08,1.33,166.9,M,-34.4,M,,*59
lng=-77.678909, lat=43.092666, altitude=167.10, speed=39.75, satellites=8, angle=15.2100, fixquality=1
$GPRMC,180131.750,A,4305.5651,N,07740.7323,W,39.70,13.98,190619,,,A*78
$GPGGA,180132.000,4305.5678,N,07740.7314,W,1,08,1.33,166.5,M,-34.4,M,,*5F
lng=-77.678871, lat=43.092750, altitude=166.90, speed=39.70, satellites=8, angle=13.9800, fixquality=1
$GPRMC,180132.250,A,4305.5704,N,07740.7305,W,39.47,13.82,190619,,,A*74
$GPGGA,180132.500,4305.5730,N,07740.7295,W,1,08,1.33,166.2,M,-34.4,M,,*58
lng=-77.678840, lat=43.092838, altitude=166.50, speed=39.47, satellites=8, angle=13.8200, fixquality=1
$GPRMC,180132.750,A,4305.5756,N,07740.7286,W,39.49,14.19,190619,,,A*77
$GPGGA,180133.000,4305.5782,N,07740.7276,W,1,08,1.33,165.8,M,-34.4,M,,*51
lng=-77.678810, lat=43.092929, altitude=166.20, speed=39.49, satellites=8, angle=14.1900, fixquality=1
$GPRMC,180133.250,A,4305.5809,N,07740.7267,W,39.50,14.39,190619,,,A*73
$GPGGA,180133.500,4305.5835,N,07740.7257,W,1,08,1.33,165.4,M,-34.4,M,,*58
lng=-77.678779, lat=43.093017, altitude=165.80, speed=39.50, satellites=8, angle=14.3900, fixquality=1
$GPRMC,180133.750,A,4305.5861,N,07740.7248,W,39.50,14.85,190619,,,A*72
$GPGGA,180134.000,4305.5887,N,07740.7238,W,1,08,1.33,165.1,M,-34.4,M,,*5F
lng=-77.678741, lat=43.093097, altitude=165.40, speed=39.50, satellites=8, angle=14.8500, fixquality=1
$GPRMC,180134.250,A,4305.5912,N,07740.7228,W,39.04,15.68,190619,,,A*70
$GPGGA,180134.500,4305.5937,N,07740.7218,W,1,08,1.27,164.8,M,-34.4,M,,*5F
lng=-77.678710, lat=43.093189, altitude=165.10, speed=39.04, satellites=8, angle=15.6800, fixquality=1
$GPRMC,180134.750,A,4305.5962,N,07740.7208,W,38.73,16.32,190619,,,A*7D
$GPGGA,180135.000,4305.5987,N,07740.7197,W,1,08,1.33,164.5,M,-34.4,M,,*5C
lng=-77.678680, lat=43.093269, altitude=164.80, speed=38.73, satellites=8, angle=16.3200, fixquality=1
$GPRMC,180135.250,A,4305.6012,N,07740.7187,W,38.76,16.27,190619,,,A*71
$GPGGA,180135.500,4305.6037,N,07740.7177,W,1,08,1.33,164.2,M,-34.4,M,,*51
lng=-77.678642, lat=43.093349, altitude=164.50, speed=38.76, satellites=8, angle=16.2700, fixquality=1
$GPRMC,180135.750,A,4305.6062,N,07740.7167,W,38.71,16.15,190619,,,A*7B
$GPGGA,180136.000,4305.6087,N,07740.7158,W,1,08,1.33,164.0,M,-34.4,M,,*53
lng=-77.678611, lat=43.093433, altitude=164.20, speed=38.71, satellites=8, angle=16.1500, fixquality=1
$GPRMC,180136.250,A,4305.6113,N,07740.7148,W,38.75,15.90,190619,,,A*7D
