Vers 57
USE_SERIAL_FEEDBACK=false
DEVELOPMENT_MODE=false
USE_RMC_ONLY=false

$GPRMC,161614.600,A,4306.3151,N,07732.5688,W,0.01,75.81,060419,,,D*4F
$GPGGA,161614.800,4306.3151,N,07732.5688,W,2,08,1.06,145.8,M,-34.4,M,0000,0000*5C
lng=-77.542816, lat=43.105247, altitude=145.80, speed=0.01, satellites=8, angle=75.8100, fixquality=2
$GPRMC,161615.000,A,4306.3151,N,07732.5688,W,0.01,75.81,060419,,,D*48
$GPGGA,161615.200,4306.3151,N,07732.5688,W,2,08,1.06,145.8,M,-34.4,M,0000,0000*57
lng=-77.542816, lat=43.105247, altitude=145.80, speed=0.01, satellites=8, angle=75.8100, fixquality=2
$GPRMC,161615.400,A,4306.3151,N,07732.5688,W,0.00,75.81,060419,,,D*4D
$GPGGA,161615.600,4306.3151,N,07732.5688,W,2,08,1.06,145.8,M,-34.4,M,0000,0000*53
lng=-77.542816, lat=43.105247, altitude=145.80, speed=0.00, satellites=8, angle=75.8100, fixquality=2
$GPRMC,161615.800,A,4306.3151,N,07732.5688,W,0.00,75.81,060419,,,D*41
$GPGGA,161616.000,4306.3151,N,07732.5688,W,2,08,1.06,145.8,M,-34.4,M,0000,0000*56
lng=-77.542816, lat=43.105247, altitude=145.80, speed=0.00, satellites=8, angle=75.8100, fixquality=2
$GPRMC,161616.200,A,4306.3151,N,07732.5688,W,0.00,75.81,060419,,,D*48
$GPGGA,161616.400,4306.3151,N,07732.5688,W,2,08,1.06,145.8,M,-34.4,M,0000,0000*52
lng=-77.542816, lat=43.105247, altitude=145.80, speed=0.00, satellites=8, angle=75.8100, fixquality=2
$GPRMC,161616.600,A,4306.3151,N,07732.5688,W,0.01,75.81,060419,,,D*4D
$GPGGA,161616.800,4306.3151,N,07732.5688,W,2,08,1.06,145.8,M,-34.4,M,0000,0000*5E
lng=-77.542816, lat=43.105247, altitude=145.80, speed=0.01, satellites=8, angle=75.8100, fixquality=2
$GPRMC,161617.000,A,4306.3151,N,07732.5688,W,0.02,75.81,060419,,,D*49
$GPGGA,161617.200,4306.3151,N,07732.5688,W,2,08,1.06,145.8,M,-34.4,M,0000,0000*55
lng=-77.542816, lat=43.105247, altitude=145.80, speed=0.02, satellites=8, angle=75.8100, fixquality=2
$GPRMC,161617.400,A,4306.3151,N,07732.5688,W,0.01,75.81,060419,,,D*4E
$GPGGA,161617.600,4306.3151,N,07732.5688,W,2,08,1.06,145.8,M,-34.4,M,0000,0000*51
lng=-77.542816, lat=43.105247, altitude=145.80, speed=0.01, satellites=8, angle=75.8100, fixquality=2
$GPRMC,161617.800,A,4306.3151,N,07732.5688,W,0.02,75.81,060419,,,D*41
$GPGGA,161618.000,4306.3151,N,07732.5688,W,2,08,1.06,145.8,M,-34.4,M,0000,0000*58
lng=-77.542816, lat=43.105247, altitude=145.80, speed=0.02, satellites=8, angle=75.8100, fixquality=2
$GPRMC,161618.200,A,4306.3151,N,07732.5688,W,0.01,75.81,060419,,,D*47
$GPGGA,161618.400,4306.3151,N,07732.5688,W,2,08,1.06,145.8,M,-34.4,M,0000,0000*5C
lng=-77.542816, lat=43.105247, altitude=145.80, speed=0.01, satellites=8, angle=75.8100, fixquality=2
$GPRMC,161618.600,A,4306.3151,N,07732.5688,W,0.01,75.81,060419,,,D*43
$GPGGA,161618.800,4306.3151,N,07732.5688,W,2,08,1.06,145.8,M,-34.4,M,0000,0000*50
lng=-77.542816, lat=43.105247, altitude=145.80, speed=0.01, satellites=8, angle=75.8100, fixquality=2
$GPRMC,161619.000,A,4306.3151,N,07732.5688,W,0.01,75.81,060419,,,D*44
$GPGGA,161619.200,4306.3151,N,07732.5688,W,2,08,1.06,145.8,M,-34.4,M,0000,0000*5B
lng=-77.542816, lat=43.105247, altitude=145.80, speed=0.01, satellites=8, angle=75.8100, fixquality=2
$GPRMC,161619.400,A,4306.3151,N,07732.5688,W,0.01,75.81,060419,,,D*40
$GPGGA,161619.600,4306.3151,N,07732.5688,W,2,08,1.06,145.8,M,-34.4,M,0000,0000*5F
lng=-77.542816, lat=43.105247, altitude=145.80, speed=0.01, satellites=8, angle=75.8100, fixquality=2
$GPRMC,161619.800,A,4306.3151,N,07732.5688,W,0.02,75.81,060419,,,D*4F
$GPGGA,161620.000,4306.3151,N,07732.5688,W,2,08,1.06,145.8,M,-34.4,M,0000,0000*53
lng=-77.542816, lat=43.105247, altitude=145.80, speed=0.02, satellites=8, angle=75.8100, fixquality=2
$GPRMC,161620.200,A,4306.3151,N,07732.5688,W,0.02,75.81,060419,,,D*4F
$GPGGA,161620.400,4306.3151,N,07732.5688,W,2,08,1.06,145.8,M,-34.4,M,0000,0000*57
lng=-77.542816, lat=43.105247, altitude=145.80, speed=0.02, satellites=8, angle=75.8100, fixquality=2
$GPRMC,161620.600,A,4306.3151,N,07732.5688,W,0.02,75.81,060419,,,D*4B
$GPGGA,161620.800,4306.3151,N,07732.5688,W,2,08,1.06,145.8,M,-34.4,M,0000,0000*5B
lng=-77.542816, lat=43.105247, altitude=145.80, speed=0.02, satellites=8, angle=75.8100, fixquality=2
$GPRMC,161621.000,A,4306.3151,N,07732.5688,W,0.00,75.81,060419,,,D*4E
$GPGGA,161621.200,4306.3151,N,07732.5688,W,2,08,1.06,145.8,M,-34.4,M,0000,0000*50
lng=-77.542816, lat=43.105247, altitude=145.80, speed=0.00, satellites=8, angle=75.8100, fixquality=2
$GPRMC,161621.400,A,4306.3151,N,07732.5688,W,0.01,75.81,060419,,,D*4B
$GPGGA,161621.600,4306.3151,N,07732.5688,W,2,08,1.06,145.8,M,-34.4,M,0000,0000*54
lng=-77.542816, lat=43.105247, altitude=145.80, speed=0.01, satellites=8, angle=75.8100, fixquality=2
$GPRMC,161621.800,A,4306.3151,N,07732.5688,W,0.00,75.81,060419,,,D*46
$GPGGA,161622.000,4306.3151,N,07732.5688,W,2,08,1.06,145.8,M,-34.4,M,0000,0000*51
lng=-77.542816, lat=43.105247, altitude=145.80, speed=0.00, satellites=8, angle=75.8100, fixquality=2
$GPRMC,161622.200,A,4306.3151,N,07732.5688,W,0.01,75.81,060419,,,D*4E
$GPGGA,161622.400,4306.3151,N,07732.5688,W,2,08,1.06,145.8,M,-34.4,M,0000,0000*55
lng=-77.542816, lat=43.105247, altitude=145.80, speed=0.01, satellites=8, angle=75.8100, fixquality=2
$GPRMC,161622.600,A,4306.3151,N,07732.5688,W,0.00,75.81,060419,,,D*4B
$GPGGA,161622.800,4306.3151,N,07732.5688,W,2,08,1.06,145.8,M,-34.4,M,0000,0000*59
lng=-77.542816, lat=43.105247, altitude=145.80, speed=0.00, satellites=8, angle=75.8100, fixquality=2
$GPRMC,161623.000,A,4306.3151,N,07732.5688,W,0.01,75.81,060419,,,D*4D
$GPGGA,161623.200,4306.3151,N,07732.5688,W,2,08,1.06,145.8,M,-34.4,M,0000,0000*52
lng=-77.542816, lat=43.105247, altitude=145.80, speed=0.01, satellites=8, angle=75.8100, fixquality=2
$GPRMC,161623.400,A,4306.3151,N,07732.5688,W,0.01,75.81,060419,,,D*49
$GPGGA,161623.600,4306.3151,N,07732.5688,W,2,08,1.06,145.8,M,-34.4,M,0000,0000*56
lng=-77.542816, lat=43.105247, altitude=145.80, speed=0.01, satellites=8, angle=75.8100, fixquality=2
$GPRMC,161623.800,A,4306.3151,N,07732.5688,W,0.00,75.81,060419,,,D*44
$GPGGA,161624.000,4306.3151,N,07732.5688,W,2,08,1.06,145.8,M,-34.4,M,0000,0000*57
lng=-77.542816, lat=43.105247, altitude=145.80, speed=0.00, satellites=8, angle=75.8100, fixquality=2
$GPRMC,161624.200,A,4306.3151,N,07732.5688,W,0.00,75.81,060419,,,D*49
$GPGGA,161624.400,4306.3151,N,07732.5688,W,2,08,1.06,145.8,M,-34.4,M,0000,0000*53
lng=-77.542816, lat=43.105247, altitude=145.80, speed=0.00, satellites=8, angle=75.8100, fixquality=2
$GPRMC,161624.600,A,4306.3151,N,07732.5688,W,0.01,75.81,060419,,,D*4C
$GPGGA,161624.800,4306.3151,N,07732.5688,W,2,08,1.06,145.8,M,-34.4,M,0000,0000*5F
lng=-77.542816, lat=43.105247, altitude=145.80, speed=0.01, satellites=8, angle=75.8100, fixquality=2
$GPRMC,161625.000,A,4306.3151,N,07732.5688,W,0.01,75.81,060419,,,D*4B
$GPGGA,161625.200,4306.3151,N,07732.5688,W,2,08,1.06,145.9,M,-34.4,M,0000,0000*55
lng=-77.542816, lat=43.105247, altitude=145.80, speed=0.01, satellites=8, angle=75.8100, fixquality=2
$GPRMC,161625.400,A,4306.3151,N,07732.5688,W,0.00,75.81,060419,,,D*4E
$GPGGA,161625.600,4306.3151,N,07732.5688,W,2,08,1.06,145.9,M,-34.4,M,0000,0000*51
lng=-77.542816, lat=43.105247, altitude=145.90, speed=0.00, satellites=8, angle=75.8100, fixquality=2
$GPRMC,161625.800,A,4306.3151,N,07732.5688,W,0.00,75.81,060419,,,D*42
$GPGGA,161626.000,4306.3151,N,07732.5688,W,2,08,1.06,145.9,M,-34.4,M,0000,0000*54
lng=-77.542816, lat=43.105247, altitude=145.90, speed=0.00, satellites=8, angle=75.8100, fixquality=2
$GPRMC,161626.200,A,4306.3151,N,07732.5688,W,0.01,75.81,060419,,,D*4A
$GPGGA,161626.400,4306.3151,N,07732.5688,W,2,08,1.06,145.9,M,-34.4,M,0000,0000*50
lng=-77.542816, lat=43.105247, altitude=145.90, speed=0.01, satellites=8, angle=75.8100, fixquality=2
$GPRMC,161626.600,A,4306.3151,N,07732.5688,W,0.01,75.81,060419,,,D*4E
$GPGGA,161626.800,4306.3151,N,07732.5688,W,2,08,1.06,145.9,M,-34.4,M,0000,0000*5C
lng=-77.542816, lat=43.105247, altitude=145.90, speed=0.01, satellites=8, angle=75.8100, fixquality=2
$GPRMC,161627.000,A,4306.3151,N,07732.5688,W,0.01,75.81,060419,,,D*49
$GPGGA,161627.200,4306.3151,N,07732.5688,W,2,08,1.06,145.9,M,-34.4,M,0000,0000*57
lng=-77.542816, lat=43.105247, altitude=145.90, speed=0.01, satellites=8, angle=75.8100, fixquality=2
$GPRMC,161627.400,A,4306.3151,N,07732.5688,W,0.01,75.81,060419,,,D*4D
$GPGGA,161627.600,4306.3151,N,07732.5688,W,2,08,1.06,145.9,M,-34.4,M,0000,0000*53
lng=-77.542816, lat=43.105247, altitude=145.90, speed=0.01, satellites=8, angle=75.8100, fixquality=2
$GPRMC,161627.800,A,4306.3151,N,07732.5688,W,0.00,75.81,060419,,,D*40
$GPGGA,161628.000,4306.3151,N,07732.5688,W,2,08,1.06,145.9,M,-34.4,M,0000,0000*5A
lng=-77.542816, lat=43.105247, altitude=145.90, speed=0.00, satellites=8, angle=75.8100, fixquality=2
$GPRMC,161628.200,A,4306.3151,N,07732.5688,W,0.01,75.81,060419,,,D*44
$GPGGA,161628.400,4306.3151,N,07732.5688,W,2,08,1.06,145.9,M,-34.4,M,0000,0000*5E
lng=-77.542816, lat=43.105247, altitude=145.90, speed=0.01, satellites=8, angle=75.8100, fixquality=2
$GPRMC,161628.600,A,4306.3151,N,07732.5688,W,0.00,75.81,060419,,,D*41
$GPGGA,161628.800,4306.3151,N,07732.5688,W,2,08,1.06,145.9,M,-34.4,M,0000,0000*52
lng=-77.542816, lat=43.105247, altitude=145.90, speed=0.00, satellites=8, angle=75.8100, fixquality=2
$GPRMC,161629.000,A,4306.3151,N,07732.5688,W,0.01,75.81,060419,,,D*47
$GPGGA,161629.200,4306.3151,N,07732.5688,W,2,08,1.06,145.9,M,-34.4,M,0000,0000*59
lng=-77.542816, lat=43.105247, altitude=145.90, speed=0.01, satellites=8, angle=75.8100, fixquality=2
$GPRMC,161629.400,A,4306.3151,N,07732.5688,W,0.00,75.81,060419,,,D*42
$GPGGA,161629.600,4306.3151,N,07732.5688,W,2,08,1.06,145.9,M,-34.4,M,0000,0000*5D
lng=-77.542816, lat=43.105247, altitude=145.90, speed=0.00, satellites=8, angle=75.8100, fixquality=2
$GPRMC,161629.800,A,4306.3151,N,07732.5688,W,0.00,75.81,060419,,,D*4E
$GPGGA,161630.000,4306.3151,N,07732.5688,W,2,08,1.06,145.9,M,-34.4,M,0000,0000*53
lng=-77.542816, lat=43.105247, altitude=145.90, speed=0.00, satellites=8, angle=75.8100, fixquality=2
$GPRMC,161630.200,A,4306.3151,N,07732.5688,W,0.01,75.81,060419,,,D*4D
$GPGGA,161630.400,4306.3151,N,07732.5688,W,2,08,1.06,145.9,M,-34.4,M,0000,0000*57
lng=-77.542816, lat=43.105247, altitude=145.90, speed=0.01, satellites=8, angle=75.8100, fixquality=2
$GPRMC,161630.600,A,4306.3151,N,07732.5688,W,0.01,75.81,060419,,,D*49
$GPGGA,161630.800,4306.3151,N,07732.5688,W,2,08,1.06,145.9,M,-34.4,M,0000,0000*5B
lng=-77.542816, lat=43.105247, altitude=145.90, speed=0.01, satellites=8, angle=75.8100, fixquality=2
$GPRMC,161631.000,A,4306.3151,N,07732.5688,W,0.01,75.81,060419,,,D*4E
$GPGGA,161631.200,4306.3151,N,07732.5688,W,2,08,1.06,145.9,M,-34.4,M,0000,0000*50
lng=-77.542816, lat=43.105247, altitude=145.90, speed=0.01, satellites=8, angle=75.8100, fixquality=2
$GPRMC,161631.400,A,4306.3151,N,07732.5688,W,0.00,75.81,060419,,,D*4B
$GPGGA,161631.600,4306.3151,N,07732.5688,W,2,08,1.06,145.9,M,-34.4,M,0000,0000*54
lng=-77.542816, lat=43.105247, altitude=145.90, speed=0.00, satellites=8, angle=75.8100, fixquality=2
$GPRMC,161631.800,A,4306.3151,N,07732.5688,W,0.01,75.81,060419,,,D*46
$GPGGA,161632.000,4306.3151,N,07732.5688,W,2,08,1.06,145.9,M,-34.4,M,0000,0000*51
lng=-77.542816, lat=43.105247, altitude=145.90, speed=0.01, satellites=8, angle=75.8100, fixquality=2
$GPRMC,161632.200,A,4306.3151,N,07732.5688,W,0.00,75.81,060419,,,D*4E
$GPGGA,161632.400,4306.3151,N,07732.5688,W,2,08,1.06,145.9,M,-34.4,M,0000,0000*55
lng=-77.542816, lat=43.105247, altitude=145.90, speed=0.00, satellites=8, angle=75.8100, fixquality=2
$GPRMC,161632.600,A,4306.3151,N,07732.5688,W,0.01,75.81,060419,,,D*4B
$GPGGA,161632.800,4306.3151,N,07732.5688,W,2,08,1.06,145.9,M,-34.4,M,0000,0000*59
lng=-77.542816, lat=43.105247, altitude=145.90, speed=0.01, satellites=8, angle=75.8100, fixquality=2
$GPRMC,161633.000,A,4306.3151,N,07732.5688,W,0.00,75.81,060419,,,D*4D
$GPGGA,161633.200,4306.3151,N,07732.5688,W,2,08,1.06,145.9,M,-34.4,M,0000,0000*52
lng=-77.542816, lat=43.105247, altitude=145.90, speed=0.00, satellites=8, angle=75.8100, fixquality=2
$GPRMC,161633.400,A,4306.3151,N,07732.5688,W,0.01,75.81,060419,,,D*48
$GPGGA,161633.600,4306.3151,N,07732.5688,W,2,08,1.06,145.9,M,-34.4,M,0000,0000*56
lng=-77.542816, lat=43.105247, altitude=145.90, speed=0.01, satellites=8, angle=75.8100, fixquality=2
$GPRMC,161633.800,A,4306.3151,N,07732.5688,W,0.00,75.81,060419,,,D*45
$GPGGA,161634.000,4306.3151,N,07732.5688,W,2,08,1.06,145.9,M,-34.4,M,0000,0000*57
lng=-77.542816, lat=43.105247, altitude=145.90, speed=0.00, satellites=8, angle=75.8100, fixquality=2
$GPRMC,161634.200,A,4306.3151,N,07732.5688,W,0.00,75.81,060419,,,D*48
$GPGGA,161634.400,4306.3151,N,07732.5688,W,2,08,1.06,145.9,M,-34.4,M,0000,0000*53
lng=-77.542816, lat=43.105247, altitude=145.90, speed=0.00, satellites=8, angle=75.8100, fixquality=2
$GPRMC,161634.600,A,4306.3151,N,07732.5688,W,0.00,75.81,060419,,,D*4C
$GPGGA,161634.800,4306.3151,N,07732.5688,W,2,08,1.06,145.9,M,-34.4,M,0000,0000*5F
lng=-77.542816, lat=43.105247, altitude=145.90, speed=0.00, satellites=8, angle=75.8100, fixquality=2
$GPRMC,161635.000,A,4306.3151,N,07732.5688,W,0.00,75.81,060419,,,D*4B
$GPGGA,161635.200,4306.3151,N,07732.5688,W,2,08,1.06,145.9,M,-34.4,M,0000,0000*54
lng=-77.542816, lat=43.105247, altitude=145.90, speed=0.00, satellites=8, angle=75.8100, fixquality=2
$GPRMC,161635.400,A,4306.3151,N,07732.5688,W,0.00,75.81,060419,,,D*4F
$GPGGA,161635.600,4306.3151,N,07732.5688,W,2,08,1.06,145.9,M,-34.4,M,0000,0000*50
lng=-77.542816, lat=43.105247, altitude=145.90, speed=0.00, satellites=8, angle=75.8100, fixquality=2
$GPRMC,161635.800,A,4306.3151,N,07732.5688,W,0.00,75.81,060419,,,D*43
$GPGGA,161636.000,4306.3151,N,07732.5688,W,2,08,1.06,145.9,M,-34.4,M,0000,0000*55
lng=-77.542816, lat=43.105247, altitude=145.90, speed=0.00, satellites=8, angle=75.8100, fixquality=2
$GPRMC,161636.200,A,4306.3151,N,07732.5688,W,0.01,75.81,060419,,,D*4B
$GPGGA,161636.400,4306.3151,N,07732.5688,W,2,08,1.06,145.9,M,-34.4,M,0000,0000*51
lng=-77.542816, lat=43.105247, altitude=145.90, speed=0.01, satellites=8, angle=75.8100, fixquality=2
$GPRMC,161636.600,A,4306.3151,N,07732.5688,W,0.00,75.81,060419,,,D*4E
$GPGGA,161636.800,4306.3151,N,07732.5688,W,2,08,1.06,145.9,M,-34.4,M,0000,0000*5D
lng=-77.542816, lat=43.105247, altitude=145.90, speed=0.00, satellites=8, angle=75.8100, fixquality=2
$GPRMC,161637.000,A,4306.3151,N,07732.5688,W,0.01,75.81,060419,,,D*48
$GPGGA,161637.200,4306.3151,N,07732.5688,W,2,08,1.06,145.9,M,-34.4,M,0000,0000*56
lng=-77.542816, lat=43.105247, altitude=145.90, speed=0.01, satellites=8, angle=75.8100, fixquality=2
$GPRMC,161637.400,A,4306.3151,N,07732.5688,W,0.00,75.81,060419,,,D*4D
$GPGGA,161637.600,4306.3151,N,07732.5688,W,2,08,1.06,145.9,M,-34.4,M,0000,0000*52
lng=-77.542816, lat=43.105247, altitude=145.90, speed=0.00, satellites=8, angle=75.8100, fixquality=2
$GPRMC,161637.800,A,4306.3151,N,07732.5688,W,0.01,75.81,060419,,,D*40
$GPGGA,161638.000,4306.3151,N,07732.5688,W,2,08,1.06,145.9,M,-34.4,M,0000,0000*5B
lng=-77.542816, lat=43.105247, altitude=145.90, speed=0.01, satellites=8, angle=75.8100, fixquality=2
$GPRMC,161638.200,A,4306.3151,N,07732.5688,W,0.01,75.81,060419,,,D*45
$GPGGA,161638.400,4306.3151,N,07732.5688,W,2,08,1.06,145.9,M,-34.4,M,0000,0000*5F
lng=-77.542816, lat=43.105247, altitude=145.90, speed=0.01, satellites=8, angle=75.8100, fixquality=2
$GPRMC,161638.600,A,4306.3151,N,07732.5688,W,0.02,75.81,060419,,,D*42
$GPGGA,161638.800,4306.3151,N,07732.5688,W,2,08,1.06,145.9,M,-34.4,M,0000,0000*53
lng=-77.542816, lat=43.105247, altitude=145.90, speed=0.02, satellites=8, angle=75.8100, fixquality=2
$GPRMC,161639.000,A,4306.3151,N,07732.5688,W,0.01,75.81,060419,,,D*46
$GPGGA,161639.200,4306.3151,N,07732.5688,W,2,08,1.06,145.9,M,-34.4,M,0000,0000*58
lng=-77.542816, lat=43.105247, altitude=145.90, speed=0.01, satellites=8, angle=75.8100, fixquality=2
$GPRMC,161639.400,A,4306.3151,N,07732.5688,W,0.00,75.81,060419,,,D*43
$GPGGA,161639.600,4306.3151,N,07732.5688,W,2,08,1.06,145.9,M,-34.4,M,0000,0000*5C
lng=-77.542816, lat=43.105247, altitude=145.90, speed=0.00, satellites=8, angle=75.8100, fixquality=2
$GPRMC,161639.800,A,4306.3151,N,07732.5688,W,0.01,75.81,060419,,,D*4E
$GPGGA,161640.000,4306.3151,N,07732.5688,W,2,08,1.06,145.9,M,-34.4,M,0000,0000*54
lng=-77.542816, lat=43.105247, altitude=145.90, speed=0.01, satellites=8, angle=75.8100, fixquality=2
$GPRMC,161640.200,A,4306.3151,N,07732.5688,W,0.00,75.81,060419,,,D*4B
$GPGGA,161640.400,4306.3151,N,07732.5688,W,2,08,1.06,145.9,M,-34.4,M,0000,0000*50
lng=-77.542816, lat=43.105247, altitude=145.90, speed=0.00, satellites=8, angle=75.8100, fixquality=2
$GPRMC,161640.600,A,4306.3151,N,07732.5688,W,0.01,75.81,060419,,,D*4E
$GPGGA,161640.800,4306.3151,N,07732.5688,W,2,08,1.06,145.9,M,-34.4,M,0000,0000*5C
lng=-77.542816, lat=43.105247, altitude=145.90, speed=0.01, satellites=8, angle=75.8100, fixquality=2
$GPRMC,161641.000,A,4306.3151,N,07732.5688,W,0.00,75.81,060419,,,D*48
$GPGGA,161641.200,4306.3151,N,07732.5688,W,2,08,1.06,145.9,M,-34.4,M,0000,0000*57
lng=-77.542816, lat=43.105247, altitude=145.90, speed=0.00, satellites=8, angle=75.8100, fixquality=2
$GPRMC,161641.400,A,4306.3151,N,07732.5688,W,0.01,75.81,060419,,,D*4D
$GPGGA,161641.600,4306.3151,N,07732.5688,W,2,08,1.06,145.9,M,-34.4,M,0000,0000*53
lng=-77.542816, lat=43.105247, altitude=145.90, speed=0.01, satellites=8, angle=75.8100, fixquality=2
$GPRMC,161641.800,A,4306.3151,N,07732.5688,W,0.01,75.81,060419,,,D*41
$GPGGA,161642.000,4306.3151,N,07732.5688,W,2,08,1.06,145.9,M,-34.4,M,0000,0000*56
lng=-77.542816, lat=43.105247, altitude=145.90, speed=0.01, satellites=8, angle=75.8100, fixquality=2
$GPRMC,161642.200,A,4306.3151,N,07732.5688,W,0.01,75.81,060419,,,D*48
$GPGGA,161642.400,4306.3151,N,07732.5688,W,2,08,1.06,145.9,M,-34.4,M,0000,0000*52
lng=-77.542816, lat=43.105247, altitude=145.90, speed=0.01, satellites=8, angle=75.8100, fixquality=2
$GPRMC,161642.600,A,4306.3151,N,07732.5688,W,0.01,75.81,060419,,,D*4C
$GPGGA,161642.800,4306.3151,N,07732.5688,W,2,08,1.06,145.9,M,-34.4,M,0000,0000*5E
lng=-77.542816, lat=43.105247, altitude=145.90, speed=0.01, satellites=8, angle=75.8100, fixquality=2
$GPRMC,161643.000,A,4306.3151,N,07732.5688,W,0.01,75.81,060419,,,D*4B
$GPGGA,161643.200,4306.3151,N,07732.5688,W,2,08,1.06,145.9,M,-34.4,M,0000,0000*55
lng=-77.542816, lat=43.105247, altitude=145.90, speed=0.01, satellites=8, angle=75.8100, fixquality=2
$GPRMC,161643.400,A,4306.3151,N,07732.5688,W,0.01,75.81,060419,,,D*4F
$GPGGA,161643.600,4306.3151,N,07732.5688,W,2,08,1.06,145.9,M,-34.4,M,0000,0000*51
lng=-77.542816, lat=43.105247, altitude=145.90, speed=0.01, satellites=8, angle=75.8100, fixquality=2
$GPRMC,161643.800,A,4306.3151,N,07732.5688,W,0.01,75.81,060419,,,D*43
$GPGGA,161644.000,4306.3151,N,07732.5688,W,2,08,1.06,145.9,M,-34.4,M,0000,0000*50
lng=-77.542816, lat=43.105247, altitude=145.90, speed=0.01, satellites=8, angle=75.8100, fixquality=2
$GPRMC,161644.200,A,4306.3151,N,07732.5688,W,0.00,75.81,060419,,,D*4F
$GPGGA,161644.400,4306.3151,N,07732.5689,W,2,08,1.06,145.9,M,-34.4,M,0000,0000*55
lng=-77.542816, lat=43.105247, altitude=145.90, speed=0.00, satellites=8, angle=75.8100, fixquality=2
$GPRMC,161644.600,A,4306.3151,N,07732.5689,W,0.00,75.81,060419,,,D*4A
$GPGGA,161644.800,4306.3151,N,07732.5689,W,2,08,1.06,145.9,M,-34.4,M,0000,0000*59
lng=-77.542816, lat=43.105247, altitude=145.90, speed=0.00, satellites=8, angle=75.8100, fixquality=2
$GPRMC,161645.000,A,4306.3151,N,07732.5689,W,0.01,75.81,060419,,,D*4C
$GPGGA,161645.200,4306.3151,N,07732.5689,W,2,08,1.06,145.9,M,-34.4,M,0000,0000*52
lng=-77.542816, lat=43.105247, altitude=145.90, speed=0.01, satellites=8, angle=75.8100, fixquality=2
$GPRMC,161645.400,A,4306.3151,N,07732.5689,W,0.01,75.81,060419,,,D*48
$GPGGA,161645.600,4306.3151,N,07732.5689,W,2,08,1.06,145.9,M,-34.4,M,0000,0000*56
lng=-77.542816, lat=43.105247, altitude=145.90, speed=0.01, satellites=8, angle=75.8100, fixquality=2
$GPRMC,161645.800,A,4306.3151,N,07732.5689,W,0.00,75.81,060419,,,D*45
$GPGGA,161646.000,4306.3151,N,07732.5689,W,2,08,1.06,145.9,M,-34.4,M,0000,0000*53
lng=-77.542816, lat=43.105247, altitude=145.90, speed=0.00, satellites=8, angle=75.8100, fixquality=2
$GPRMC,161646.200,A,4306.3151,N,07732.5689,W,0.01,75.81,060419,,,D*4D
$GPGGA,161646.400,4306.3151,N,07732.5689,W,2,08,1.06,145.9,M,-34.4,M,0000,0000*57
lng=-77.542816, lat=43.105247, altitude=145.90, speed=0.01, satellites=8, angle=75.8100, fixquality=2
$GPRMC,161646.600,A,4306.3151,N,07732.5689,W,0.01,75.81,060419,,,D*49
$GPGGA,161646.800,4306.3151,N,07732.5689,W,2,08,1.06,145.9,M,-34.4,M,0000,0000*5B
lng=-77.542816, lat=43.105247, altitude=145.90, speed=0.01, satellites=8, angle=75.8100, fixquality=2
$GPRMC,161647.000,A,4306.3151,N,07732.5689,W,0.00,75.81,060419,,,D*4F
$GPGGA,161647.200,4306.3151,N,07732.5689,W,2,08,1.06,145.9,M,-34.4,M,0000,0000*50
lng=-77.542816, lat=43.105247, altitude=145.90, speed=0.00, satellites=8, angle=75.8100, fixquality=2
$GPRMC,161647.400,A,4306.3151,N,07732.5689,W,0.00,75.81,060419,,,D*4B
$GPGGA,161647.600,4306.3151,N,07732.5689,W,2,08,1.06,145.9,M,-34.4,M,0000,0000*54
lng=-77.542816, lat=43.105247, altitude=145.90, speed=0.00, satellites=8, angle=75.8100, fixquality=2
$GPRMC,161647.800,A,4306.3151,N,07732.5689,W,0.01,75.81,060419,,,D*46
$GPGGA,161648.000,4306.3151,N,07732.5689,W,2,08,1.06,145.9,M,-34.4,M,0000,0000*5D
lng=-77.542816, lat=43.105247, altitude=145.90, speed=0.01, satellites=8, angle=75.8100, fixquality=2
$GPRMC,161648.200,A,4306.3151,N,07732.5689,W,0.01,75.81,060419,,,D*43
$GPGGA,161648.400,4306.3151,N,07732.5689,W,2,08,1.06,145.9,M,-34.4,M,0000,0000*59
lng=-77.542816, lat=43.105247, altitude=145.90, speed=0.01, satellites=8, angle=75.8100, fixquality=2
$GPRMC,161648.600,A,4306.3151,N,07732.5689,W,0.00,75.81,060419,,,D*46
$GPGGA,161648.800,4306.3151,N,07732.5689,W,2,08,1.06,145.9,M,-34.4,M,0000,0000*55
lng=-77.542816, lat=43.105247, altitude=145.90, speed=0.00, satellites=8, angle=75.8100, fixquality=2
$GPRMC,161649.000,A,4306.3151,N,07732.5689,W,0.00,75.81,060419,,,D*41
$GPGGA,161649.200,4306.3151,N,07732.5689,W,2,08,1.06,145.9,M,-34.4,M,0000,0000*5E
lng=-77.542816, lat=43.105247, altitude=145.90, speed=0.00, satellites=8, angle=75.8100, fixquality=2
$GPRMC,161649.400,A,4306.3151,N,07732.5689,W,0.00,75.81,060419,,,D*45
$GPGGA,161649.600,4306.3151,N,07732.5689,W,2,08,1.06,145.9,M,-34.4,M,0000,0000*5A
lng=-77.542816, lat=43.105247, altitude=145.90, speed=0.00, satellites=8, angle=75.8100, fixquality=2
$GPRMC,161649.800,A,4306.3151,N,07732.5689,W,0.01,75.81,060419,,,D*48
$GPGGA,161650.000,4306.3151,N,07732.5689,W,2,08,1.06,145.9,M,-34.4,M,0000,0000*54
lng=-77.542816, lat=43.105247, altitude=145.90, speed=0.01, satellites=8, angle=75.8100, fixquality=2
$GPRMC,161650.200,A,4306.3151,N,07732.5689,W,0.00,75.81,060419,,,D*4B
$GPGGA,161650.400,4306.3151,N,07732.5689,W,2,08,1.06,145.9,M,-34.4,M,0000,0000*50
lng=-77.542816, lat=43.105247, altitude=145.90, speed=0.00, satellites=8, angle=75.8100, fixquality=2
$GPRMC,161650.600,A,4306.3151,N,07732.5689,W,0.01,75.81,060419,,,D*4E
$GPGGA,161650.800,4306.3151,N,07732.5689,W,2,08,1.06,145.9,M,-34.4,M,0000,0000*5C
lng=-77.542816, lat=43.105247, altitude=145.90, speed=0.01, satellites=8, angle=75.8100, fixquality=2
$GPRMC,161651.000,A,4306.3151,N,07732.5689,W,0.01,75.81,060419,,,D*49
$GPGGA,161651.200,4306.3151,N,07732.5689,W,2,08,1.06,145.9,M,-34.4,M,0000,0000*57
lng=-77.542816, lat=43.105247, altitude=145.90, speed=0.01, satellites=8, angle=75.8100, fixquality=2
$GPRMC,161651.400,A,4306.3151,N,07732.5689,W,0.00,75.81,060419,,,D*4C
$GPGGA,161651.600,4306.3151,N,07732.5689,W,2,08,1.06,145.9,M,-34.4,M,0000,0000*53
lng=-77.542816, lat=43.105247, altitude=145.90, speed=0.00, satellites=8, angle=75.8100, fixquality=2
$GPRMC,161651.800,A,4306.3151,N,07732.5689,W,0.01,75.81,060419,,,D*41
$GPGGA,161652.000,4306.3151,N,07732.5689,W,2,08,1.06,145.9,M,-34.4,M,0000,0000*56
lng=-77.542816, lat=43.105247, altitude=145.90, speed=0.01, satellites=8, angle=75.8100, fixquality=2
$GPRMC,161652.200,A,4306.3151,N,07732.5689,W,0.00,75.81,060419,,,D*49
$GPGGA,161652.400,4306.3151,N,07732.5689,W,2,08,1.06,145.9,M,-34.4,M,0000,0000*52
lng=-77.542816, lat=43.105247, altitude=145.90, speed=0.00, satellites=8, angle=75.8100, fixquality=2
$GPRMC,161652.600,A,4306.3151,N,07732.5689,W,0.00,75.81,060419,,,D*4D
$GPGGA,161652.800,4306.3151,N,07732.5689,W,2,08,1.06,145.9,M,-34.4,M,0000,0000*5E
lng=-77.542816, lat=43.105247, altitude=145.90, speed=0.00, satellites=8, angle=75.8100, fixquality=2
$GPRMC,161653.000,A,4306.3151,N,07732.5689,W,0.00,75.81,060419,,,D*4A
$GPGGA,161653.200,4306.3151,N,07732.5689,W,2,08,1.06,145.9,M,-34.4,M,0000,0000*55
lng=-77.542816, lat=43.105247, altitude=145.90, speed=0.00, satellites=8, angle=75.8100, fixquality=2
$GPRMC,161653.400,A,4306.3151,N,07732.5689,W,0.00,75.81,060419,,,D*4E
$GPGGA,161653.600,4306.3151,N,07732.5689,W,2,08,1.06,145.9,M,-34.4,M,0000,0000*51
lng=-77.542816, lat=43.105247, altitude=145.90, speed=0.00, satellites=8, angle=75.8100, fixquality=2
$GPRMC,161653.800,A,4306.3151,N,07732.5689,W,0.01,75.81,060419,,,D*43
$GPGGA,161654.000,4306.3151,N,07732.5689,W,2,08,1.06,145.9,M,-34.4,M,0000,0000*50
lng=-77.542816, lat=43.105247, altitude=145.90, speed=0.01, satellites=8, angle=75.8100, fixquality=2
$GPRMC,161654.200,A,4306.3151,N,07732.5689,W,0.01,75.81,060419,,,D*4E
$GPGGA,161654.400,4306.3151,N,07732.5689,W,2,08,1.06,145.9,M,-34.4,M,0000,0000*54
lng=-77.542816, lat=43.105247, altitude=145.90, speed=0.01, satellites=8, angle=75.8100, fixquality=2
$GPRMC,161654.600,A,4306.3151,N,07732.5689,W,0.01,75.81,060419,,,D*4A
$GPGGA,161654.800,4306.3151,N,07732.5689,W,2,08,1.06,145.9,M,-34.4,M,0000,0000*58
lng=-77.542816, lat=43.105247, altitude=145.90, speed=0.01, satellites=8, angle=75.8100, fixquality=2
$GPRMC,161655.000,A,4306.3151,N,07732.5689,W,0.00,75.81,060419,,,D*4C
$GPGGA,161655.200,4306.3151,N,07732.5689,W,2,08,1.06,145.9,M,-34.4,M,0000,0000*53
lng=-77.542816, lat=43.105247, altitude=145.90, speed=0.00, satellites=8, angle=75.8100, fixquality=2
$GPRMC,161655.400,A,4306.3151,N,07732.5689,W,0.01,75.81,060419,,,D*49
$GPGGA,161655.600,4306.3151,N,07732.5689,W,2,08,1.06,145.9,M,-34.4,M,0000,0000*57
lng=-77.542816, lat=43.105247, altitude=145.90, speed=0.01, satellites=8, angle=75.8100, fixquality=2
$GPRMC,161655.800,A,4306.3151,N,07732.5689,W,0.01,75.81,060419,,,D*45
$GPGGA,161656.000,4306.3151,N,07732.5689,W,2,08,1.06,145.9,M,-34.4,M,0000,0000*52
lng=-77.542816, lat=43.105247, altitude=145.90, speed=0.01, satellites=8, angle=75.8100, fixquality=2
$GPRMC,161656.200,A,4306.3151,N,07732.5689,W,0.00,75.81,060419,,,D*4D
$GPGGA,161656.400,4306.3151,N,07732.5689,W,2,08,1.06,145.9,M,-34.4,M,0000,0000*56
lng=-77.542816, lat=43.105247, altitude=145.90, speed=0.00, satellites=8, angle=75.8100, fixquality=2
$GPRMC,161656.600,A,4306.3151,N,07732.5689,W,0.01,75.81,060419,,,D*48
$GPGGA,161656.800,4306.3151,N,07732.5689,W,2,08,1.06,145.9,M,-34.4,M,0000,0000*5A
lng=-77.542816, lat=43.105247, altitude=145.90, speed=0.01, satellites=8, angle=75.8100, fixquality=2
$GPRMC,161657.000,A,4306.3151,N,07732.5689,W,0.00,75.81,060419,,,D*4E
$GPGGA,161657.200,4306.3151,N,07732.5689,W,2,08,1.06,145.8,M,-34.4,M,0000,0000*50
lng=-77.542816, lat=43.105247, altitude=145.90, speed=0.00, satellites=8, angle=75.8100, fixquality=2
$GPRMC,161657.400,A,4306.3151,N,07732.5689,W,0.00,75.81,060419,,,D*4A
$GPGGA,161657.600,4306.3151,N,07732.5689,W,2,08,1.06,145.8,M,-34.4,M,0000,0000*54
lng=-77.542816, lat=43.105247, altitude=145.80, speed=0.00, satellites=8, angle=75.8100, fixquality=2
$GPRMC,161657.800,A,4306.3151,N,07732.5689,W,0.00,75.81,060419,,,D*46
$GPGGA,161658.000,4306.3151,N,07732.5689,W,2,08,1.06,145.8,M,-34.4,M,0000,0000*5D
lng=-77.542816, lat=43.105247, altitude=145.80, speed=0.00, satellites=8, angle=75.8100, fixquality=2
$GPRMC,161658.200,A,4306.3151,N,07732.5689,W,0.00,75.81,060419,,,D*43
$GPGGA,161658.400,4306.3151,N,07732.5689,W,2,08,1.06,145.8,M,-34.4,M,0000,0000*59
lng=-77.542816, lat=43.105247, altitude=145.80, speed=0.00, satellites=8, angle=75.8100, fixquality=2
$GPRMC,161658.600,A,4306.3151,N,07732.5689,W,0.00,75.81,060419,,,D*47
$GPGGA,161658.800,4306.3151,N,07732.5689,W,2,08,1.06,145.8,M,-34.4,M,0000,0000*55
lng=-77.542816, lat=43.105247, altitude=145.80, speed=0.00, satellites=8, angle=75.8100, fixquality=2
$GPRMC,161659.000,A,4306.3151,N,07732.5689,W,0.01,75.81,060419,,,D*41
$GPGGA,161659.200,4306.3151,N,07732.5689,W,2,08,1.06,145.8,M,-34.4,M,0000,0000*5E
lng=-77.542816, lat=43.105247, altitude=145.80, speed=0.01, satellites=8, angle=75.8100, fixquality=2
$GPRMC,161659.400,A,4306.3151,N,07732.5689,W,0.00,75.81,060419,,,D*44
$GPGGA,161659.600,4306.3151,N,07732.5689,W,2,08,1.06,145.8,M,-34.4,M,0000,0000*5A
lng=-77.542816, lat=43.105247, altitude=145.80, speed=0.00, satellites=8, angle=75.8100, fixquality=2
$GPRMC,161659.800,A,4306.3151,N,07732.5689,W,0.01,75.81,060419,,,D*49
$GPGGA,161700.000,4306.3151,N,07732.5689,W,2,08,1.06,145.8,M,-34.4,M,0000,0000*51
lng=-77.542816, lat=43.105247, altitude=145.80, speed=0.01, satellites=8, angle=75.8100, fixquality=2
$GPRMC,161700.200,A,4306.3151,N,07732.5689,W,0.00,75.81,060419,,,D*4F
$GPGGA,161700.400,4306.3151,N,07732.5689,W,2,08,1.06,145.8,M,-34.4,M,0000,0000*55
lng=-77.542816, lat=43.105247, altitude=145.80, speed=0.00, satellites=8, angle=75.8100, fixquality=2
$GPRMC,161700.600,A,4306.3151,N,07732.5689,W,0.00,75.81,060419,,,D*4B
$GPGGA,161700.800,4306.3151,N,07732.5689,W,2,08,1.06,145.8,M,-34.4,M,0000,0000*59
lng=-77.542816, lat=43.105247, altitude=145.80, speed=0.00, satellites=8, angle=75.8100, fixquality=2
$GPRMC,161701.000,A,4306.3151,N,07732.5689,W,0.00,75.81,060419,,,D*4C
$GPGGA,161701.200,4306.3151,N,07732.5689,W,2,08,1.06,145.8,M,-34.4,M,0000,0000*52
lng=-77.542816, lat=43.105247, altitude=145.80, speed=0.00, satellites=8, angle=75.8100, fixquality=2
$GPRMC,161701.400,A,4306.3151,N,07732.5689,W,0.00,75.81,060419,,,D*48
$GPGGA,161701.600,4306.3151,N,07732.5689,W,2,08,1.06,145.8,M,-34.4,M,0000,0000*56
lng=-77.542816, lat=43.105247, altitude=145.80, speed=0.00, satellites=8, angle=75.8100, fixquality=2
$GPRMC,161701.800,A,4306.3151,N,07732.5689,W,0.01,75.81,060419,,,D*45
$GPGGA,161702.000,4306.3151,N,07732.5689,W,2,08,1.06,145.8,M,-34.4,M,0000,0000*53
lng=-77.542816, lat=43.105247, altitude=145.80, speed=0.01, satellites=8, angle=75.8100, fixquality=2
$GPRMC,161702.200,A,4306.3151,N,07732.5689,W,0.01,75.81,060419,,,D*4C
$GPGGA,161702.400,4306.3151,N,07732.5689,W,2,08,1.06,145.8,M,-34.4,M,0000,0000*57
lng=-77.542816, lat=43.105247, altitude=145.80, speed=0.01, satellites=8, angle=75.8100, fixquality=2
$GPRMC,161702.600,A,4306.3151,N,07732.5689,W,0.00,75.81,060419,,,D*49
$GPGGA,161702.800,4306.3151,N,07732.5689,W,2,08,1.06,145.8,M,-34.4,M,0000,0000*5B
lng=-77.542816, lat=43.105247, altitude=145.80, speed=0.00, satellites=8, angle=75.8100, fixquality=2
$GPRMC,161703.000,A,4306.3151,N,07732.5689,W,0.00,75.81,060419,,,D*4E
$GPGGA,161703.200,4306.3151,N,07732.5689,W,2,08,1.06,145.8,M,-34.4,M,0000,0000*50
lng=-77.542816, lat=43.105247, altitude=145.80, speed=0.00, satellites=8, angle=75.8100, fixquality=2
$GPRMC,161703.400,A,4306.3151,N,07732.5689,W,0.01,75.81,060419,,,D*4B
$GPGGA,161703.600,4306.3151,N,07732.5689,W,2,08,1.06,145.8,M,-34.4,M,0000,0000*54
lng=-77.542816, lat=43.105247, altitude=145.80, speed=0.01, satellites=8, angle=75.8100, fixquality=2
$GPRMC,161703.800,A,4306.3151,N,07732.5689,W,0.00,75.81,060419,,,D*46
$GPGGA,161704.000,4306.3151,N,07732.5689,W,2,08,1.06,145.8,M,-34.4,M,0000,0000*55
lng=-77.542816, lat=43.105247, altitude=145.80, speed=0.00, satellites=8, angle=75.8100, fixquality=2
$GPRMC,161704.200,A,4306.3151,N,07732.5689,W,0.01,75.81,060419,,,D*4A
$GPGGA,161704.400,4306.3151,N,07732.5689,W,2,08,1.06,145.8,M,-34.4,M,0000,0000*51
lng=-77.542816, lat=43.105247, altitude=145.80, speed=0.01, satellites=8, angle=75.8100, fixquality=2
$GPRMC,161704.600,A,4306.3151,N,07732.5689,W,0.01,75.81,060419,,,D*4E
$GPGGA,161704.800,4306.3151,N,07732.5689,W,2,08,1.06,145.8,M,-34.4,M,0000,0000*5D
lng=-77.542816, lat=43.105247, altitude=145.80, speed=0.01, satellites=8, angle=75.8100, fixquality=2
$GPRMC,161705.000,A,4306.3151,N,07732.5689,W,0.00,75.81,060419,,,D*48
$GPGGA,161705.200,4306.3151,N,07732.5689,W,2,08,1.06,145.8,M,-34.4,M,0000,0000*56
lng=-77.542816, lat=43.105247, altitude=145.80, speed=0.00, satellites=8, angle=75.8100, fixquality=2
$GPRMC,161705.400,A,4306.3151,N,07732.5689,W,0.01,75.81,060419,,,D*4D
$GPGGA,161705.600,4306.3151,N,07732.5689,W,2,08,1.06,145.8,M,-34.4,M,0000,0000*52
lng=-77.542816, lat=43.105247, altitude=145.80, speed=0.01, satellites=8, angle=75.8100, fixquality=2
$GPRMC,161705.800,A,4306.3151,N,07732.5689,W,0.01,75.81,060419,,,D*41
$GPGGA,161706.000,4306.3151,N,07732.5689,W,2,08,1.06,145.8,M,-34.4,M,0000,0000*57
lng=-77.542816, lat=43.105247, altitude=145.80, speed=0.01, satellites=8, angle=75.8100, fixquality=2
$GPRMC,161706.200,A,4306.3151,N,07732.5689,W,0.00,75.81,060419,,,D*49
$GPGGA,161706.400,4306.3151,N,07732.5689,W,2,08,1.06,145.8,M,-34.4,M,0000,0000*53
lng=-77.542816, lat=43.105247, altitude=145.80, speed=0.00, satellites=8, angle=75.8100, fixquality=2
$GPRMC,161706.600,A,4306.3151,N,07732.5689,W,0.01,75.81,060419,,,D*4C
$GPGGA,161706.800,4306.3151,N,07732.5689,W,2,07,1.19,145.8,M,-34.4,M,0000,0000*5E
lng=-77.542816, lat=43.105247, altitude=145.80, speed=0.01, satellites=8, angle=75.8100, fixquality=2
$GPRMC,161707.000,A,4306.3151,N,07732.5689,W,0.00,75.81,060419,,,D*4A
$GPGGA,161707.200,4306.3151,N,07732.5689,W,2,07,1.19,145.8,M,-34.4,M,0000,0000*55
lng=-77.542816, lat=43.105247, altitude=145.80, speed=0.00, satellites=7, angle=75.8100, fixquality=2
$GPRMC,161707.400,A,4306.3151,N,07732.5689,W,0.00,75.81,060419,,,D*4E
$GPGGA,161707.600,4306.3151,N,07732.5689,W,2,08,1.06,145.8,M,-34.4,M,0000,0000*50
lng=-77.542816, lat=43.105247, altitude=145.80, speed=0.00, satellites=7, angle=75.8100, fixquality=2
$GPRMC,161707.800,A,4306.3151,N,07732.5689,W,0.00,75.81,060419,,,D*42
$GPGGA,161708.000,4306.3151,N,07732.5689,W,2,07,1.19,145.8,M,-34.4,M,0000,0000*58
lng=-77.542816, lat=43.105247, altitude=145.80, speed=0.00, satellites=8, angle=75.8100, fixquality=2
$GPRMC,161708.200,A,4306.3151,N,07732.5689,W,0.01,75.81,060419,,,D*46
$GPGGA,161708.400,4306.3151,N,07732.5689,W,2,07,1.19,145.8,M,-34.4,M,0000,0000*5C
lng=-77.542816, lat=43.105247, altitude=145.80, speed=0.01, satellites=7, angle=75.8100, fixquality=2
$GPRMC,161708.600,A,4306.3151,N,07732.5689,W,0.00,75.81,060419,,,D*43
$GPGGA,161708.800,4306.3151,N,07732.5689,W,2,07,1.19,145.8,M,-34.4,M,0000,0000*50
lng=-77.542816, lat=43.105247, altitude=145.80, speed=0.00, satellites=7, angle=75.8100, fixquality=2
$GPRMC,161709.000,A,4306.3151,N,07732.5689,W,0.02,75.81,060419,,,D*46
$GPGGA,161709.200,4306.3151,N,07732.5689,W,2,07,1.19,145.8,M,-34.4,M,0000,0000*5B
lng=-77.542816, lat=43.105247, altitude=145.80, speed=0.02, satellites=7, angle=75.8100, fixquality=2
$GPRMC,161709.400,A,4306.3151,N,07732.5689,W,0.01,75.81,060419,,,D*41
$GPGGA,161709.600,4306.3151,N,07732.5689,W,2,07,1.19,145.8,M,-34.4,M,0000,0000*5F
lng=-77.542816, lat=43.105247, altitude=145.80, speed=0.01, satellites=7, angle=75.8100, fixquality=2
$GPRMC,161709.800,A,4306.3151,N,07732.5689,W,0.00,75.81,060419,,,D*4C
$GPGGA,161710.000,4306.3151,N,07732.5689,W,2,07,1.19,145.8,M,-34.4,M,0000,0000*51
lng=-77.542816, lat=43.105247, altitude=145.80, speed=0.00, satellites=7, angle=75.8100, fixquality=2
$GPRMC,161710.200,A,4306.3151,N,07732.5689,W,0.00,75.81,060419,,,D*4E
$GPGGA,161710.400,4306.3151,N,07732.5689,W,2,07,1.19,145.8,M,-34.4,M,0000,0000*55
lng=-77.542816, lat=43.105247, altitude=145.80, speed=0.00, satellites=7, angle=75.8100, fixquality=2
$GPRMC,161710.600,A,4306.3151,N,07732.5689,W,0.01,75.81,060419,,,D*4B
$GPGGA,161710.800,4306.3151,N,07732.5689,W,2,07,1.19,145.8,M,-34.4,M,0000,0000*59
lng=-77.542816, lat=43.105247, altitude=145.80, speed=0.01, satellites=7, angle=75.8100, fixquality=2
$GPRMC,161711.000,A,4306.3151,N,07732.5689,W,0.01,75.81,060419,,,D*4C
$GPGGA,161711.200,4306.3151,N,07732.5689,W,2,07,1.19,145.8,M,-34.4,M,0000,0000*52
lng=-77.542816, lat=43.105247, altitude=145.80, speed=0.01, satellites=7, angle=75.8100, fixquality=2
$GPRMC,161711.400,A,4306.3151,N,07732.5689,W,0.01,75.81,060419,,,D*48
$GPGGA,161711.600,4306.3151,N,07732.5689,W,2,07,1.19,145.8,M,-34.4,M,0000,0000*56
lng=-77.542816, lat=43.105247, altitude=145.80, speed=0.01, satellites=7, angle=75.8100, fixquality=2
$GPRMC,161711.800,A,4306.3151,N,07732.5689,W,0.01,75.81,060419,,,D*44
$GPGGA,161712.000,4306.3151,N,07732.5689,W,2,07,1.19,145.8,M,-34.4,M,0000,0000*53
lng=-77.542816, lat=43.105247, altitude=145.80, speed=0.01, satellites=7, angle=75.8100, fixquality=2
$GPRMC,161712.200,A,4306.3151,N,07732.5689,W,0.00,75.81,060419,,,D*4C
$GPGGA,161712.400,4306.3151,N,07732.5689,W,2,07,1.19,145.8,M,-34.4,M,0000,0000*57
lng=-77.542816, lat=43.105247, altitude=145.80, speed=0.00, satellites=7, angle=75.8100, fixquality=2
$GPRMC,161712.600,A,4306.3151,N,07732.5689,W,0.01,75.81,060419,,,D*49
$GPGGA,161712.800,4306.3151,N,07732.5689,W,2,07,1.19,145.8,M,-34.4,M,0000,0000*5B
lng=-77.542816, lat=43.105247, altitude=145.80, speed=0.01, satellites=7, angle=75.8100, fixquality=2
$GPRMC,161713.000,A,4306.3151,N,07732.5689,W,0.00,75.81,060419,,,D*4F
$GPGGA,161713.200,4306.3151,N,07732.5689,W,2,07,1.19,145.8,M,-34.4,M,0000,0000*50
lng=-77.542816, lat=43.105247, altitude=145.80, speed=0.00, satellites=7, angle=75.8100, fixquality=2
$GPRMC,161713.400,A,4306.3151,N,07732.5689,W,0.02,75.81,060419,,,D*49
$GPGGA,161713.600,4306.3151,N,07732.5689,W,2,07,1.19,145.8,M,-34.4,M,0000,0000*54
lng=-77.542816, lat=43.105247, altitude=145.80, speed=0.02, satellites=7, angle=75.8100, fixquality=2
$GPRMC,161713.800,A,4306.3151,N,07732.5689,W,0.00,75.81,060419,,,D*47
$GPGGA,161714.000,4306.3151,N,07732.5689,W,2,07,1.19,145.8,M,-34.4,M,0000,0000*55
lng=-77.542816, lat=43.105247, altitude=145.80, speed=0.00, satellites=7, angle=75.8100, fixquality=2
$GPRMC,161714.200,A,4306.3151,N,07732.5689,W,0.00,75.81,060419,,,D*4A
$GPGGA,161714.400,4306.3151,N,07732.5689,W,2,07,1.19,145.8,M,-34.4,M,0000,0000*51
lng=-77.542816, lat=43.105247, altitude=145.80, speed=0.00, satellites=7, angle=75.8100, fixquality=2
$GPRMC,161714.600,A,4306.3151,N,07732.5689,W,0.01,75.81,060419,,,D*4F
$GPGGA,161714.800,4306.3151,N,07732.5689,W,2,07,1.19,145.8,M,-34.4,M,0000,0000*5D
lng=-77.542816, lat=43.105247, altitude=145.80, speed=0.01, satellites=7, angle=75.8100, fixquality=2
$GPRMC,161715.000,A,4306.3151,N,07732.5689,W,0.00,75.81,060419,,,D*49
$GPGGA,161715.200,4306.3151,N,07732.5689,W,2,07,1.19,145.8,M,-34.4,M,0000,0000*56
lng=-77.542816, lat=43.105247, altitude=145.80, speed=0.00, satellites=7, angle=75.8100, fixquality=2
$GPRMC,161715.400,A,4306.3151,N,07732.5689,W,0.01,75.81,060419,,,D*4C
$GPGGA,161715.600,4306.3151,N,07732.5689,W,2,07,1.19,145.8,M,-34.4,M,0000,0000*52
lng=-77.542816, lat=43.105247, altitude=145.80, speed=0.01, satellites=7, angle=75.8100, fixquality=2
$GPRMC,161715.800,A,4306.3151,N,07732.5689,W,0.00,75.81,060419,,,D*41
$GPGGA,161716.000,4306.3151,N,07732.5689,W,2,07,1.19,145.8,M,-34.4,M,0000,0000*57
lng=-77.542816, lat=43.105247, altitude=145.80, speed=0.00, satellites=7, angle=75.8100, fixquality=2
$GPRMC,161716.200,A,4306.3151,N,07732.5689,W,0.01,75.81,060419,,,D*49
$GPGGA,161716.400,4306.3151,N,07732.5689,W,2,07,1.19,145.8,M,-34.4,M,0000,0000*53
lng=-77.542816, lat=43.105247, altitude=145.80, speed=0.01, satellites=7, angle=75.8100, fixquality=2
$GPRMC,161716.600,A,4306.3151,N,07732.5689,W,0.01,75.81,060419,,,D*4D
$GPGGA,161716.800,4306.3151,N,07732.5689,W,2,07,1.19,145.8,M,-34.4,M,0000,0000*5F
lng=-77.542816, lat=43.105247, altitude=145.80, speed=0.01, satellites=7, angle=75.8100, fixquality=2
$GPRMC,161717.000,A,4306.3151,N,07732.5689,W,0.01,75.81,060419,,,D*4A
$GPGGA,161717.200,4306.3151,N,07732.5689,W,2,07,1.19,145.8,M,-34.4,M,0000,0000*54
lng=-77.542816, lat=43.105247, altitude=145.80, speed=0.01, satellites=7, angle=75.8100, fixquality=2
$GPRMC,161717.400,A,4306.3151,N,07732.5689,W,0.00,75.81,060419,,,D*4F
$GPGGA,161717.600,4306.3151,N,07732.5689,W,2,07,1.19,145.8,M,-34.4,M,0000,0000*50
lng=-77.542816, lat=43.105247, altitude=145.80, speed=0.00, satellites=7, angle=75.8100, fixquality=2
$GPRMC,161717.800,A,4306.3151,N,07732.5689,W,0.01,75.81,060419,,,D*42
$GPGGA,161718.000,4306.3151,N,07732.5689,W,2,07,1.19,145.8,M,-34.4,M,0000,0000*59
lng=-77.542816, lat=43.105247, altitude=145.80, speed=0.01, satellites=7, angle=75.8100, fixquality=2
$GPRMC,161718.200,A,4306.3151,N,07732.5689,W,0.01,75.81,060419,,,D*47
$GPGGA,161718.400,4306.3151,N,07732.5689,W,2,07,1.19,145.8,M,-34.4,M,0000,0000*5D
lng=-77.542816, lat=43.105247, altitude=145.80, speed=0.01, satellites=7, angle=75.8100, fixquality=2
$GPRMC,161718.600,A,4306.3151,N,07732.5689,W,0.01,75.81,060419,,,D*43
$GPGGA,161718.800,4306.3151,N,07732.5689,W,2,07,1.19,145.8,M,-34.4,M,0000,0000*51
lng=-77.542816, lat=43.105247, altitude=145.80, speed=0.01, satellites=7, angle=75.8100, fixquality=2
$GPRMC,161719.000,A,4306.3151,N,07732.5689,W,0.00,75.81,060419,,,D*45
$GPGGA,161719.200,4306.3151,N,07732.5689,W,2,07,1.19,145.8,M,-34.4,M,0000,0000*5A
lng=-77.542816, lat=43.105247, altitude=145.80, speed=0.00, satellites=7, angle=75.8100, fixquality=2
$GPRMC,161719.400,A,4306.3151,N,07732.5689,W,0.01,75.81,060419,,,D*40
$GPGGA,161719.600,4306.3151,N,07732.5689,W,2,07,1.19,145.8,M,-34.4,M,0000,0000*5E
lng=-77.542816, lat=43.105247, altitude=145.80, speed=0.01, satellites=7, angle=75.8100, fixquality=2
$GPRMC,161719.800,A,4306.3151,N,07732.5689,W,0.00,75.81,060419,,,D*4D
$GPGGA,161720.000,4306.3151,N,07732.5689,W,2,07,1.19,145.8,M,-34.4,M,0000,0000*52
lng=-77.542816, lat=43.105247, altitude=145.80, speed=0.00, satellites=7, angle=75.8100, fixquality=2
$GPRMC,161720.200,A,4306.3151,N,07732.5689,W,0.01,75.81,060419,,,D*4C
$GPGGA,161720.400,4306.3151,N,07732.5689,W,2,07,1.19,145.8,M,-34.4,M,0000,0000*56
lng=-77.542816, lat=43.105247, altitude=145.80, speed=0.01, satellites=7, angle=75.8100, fixquality=2
$GPRMC,161720.600,A,4306.3151,N,07732.5689,W,0.00,75.81,060419,,,D*49
$GPGGA,161720.800,4306.3150,N,07732.5689,W,2,07,1.19,145.8,M,-34.4,M,0000,0000*5B
lng=-77.542816, lat=43.105247, altitude=145.80, speed=0.00, satellites=7, angle=75.8100, fixquality=2
$GPRMC,161721.000,A,4306.3150,N,07732.5689,W,0.00,75.81,060419,,,D*4F
$GPGGA,161721.200,4306.3151,N,07732.5689,W,2,07,1.19,145.8,M,-34.4,M,0000,0000*51
lng=-77.542816, lat=43.105247, altitude=145.80, speed=0.00, satellites=7, angle=75.8100, fixquality=2
$GPRMC,161721.400,A,4306.3151,N,07732.5689,W,0.01,75.81,060419,,,D*4B
$GPGGA,161721.600,4306.3150,N,07732.5689,W,2,07,1.19,145.8,M,-34.4,M,0000,0000*54
lng=-77.542816, lat=43.105247, altitude=145.80, speed=0.01, satellites=7, angle=75.8100, fixquality=2
$GPRMC,161721.800,A,4306.3150,N,07732.5689,W,0.01,75.81,060419,,,D*46
$GPGGA,161722.000,4306.3151,N,07732.5689,W,2,07,1.19,145.8,M,-34.4,M,0000,0000*50
lng=-77.542816, lat=43.105247, altitude=145.80, speed=0.01, satellites=7, angle=75.8100, fixquality=2
$GPRMC,161722.200,A,4306.3150,N,07732.5689,W,0.01,75.81,060419,,,D*4F
$GPGGA,161722.400,4306.3150,N,07732.5689,W,2,07,1.19,145.8,M,-34.4,M,0000,0000*55
lng=-77.542816, lat=43.105247, altitude=145.80, speed=0.01, satellites=7, angle=75.8100, fixquality=2
$GPRMC,161722.600,A,4306.3150,N,07732.5689,W,0.00,75.81,060419,,,D*4A
$GPGGA,161722.800,4306.3150,N,07732.5689,W,2,07,1.19,145.8,M,-34.4,M,0000,0000*59
lng=-77.542816, lat=43.105247, altitude=145.80, speed=0.00, satellites=7, angle=75.8100, fixquality=2
$GPRMC,161723.000,A,4306.3150,N,07732.5689,W,0.01,75.81,060419,,,D*4C
$GPGGA,161723.200,4306.3150,N,07732.5689,W,2,07,1.19,145.8,M,-34.4,M,0000,0000*52
lng=-77.542816, lat=43.105247, altitude=145.80, speed=0.01, satellites=7, angle=75.8100, fixquality=2
$GPRMC,161723.400,A,4306.3150,N,07732.5689,W,0.01,75.81,060419,,,D*48
$GPGGA,161723.600,4306.3150,N,07732.5689,W,2,07,1.19,145.8,M,-34.4,M,0000,0000*56
lng=-77.542816, lat=43.105247, altitude=145.80, speed=0.01, satellites=7, angle=75.8100, fixquality=2
$GPRMC,161723.800,A,4306.3150,N,07732.5689,W,0.00,75.81,060419,,,D*45
$GPGGA,161724.000,4306.3150,N,07732.5689,W,2,07,1.19,145.8,M,-34.4,M,0000,0000*57
lng=-77.542816, lat=43.105247, altitude=145.80, speed=0.00, satellites=7, angle=75.8100, fixquality=2
$GPRMC,161724.200,A,4306.3150,N,07732.5689,W,0.00,75.81,060419,,,D*48
$GPGGA,161724.400,4306.3150,N,07732.5689,W,2,07,1.19,145.8,M,-34.4,M,0000,0000*53
lng=-77.542816, lat=43.105247, altitude=145.80, speed=0.00, satellites=7, angle=75.8100, fixquality=2
$GPRMC,161724.600,A,4306.3150,N,07732.5689,W,0.01,75.81,060419,,,D*4D
$GPGGA,161724.800,4306.3150,N,07732.5689,W,2,07,1.19,145.8,M,-34.4,M,0000,0000*5F
lng=-77.542816, lat=43.105247, altitude=145.80, speed=0.01, satellites=7, angle=75.8100, fixquality=2
$GPRMC,161725.000,A,4306.3150,N,07732.5689,W,0.01,75.81,060419,,,D*4A
$GPGGA,161725.200,4306.3150,N,07732.5689,W,2,07,1.19,145.8,M,-34.4,M,0000,0000*54
lng=-77.542816, lat=43.105247, altitude=145.80, speed=0.01, satellites=7, angle=75.8100, fixquality=2
$GPRMC,161725.400,A,4306.3150,N,07732.5689,W,0.00,75.81,060419,,,D*4F
$GPGGA,161725.600,4306.3150,N,07732.5689,W,2,07,1.19,145.8,M,-34.4,M,0000,0000*50
lng=-77.542816, lat=43.105247, altitude=145.80, speed=0.00, satellites=7, angle=75.8100, fixquality=2
$GPRMC,161725.800,A,4306.3150,N,07732.5689,W,0.01,75.81,060419,,,D*42
$GPGGA,161726.000,4306.3150,N,07732.5689,W,2,07,1.19,145.8,M,-34.4,M,0000,0000*55
lng=-77.542816, lat=43.105247, altitude=145.80, speed=0.01, satellites=7, angle=75.8100, fixquality=2
$GPRMC,161726.200,A,4306.3150,N,07732.5689,W,0.01,75.81,060419,,,D*4B
$GPGGA,161726.400,4306.3150,N,07732.5689,W,2,07,1.19,145.8,M,-34.4,M,0000,0000*51
lng=-77.542816, lat=43.105247, altitude=145.80, speed=0.01, satellites=7, angle=75.8100, fixquality=2
$GPRMC,161726.600,A,4306.3150,N,07732.5689,W,0.01,75.81,060419,,,D*4F
$GPGGA,161726.800,4306.3150,N,07732.5689,W,2,07,1.19,145.8,M,-34.4,M,0000,0000*5D
lng=-77.542816, lat=43.105247, altitude=145.80, speed=0.01, satellites=7, angle=75.8100, fixquality=2
$GPRMC,161727.000,A,4306.3150,N,07732.5689,W,0.00,75.81,060419,,,D*49
$GPGGA,161727.200,4306.3150,N,07732.5689,W,2,07,1.19,145.8,M,-34.4,M,0000,0000*56
lng=-77.542816, lat=43.105247, altitude=145.80, speed=0.00, satellites=7, angle=75.8100, fixquality=2
$GPRMC,161727.400,A,4306.3150,N,07732.5689,W,0.00,75.81,060419,,,D*4D
$GPGGA,161727.600,4306.3150,N,07732.5689,W,2,07,1.19,145.8,M,-34.4,M,0000,0000*52
lng=-77.542816, lat=43.105247, altitude=145.80, speed=0.00, satellites=7, angle=75.8100, fixquality=2
$GPRMC,161727.800,A,4306.3150,N,07732.5689,W,0.01,75.81,060419,,,D*40
$GPGGA,161728.000,4306.3150,N,07732.5689,W,2,07,1.19,145.8,M,-34.4,M,0000,0000*5B
lng=-77.542816, lat=43.105247, altitude=145.80, speed=0.01, satellites=7, angle=75.8100, fixquality=2
$GPRMC,161728.200,A,4306.3150,N,07732.5689,W,0.00,75.81,060419,,,D*44
$GPGGA,161728.400,4306.3150,N,07732.5689,W,2,07,1.19,145.8,M,-34.4,M,0000,0000*5F
lng=-77.542816, lat=43.105247, altitude=145.80, speed=0.00, satellites=7, angle=75.8100, fixquality=2
$GPRMC,161728.600,A,4306.3150,N,07732.5689,W,0.02,75.81,060419,,,D*42
$GPGGA,161728.800,4306.3150,N,07732.5689,W,2,07,1.19,145.8,M,-34.4,M,0000,0000*53
lng=-77.542816, lat=43.105247, altitude=145.80, speed=0.02, satellites=7, angle=75.8100, fixquality=2
$GPRMC,161729.000,A,4306.3150,N,07732.5689,W,0.01,75.81,060419,,,D*46
$GPGGA,161729.200,4306.3150,N,07732.5689,W,2,07,1.19,145.8,M,-34.4,M,0000,0000*58
lng=-77.542816, lat=43.105247, altitude=145.80, speed=0.01, satellites=7, angle=75.8100, fixquality=2
$GPRMC,161729.400,A,4306.3150,N,07732.5689,W,0.00,75.81,060419,,,D*43
$GPGGA,161729.600,4306.3150,N,07732.5689,W,2,07,1.19,145.8,M,-34.4,M,0000,0000*5C
lng=-77.542816, lat=43.105247, altitude=145.80, speed=0.00, satellites=7, angle=75.8100, fixquality=2
$GPRMC,161729.800,A,4306.3150,N,07732.5689,W,0.00,75.81,060419,,,D*4F
$GPGGA,161730.000,4306.3150,N,07732.5689,W,2,07,1.19,145.8,M,-34.4,M,0000,0000*52
lng=-77.542816, lat=43.105247, altitude=145.80, speed=0.00, satellites=7, angle=75.8100, fixquality=2
$GPRMC,161730.200,A,4306.3150,N,07732.5689,W,0.01,75.81,060419,,,D*4C
$GPGGA,161730.400,4306.3150,N,07732.5689,W,2,07,1.19,145.8,M,-34.4,M,0000,0000*56
lng=-77.542816, lat=43.105247, altitude=145.80, speed=0.01, satellites=7, angle=75.8100, fixquality=2
$GPRMC,161730.600,A,4306.3150,N,07732.5689,W,0.00,75.81,060419,,,D*49
$GPGGA,161730.800,4306.3150,N,07732.5689,W,2,07,1.19,145.8,M,-34.4,M,0000,0000*5A
lng=-77.542816, lat=43.105247, altitude=145.80, speed=0.00, satellites=7, angle=75.8100, fixquality=2
$GPRMC,161731.000,A,4306.3150,N,07732.5689,W,0.00,75.81,060419,,,D*4E
$GPGGA,161731.200,4306.3150,N,07732.5689,W,2,07,1.19,145.8,M,-34.4,M,0000,0000*51
lng=-77.542816, lat=43.105247, altitude=145.80, speed=0.00, satellites=7, angle=75.8100, fixquality=2
$GPRMC,161731.400,A,4306.3150,N,07732.5689,W,0.01,75.81,060419,,,D*4B
$GPGGA,161731.600,4306.3150,N,07732.5689,W,2,07,1.19,145.8,M,-34.4,M,0000,0000*55
lng=-77.542816, lat=43.105247, altitude=145.80, speed=0.01, satellites=7, angle=75.8100, fixquality=2
$GPRMC,161731.800,A,4306.3150,N,07732.5689,W,0.00,75.81,060419,,,D*46
$GPGGA,161732.000,4306.3150,N,07732.5689,W,2,07,1.19,145.8,M,-34.4,M,0000,0000*50
lng=-77.542816, lat=43.105247, altitude=145.80, speed=0.00, satellites=7, angle=75.8100, fixquality=2
$GPRMC,161732.200,A,4306.3150,N,07732.5689,W,0.00,75.81,060419,,,D*4F
$GPGGA,161732.400,4306.3150,N,07732.5689,W,2,07,1.19,145.8,M,-34.4,M,0000,0000*54
lng=-77.542816, lat=43.105247, altitude=145.80, speed=0.00, satellites=7, angle=75.8100, fixquality=2
$GPRMC,161732.600,A,4306.3150,N,07732.5689,W,0.00,75.81,060419,,,D*4B
$GPGGA,161732.800,4306.3150,N,07732.5689,W,2,07,1.19,145.8,M,-34.4,M,0000,0000*58
lng=-77.542816, lat=43.105247, altitude=145.80, speed=0.00, satellites=7, angle=75.8100, fixquality=2
$GPRMC,161733.000,A,4306.3150,N,07732.5689,W,0.00,75.81,060419,,,D*4C
$GPGGA,161733.200,4306.3150,N,07732.5689,W,2,07,1.19,145.8,M,-34.4,M,0000,0000*53
lng=-77.542816, lat=43.105247, altitude=145.80, speed=0.00, satellites=7, angle=75.8100, fixquality=2
$GPRMC,161733.400,A,4306.3150,N,07732.5689,W,0.01,75.81,060419,,,D*49
$GPGGA,161733.600,4306.3150,N,07732.5689,W,2,07,1.19,145.8,M,-34.4,M,0000,0000*57
lng=-77.542816, lat=43.105247, altitude=145.80, speed=0.01, satellites=7, angle=75.8100, fixquality=2
$GPRMC,161733.800,A,4306.3150,N,07732.5689,W,0.00,75.81,060419,,,D*44
$GPGGA,161734.000,4306.3150,N,07732.5689,W,2,07,1.19,145.8,M,-34.4,M,0000,0000*56
lng=-77.542816, lat=43.105247, altitude=145.80, speed=0.00, satellites=7, angle=75.8100, fixquality=2
$GPRMC,161734.200,A,4306.3150,N,07732.5689,W,0.01,75.81,060419,,,D*48
$GPGGA,161734.400,4306.3150,N,07732.5689,W,2,07,1.19,145.8,M,-34.4,M,0000,0000*52
lng=-77.542816, lat=43.105247, altitude=145.80, speed=0.01, satellites=7, angle=75.8100, fixquality=2
$GPRMC,161734.600,A,4306.3150,N,07732.5689,W,0.01,75.81,060419,,,D*4C
$GPGGA,161734.800,4306.3150,N,07732.5689,W,2,07,1.19,145.8,M,-34.4,M,0000,0000*5E
lng=-77.542816, lat=43.105247, altitude=145.80, speed=0.01, satellites=7, angle=75.8100, fixquality=2
$GPRMC,161735.000,A,4306.3150,N,07732.5689,W,0.01,75.81,060419,,,D*4B
$GPGGA,161735.200,4306.3150,N,07732.5689,W,2,07,1.19,145.8,M,-34.4,M,0000,0000*55
lng=-77.542816, lat=43.105247, altitude=145.80, speed=0.01, satellites=7, angle=75.8100, fixquality=2
$GPRMC,161735.400,A,4306.3150,N,07732.5689,W,0.00,75.81,060419,,,D*4E
$GPGGA,161735.600,4306.3150,N,07732.5689,W,2,07,1.19,145.8,M,-34.4,M,0000,0000*51
lng=-77.542816, lat=43.105247, altitude=145.80, speed=0.00, satellites=7, angle=75.8100, fixquality=2
$GPRMC,161735.800,A,4306.3150,N,07732.5689,W,0.01,75.81,060419,,,D*43
$GPGGA,161736.000,4306.3150,N,07732.5689,W,2,07,1.19,145.8,M,-34.4,M,0000,0000*54
lng=-77.542816, lat=43.105247, altitude=145.80, speed=0.01, satellites=7, angle=75.8100, fixquality=2
$GPRMC,161736.200,A,4306.3150,N,07732.5689,W,0.01,75.81,060419,,,D*4A
$GPGGA,161736.400,4306.3150,N,07732.5689,W,2,07,1.19,145.8,M,-34.4,M,0000,0000*50
lng=-77.542816, lat=43.105247, altitude=145.80, speed=0.01, satellites=7, angle=75.8100, fixquality=2
$GPRMC,161736.600,A,4306.3150,N,07732.5689,W,0.01,75.81,060419,,,D*4E
$GPGGA,161736.800,4306.3150,N,07732.5689,W,2,07,1.19,145.8,M,-34.4,M,0000,0000*5C
lng=-77.542816, lat=43.105247, altitude=145.80, speed=0.01, satellites=7, angle=75.8100, fixquality=2
$GPRMC,161737.000,A,4306.3150,N,07732.5689,W,0.01,75.81,060419,,,D*49
$GPGGA,161737.200,4306.3150,N,07732.5689,W,2,08,1.06,145.8,M,-34.4,M,0000,0000*56
lng=-77.542816, lat=43.105247, altitude=145.80, speed=0.01, satellites=7, angle=75.8100, fixquality=2
$GPRMC,161737.400,A,4306.3150,N,07732.5689,W,0.00,75.81,060419,,,D*4C
$GPGGA,161737.600,4306.3150,N,07732.5689,W,2,08,1.06,145.8,M,-34.4,M,0000,0000*52
lng=-77.542816, lat=43.105247, altitude=145.80, speed=0.00, satellites=8, angle=75.8100, fixquality=2
$GPRMC,161737.800,A,4306.3150,N,07732.5689,W,0.00,75.81,060419,,,D*40
$GPGGA,161738.000,4306.3150,N,07732.5689,W,2,07,1.19,145.8,M,-34.4,M,0000,0000*5A
lng=-77.542816, lat=43.105247, altitude=145.80, speed=0.00, satellites=8, angle=75.8100, fixquality=2
$GPRMC,161738.200,A,4306.3150,N,07732.5689,W,0.00,75.81,060419,,,D*45
$GPGGA,161738.400,4306.3150,N,07732.5689,W,2,07,1.19,145.8,M,-34.4,M,0000,0000*5E
lng=-77.542816, lat=43.105247, altitude=145.80, speed=0.00, satellites=7, angle=75.8100, fixquality=2
$GPRMC,161738.600,A,4306.3150,N,07732.5689,W,0.01,75.81,060419,,,D*40
$GPGGA,161738.800,4306.3150,N,07732.5689,W,2,07,1.19,145.8,M,-34.4,M,0000,0000*52
lng=-77.542816, lat=43.105247, altitude=145.80, speed=0.01, satellites=7, angle=75.8100, fixquality=2
$GPRMC,161739.000,A,4306.3150,N,07732.5689,W,0.01,75.81,060419,,,D*47
$GPGGA,161739.200,4306.3150,N,07732.5689,W,2,07,1.19,145.8,M,-34.4,M,0000,0000*59
lng=-77.542816, lat=43.105247, altitude=145.80, speed=0.01, satellites=7, angle=75.8100, fixquality=2
$GPRMC,161739.400,A,4306.3150,N,07732.5689,W,0.00,75.81,060419,,,D*42
$GPGGA,161739.600,4306.3150,N,07732.5689,W,2,08,1.06,145.8,M,-34.4,M,0000,0000*5C
lng=-77.542816, lat=43.105247, altitude=145.80, speed=0.00, satellites=7, angle=75.8100, fixquality=2
$GPRMC,161739.800,A,4306.3150,N,07732.5689,W,0.00,75.81,060419,,,D*4E
$GPGGA,161740.000,4306.3150,N,07732.5689,W,2,08,1.06,145.8,M,-34.4,M,0000,0000*54
lng=-77.542816, lat=43.105247, altitude=145.80, speed=0.00, satellites=8, angle=75.8100, fixquality=2
$GPRMC,161740.200,A,4306.3150,N,07732.5689,W,0.00,75.81,060419,,,D*4A
$GPGGA,161740.400,4306.3150,N,07732.5689,W,2,07,1.19,145.8,M,-34.4,M,0000,0000*51
lng=-77.542816, lat=43.105247, altitude=145.80, speed=0.00, satellites=8, angle=75.8100, fixquality=2
$GPRMC,161740.600,A,4306.3150,N,07732.5689,W,0.01,75.81,060419,,,D*4F
$GPGGA,161740.800,4306.3150,N,07732.5689,W,2,07,1.19,145.8,M,-34.4,M,0000,0000*5D
lng=-77.542816, lat=43.105247, altitude=145.80, speed=0.01, satellites=7, angle=75.8100, fixquality=2
$GPRMC,161741.000,A,4306.3150,N,07732.5689,W,0.00,75.81,060419,,,D*49
$GPGGA,161741.200,4306.3150,N,07732.5689,W,2,07,1.19,145.8,M,-34.4,M,0000,0000*56
lng=-77.542816, lat=43.105247, altitude=145.80, speed=0.00, satellites=7, angle=75.8100, fixquality=2
$GPRMC,161741.400,A,4306.3150,N,07732.5689,W,0.00,75.81,060419,,,D*4D
$GPGGA,161741.600,4306.3150,N,07732.5689,W,2,07,1.19,145.8,M,-34.4,M,0000,0000*52
lng=-77.542816, lat=43.105247, altitude=145.80, speed=0.00, satellites=7, angle=75.8100, fixquality=2
$GPRMC,161741.800,A,4306.3150,N,07732.5689,W,0.00,75.81,060419,,,D*41
$GPGGA,161742.000,4306.3150,N,07732.5689,W,2,08,1.06,145.8,M,-34.4,M,0000,0000*56
lng=-77.542816, lat=43.105247, altitude=145.80, speed=0.00, satellites=7, angle=75.8100, fixquality=2
$GPRMC,161742.200,A,4306.3150,N,07732.5689,W,0.01,75.81,060419,,,D*49
$GPGGA,161742.400,4306.3150,N,07732.5689,W,2,08,1.06,145.8,M,-34.4,M,0000,0000*52
lng=-77.542816, lat=43.105247, altitude=145.80, speed=0.01, satellites=8, angle=75.8100, fixquality=2
$GPRMC,161742.600,A,4306.3150,N,07732.5689,W,0.00,75.81,060419,,,D*4C
$GPGGA,161742.800,4306.3150,N,07732.5689,W,2,08,1.06,145.8,M,-34.4,M,0000,0000*5E
lng=-77.542816, lat=43.105247, altitude=145.80, speed=0.00, satellites=8, angle=75.8100, fixquality=2
$GPRMC,161743.000,A,4306.3150,N,07732.5689,W,0.01,75.81,060419,,,D*4A
$GPGGA,161743.200,4306.3150,N,07732.5689,W,2,08,1.06,145.8,M,-34.4,M,0000,0000*55
lng=-77.542816, lat=43.105247, altitude=145.80, speed=0.01, satellites=8, angle=75.8100, fixquality=2
$GPRMC,161743.400,A,4306.3150,N,07732.5689,W,0.01,75.81,060419,,,D*4E
$GPGGA,161743.600,4306.3150,N,07732.5689,W,2,08,1.06,145.8,M,-34.4,M,0000,0000*51
lng=-77.542816, lat=43.105247, altitude=145.80, speed=0.01, satellites=8, angle=75.8100, fixquality=2
$GPRMC,161743.800,A,4306.3150,N,07732.5689,W,0.01,75.81,060419,,,D*42
$GPGGA,161744.000,4306.3150,N,07732.5689,W,2,08,1.06,145.8,M,-34.4,M,0000,0000*50
lng=-77.542816, lat=43.105247, altitude=145.80, speed=0.01, satellites=8, angle=75.8100, fixquality=2
$GPRMC,161744.200,A,4306.3150,N,07732.5689,W,0.00,75.81,060419,,,D*4E
$GPGGA,161744.400,4306.3150,N,07732.5689,W,2,07,1.19,145.8,M,-34.4,M,0000,0000*55
lng=-77.542816, lat=43.105247, altitude=145.80, speed=0.00, satellites=8, angle=75.8100, fixquality=2
$GPRMC,161744.600,A,4306.3150,N,07732.5689,W,0.01,75.81,060419,,,D*4B
$GPGGA,161744.800,4306.3150,N,07732.5689,W,2,07,1.19,145.8,M,-34.4,M,0000,0000*59
lng=-77.542816, lat=43.105247, altitude=145.80, speed=0.01, satellites=7, angle=75.8100, fixquality=2
$GPRMC,161745.000,A,4306.3150,N,07732.5689,W,0.01,75.81,060419,,,D*4C
$GPGGA,161745.200,4306.3150,N,07732.5689,W,2,08,1.06,145.8,M,-34.4,M,0000,0000*53
lng=-77.542816, lat=43.105247, altitude=145.80, speed=0.01, satellites=7, angle=75.8100, fixquality=2
$GPRMC,161745.400,A,4306.3150,N,07732.5689,W,0.01,75.81,060419,,,D*48
$GPGGA,161745.600,4306.3150,N,07732.5689,W,2,08,1.06,145.8,M,-34.4,M,0000,0000*57
lng=-77.542816, lat=43.105247, altitude=145.80, speed=0.01, satellites=8, angle=75.8100, fixquality=2
$GPRMC,161745.800,A,4306.3150,N,07732.5689,W,0.01,75.81,060419,,,D*44
$GPGGA,161746.000,4306.3150,N,07732.5689,W,2,08,1.06,145.8,M,-34.4,M,0000,0000*52
lng=-77.542816, lat=43.105247, altitude=145.80, speed=0.01, satellites=8, angle=75.8100, fixquality=2
$GPRMC,161746.200,A,4306.3150,N,07732.5689,W,0.00,75.81,060419,,,D*4C
$GPGGA,161746.400,4306.3150,N,07732.5689,W,2,08,1.06,145.8,M,-34.4,M,0000,0000*56
lng=-77.542816, lat=43.105247, altitude=145.80, speed=0.00, satellites=8, angle=75.8100, fixquality=2
$GPRMC,161746.600,A,4306.3150,N,07732.5689,W,0.01,75.81,060419,,,D*49
$GPGGA,161746.800,4306.3150,N,07732.5689,W,2,08,1.06,145.8,M,-34.4,M,0000,0000*5A
lng=-77.542816, lat=43.105247, altitude=145.80, speed=0.01, satellites=8, angle=75.8100, fixquality=2
$GPRMC,161747.000,A,4306.3150,N,07732.5689,W,0.01,75.81,060419,,,D*4E
$GPGGA,161747.200,4306.3150,N,07732.5689,W,2,08,1.06,145.8,M,-34.4,M,0000,0000*51
lng=-77.542816, lat=43.105247, altitude=145.80, speed=0.01, satellites=8, angle=75.8100, fixquality=2
$GPRMC,161747.400,A,4306.3151,N,07732.5689,W,0.00,75.81,060419,,,D*4A
$GPGGA,161747.600,4306.3151,N,07732.5689,W,2,08,1.06,145.8,M,-34.4,M,0000,0000*54
lng=-77.542816, lat=43.105247, altitude=145.80, speed=0.00, satellites=8, angle=75.8100, fixquality=2
$GPRMC,161747.800,A,4306.3151,N,07732.5689,W,0.01,75.81,060419,,,D*47
$GPGGA,161748.000,4306.3151,N,07732.5689,W,2,08,1.06,145.8,M,-34.4,M,0000,0000*5D
lng=-77.542816, lat=43.105247, altitude=145.80, speed=0.01, satellites=8, angle=75.8100, fixquality=2
$GPRMC,161748.200,A,4306.3151,N,07732.5689,W,0.00,75.81,060419,,,D*43
$GPGGA,161748.400,4306.3151,N,07732.5689,W,2,08,1.06,145.8,M,-34.4,M,0000,0000*59
lng=-77.542816, lat=43.105247, altitude=145.80, speed=0.00, satellites=8, angle=75.8100, fixquality=2
$GPRMC,161748.600,A,4306.3151,N,07732.5689,W,0.01,75.81,060419,,,D*46
$GPGGA,161748.800,4306.3151,N,07732.5689,W,2,08,1.06,145.8,M,-34.4,M,0000,0000*55
