Vers 81
USE_SERIAL_FEEDBACK=true
DEVELOPMENT_MODE=false
USE_RMC_ONLY=false

$GPRMC,173203.500,A,4301.0144,N,07726.1933,W,0.14,95.47,240819,,,A*4A
$GPGGA,173203.750,4301.0144,N,07726.1931,W,1,07,1.03,214.7,M,-34.3,M,,*5D
$GPRMC,173204.000,A,4301.0143,N,07726.1928,W,0.16,114.52,240819,,,A*7B
$GPGGA,173204.250,4301.0142,N,07726.1927,W,1,07,1.03,213.8,M,-34.3,M,,*56
$GPRMC,173204.500,A,4301.0142,N,07726.1926,W,0.04,91.54,240819,,,A*48
$GPGGA,173204.750,4301.0142,N,07726.1925,W,1,07,1.03,213.2,M,-34.3,M,,*5B
$GPRMC,173205.000,A,4301.0142,N,07726.1924,W,0.03,112.33,240819,,,A*72
$GPGGA,173205.250,4301.0141,N,07726.1923,W,1,07,1.03,212.8,M,-34.3,M,,*51
$GPRMC,173205.500,A,4301.0141,N,07726.1922,W,0.04,142.24,240819,,,A*76
$GPGGA,173205.750,4301.0143,N,07726.1922,W,1,07,1.03,212.1,M,-34.3,M,,*5E
$GPRMC,173206.000,A,4301.0145,N,07726.1922,W,0.03,123.02,240819,,,A*70
$GPGGA,173206.250,4301.0145,N,07726.1922,W,1,07,1.03,211.2,M,-34.3,M,,*5E
$GPRMC,173206.500,A,4301.0146,N,07726.1922,W,0.03,101.61,240819,,,A*73
$GPGGA,173206.750,4301.0146,N,07726.1922,W,1,07,1.03,210.4,M,-34.3,M,,*5F
$GPRMC,173207.000,A,4301.0146,N,07726.1922,W,0.05,106.24,240819,,,A*77
$GPGGA,173207.250,4301.0146,N,07726.1922,W,1,07,1.03,209.7,M,-34.3,M,,*50
$GPRMC,173207.500,A,4301.0147,N,07726.1921,W,0.02,89.27,240819,,,A*42
$GPGGA,173207.750,4301.0147,N,07726.1921,W,1,07,1.03,209.3,M,-34.3,M,,*53
$GPRMC,173208.000,A,4301.0147,N,07726.1921,W,0.02,4.90,240819,,,A*71
$GPGGA,173208.250,4301.0147,N,07726.1920,W,1,07,1.05,209.1,M,-34.3,M,,*5C
$GPRMC,173208.500,A,4301.0147,N,07726.1920,W,0.05,91.49,240819,,,A*4A
$GPGGA,173208.750,4301.0148,N,07726.1919,W,1,07,1.03,209.0,M,-34.3,M,,*5B
$GPRMC,173209.000,A,4301.0148,N,07726.1919,W,0.02,134.41,240819,,,A*7A
$GPGGA,173209.250,4301.0148,N,07726.1919,W,1,07,1.03,208.7,M,-34.3,M,,*59
$GPRMC,173209.500,A,4301.0148,N,07726.1918,W,0.02,233.49,240819,,,A*72
$GPGGA,173209.750,4301.0148,N,07726.1918,W,1,07,1.03,208.5,M,-34.3,M,,*5F
$GPRMC,173210.000,A,4301.0148,N,07726.1918,W,0.03,209.70,240819,,,A*7D
$GPGGA,173210.250,4301.0149,N,07726.1918,W,1,07,1.03,208.5,M,-34.3,M,,*53
$GPRMC,173210.500,A,4301.0149,N,07726.1917,W,0.06,78.70,240819,,,A*47
$GPGGA,173210.750,4301.0149,N,07726.1917,W,1,07,1.03,208.4,M,-34.3,M,,*58
$GPRMC,173211.000,A,4301.0150,N,07726.1916,W,0.02,225.60,240819,,,A*75
$GPGGA,173211.250,4301.0150,N,07726.1916,W,1,07,1.03,208.5,M,-34.3,M,,*54
$GPRMC,173211.500,A,4301.0150,N,07726.1916,W,0.04,113.06,240819,,,A*70
$GPGGA,173211.750,4301.0151,N,07726.1915,W,1,07,1.03,208.5,M,-34.3,M,,*53
$GPRMC,173212.000,A,4301.0151,N,07726.1915,W,0.04,279.91,240819,,,A*75
$GPGGA,173212.250,4301.0151,N,07726.1915,W,1,07,1.03,208.4,M,-34.3,M,,*54
$GPRMC,173212.500,A,4301.0151,N,07726.1915,W,0.02,116.87,240819,,,A*7B
$GPGGA,173212.750,4301.0152,N,07726.1915,W,1,07,1.03,208.4,M,-34.3,M,,*52
$GPRMC,173213.000,A,4301.0152,N,07726.1914,W,0.04,290.46,240819,,,A*7B
$GPGGA,173213.250,4301.0152,N,07726.1914,W,1,07,1.03,208.4,M,-34.3,M,,*57
$GPRMC,173213.500,A,4301.0153,N,07726.1914,W,0.01,213.94,240819,,,A*7E
$GPGGA,173213.750,4301.0153,N,07726.1914,W,1,07,1.03,208.4,M,-34.3,M,,*53
$GPRMC,173214.000,A,4301.0153,N,07726.1914,W,0.01,75.85,240819,,,A*4E
$GPGGA,173214.250,4301.0153,N,07726.1913,W,1,07,1.03,208.4,M,-34.3,M,,*56
$GPRMC,173214.500,A,4301.0154,N,07726.1913,W,0.02,28.93,240819,,,A*47
$GPGGA,173214.750,4301.0154,N,07726.1913,W,1,07,1.03,208.4,M,-34.3,M,,*54
$GPRMC,173215.000,A,4301.0154,N,07726.1913,W,0.03,274.69,240819,,,A*7C
$GPGGA,173215.250,4301.0155,N,07726.1912,W,1,07,1.03,208.3,M,-34.3,M,,*57
$GPRMC,173215.500,A,4301.0155,N,07726.1912,W,0.02,70.43,240819,,,A*46
$GPGGA,173215.750,4301.0155,N,07726.1912,W,1,07,1.03,208.3,M,-34.3,M,,*52
$GPRMC,173216.000,A,4301.0156,N,07726.1912,W,0.01,309.92,240819,,,A*71
$GPGGA,173216.250,4301.0156,N,07726.1912,W,1,07,1.03,208.3,M,-34.3,M,,*57
$GPRMC,173216.500,A,4301.0156,N,07726.1912,W,0.02,125.24,240819,,,A*76
$GPGGA,173216.750,4301.0156,N,07726.1911,W,1,07,1.03,208.2,M,-34.3,M,,*50
$GPRMC,173217.000,A,4301.0156,N,07726.1911,W,0.03,102.80,240819,,,A*7B
$GPGGA,173217.250,4301.0156,N,07726.1911,W,1,07,1.03,208.1,M,-34.3,M,,*57
$GPRMC,173217.500,A,4301.0157,N,07726.1911,W,0.03,13.99,240819,,,A*46
$GPGGA,173217.750,4301.0157,N,07726.1911,W,1,07,1.05,207.9,M,-34.3,M,,*52
$GPRMC,173218.000,A,4301.0157,N,07726.1911,W,0.03,231.36,240819,,,A*7B
$GPGGA,173218.250,4301.0157,N,07726.1911,W,1,07,1.03,207.8,M,-34.3,M,,*5F
$GPRMC,173218.500,A,4301.0157,N,07726.1910,W,0.01,306.24,240819,,,A*7B
$GPGGA,173218.750,4301.0158,N,07726.1910,W,1,07,1.03,207.8,M,-34.3,M,,*54
$GPRMC,173219.000,A,4301.0158,N,07726.1910,W,0.03,112.93,240819,,,A*79
$GPGGA,173219.250,4301.0158,N,07726.1910,W,1,07,1.03,207.6,M,-34.3,M,,*5E
$GPRMC,173219.500,A,4301.0158,N,07726.1910,W,0.01,139.04,240819,,,A*79
$GPGGA,173219.750,4301.0158,N,07726.1910,W,1,07,1.03,207.5,M,-34.3,M,,*58
$GPRMC,173220.000,A,4301.0158,N,07726.1910,W,0.01,18.20,240819,,,A*42
$GPGGA,173220.250,4301.0159,N,07726.1910,W,1,07,1.03,207.4,M,-34.3,M,,*57
$GPRMC,173220.500,A,4301.0159,N,07726.1910,W,0.02,166.93,240819,,,A*75
$GPGGA,173220.750,4301.0159,N,07726.1910,W,1,07,1.03,207.3,M,-34.3,M,,*55
$GPRMC,173221.000,A,4301.0159,N,07726.1909,W,0.02,128.07,240819,,,A*7E
$GPGGA,173221.250,4301.0159,N,07726.1909,W,1,07,1.03,207.2,M,-34.3,M,,*58
$GPRMC,173221.500,A,4301.0159,N,07726.1909,W,0.05,237.82,240819,,,A*7C
$GPGGA,173221.750,4301.0159,N,07726.1909,W,1,07,1.03,207.1,M,-34.3,M,,*5E
$GPRMC,173222.000,A,4301.0160,N,07726.1909,W,0.03,5.15,240819,,,A*7B
$GPGGA,173222.250,4301.0160,N,07726.1909,W,1,07,1.05,207.0,M,-34.3,M,,*55
$GPRMC,173222.500,A,4301.0160,N,07726.1909,W,0.03,96.92,240819,,,A*4B
$GPGGA,173222.750,4301.0160,N,07726.1908,W,1,07,1.03,206.8,M,-34.3,M,,*5E
$GPRMC,173223.000,A,4301.0160,N,07726.1908,W,0.01,143.10,240819,,,A*7F
$GPGGA,173223.250,4301.0160,N,07726.1908,W,1,07,1.03,206.7,M,-34.3,M,,*55
$GPRMC,173223.500,A,4301.0160,N,07726.1908,W,0.01,247.93,240819,,,A*76
$GPGGA,173223.750,4301.0160,N,07726.1908,W,1,07,1.03,206.6,M,-34.3,M,,*51
$GPRMC,173224.000,A,4301.0160,N,07726.1908,W,0.03,320.70,240819,,,A*7B
$GPGGA,173224.250,4301.0160,N,07726.1909,W,1,07,1.03,206.5,M,-34.3,M,,*51
$GPRMC,173224.500,A,4301.0160,N,07726.1909,W,0.02,123.21,240819,,,A*7B
$GPGGA,173224.750,4301.0160,N,07726.1909,W,1,07,1.03,206.4,M,-34.3,M,,*55
$GPRMC,173225.000,A,4301.0161,N,07726.1909,W,0.01,320.77,240819,,,A*7F
$GPGGA,173225.250,4301.0161,N,07726.1909,W,1,07,1.03,206.3,M,-34.3,M,,*57
$GPRMC,173225.500,A,4301.0161,N,07726.1909,W,0.00,227.53,240819,,,A*7B
$GPGGA,173225.750,4301.0161,N,07726.1909,W,1,07,1.03,206.3,M,-34.3,M,,*52
$GPRMC,173226.000,A,4301.0161,N,07726.1908,W,0.03,126.91,240819,,,A*73
$GPGGA,173226.250,4301.0161,N,07726.1909,W,1,07,1.03,206.2,M,-34.3,M,,*55
$GPRMC,173226.500,A,4301.0161,N,07726.1908,W,0.01,266.01,240819,,,A*7A
$GPGGA,173226.750,4301.0161,N,07726.1908,W,1,07,1.03,206.2,M,-34.3,M,,*51
$GPRMC,173227.000,A,4301.0161,N,07726.1908,W,0.03,50.60,240819,,,A*4C
$GPGGA,173227.250,4301.0161,N,07726.1908,W,1,07,1.03,206.2,M,-34.3,M,,*55
$GPRMC,173227.500,A,4301.0161,N,07726.1908,W,0.05,116.29,240819,,,A*71
$GPGGA,173227.750,4301.0161,N,07726.1908,W,1,07,1.03,206.1,M,-34.3,M,,*53
$GPRMC,173228.000,A,4301.0161,N,07726.1908,W,0.01,269.88,240819,,,A*7F
$GPGGA,173228.250,4301.0161,N,07726.1908,W,1,07,1.03,206.1,M,-34.3,M,,*59
$GPRMC,173228.500,A,4301.0161,N,07726.1908,W,0.01,340.70,240819,,,A*77
$GPGGA,173228.750,4301.0161,N,07726.1907,W,1,07,1.03,206.1,M,-34.3,M,,*53
$GPRMC,173229.000,A,4301.0162,N,07726.1907,W,0.04,54.89,240819,,,A*4A
$GPGGA,173229.250,4301.0161,N,07726.1907,W,1,07,1.03,206.1,M,-34.3,M,,*57
$GPRMC,173229.500,A,4301.0161,N,07726.1907,W,0.01,160.92,240819,,,A*75
$GPGGA,173229.750,4301.0161,N,07726.1907,W,1,07,1.03,206.1,M,-34.3,M,,*52
$GPRMC,173230.000,A,4301.0161,N,07726.1907,W,0.05,111.86,240819,,,A*7F
$GPGGA,173230.250,4301.0161,N,07726.1907,W,1,07,1.03,206.1,M,-34.3,M,,*5F
$GPRMC,173230.500,A,4301.0161,N,07726.1907,W,0.01,7.00,240819,,,A*76
$GPGGA,173230.750,4301.0161,N,07726.1907,W,1,07,1.05,206.1,M,-34.3,M,,*5C
$GPRMC,173231.000,A,4301.0161,N,07726.1907,W,0.01,330.03,240819,,,A*76
$GPGGA,173231.250,4301.0161,N,07726.1907,W,1,07,1.03,206.1,M,-34.3,M,,*5E
$GPRMC,173231.500,A,4301.0161,N,07726.1907,W,0.02,343.23,240819,,,A*76
$GPGGA,173231.750,4301.0161,N,07726.1907,W,1,07,1.03,206.1,M,-34.3,M,,*5B
$GPRMC,173232.000,A,4301.0161,N,07726.1907,W,0.03,292.74,240819,,,A*7E
$GPGGA,173232.250,4301.0161,N,07726.1907,W,1,07,1.03,206.1,M,-34.3,M,,*5D
$GPRMC,173232.500,A,4301.0161,N,07726.1907,W,0.01,50.91,240819,,,A*4E
$GPGGA,173232.750,4301.0161,N,07726.1907,W,1,07,1.03,206.1,M,-34.3,M,,*58
$GPRMC,173233.000,A,4301.0161,N,07726.1908,W,0.01,248.48,240819,,,A*7A
$GPGGA,173233.250,4301.0161,N,07726.1908,W,1,07,1.03,206.2,M,-34.3,M,,*50
$GPRMC,173233.500,A,4301.0161,N,07726.1908,W,0.02,92.37,240819,,,A*41
$GPGGA,173233.750,4301.0161,N,07726.1908,W,1,07,1.03,206.2,M,-34.3,M,,*55
$GPRMC,173234.000,A,4301.0161,N,07726.1908,W,0.01,58.20,240819,,,A*40
$GPGGA,173234.250,4301.0161,N,07726.1908,W,1,07,1.03,206.3,M,-34.3,M,,*56
$GPRMC,173234.500,A,4301.0161,N,07726.1909,W,0.03,237.60,240819,,,A*79
$GPGGA,173234.750,4301.0161,N,07726.1909,W,1,07,1.03,206.3,M,-34.3,M,,*52
$GPRMC,173235.000,A,4301.0161,N,07726.1909,W,0.01,47.19,240819,,,A*44
$GPGGA,173235.250,4301.0161,N,07726.1909,W,1,07,1.03,206.4,M,-34.3,M,,*51
$GPRMC,173235.500,A,4301.0160,N,07726.1909,W,0.01,174.44,240819,,,A*79
$GPGGA,173235.750,4301.0160,N,07726.1909,W,1,07,1.03,206.4,M,-34.3,M,,*55
$GPRMC,173236.000,A,4301.0161,N,07726.1909,W,0.05,272.19,240819,,,A*77
$GPGGA,173236.250,4301.0161,N,07726.1909,W,1,07,1.03,206.4,M,-34.3,M,,*52
$GPRMC,173236.500,A,4301.0160,N,07726.1909,W,0.01,7.73,240819,,,A*7B
$GPGGA,173236.750,4301.0160,N,07726.1909,W,1,07,1.05,206.4,M,-34.3,M,,*50
$GPRMC,173237.000,A,4301.0160,N,07726.1909,W,0.03,280.11,240819,,,A*74
$GPGGA,173237.250,4301.0160,N,07726.1909,W,1,07,1.03,206.4,M,-34.3,M,,*52
$GPRMC,173237.500,A,4301.0161,N,07726.1909,W,0.02,207.65,240819,,,A*7D
$GPGGA,173237.750,4301.0160,N,07726.1909,W,1,07,1.03,206.4,M,-34.3,M,,*57
$GPRMC,173238.000,A,4301.0160,N,07726.1909,W,0.01,233.91,240819,,,A*79
$GPGGA,173238.250,4301.0160,N,07726.1909,W,1,07,1.03,206.4,M,-34.3,M,,*5D
$GPRMC,173238.500,A,4301.0160,N,07726.1909,W,0.02,328.77,240819,,,A*7C
$GPGGA,173238.750,4301.0160,N,07726.1909,W,1,07,1.03,206.4,M,-34.3,M,,*58
$GPRMC,173239.000,A,4301.0160,N,07726.1909,W,0.01,139.76,240819,,,A*78
$GPGGA,173239.250,4301.0160,N,07726.1909,W,1,07,1.03,206.4,M,-34.3,M,,*5C
$GPRMC,173239.500,A,4301.0160,N,07726.1909,W,0.01,346.59,240819,,,A*7A
$GPGGA,173239.750,4301.0160,N,07726.1909,W,1,07,1.05,206.4,M,-34.3,M,,*5F
$GPRMC,173240.000,A,4301.0160,N,07726.1910,W,0.01,109.09,240819,,,A*75
$GPGGA,173240.250,4301.0160,N,07726.1910,W,1,07,1.03,206.4,M,-34.3,M,,*5A
$GPRMC,173240.500,A,4301.0160,N,07726.1909,W,0.01,269.39,240819,,,A*7E
$GPGGA,173240.750,4301.0160,N,07726.1909,W,1,07,1.03,206.4,M,-34.3,M,,*57
$GPRMC,173241.000,A,4301.0160,N,07726.1909,W,0.02,88.55,240819,,,A*4E
$GPGGA,173241.250,4301.0160,N,07726.1909,W,1,07,1.03,206.4,M,-34.3,M,,*53
$GPRMC,173241.500,A,4301.0160,N,07726.1909,W,0.04,276.13,240819,,,A*7C
$GPGGA,173241.750,4301.0160,N,07726.1910,W,1,07,1.03,206.4,M,-34.3,M,,*5E
$GPRMC,173242.000,A,4301.0160,N,07726.1910,W,0.01,44.79,240819,,,A*48
$GPGGA,173242.250,4301.0160,N,07726.1910,W,1,07,1.03,206.4,M,-34.3,M,,*58
$GPRMC,173242.500,A,4301.0160,N,07726.1910,W,0.01,126.34,240819,,,A*71
$GPGGA,173242.750,4301.0160,N,07726.1910,W,1,07,1.03,206.4,M,-34.3,M,,*5D
$GPRMC,173243.000,A,4301.0160,N,07726.1910,W,0.02,82.19,240819,,,A*46
$GPGGA,173243.250,4301.0160,N,07726.1910,W,1,07,1.03,206.4,M,-34.3,M,,*59
$GPRMC,173243.500,A,4301.0160,N,07726.1910,W,0.01,263.65,240819,,,A*76
$GPGGA,173243.750,4301.0160,N,07726.1910,W,1,07,1.03,206.4,M,-34.3,M,,*5C
$GPRMC,173244.000,A,4301.0160,N,07726.1910,W,0.03,267.04,240819,,,A*75
$GPGGA,173244.250,4301.0160,N,07726.1910,W,1,07,1.03,206.4,M,-34.3,M,,*5E
$GPRMC,173244.500,A,4301.0160,N,07726.1910,W,0.02,48.22,240819,,,A*4A
$GPGGA,173244.750,4301.0160,N,07726.1910,W,1,07,1.05,206.4,M,-34.3,M,,*5D
$GPRMC,173245.000,A,4301.0160,N,07726.1910,W,0.02,34.29,240819,,,A*4E
$GPGGA,173245.250,4301.0160,N,07726.1910,W,1,07,1.05,206.4,M,-34.3,M,,*59
$GPRMC,173245.500,A,4301.0160,N,07726.1910,W,0.00,254.26,240819,,,A*72
$GPGGA,173245.750,4301.0160,N,07726.1910,W,1,07,1.04,206.4,M,-34.3,M,,*5D
$GPRMC,173246.000,A,4301.0160,N,07726.1910,W,0.00,0.00,240819,,,A*73
$GPGGA,173246.250,4301.0160,N,07726.1910,W,1,07,1.05,206.4,M,-34.3,M,,*5A
$GPRMC,173246.500,A,4301.0160,N,07726.1910,W,0.01,206.98,240819,,,A*72
$GPGGA,173246.750,4301.0160,N,07726.1910,W,1,07,1.04,206.4,M,-34.3,M,,*5E
$GPRMC,173247.000,A,4301.0160,N,07726.1910,W,0.01,127.93,240819,,,A*7D
$GPGGA,173247.250,4301.0160,N,07726.1910,W,1,07,1.05,206.4,M,-34.3,M,,*5B
$GPRMC,173247.500,A,4301.0160,N,07726.1910,W,0.00,157.83,240819,,,A*7F
$GPGGA,173247.750,4301.0160,N,07726.1910,W,1,07,1.05,206.4,M,-34.3,M,,*5E
$GPRMC,173248.000,A,4301.0160,N,07726.1910,W,0.01,271.71,240819,,,A*7E
$GPGGA,173248.250,4301.0160,N,07726.1910,W,1,07,1.05,206.4,M,-34.3,M,,*54
$GPRMC,173248.500,A,4301.0160,N,07726.1910,W,0.00,85.73,240819,,,A*41
$GPGGA,173248.750,4301.0160,N,07726.1910,W,1,07,1.05,206.4,M,-34.3,M,,*51
$GPRMC,173249.000,A,4301.0160,N,07726.1910,W,0.00,133.87,240819,,,A*72
$GPGGA,173249.250,4301.0160,N,07726.1910,W,1,07,1.04,206.4,M,-34.3,M,,*54
$GPRMC,173249.500,A,4301.0160,N,07726.1910,W,0.01,62.74,240819,,,A*4F
$GPGGA,173249.750,4301.0160,N,07726.1910,W,1,07,1.05,206.4,M,-34.3,M,,*50
$GPRMC,173250.000,A,4301.0160,N,07726.1910,W,0.00,0.00,240819,,,A*74
$GPGGA,173250.250,4301.0160,N,07726.1910,W,1,07,1.05,206.4,M,-34.3,M,,*5D
$GPRMC,173250.500,A,4301.0160,N,07726.1910,W,0.00,102.86,240819,,,A*7C
$GPGGA,173250.750,4301.0160,N,07726.1910,W,1,07,1.05,206.4,M,-34.3,M,,*58
$GPRMC,173251.000,A,4301.0160,N,07726.1910,W,0.00,0.00,240819,,,A*75
$GPGGA,173251.250,4301.0160,N,07726.1910,W,1,07,1.05,206.4,M,-34.3,M,,*5C
$GPRMC,173251.500,A,4301.0160,N,07726.1910,W,0.01,34.26,240819,,,A*42
$GPGGA,173251.750,4301.0160,N,07726.1910,W,1,07,1.04,206.4,M,-34.3,M,,*58
$GPRMC,173252.000,A,4301.0160,N,07726.1910,W,0.00,217.77,240819,,,A*72
$GPGGA,173252.250,4301.0160,N,07726.1910,W,1,07,1.05,206.4,M,-34.3,M,,*5F
$GPRMC,173252.500,A,4301.0160,N,07726.1910,W,0.01,206.57,240819,,,A*74
$GPGGA,173252.750,4301.0161,N,07726.1910,W,1,07,1.04,206.4,M,-34.3,M,,*5A
$GPRMC,173253.000,A,4301.0161,N,07726.1910,W,0.01,259.08,240819,,,A*71
$GPGGA,173253.250,4301.0161,N,07726.1910,W,1,07,1.04,206.4,M,-34.3,M,,*5E
$GPRMC,173253.500,A,4301.0161,N,07726.1910,W,0.00,175.85,240819,,,A*7D
$GPGGA,173253.750,4301.0161,N,07726.1910,W,1,07,1.05,206.4,M,-34.3,M,,*5A
$GPRMC,173254.000,A,4301.0161,N,07726.1910,W,0.01,86.48,240819,,,A*42
$GPGGA,173254.250,4301.0161,N,07726.1910,W,1,07,1.04,206.4,M,-34.3,M,,*59
$GPRMC,173254.500,A,4301.0161,N,07726.1910,W,0.00,223.43,240819,,,A*70
$GPGGA,173254.750,4301.0161,N,07726.1910,W,1,07,1.05,206.4,M,-34.3,M,,*5D
$GPRMC,173255.000,A,4301.0161,N,07726.1910,W,0.00,180.05,240819,,,A*7C
$GPGGA,173255.250,4301.0161,N,07726.1910,W,1,07,1.04,206.4,M,-34.3,M,,*58
$GPRMC,173255.500,A,4301.0161,N,07726.1910,W,0.00,0.00,240819,,,A*75
$GPGGA,173255.750,4301.0161,N,07726.1910,W,1,07,1.04,206.4,M,-34.3,M,,*5D
$GPRMC,173256.000,A,4301.0161,N,07726.1910,W,0.00,276.07,240819,,,A*77
$GPGGA,173256.250,4301.0161,N,07726.1910,W,1,07,1.04,206.4,M,-34.3,M,,*5B
$GPRMC,173256.500,A,4301.0161,N,07726.1910,W,0.01,260.79,240819,,,A*7D
$GPGGA,173256.750,4301.0161,N,07726.1910,W,1,07,1.04,206.4,M,-34.3,M,,*5E
$GPRMC,173257.000,A,4301.0161,N,07726.1910,W,0.00,296.55,240819,,,A*7F
$GPGGA,173257.250,4301.0161,N,07726.1910,W,1,07,1.04,206.4,M,-34.3,M,,*5A
$GPRMC,173257.500,A,4301.0161,N,07726.1910,W,0.02,102.01,240819,,,A*77
$GPGGA,173257.750,4301.0161,N,07726.1910,W,1,07,1.04,206.4,M,-34.3,M,,*5F
$GPRMC,173258.000,A,4301.0161,N,07726.1910,W,0.01,49.50,240819,,,A*44
$GPGGA,173258.250,4301.0161,N,07726.1910,W,1,07,1.04,206.4,M,-34.3,M,,*55
$GPRMC,173258.500,A,4301.0161,N,07726.1910,W,0.01,93.16,240819,,,A*44
$GPGGA,173258.750,4301.0161,N,07726.1910,W,1,07,1.04,206.4,M,-34.3,M,,*50
$GPRMC,173259.000,A,4301.0161,N,07726.1910,W,0.00,97.60,240819,,,A*44
$GPGGA,173259.250,4301.0161,N,07726.1910,W,1,07,1.04,206.4,M,-34.3,M,,*54
$GPRMC,173259.500,A,4301.0161,N,07726.1910,W,0.00,295.32,240819,,,A*76
$GPGGA,173259.750,4301.0161,N,07726.1910,W,1,07,1.04,206.4,M,-34.3,M,,*51
$GPRMC,173300.000,A,4301.0161,N,07726.1910,W,0.00,14.64,240819,,,A*46
$GPGGA,173300.250,4301.0161,N,07726.1910,W,1,07,1.04,206.4,M,-34.3,M,,*59
$GPRMC,173300.500,A,4301.0161,N,07726.1910,W,0.00,319.16,240819,,,A*78
$GPGGA,173300.750,4301.0161,N,07726.1910,W,1,07,1.04,206.4,M,-34.3,M,,*5C
$GPRMC,173301.000,A,4301.0161,N,07726.1910,W,0.01,197.64,240819,,,A*7C
$GPGGA,173301.250,4301.0161,N,07726.1910,W,1,07,1.04,206.4,M,-34.3,M,,*58
$GPRMC,173301.500,A,4301.0161,N,07726.1910,W,0.00,10.10,240819,,,A*45
$GPGGA,173301.750,4301.0161,N,07726.1910,W,1,07,1.04,206.4,M,-34.3,M,,*5D
$GPRMC,173302.000,A,4301.0161,N,07726.1910,W,0.00,234.43,240819,,,A*71
$GPGGA,173302.250,4301.0161,N,07726.1910,W,1,07,1.04,206.4,M,-34.3,M,,*5B
$GPRMC,173302.500,A,4301.0161,N,07726.1910,W,0.01,102.33,240819,,,A*74
$GPGGA,173302.750,4301.0161,N,07726.1910,W,1,07,1.04,206.4,M,-34.3,M,,*5E
$GPRMC,173303.000,A,4301.0161,N,07726.1910,W,0.00,329.91,240819,,,A*72
$GPGGA,173303.250,4301.0161,N,07726.1910,W,1,07,1.04,206.4,M,-34.3,M,,*5A
$GPRMC,173303.500,A,4301.0161,N,07726.1910,W,0.00,188.32,240819,,,A*77
$GPGGA,173303.750,4301.0161,N,07726.1910,W,1,07,1.04,206.4,M,-34.3,M,,*5F
$GPRMC,173304.000,A,4301.0161,N,07726.1910,W,0.00,207.85,240819,,,A*7D
$GPGGA,173304.250,4301.0161,N,07726.1910,W,1,07,1.04,206.4,M,-34.3,M,,*5D
$GPRMC,173304.500,A,4301.0161,N,07726.1910,W,0.01,94.25,240819,,,A*4B
$GPGGA,173304.750,4301.0161,N,07726.1910,W,1,07,1.04,206.4,M,-34.3,M,,*58
$GPRMC,173305.000,A,4301.0161,N,07726.1910,W,0.00,257.29,240819,,,A*7F
$GPGGA,173305.250,4301.0161,N,07726.1910,W,1,07,1.04,206.4,M,-34.3,M,,*5C
$GPRMC,173305.500,A,4301.0161,N,07726.1910,W,0.00,353.51,240819,,,A*70
$GPGGA,173305.750,4301.0161,N,07726.1910,W,1,07,1.05,206.4,M,-34.3,M,,*58
$GPRMC,173306.000,A,4301.0161,N,07726.1910,W,0.00,174.35,240819,,,A*73
$GPGGA,173306.250,4301.0161,N,07726.1910,W,1,07,1.04,206.4,M,-34.3,M,,*5F
$GPRMC,173306.500,A,4301.0161,N,07726.1910,W,0.00,58.27,240819,,,A*4A
$GPGGA,173306.750,4301.0161,N,07726.1910,W,1,07,1.04,206.4,M,-34.3,M,,*5A
$GPRMC,173307.000,A,4301.0161,N,07726.1910,W,0.00,292.61,240819,,,A*78
$GPGGA,173307.250,4301.0161,N,07726.1910,W,1,07,1.04,206.4,M,-34.3,M,,*5E
$GPRMC,173307.500,A,4301.0161,N,07726.1910,W,0.00,257.62,240819,,,A*77
$GPGGA,173307.750,4301.0161,N,07726.1910,W,1,07,1.04,206.4,M,-34.3,M,,*5B
$GPRMC,173308.000,A,4301.0161,N,07726.1910,W,0.00,90.70,240819,,,A*47
$GPGGA,173308.250,4301.0161,N,07726.1910,W,1,07,1.04,206.4,M,-34.3,M,,*51
$GPRMC,173308.500,A,4301.0161,N,07726.1910,W,0.00,57.96,240819,,,A*41
$GPGGA,173308.750,4301.0161,N,07726.1910,W,1,07,1.04,206.4,M,-34.3,M,,*54
$GPRMC,173309.000,A,4301.0161,N,07726.1910,W,0.00,288.22,240819,,,A*7A
$GPGGA,173309.250,4301.0161,N,07726.1910,W,1,07,1.04,206.4,M,-34.3,M,,*50
$GPRMC,173309.500,A,4301.0161,N,07726.1910,W,0.00,15.20,240819,,,A*4B
$GPGGA,173309.750,4301.0161,N,07726.1910,W,1,07,1.04,206.4,M,-34.3,M,,*55
$GPRMC,173310.000,A,4301.0161,N,07726.1910,W,0.01,47.60,240819,,,A*44
$GPGGA,173310.250,4301.0161,N,07726.1910,W,1,07,1.04,206.4,M,-34.3,M,,*58
$GPRMC,173310.500,A,4301.0161,N,07726.1910,W,0.01,280.61,240819,,,A*79
$GPGGA,173310.750,4301.0161,N,07726.1910,W,1,07,1.04,206.4,M,-34.3,M,,*5D
$GPRMC,173311.000,A,4301.0161,N,07726.1910,W,0.00,0.00,240819,,,A*71
$GPGGA,173311.250,4301.0161,N,07726.1910,W,1,07,1.04,206.4,M,-34.3,M,,*59
$GPRMC,173311.500,A,4301.0161,N,07726.1910,W,0.00,275.33,240819,,,A*74
$GPGGA,173311.750,4301.0161,N,07726.1910,W,1,07,1.04,206.4,M,-34.3,M,,*5C
$GPRMC,173312.000,A,4301.0161,N,07726.1910,W,0.01,128.17,240819,,,A*7E
$GPGGA,173312.250,4301.0161,N,07726.1910,W,1,07,1.04,206.4,M,-34.3,M,,*5A
$GPRMC,173312.500,A,4301.0161,N,07726.1910,W,0.01,311.68,240819,,,A*7B
$GPGGA,173312.750,4301.0161,N,07726.1910,W,1,07,1.04,206.4,M,-34.3,M,,*5F
$GPRMC,173313.000,A,4301.0161,N,07726.1910,W,0.00,47.43,240819,,,A*47
$GPGGA,173313.250,4301.0161,N,07726.1910,W,1,07,1.04,206.4,M,-34.3,M,,*5B
$GPRMC,173313.500,A,4301.0161,N,07726.1910,W,0.01,230.27,240819,,,A*73
$GPGGA,173313.750,4301.0161,N,07726.1910,W,1,07,1.04,206.4,M,-34.3,M,,*5E
$GPRMC,173314.000,A,4301.0161,N,07726.1910,W,0.01,308.89,240819,,,A*7F
$GPGGA,173314.250,4301.0161,N,07726.1910,W,1,07,1.04,206.4,M,-34.3,M,,*5C
$GPRMC,173314.500,A,4301.0161,N,07726.1910,W,0.00,246.82,240819,,,A*7B
$GPGGA,173314.750,4301.0161,N,07726.1910,W,1,07,1.04,206.4,M,-34.3,M,,*59
$GPRMC,173315.000,A,4301.0161,N,07726.1910,W,0.01,295.07,240819,,,A*7D
$GPGGA,173315.250,4301.0161,N,07726.1910,W,1,07,1.04,206.4,M,-34.3,M,,*5D
$GPRMC,173315.500,A,4301.0161,N,07726.1910,W,0.01,202.21,240819,,,A*72
$GPGGA,173315.750,4301.0161,N,07726.1910,W,1,07,1.04,206.4,M,-34.3,M,,*58
$GPRMC,173316.000,A,4301.0161,N,07726.1910,W,0.00,46.92,240819,,,A*4F
$GPGGA,173316.250,4301.0161,N,07726.1910,W,1,07,1.04,206.4,M,-34.3,M,,*5E
$GPRMC,173316.500,A,4301.0161,N,07726.1910,W,0.01,107.84,240819,,,A*78
$GPGGA,173316.750,4301.0161,N,07726.1910,W,1,07,1.04,206.4,M,-34.3,M,,*5B
$GPRMC,173317.000,A,4301.0161,N,07726.1910,W,0.00,284.53,240819,,,A*7F
$GPGGA,173317.250,4301.0161,N,07726.1910,W,1,07,1.04,206.4,M,-34.3,M,,*5F
$GPRMC,173317.500,A,4301.0161,N,07726.1910,W,0.01,65.45,240819,,,A*41
$GPGGA,173317.750,4301.0161,N,07726.1910,W,1,07,1.04,206.4,M,-34.3,M,,*5A
$GPRMC,173318.000,A,4301.0161,N,07726.1910,W,0.00,265.78,240819,,,A*76
$GPGGA,173318.250,4301.0161,N,07726.1910,W,1,07,1.04,206.4,M,-34.3,M,,*50
$GPRMC,173318.500,A,4301.0161,N,07726.1910,W,0.00,318.02,240819,,,A*75
$GPGGA,173318.750,4301.0161,N,07726.1910,W,1,07,1.04,206.4,M,-34.3,M,,*55
$GPRMC,173319.000,A,4301.0161,N,07726.1910,W,0.00,168.40,240819,,,A*72
$GPGGA,173319.250,4301.0161,N,07726.1910,W,1,07,1.04,206.4,M,-34.3,M,,*51
$GPRMC,173319.500,A,4301.0161,N,07726.1910,W,0.00,145.39,240819,,,A*76
$GPGGA,173319.750,4301.0161,N,07726.1910,W,1,07,1.04,206.4,M,-34.3,M,,*54
$GPRMC,173320.000,A,4301.0161,N,07726.1910,W,0.01,26.07,240819,,,A*41
$GPGGA,173320.250,4301.0161,N,07726.1910,W,1,07,1.04,206.4,M,-34.3,M,,*5B
$GPRMC,173320.500,A,4301.0161,N,07726.1910,W,0.00,9.90,240819,,,D*73
$GPGGA,173320.750,4301.0161,N,07726.1910,W,2,07,1.03,206.3,M,-34.3,M,0000,0000*5D
$GPRMC,173321.000,A,4301.0161,N,07726.1910,W,0.01,29.59,240819,,,D*41
$GPGGA,173321.250,4301.0161,N,07726.1910,W,2,07,1.03,206.3,M,-34.3,M,0000,0000*59
$GPRMC,173321.500,A,4301.0161,N,07726.1910,W,0.02,26.61,240819,,,D*43
$GPGGA,173321.750,4301.0161,N,07726.1910,W,2,07,1.03,206.3,M,-34.3,M,0000,0000*5C
$GPRMC,173322.000,A,4301.0161,N,07726.1910,W,0.03,34.92,240819,,,D*4B
$GPGGA,173322.250,4301.0161,N,07726.1911,W,2,07,1.03,206.2,M,-34.3,M,0000,0000*5A
$GPRMC,173322.500,A,4301.0161,N,07726.1911,W,0.03,27.23,240819,,,D*47
$GPGGA,173322.750,4301.0161,N,07726.1911,W,2,07,1.03,206.2,M,-34.3,M,0000,0000*5F
$GPRMC,173323.000,A,4301.0161,N,07726.1911,W,0.02,21.42,240819,,,D*43
$GPGGA,173323.250,4301.0161,N,07726.1911,W,2,07,1.03,206.2,M,-34.3,M,0000,0000*5B
$GPRMC,173323.500,A,4301.0161,N,07726.1911,W,0.01,48.18,240819,,,D*45
$GPGGA,173323.750,4301.0160,N,07726.1911,W,2,07,1.03,206.1,M,-34.3,M,0000,0000*5C
$GPRMC,173324.000,A,4301.0160,N,07726.1911,W,0.01,103.49,240819,,,D*7C
$GPGGA,173324.250,4301.0160,N,07726.1911,W,2,07,1.03,206.1,M,-34.3,M,0000,0000*5E
$GPRMC,173324.500,A,4301.0160,N,07726.1912,W,0.01,192.41,240819,,,D*7A
$GPGGA,173324.750,4301.0160,N,07726.1912,W,2,07,1.03,206.1,M,-34.3,M,0000,0000*58
$GPRMC,173325.000,A,4301.0160,N,07726.1912,W,0.02,200.90,240819,,,D*79
$GPGGA,173325.250,4301.0160,N,07726.1912,W,2,07,1.03,206.1,M,-34.3,M,0000,0000*5C
$GPRMC,173325.500,A,4301.0160,N,07726.1912,W,0.03,212.10,240819,,,D*76
$GPGGA,173325.750,4301.0160,N,07726.1913,W,2,07,1.03,206.0,M,-34.3,M,0000,0000*59
$GPRMC,173326.000,A,4301.0160,N,07726.1913,W,0.03,215.99,240819,,,D*77
$GPGGA,173326.250,4301.0160,N,07726.1913,W,2,07,1.03,206.0,M,-34.3,M,0000,0000*5F
$GPRMC,173326.500,A,4301.0160,N,07726.1913,W,0.04,218.21,240819,,,D*7B
$GPGGA,173326.750,4301.0160,N,07726.1914,W,2,07,1.03,206.0,M,-34.3,M,0000,0000*5D
$GPRMC,173327.000,A,4301.0160,N,07726.1914,W,0.05,223.48,240819,,,D*7E
$GPGGA,173327.250,4301.0160,N,07726.1914,W,2,07,1.03,206.0,M,-34.3,M,0000,0000*59
$GPRMC,173327.500,A,4301.0160,N,07726.1915,W,0.05,226.07,240819,,,D*74
$GPGGA,173327.750,4301.0160,N,07726.1915,W,2,07,1.03,206.0,M,-34.3,M,0000,0000*5D
$GPRMC,173328.000,A,4301.0160,N,07726.1916,W,0.06,231.73,240819,,,D*7B
$GPGGA,173328.250,4301.0160,N,07726.1916,W,2,07,1.03,205.9,M,-34.3,M,0000,0000*5E
$GPRMC,173328.500,A,4301.0160,N,07726.1916,W,0.06,233.24,240819,,,D*7E
$GPGGA,173328.750,4301.0160,N,07726.1916,W,2,07,1.03,206.0,M,-34.3,M,0000,0000*51
$GPRMC,173329.000,A,4301.0160,N,07726.1917,W,0.05,229.51,240819,,,D*71
$GPGGA,173329.250,4301.0160,N,07726.1917,W,2,07,1.03,205.9,M,-34.3,M,0000,0000*5E
$GPRMC,173329.500,A,4301.0160,N,07726.1917,W,0.04,228.48,240819,,,D*7C
$GPGGA,173329.750,4301.0160,N,07726.1917,W,2,07,1.03,206.0,M,-34.3,M,0000,0000*51
$GPRMC,173330.000,A,4301.0160,N,07726.1918,W,0.03,242.25,240819,,,D*7E
$GPGGA,173330.250,4301.0160,N,07726.1918,W,2,07,1.03,206.0,M,-34.3,M,0000,0000*53
$GPRMC,173330.500,A,4301.0160,N,07726.1919,W,0.02,247.69,240819,,,D*76
$GPGGA,173330.750,4301.0160,N,07726.1919,W,2,07,1.03,206.0,M,-34.3,M,0000,0000*57
$GPRMC,173331.000,A,4301.0160,N,07726.1919,W,0.00,328.48,240819,,,D*7B
$GPGGA,173331.250,4301.0160,N,07726.1919,W,2,07,1.03,206.0,M,-34.3,M,0000,0000*53
$GPRMC,173331.500,A,4301.0160,N,07726.1920,W,0.01,83.25,240819,,,D*4C
$GPGGA,173331.750,4301.0160,N,07726.1920,W,2,07,1.04,206.0,M,-34.3,M,0000,0000*5B
$GPRMC,173332.000,A,4301.0160,N,07726.1920,W,0.00,77.90,240819,,,D*4E
$GPGGA,173332.250,4301.0160,N,07726.1920,W,2,07,1.04,206.0,M,-34.3,M,0000,0000*5D
$GPRMC,173332.500,A,4301.0160,N,07726.1920,W,0.01,40.83,240819,,,D*4C
$GPGGA,173332.750,4301.0160,N,07726.1921,W,2,07,1.04,206.0,M,-34.3,M,0000,0000*59
$GPRMC,173333.000,A,4301.0160,N,07726.1921,W,0.01,68.03,240819,,,D*4B
$GPGGA,173333.250,4301.0160,N,07726.1921,W,2,07,1.04,206.0,M,-34.3,M,0000,0000*5D
$GPRMC,173333.500,A,4301.0160,N,07726.1921,W,0.01,60.69,240819,,,D*4A
$GPGGA,173333.750,4301.0160,N,07726.1921,W,2,07,1.04,206.1,M,-34.3,M,0000,0000*59
$GPRMC,173334.000,A,4301.0160,N,07726.1922,W,0.01,58.87,240819,,,D*40
$GPGGA,173334.250,4301.0160,N,07726.1922,W,2,07,1.04,206.1,M,-34.3,M,0000,0000*58
$GPRMC,173334.500,A,4301.0160,N,07726.1922,W,0.01,316.39,240819,,,D*79
$GPGGA,173334.750,4301.0160,N,07726.1923,W,2,07,1.04,206.2,M,-34.3,M,0000,0000*5F
$GPRMC,173335.000,A,4301.0160,N,07726.1923,W,0.01,330.22,240819,,,D*72
$GPGGA,173335.250,4301.0160,N,07726.1923,W,2,07,1.04,206.2,M,-34.3,M,0000,0000*5B
$GPRMC,173335.500,A,4301.0160,N,07726.1924,W,0.00,241.85,240819,,,D*7B
$GPGGA,173335.750,4301.0159,N,07726.1924,W,2,07,1.04,206.2,M,-34.3,M,0000,0000*53
$GPRMC,173336.000,A,4301.0159,N,07726.1924,W,0.00,222.94,240819,,,D*72
$GPGGA,173336.250,4301.0159,N,07726.1925,W,2,07,1.04,206.2,M,-34.3,M,0000,0000*54
$GPRMC,173336.500,A,4301.0159,N,07726.1925,W,0.01,270.32,240819,,,D*7C
$GPGGA,173336.750,4301.0159,N,07726.1925,W,2,07,1.04,206.3,M,-34.3,M,0000,0000*50
$GPRMC,173337.000,A,4301.0159,N,07726.1925,W,0.01,263.81,240819,,,D*72
$GPGGA,173337.250,4301.0159,N,07726.1926,W,2,07,1.04,206.3,M,-34.3,M,0000,0000*57
$GPRMC,173337.500,A,4301.0159,N,07726.1926,W,0.01,290.47,240819,,,D*72
$GPGGA,173337.750,4301.0159,N,07726.1926,W,2,07,1.04,206.4,M,-34.3,M,0000,0000*55
$GPRMC,173338.000,A,4301.0159,N,07726.1927,W,0.01,291.27,240819,,,D*7E
$GPGGA,173338.250,4301.0159,N,07726.1927,W,2,07,1.04,206.5,M,-34.3,M,0000,0000*5F
$GPRMC,173338.500,A,4301.0159,N,07726.1927,W,0.01,278.51,240819,,,D*7D
$GPGGA,173338.750,4301.0159,N,07726.1928,W,2,07,1.04,206.6,M,-34.3,M,0000,0000*56
$GPRMC,173339.000,A,4301.0158,N,07726.1928,W,0.01,265.22,240819,,,D*7F
$GPGGA,173339.250,4301.0158,N,07726.1929,W,2,07,1.04,206.6,M,-34.3,M,0000,0000*52
$GPRMC,173339.500,A,4301.0158,N,07726.1929,W,0.00,225.66,240819,,,D*7E
$GPGGA,173339.750,4301.0158,N,07726.1929,W,2,07,1.04,206.7,M,-34.3,M,0000,0000*56
$GPRMC,173340.000,A,4301.0158,N,07726.1930,W,0.01,243.31,240819,,,D*7E
$GPGGA,173340.250,4301.0158,N,07726.1930,W,2,07,1.04,206.8,M,-34.3,M,0000,0000*5A
$GPRMC,173340.500,A,4301.0158,N,07726.1930,W,0.00,252.04,240819,,,D*7C
$GPGGA,173340.750,4301.0158,N,07726.1931,W,2,07,1.04,206.9,M,-34.3,M,0000,0000*5F
$GPRMC,173341.000,A,4301.0158,N,07726.1931,W,0.00,97.02,240819,,,D*44
$GPGGA,173341.250,4301.0158,N,07726.1931,W,2,07,1.04,207.0,M,-34.3,M,0000,0000*53
$GPRMC,173341.500,A,4301.0158,N,07726.1932,W,0.00,303.32,240819,,,D*7F
$GPGGA,173341.750,4301.0158,N,07726.1932,W,2,07,1.04,207.1,M,-34.3,M,0000,0000*54
$GPRMC,173342.000,A,4301.0158,N,07726.1932,W,0.00,337.37,240819,,,D*7B
$GPGGA,173342.250,4301.0158,N,07726.1933,W,2,07,1.04,207.1,M,-34.3,M,0000,0000*53
$GPRMC,173342.500,A,4301.0158,N,07726.1933,W,0.00,354.86,240819,,,D*70
$GPGGA,173342.750,4301.0158,N,07726.1933,W,2,07,1.04,207.2,M,-34.3,M,0000,0000*55
$GPRMC,173343.000,A,4301.0158,N,07726.1933,W,0.01,104.59,240819,,,D*70
$GPGGA,173343.250,4301.0158,N,07726.1933,W,2,07,1.04,207.3,M,-34.3,M,0000,0000*50
$GPRMC,173343.500,A,4301.0158,N,07726.1933,W,0.01,343.30,240819,,,D*7B
$GPGGA,173343.750,4301.0158,N,07726.1933,W,2,07,1.04,207.3,M,-34.3,M,0000,0000*55
$GPRMC,173344.000,A,4301.0158,N,07726.1933,W,0.01,50.65,240819,,,D*48
$GPGGA,173344.250,4301.0158,N,07726.1934,W,2,07,1.04,207.4,M,-34.3,M,0000,0000*57
$GPRMC,173344.500,A,4301.0159,N,07726.1934,W,0.00,341.27,240819,,,D*7F
$GPGGA,173344.750,4301.0159,N,07726.1934,W,2,07,1.04,207.5,M,-34.3,M,0000,0000*52
$GPRMC,173345.000,A,4301.0159,N,07726.1934,W,0.00,63.09,240819,,,D*44
$GPGGA,173345.250,4301.0159,N,07726.1934,W,2,07,1.04,207.6,M,-34.3,M,0000,0000*55
$GPRMC,173345.500,A,4301.0159,N,07726.1934,W,0.01,64.24,240819,,,D*48
$GPGGA,173345.750,4301.0159,N,07726.1935,W,2,07,1.04,207.7,M,-34.3,M,0000,0000*50
$GPRMC,173346.000,A,4301.0159,N,07726.1935,W,0.00,66.57,240819,,,D*48
$GPGGA,173346.250,4301.0159,N,07726.1935,W,2,07,1.04,207.7,M,-34.3,M,0000,0000*56
$GPRMC,173346.500,A,4301.0159,N,07726.1935,W,0.00,292.90,240819,,,D*7F
$GPGGA,173346.750,4301.0159,N,07726.1935,W,2,07,1.04,207.8,M,-34.3,M,0000,0000*5C
$GPRMC,173347.000,A,4301.0159,N,07726.1936,W,0.00,264.27,240819,,,D*7D
$GPGGA,173347.250,4301.0159,N,07726.1936,W,2,07,1.04,207.9,M,-34.3,M,0000,0000*5A
$GPRMC,173347.500,A,4301.0159,N,07726.1936,W,0.00,268.66,240819,,,D*71
$GPGGA,173347.750,4301.0159,N,07726.1936,W,2,07,1.04,207.9,M,-34.3,M,0000,0000*5F
$GPRMC,173348.000,A,4301.0159,N,07726.1937,W,0.00,261.42,240819,,,D*75
$GPGGA,173348.250,4301.0159,N,07726.1937,W,2,07,1.04,208.0,M,-34.3,M,0000,0000*52
$GPRMC,173348.500,A,4301.0159,N,07726.1937,W,0.00,304.54,240819,,,D*75
$GPGGA,173348.750,4301.0159,N,07726.1937,W,2,07,1.04,208.0,M,-34.3,M,0000,0000*57
$GPRMC,173349.000,A,4301.0159,N,07726.1937,W,0.01,250.25,240819,,,D*76
$GPGGA,173349.250,4301.0159,N,07726.1937,W,2,07,1.04,208.0,M,-34.3,M,0000,0000*53
$GPRMC,173349.500,A,4301.0160,N,07726.1937,W,0.01,265.79,240819,,,D*76
$GPGGA,173349.750,4301.0160,N,07726.1937,W,2,07,1.04,208.1,M,-34.3,M,0000,0000*5D
$GPRMC,173350.000,A,4301.0160,N,07726.1937,W,0.00,253.44,240819,,,D*71
$GPGGA,173350.250,4301.0160,N,07726.1937,W,2,07,1.04,208.1,M,-34.3,M,0000,0000*50
$GPRMC,173350.500,A,4301.0160,N,07726.1938,W,0.01,255.99,240819,,,D*7C
$GPGGA,173350.750,4301.0160,N,07726.1938,W,2,07,1.04,208.1,M,-34.3,M,0000,0000*5A
$GPRMC,173351.000,A,4301.0160,N,07726.1938,W,0.01,278.13,240819,,,D*75
$GPGGA,173351.250,4301.0160,N,07726.1938,W,2,07,1.04,208.1,M,-34.3,M,0000,0000*5E
$GPRMC,173351.500,A,4301.0160,N,07726.1938,W,0.01,250.26,240819,,,D*7C
$GPGGA,173351.750,4301.0160,N,07726.1938,W,2,07,1.04,208.1,M,-34.3,M,0000,0000*5B
$GPRMC,173352.000,A,4301.0161,N,07726.1938,W,0.01,221.20,240819,,,D*7B
$GPGGA,173352.250,4301.0161,N,07726.1938,W,2,07,1.04,208.1,M,-34.3,M,0000,0000*5C
$GPRMC,173352.500,A,4301.0161,N,07726.1938,W,0.00,341.47,240819,,,D*79
$GPGGA,173352.750,4301.0161,N,07726.1938,W,2,07,1.04,208.2,M,-34.3,M,0000,0000*5A
$GPRMC,173353.000,A,4301.0161,N,07726.1938,W,0.01,105.15,240819,,,D*79
$GPGGA,173353.250,4301.0161,N,07726.1938,W,2,07,1.04,208.2,M,-34.3,M,0000,0000*5E
$GPRMC,173353.500,A,4301.0161,N,07726.1937,W,0.01,23.02,240819,,,D*40
$GPGGA,173353.750,4301.0162,N,07726.1937,W,2,07,1.04,208.2,M,-34.3,M,0000,0000*57
$GPRMC,173354.000,A,4301.0162,N,07726.1937,W,0.01,357.12,240819,,,D*70
$GPGGA,173354.250,4301.0162,N,07726.1937,W,2,07,1.04,208.3,M,-34.3,M,0000,0000*54
$GPRMC,173354.500,A,4301.0162,N,07726.1937,W,0.01,23.55,240819,,,D*46
$GPGGA,173354.750,4301.0162,N,07726.1937,W,2,07,1.04,208.3,M,-34.3,M,0000,0000*51
$GPRMC,173355.000,A,4301.0162,N,07726.1937,W,0.01,27.47,240819,,,D*45
$GPGGA,173355.250,4301.0162,N,07726.1937,W,2,07,1.04,208.3,M,-34.3,M,0000,0000*55
$GPRMC,173355.500,A,4301.0163,N,07726.1937,W,0.00,79.25,240819,,,D*4F
$GPGGA,173355.750,4301.0163,N,07726.1937,W,2,07,1.04,208.3,M,-34.3,M,0000,0000*51
$GPRMC,173356.000,A,4301.0163,N,07726.1937,W,0.00,50.48,240819,,,D*49
$GPGGA,173356.250,4301.0163,N,07726.1937,W,2,07,1.04,208.3,M,-34.3,M,0000,0000*57
$GPRMC,173356.500,A,4301.0163,N,07726.1937,W,0.01,76.49,240819,,,D*48
$GPGGA,173356.750,4301.0163,N,07726.1937,W,2,07,1.04,208.4,M,-34.3,M,0000,0000*55
$GPRMC,173357.000,A,4301.0163,N,07726.1937,W,0.00,79.26,240819,,,D*4B
$GPGGA,173357.250,4301.0164,N,07726.1937,W,2,07,1.04,208.4,M,-34.3,M,0000,0000*56
$GPRMC,173357.500,A,4301.0164,N,07726.1937,W,0.00,94.98,240819,,,D*4F
$GPGGA,173357.750,4301.0164,N,07726.1936,W,2,07,1.04,208.4,M,-34.3,M,0000,0000*52
$GPRMC,173358.000,A,4301.0164,N,07726.1936,W,0.01,38.12,240819,,,D*41
$GPGGA,173358.250,4301.0164,N,07726.1936,W,2,07,1.04,208.4,M,-34.3,M,0000,0000*58
$GPGGA,173359.000,4301.0165,N,07726.1937,W,2,07,1.04,208.4,M,-34.3,M,0000,0000*5E
$GPRMC,173359.000,A,4301.0165,N,07726.1937,W,0.01,282.44,240819,D*70
$GPRMC,173359.500,A,4301.0165,N,07726.1937,W,0.01,229.95,240819,,,D*78
$GPGGA,173359.750,4301.0165,N,07726.1937,W,2,07,1.04,208.4,M,-34.3,M,0000,0000*5C
$GPRMC,173400.000,A,4301.0165,N,07726.1937,W,0.01,202.76,240819,,,D*72
$GPGGA,173400.250,4301.0166,N,07726.1937,W,2,07,1.04,208.4,M,-34.3,M,0000,0000*51
$GPRMC,173400.500,A,4301.0166,N,07726.1938,W,0.01,281.05,240819,,,D*74
$GPGGA,173400.750,4301.0166,N,07726.1938,W,2,07,1.04,208.3,M,-34.3,M,0000,0000*5C
$GPRMC,173401.000,A,4301.0166,N,07726.1938,W,0.01,302.68,240819,,,D*71
$GPGGA,173401.250,4301.0166,N,07726.1938,W,2,07,1.04,208.4,M,-34.3,M,0000,0000*5F
$GPRMC,173401.500,A,4301.0167,N,07726.1938,W,0.01,269.78,240819,,,D*78
$GPGGA,173401.750,4301.0167,N,07726.1938,W,2,07,1.04,208.3,M,-34.3,M,0000,0000*5C
$GPRMC,173402.000,A,4301.0167,N,07726.1938,W,0.01,261.51,240819,,,D*7D
$GPGGA,173402.250,4301.0167,N,07726.1938,W,2,07,1.04,208.3,M,-34.3,M,0000,0000*5A
$GPRMC,173402.500,A,4301.0167,N,07726.1939,W,0.01,281.37,240819,,,D*77
$GPGGA,173402.750,4301.0167,N,07726.1939,W,2,07,1.04,208.3,M,-34.3,M,0000,0000*5E
$GPRMC,173403.000,A,4301.0168,N,07726.1939,W,0.01,259.55,240819,,,D*7D
$GPGGA,173403.250,4301.0168,N,07726.1939,W,2,07,1.04,208.3,M,-34.3,M,0000,0000*55
$GPRMC,173403.500,A,4301.0168,N,07726.1939,W,0.00,282.68,240819,,,D*71
$GPGGA,173403.750,4301.0168,N,07726.1939,W,2,07,1.04,208.3,M,-34.3,M,0000,0000*50
$GPRMC,173404.000,A,4301.0168,N,07726.1939,W,0.02,261.17,240819,,,D*74
$GPGGA,173404.250,4301.0168,N,07726.1939,W,2,07,1.04,208.3,M,-34.3,M,0000,0000*52
$GPRMC,173404.500,A,4301.0168,N,07726.1939,W,0.01,330.12,240819,,,D*72
$GPGGA,173404.750,4301.0168,N,07726.1939,W,2,07,1.04,208.3,M,-34.3,M,0000,0000*57
$GPRMC,173405.000,A,4301.0168,N,07726.1939,W,0.00,0.00,240819,,,D*74
$GPGGA,173405.250,4301.0168,N,07726.1939,W,2,07,1.04,208.3,M,-34.3,M,0000,0000*53
$GPRMC,173405.500,A,4301.0168,N,07726.1939,W,0.01,329.26,240819,,,D*7C
$GPGGA,173405.750,4301.0168,N,07726.1939,W,2,07,1.04,208.3,M,-34.3,M,0000,0000*56
$GPRMC,173406.000,A,4301.0168,N,07726.1939,W,0.01,74.09,240819,,,D*4C
$GPGGA,173406.250,4301.0168,N,07726.1939,W,2,07,1.04,208.3,M,-34.3,M,0000,0000*50
$GPRMC,173406.500,A,4301.0168,N,07726.1939,W,0.01,21.82,240819,,,D*4A
$GPGGA,173406.750,4301.0168,N,07726.1939,W,2,07,1.04,208.3,M,-34.3,M,0000,0000*55
$GPRMC,173407.000,A,4301.0168,N,07726.1939,W,0.01,86.56,240819,,,D*4A
$GPGGA,173407.250,4301.0168,N,07726.1939,W,2,07,1.04,208.3,M,-34.3,M,0000,0000*51
$GPRMC,173407.500,A,4301.0168,N,07726.1939,W,0.00,40.35,240819,,,D*41
$GPGGA,173407.750,4301.0168,N,07726.1939,W,2,07,1.04,208.3,M,-34.3,M,0000,0000*54
$GPRMC,173408.000,A,4301.0168,N,07726.1939,W,0.01,60.71,240819,,,D*48
$GPGGA,173408.250,4301.0168,N,07726.1939,W,2,07,1.04,208.3,M,-34.3,M,0000,0000*5E
$GPRMC,173408.500,A,4301.0168,N,07726.1939,W,0.01,73.35,240819,,,D*4F
$GPGGA,173408.750,4301.0168,N,07726.1939,W,2,07,1.04,208.3,M,-34.3,M,0000,0000*5B
$GPRMC,173409.000,A,4301.0168,N,07726.1939,W,0.01,66.18,240819,,,D*40
$GPGGA,173409.250,4301.0168,N,07726.1939,W,2,07,1.04,208.3,M,-34.3,M,0000,0000*5F
$GPRMC,173409.500,A,4301.0168,N,07726.1939,W,0.00,356.85,240819,,,D*70
$GPGGA,173409.750,4301.0168,N,07726.1939,W,2,07,1.04,208.3,M,-34.3,M,0000,0000*5A
$GPRMC,173410.000,A,4301.0168,N,07726.1939,W,0.01,81.13,240819,,,D*4A
$GPGGA,173410.250,4301.0168,N,07726.1939,W,2,07,1.04,208.3,M,-34.3,M,0000,0000*57
$GPRMC,173410.500,A,4301.0168,N,07726.1939,W,0.01,288.00,240819,,,D*76
$GPGGA,173410.750,4301.0168,N,07726.1939,W,2,07,1.04,208.3,M,-34.3,M,0000,0000*52
$GPRMC,173411.000,A,4301.0168,N,07726.1939,W,0.00,303.97,240819,,,D*7F
$GPGGA,173411.250,4301.0168,N,07726.1939,W,2,07,1.04,208.3,M,-34.3,M,0000,0000*56
$GPRMC,173411.500,A,4301.0168,N,07726.1939,W,0.01,191.18,240819,,,D*75
$GPGGA,173411.750,4301.0168,N,07726.1939,W,2,07,1.04,208.3,M,-34.3,M,0000,0000*53
$GPRMC,173412.000,A,4301.0168,N,07726.1939,W,0.01,212.70,240819,,,D*75
$GPGGA,173412.250,4301.0168,N,07726.1939,W,2,07,1.04,208.3,M,-34.3,M,0000,0000*55
$GPRMC,173412.500,A,4301.0168,N,07726.1939,W,0.00,248.08,240819,,,D*71
$GPGGA,173412.750,4301.0168,N,07726.1939,W,2,07,1.04,208.3,M,-34.3,M,0000,0000*50
$GPRMC,173413.000,A,4301.0168,N,07726.1939,W,0.00,237.79,240819,,,D*7B
$GPGGA,173413.250,4301.0168,N,07726.1939,W,2,07,1.04,208.3,M,-34.3,M,0000,0000*54
$GPRMC,173413.500,A,4301.0168,N,07726.1939,W,0.00,246.46,240819,,,D*74
$GPGGA,173413.750,4301.0168,N,07726.1939,W,2,07,1.04,208.3,M,-34.3,M,0000,0000*51
$GPRMC,173414.000,A,4301.0168,N,07726.1939,W,0.00,191.21,240819,,,D*7E
$GPGGA,173414.250,4301.0168,N,07726.1939,W,2,07,1.04,208.3,M,-34.3,M,0000,0000*53
$GPRMC,173414.500,A,4301.0168,N,07726.1939,W,0.01,182.94,240819,,,D*76
$GPGGA,173414.750,4301.0168,N,07726.1939,W,2,07,1.04,208.3,M,-34.3,M,0000,0000*56
$GPRMC,173415.000,A,4301.0168,N,07726.1939,W,0.01,220.09,240819,,,D*7D
$GPGGA,173415.250,4301.0168,N,07726.1939,W,2,07,1.04,208.3,M,-34.3,M,0000,0000*52
$GPRMC,173415.500,A,4301.0168,N,07726.1939,W,0.01,266.65,240819,,,D*70
$GPGGA,173415.750,4301.0168,N,07726.1939,W,2,07,1.04,208.3,M,-34.3,M,0000,0000*57
$GPRMC,173416.000,A,4301.0168,N,07726.1939,W,0.00,275.82,240819,,,D*7C
$GPGGA,173416.250,4301.0168,N,07726.1939,W,2,07,1.04,208.3,M,-34.3,M,0000,0000*51
$GPRMC,173416.500,A,4301.0168,N,07726.1939,W,0.00,20.84,240819,,,D*4D
$GPGGA,173416.750,4301.0168,N,07726.1939,W,2,07,1.04,208.3,M,-34.3,M,0000,0000*54
$GPRMC,173417.000,A,4301.0168,N,07726.1939,W,0.00,98.58,240819,,,D*4B
$GPGGA,173417.250,4301.0168,N,07726.1939,W,2,07,1.04,208.3,M,-34.3,M,0000,0000*50
$GPRMC,173417.500,A,4301.0168,N,07726.1939,W,0.00,326.79,240819,,,D*7B
$GPGGA,173417.750,4301.0168,N,07726.1939,W,2,07,1.04,208.3,M,-34.3,M,0000,0000*55
$GPRMC,173418.000,A,4301.0168,N,07726.1939,W,0.01,342.00,240819,,,D*7C
$GPGGA,173418.250,4301.0168,N,07726.1939,W,2,07,1.04,208.3,M,-34.3,M,0000,0000*5F
$GPRMC,173418.500,A,4301.0168,N,07726.1939,W,0.00,21.67,240819,,,D*4F
$GPGGA,173418.750,4301.0168,N,07726.1939,W,2,07,1.04,208.3,M,-34.3,M,0000,0000*5A
$GPRMC,173419.000,A,4301.0168,N,07726.1939,W,0.01,339.82,240819,,,D*7B
$GPGGA,173419.250,4301.0168,N,07726.1939,W,2,07,1.04,208.3,M,-34.3,M,0000,0000*5E
$GPRMC,173419.500,A,4301.0168,N,07726.1939,W,0.00,10.28,240819,,,D*47
$GPGGA,173419.750,4301.0168,N,07726.1939,W,2,07,1.04,208.3,M,-34.3,M,0000,0000*5B
$GPRMC,173420.000,A,4301.0168,N,07726.1939,W,0.01,9.46,240819,,,D*79
$GPGGA,173420.250,4301.0168,N,07726.1939,W,2,07,1.04,208.3,M,-34.3,M,0000,0000*54
$GPRMC,173420.500,A,4301.0168,N,07726.1939,W,0.01,332.01,240819,,,D*74
$GPGGA,173420.750,4301.0168,N,07726.1939,W,2,07,1.04,208.3,M,-34.3,M,0000,0000*51
$GPRMC,173421.000,A,4301.0168,N,07726.1939,W,0.01,42.26,240819,,,D*41
$GPGGA,173421.250,4301.0168,N,07726.1939,W,2,07,1.04,208.3,M,-34.3,M,0000,0000*55
$GPRMC,173421.500,A,4301.0168,N,07726.1939,W,0.00,46.63,240819,,,D*40
$GPGGA,173421.750,4301.0168,N,07726.1939,W,2,07,1.04,208.3,M,-34.3,M,0000,0000*50
$GPRMC,173422.000,A,4301.0168,N,07726.1939,W,0.01,353.27,240819,,,D*70
$GPGGA,173422.250,4301.0168,N,07726.1939,W,2,07,1.04,208.3,M,-34.3,M,0000,0000*56
$GPRMC,173422.500,A,4301.0168,N,07726.1939,W,0.00,0.00,240819,,,D*74
$GPGGA,173422.750,4301.0168,N,07726.1939,W,2,07,1.04,208.3,M,-34.3,M,0000,0000*53
$GPRMC,173423.000,A,4301.0168,N,07726.1939,W,0.00,236.45,240819,,,D*76
$GPGGA,173423.250,4301.0168,N,07726.1939,W,2,07,1.04,208.3,M,-34.3,M,0000,0000*57
$GPRMC,173423.500,A,4301.0168,N,07726.1939,W,0.00,237.46,240819,,,D*71
$GPGGA,173423.750,4301.0168,N,07726.1939,W,2,07,1.04,208.3,M,-34.3,M,0000,0000*52
$GPRMC,173424.000,A,4301.0168,N,07726.1939,W,0.00,171.80,240819,,,D*78
$GPGGA,173424.250,4301.0168,N,07726.1939,W,2,07,1.04,208.3,M,-34.3,M,0000,0000*50
$GPRMC,173424.500,A,4301.0168,N,07726.1939,W,0.01,174.08,240819,,,D*79
$GPGGA,173424.750,4301.0168,N,07726.1939,W,2,07,1.04,208.3,M,-34.3,M,0000,0000*55
$GPRMC,173425.000,A,4301.0168,N,07726.1939,W,0.01,234.35,240819,,,D*74
$GPGGA,173425.250,4301.0168,N,07726.1939,W,2,07,1.04,208.3,M,-34.3,M,0000,0000*51
$GPRMC,173425.500,A,4301.0168,N,07726.1939,W,0.01,221.21,240819,,,D*70
$GPGGA,173425.750,4301.0168,N,07726.1939,W,2,07,1.04,208.3,M,-34.3,M,0000,0000*54
$GPRMC,173426.000,A,4301.0168,N,07726.1939,W,0.01,217.19,240819,,,D*78
$GPGGA,173426.250,4301.0168,N,07726.1939,W,2,07,1.04,208.3,M,-34.3,M,0000,0000*52
$GPRMC,173426.500,A,4301.0168,N,07726.1939,W,0.01,149.54,240819,,,D*7C
$GPGGA,173426.750,4301.0168,N,07726.1939,W,2,07,1.04,208.3,M,-34.3,M,0000,0000*57
$GPRMC,173427.000,A,4301.0168,N,07726.1939,W,0.01,214.23,240819,,,D*73
$GPGGA,173427.250,4301.0168,N,07726.1939,W,2,07,1.04,208.3,M,-34.3,M,0000,0000*53
$GPRMC,173427.500,A,4301.0168,N,07726.1939,W,0.00,209.52,240819,,,D*7D
$GPGGA,173427.750,4301.0168,N,07726.1939,W,2,07,1.04,208.3,M,-34.3,M,0000,0000*56
$GPRMC,173428.000,A,4301.0168,N,07726.1939,W,0.01,204.74,240819,,,D*7F
$GPGGA,173428.250,4301.0168,N,07726.1939,W,2,07,1.04,208.3,M,-34.3,M,0000,0000*5C
$GPRMC,173428.500,A,4301.0168,N,07726.1939,W,0.00,76.82,240819,,,D*45
$GPGGA,173428.750,4301.0168,N,07726.1939,W,2,06,1.46,208.3,M,-34.3,M,0000,0000*5E
$GPRMC,173429.000,A,4301.0168,N,07726.1939,W,0.00,128.81,240819,,,D*78
$GPGGA,173429.250,4301.0168,N,07726.1939,W,2,06,1.46,208.3,M,-34.3,M,0000,0000*5A
$GPRMC,173429.500,A,4301.0168,N,07726.1939,W,0.01,350.96,240819,,,D*77
$GPGGA,173429.750,4301.0168,N,07726.1939,W,2,06,1.46,208.4,M,-34.3,M,0000,0000*58
$GPRMC,173430.000,A,4301.0168,N,07726.1939,W,0.01,359.46,240819,,,D*7E
$GPGGA,173430.250,4301.0168,N,07726.1939,W,2,07,1.04,208.4,M,-34.3,M,0000,0000*52
$GPRMC,173430.500,A,4301.0168,N,07726.1939,W,0.01,28.21,240819,,,D*4F
$GPGGA,173430.750,4301.0168,N,07726.1939,W,2,07,1.04,208.4,M,-34.3,M,0000,0000*57
$GPRMC,173431.000,A,4301.0168,N,07726.1939,W,0.01,34.07,240819,,,D*42
$GPGGA,173431.250,4301.0168,N,07726.1939,W,2,07,1.04,208.4,M,-34.3,M,0000,0000*53
$GPRMC,173431.500,A,4301.0168,N,07726.1939,W,0.01,47.06,240819,,,D*42
$GPGGA,173431.750,4301.0168,N,07726.1939,W,2,06,1.46,208.4,M,-34.3,M,0000,0000*51
$GPRMC,173432.000,A,4301.0168,N,07726.1939,W,0.00,44.91,240819,,,D*48
$GPGGA,173432.250,4301.0168,N,07726.1939,W,2,07,1.04,208.4,M,-34.3,M,0000,0000*50
$GPRMC,173432.500,A,4301.0169,N,07726.1939,W,0.01,55.55,240819,,,D*45
$GPGGA,173432.750,4301.0169,N,07726.1939,W,2,06,1.46,208.4,M,-34.3,M,0000,0000*53
$GPRMC,173433.000,A,4301.0169,N,07726.1939,W,0.01,9.28,240819,,,D*72
$GPGGA,173433.250,4301.0169,N,07726.1939,W,2,06,1.46,208.4,M,-34.3,M,0000,0000*57
$GPRMC,173433.500,A,4301.0169,N,07726.1939,W,0.00,334.66,240819,,,D*71
$GPGGA,173433.750,4301.0169,N,07726.1939,W,2,07,1.04,208.4,M,-34.3,M,0000,0000*55
$GPRMC,173434.000,A,4301.0169,N,07726.1939,W,0.01,13.64,240819,,,D*46
$GPGGA,173434.250,4301.0169,N,07726.1939,W,2,07,1.04,208.4,M,-34.3,M,0000,0000*57
$GPRMC,173434.500,A,4301.0169,N,07726.1939,W,0.00,325.40,240819,,,D*72
$GPGGA,173434.750,4301.0169,N,07726.1939,W,2,07,1.04,208.4,M,-34.3,M,0000,0000*52
$GPRMC,173435.000,A,4301.0169,N,07726.1939,W,0.00,172.54,240819,,,D*73
$GPGGA,173435.250,4301.0169,N,07726.1939,W,2,06,1.46,208.4,M,-34.3,M,0000,0000*51
$GPRMC,173435.500,A,4301.0169,N,07726.1939,W,0.01,183.82,240819,,,D*72
$GPGGA,173435.750,4301.0169,N,07726.1939,W,2,06,1.46,208.4,M,-34.3,M,0000,0000*54
$GPRMC,173436.000,A,4301.0169,N,07726.1939,W,0.00,175.95,240819,,,D*7A
$GPGGA,173436.250,4301.0169,N,07726.1939,W,2,06,1.46,208.4,M,-34.3,M,0000,0000*52
$GPRMC,173436.500,A,4301.0169,N,07726.1939,W,0.00,210.63,240819,,,D*76
$GPGGA,173436.750,4301.0169,N,07726.1939,W,2,06,1.46,208.4,M,-34.3,M,0000,0000*57
$GPRMC,173437.000,A,4301.0169,N,07726.1939,W,0.01,155.17,240819,,,D*72
$GPGGA,173437.250,4301.0169,N,07726.1939,W,2,06,1.46,208.4,M,-34.3,M,0000,0000*53
$GPRMC,173437.500,A,4301.0169,N,07726.1939,W,0.00,240.66,240819,,,D*77
$GPGGA,173437.750,4301.0169,N,07726.1939,W,2,06,1.46,208.4,M,-34.3,M,0000,0000*56
$GPRMC,173438.000,A,4301.0169,N,07726.1939,W,0.01,234.60,240819,,,D*79
$GPGGA,173438.250,4301.0169,N,07726.1939,W,2,06,1.46,208.4,M,-34.3,M,0000,0000*5C
$GPRMC,173438.500,A,4301.0169,N,07726.1939,W,0.00,222.12,240819,,,D*7F
$GPGGA,173438.750,4301.0169,N,07726.1939,W,2,06,1.46,208.4,M,-34.3,M,0000,0000*59
$GPRMC,173439.000,A,4301.0169,N,07726.1939,W,0.01,261.01,240819,,,D*7F
$GPGGA,173439.250,4301.0169,N,07726.1939,W,2,06,1.46,208.4,M,-34.3,M,0000,0000*5D
$GPRMC,173439.500,A,4301.0169,N,07726.1939,W,0.01,202.68,240819,,,D*70
$GPGGA,173439.750,4301.0169,N,07726.1939,W,2,06,1.46,208.4,M,-34.3,M,0000,0000*58
$GPRMC,173440.000,A,4301.0169,N,07726.1939,W,0.01,217.49,240819,,,D*7C
$GPGGA,173440.250,4301.0169,N,07726.1939,W,2,06,1.46,208.4,M,-34.3,M,0000,0000*53
$GPRMC,173440.500,A,4301.0168,N,07726.1939,W,0.00,245.50,240819,,,D*76
$GPGGA,173440.750,4301.0168,N,07726.1939,W,2,06,1.46,208.4,M,-34.3,M,0000,0000*57
$GPRMC,173441.000,A,4301.0168,N,07726.1939,W,0.01,129.58,240819,,,D*72
$GPGGA,173441.250,4301.0168,N,07726.1939,W,2,06,1.46,208.4,M,-34.3,M,0000,0000*53
$GPRMC,173441.500,A,4301.0168,N,07726.1939,W,0.01,329.07,240819,,,D*7F
$GPGGA,173441.750,4301.0168,N,07726.1939,W,2,06,1.46,208.4,M,-34.3,M,0000,0000*56
$GPRMC,173442.000,A,4301.0168,N,07726.1939,W,0.00,73.52,240819,,,D*44
$GPGGA,173442.250,4301.0168,N,07726.1939,W,2,06,1.46,208.4,M,-34.3,M,0000,0000*50
$GPRMC,173442.500,A,4301.0168,N,07726.1939,W,0.01,352.05,240819,,,D*72
$GPGGA,173442.750,4301.0168,N,07726.1939,W,2,06,1.46,208.4,M,-34.3,M,0000,0000*55
$GPRMC,173443.000,A,4301.0168,N,07726.1939,W,0.00,344.84,240819,,,D*79
$GPGGA,173443.250,4301.0168,N,07726.1939,W,2,06,1.46,208.4,M,-34.3,M,0000,0000*51
$GPRMC,173443.500,A,4301.0168,N,07726.1939,W,0.01,53.24,240819,,,D*42
$GPGGA,173443.750,4301.0168,N,07726.1939,W,2,06,1.46,208.4,M,-34.3,M,0000,0000*54
$GPRMC,173444.000,A,4301.0168,N,07726.1939,W,0.00,9.92,240819,,,D*73
$GPGGA,173444.250,4301.0168,N,07726.1939,W,2,06,1.46,208.4,M,-34.3,M,0000,0000*56
$GPRMC,173444.500,A,4301.0168,N,07726.1939,W,0.01,90.53,240819,,,D*4A
$GPGGA,173444.750,4301.0168,N,07726.1939,W,2,06,1.46,208.4,M,-34.3,M,0000,0000*53
$GPRMC,173445.000,A,4301.0168,N,07726.1939,W,0.00,20.31,240819,,,D*40
$GPGGA,173445.250,4301.0168,N,07726.1939,W,2,06,1.46,208.4,M,-34.3,M,0000,0000*57
$GPRMC,173445.500,A,4301.0168,N,07726.1939,W,0.01,62.62,240819,,,D*44
$GPGGA,173445.750,4301.0168,N,07726.1939,W,2,07,1.04,208.4,M,-34.3,M,0000,0000*55
$GPRMC,173446.000,A,4301.0168,N,07726.1939,W,0.00,23.31,240819,,,D*40
$GPGGA,173446.250,4301.0168,N,07726.1939,W,2,07,1.04,208.4,M,-34.3,M,0000,0000*53
$GPRMC,173446.500,A,4301.0168,N,07726.1939,W,0.00,0.00,240819,,,D*76
$GPGGA,173446.750,4301.0168,N,07726.1939,W,2,07,1.04,208.4,M,-34.3,M,0000,0000*56
$GPRMC,173447.000,A,4301.0168,N,07726.1939,W,0.00,33.44,240819,,,D*42
$GPGGA,173447.250,4301.0168,N,07726.1939,W,2,06,1.46,208.4,M,-34.3,M,0000,0000*55
$GPRMC,173447.500,A,4301.0168,N,07726.1939,W,0.01,234.93,240819,,,D*79
$GPGGA,173447.750,4301.0168,N,07726.1939,W,2,07,1.04,208.4,M,-34.3,M,0000,0000*57
$GPRMC,173448.000,A,4301.0168,N,07726.1939,W,0.01,216.36,240819,,,D*7C
$GPGGA,173448.250,4301.0168,N,07726.1939,W,2,07,1.04,208.4,M,-34.3,M,0000,0000*5D
$GPRMC,173448.500,A,4301.0168,N,07726.1939,W,0.00,194.75,240819,,,D*76
$GPGGA,173448.750,4301.0168,N,07726.1939,W,2,06,1.46,208.4,M,-34.3,M,0000,0000*5F
$GPRMC,173449.000,A,4301.0168,N,07726.1939,W,0.01,229.52,240819,,,D*73
$GPGGA,173449.250,4301.0168,N,07726.1939,W,2,06,1.46,208.4,M,-34.3,M,0000,0000*5B
$GPRMC,173449.500,A,4301.0168,N,07726.1939,W,0.01,249.09,240819,,,D*7E
$GPGGA,173449.750,4301.0168,N,07726.1939,W,2,06,1.46,208.4,M,-34.3,M,0000,0000*5E
$GPRMC,173450.000,A,4301.0168,N,07726.1939,W,0.01,265.29,240819,,,D*7F
$GPGGA,173450.250,4301.0168,N,07726.1939,W,2,06,1.46,208.4,M,-34.3,M,0000,0000*53
$GPRMC,173450.500,A,4301.0168,N,07726.1939,W,0.01,240.97,240819,,,D*78
$GPGGA,173450.750,4301.0168,N,07726.1939,W,2,07,1.04,208.4,M,-34.3,M,0000,0000*51
$GPRMC,173451.000,A,4301.0168,N,07726.1939,W,0.00,285.76,240819,,,D*7B
$GPGGA,173451.250,4301.0168,N,07726.1939,W,2,06,1.46,208.4,M,-34.3,M,0000,0000*52
$GPRMC,173451.500,A,4301.0168,N,07726.1939,W,0.01,269.23,240819,,,D*7D
$GPGGA,173451.750,4301.0168,N,07726.1939,W,2,06,1.46,208.4,M,-34.3,M,0000,0000*57
$GPRMC,173452.000,A,4301.0168,N,07726.1939,W,0.01,188.02,240819,,,D*74
$GPGGA,173452.250,4301.0168,N,07726.1939,W,2,06,1.46,208.4,M,-34.3,M,0000,0000*51
$GPRMC,173452.500,A,4301.0168,N,07726.1939,W,0.00,196.32,240819,,,D*7C
$GPGGA,173452.750,4301.0168,N,07726.1939,W,2,06,1.46,208.4,M,-34.3,M,0000,0000*54
$GPRMC,173453.000,A,4301.0168,N,07726.1939,W,0.01,122.96,240819,,,D*78
$GPGGA,173453.250,4301.0168,N,07726.1939,W,2,06,1.46,208.4,M,-34.3,M,0000,0000*50
$GPRMC,173453.500,A,4301.0168,N,07726.1939,W,0.00,72.01,240819,,,D*46
$GPGGA,173453.750,4301.0168,N,07726.1939,W,2,06,1.46,208.4,M,-34.3,M,0000,0000*55
$GPRMC,173454.000,A,4301.0168,N,07726.1939,W,0.01,121.01,240819,,,D*72
$GPGGA,173454.250,4301.0168,N,07726.1939,W,2,06,1.46,208.4,M,-34.3,M,0000,0000*57
$GPRMC,173454.500,A,4301.0168,N,07726.1939,W,0.00,351.87,240819,,,D*7D
$GPGGA,173454.750,4301.0168,N,07726.1939,W,2,06,1.46,208.4,M,-34.3,M,0000,0000*52
$GPRMC,173455.000,A,4301.0168,N,07726.1939,W,0.00,81.92,240819,,,D*43
$GPGGA,173455.250,4301.0168,N,07726.1939,W,2,06,1.46,208.4,M,-34.3,M,0000,0000*56
$GPRMC,173455.500,A,4301.0168,N,07726.1939,W,0.00,105.90,240819,,,D*79
$GPGGA,173455.750,4301.0168,N,07726.1939,W,2,06,1.46,208.4,M,-34.3,M,0000,0000*53
$GPRMC,173456.000,A,4301.0168,N,07726.1939,W,0.01,34.28,240819,,,D*4E
$GPGGA,173456.250,4301.0168,N,07726.1939,W,2,06,1.46,208.4,M,-34.3,M,0000,0000*55
$GPRMC,173456.500,A,4301.0168,N,07726.1939,W,0.01,60.95,240819,,,D*4C
$GPGGA,173456.750,4301.0168,N,07726.1939,W,2,06,1.46,208.4,M,-34.3,M,0000,0000*50
$GPRMC,173457.000,A,4301.0168,N,07726.1939,W,0.00,54.46,240819,,,D*40
$GPGGA,173457.250,4301.0168,N,07726.1939,W,2,06,1.46,208.4,M,-34.3,M,0000,0000*54
$GPRMC,173457.500,A,4301.0168,N,07726.1939,W,0.00,129.86,240819,,,D*72
$GPGGA,173457.750,4301.0168,N,07726.1939,W,2,06,1.46,208.4,M,-34.3,M,0000,0000*51
$GPRMC,173458.000,A,4301.0168,N,07726.1939,W,0.00,91.06,240819,,,D*42
$GPGGA,173458.250,4301.0168,N,07726.1939,W,2,06,1.46,208.4,M,-34.3,M,0000,0000*5B
$GPRMC,173458.500,A,4301.0168,N,07726.1939,W,0.00,306.06,240819,,,D*7A
$GPGGA,173458.750,4301.0168,N,07726.1939,W,2,06,1.46,208.4,M,-34.3,M,0000,0000*5E
$GPRMC,173459.000,A,4301.0168,N,07726.1939,W,0.00,166.52,240819,,,D*7B
$GPGGA,173459.250,4301.0168,N,07726.1939,W,2,06,1.46,208.4,M,-34.3,M,0000,0000*5A
$GPRMC,173459.500,A,4301.0168,N,07726.1939,W,0.00,255.91,240819,,,D*72
$GPGGA,173459.750,4301.0168,N,07726.1939,W,2,06,1.46,208.4,M,-34.3,M,0000,0000*5F
$GPRMC,173500.000,A,4301.0168,N,07726.1939,W,0.00,311.36,240819,,,D*76
$GPGGA,173500.250,4301.0168,N,07726.1939,W,2,06,1.46,208.4,M,-34.3,M,0000,0000*57
$GPRMC,173500.500,A,4301.0168,N,07726.1939,W,0.01,277.64,240819,,,D*74
$GPGGA,173500.750,4301.0168,N,07726.1939,W,2,06,1.46,208.4,M,-34.3,M,0000,0000*52
$GPRMC,173501.000,A,4301.0168,N,07726.1939,W,0.01,268.79,240819,,,D*72
$GPGGA,173501.250,4301.0168,N,07726.1939,W,2,06,1.46,208.4,M,-34.3,M,0000,0000*56
$GPRMC,173501.500,A,4301.0168,N,07726.1939,W,0.00,287.29,240819,,,D*72
$GPGGA,173501.750,4301.0168,N,07726.1939,W,2,06,1.46,208.4,M,-34.3,M,0000,0000*53
$GPRMC,173502.000,A,4301.0168,N,07726.1939,W,0.01,306.97,240819,,,D*78
$GPGGA,173502.250,4301.0168,N,07726.1939,W,2,06,1.46,208.4,M,-34.3,M,0000,0000*55
$GPRMC,173502.500,A,4301.0168,N,07726.1939,W,0.00,0.00,240819,,,D*77
$GPGGA,173502.750,4301.0168,N,07726.1940,W,2,06,1.46,208.4,M,-34.3,M,0000,0000*5E
$GPRMC,173503.000,A,4301.0168,N,07726.1940,W,0.00,355.20,240819,,,D*7C
$GPGGA,173503.250,4301.0168,N,07726.1940,W,2,06,1.46,208.4,M,-34.3,M,0000,0000*5A
$GPRMC,173503.500,A,4301.0168,N,07726.1940,W,0.00,294.47,240819,,,D*74
$GPGGA,173503.750,4301.0168,N,07726.1940,W,2,06,1.46,208.4,M,-34.3,M,0000,0000*5F
$GPRMC,173504.000,A,4301.0168,N,07726.1940,W,0.01,256.60,240819,,,D*7C
$GPGGA,173504.250,4301.0168,N,07726.1940,W,2,06,1.46,208.4,M,-34.3,M,0000,0000*5D
$GPRMC,173504.500,A,4301.0168,N,07726.1940,W,0.00,208.87,240819,,,D*7A
$GPGGA,173504.750,4301.0168,N,07726.1940,W,2,06,1.46,208.4,M,-34.3,M,0000,0000*58
$GPRMC,173505.000,A,4301.0168,N,07726.1940,W,0.00,123.57,240819,,,D*79
$GPGGA,173505.250,4301.0168,N,07726.1940,W,2,06,1.46,208.4,M,-34.3,M,0000,0000*5C
$GPRMC,173505.500,A,4301.0168,N,07726.1940,W,0.00,306.61,240819,,,D*7C
$GPGGA,173505.750,4301.0168,N,07726.1940,W,2,06,1.46,208.4,M,-34.3,M,0000,0000*59
$GPRMC,173506.000,A,4301.0168,N,07726.1940,W,0.00,108.15,240819,,,D*75
$GPGGA,173506.250,4301.0168,N,07726.1940,W,2,06,1.46,208.4,M,-34.3,M,0000,0000*5F
$GPRMC,173506.500,A,4301.0168,N,07726.1940,W,0.00,92.21,240819,,,D*45
$GPGGA,173506.750,4301.0168,N,07726.1940,W,2,06,1.46,208.4,M,-34.3,M,0000,0000*5A
$GPRMC,173507.000,A,4301.0168,N,07726.1940,W,0.00,334.60,240819,,,D*7B
$GPGGA,173507.250,4301.0168,N,07726.1940,W,2,06,1.46,208.4,M,-34.3,M,0000,0000*5E
$GPRMC,173507.500,A,4301.0168,N,07726.1940,W,0.01,76.89,240819,,,D*4D
$GPGGA,173507.750,4301.0168,N,07726.1940,W,2,06,1.46,208.4,M,-34.3,M,0000,0000*5B
$GPRMC,173508.000,A,4301.0168,N,07726.1940,W,0.01,312.25,240819,,,D*70
$GPGGA,173508.250,4301.0168,N,07726.1940,W,2,06,1.46,208.4,M,-34.3,M,0000,0000*51
$GPRMC,173508.500,A,4301.0168,N,07726.1940,W,0.00,60.92,240819,,,D*4E
$GPGGA,173508.750,4301.0168,N,07726.1940,W,2,06,1.46,208.4,M,-34.3,M,0000,0000*54
$GPRMC,173509.000,A,4301.0168,N,07726.1940,W,0.00,87.59,240819,,,D*44
$GPGGA,173509.250,4301.0168,N,07726.1940,W,2,06,1.46,208.4,M,-34.3,M,0000,0000*50
$GPRMC,173509.500,A,4301.0168,N,07726.1940,W,0.01,113.18,240819,,,D*79
$GPGGA,173509.750,4301.0168,N,07726.1940,W,2,06,1.46,208.4,M,-34.3,M,0000,0000*55
$GPRMC,173510.000,A,4301.0168,N,07726.1940,W,0.00,351.84,240819,,,D*74
$GPGGA,173510.250,4301.0168,N,07726.1940,W,2,06,1.46,208.4,M,-34.3,M,0000,0000*58
$GPRMC,173510.500,A,4301.0168,N,07726.1939,W,0.00,271.45,240819,,,D*71
$GPGGA,173510.750,4301.0168,N,07726.1939,W,2,06,1.46,208.4,M,-34.3,M,0000,0000*53
$GPRMC,173511.000,A,4301.0168,N,07726.1939,W,0.01,308.63,240819,,,D*7F
$GPGGA,173511.250,4301.0168,N,07726.1939,W,2,06,1.46,208.4,M,-34.3,M,0000,0000*57
$GPRMC,173511.500,A,4301.0168,N,07726.1939,W,0.00,253.88,240819,,,D*71
$GPGGA,173511.750,4301.0168,N,07726.1939,W,2,06,1.46,208.4,M,-34.3,M,0000,0000*52
$GPRMC,173512.000,A,4301.0168,N,07726.1939,W,0.00,94.38,240819,,,D*45
$GPGGA,173512.250,4301.0168,N,07726.1939,W,2,06,1.46,208.4,M,-34.3,M,0000,0000*54
$GPRMC,173512.500,A,4301.0168,N,07726.1939,W,0.01,283.32,240819,,,D*7F
$GPGGA,173512.750,4301.0168,N,07726.1939,W,2,06,1.46,208.4,M,-34.3,M,0000,0000*51
$GPRMC,173513.000,A,4301.0168,N,07726.1939,W,0.01,268.37,240819,,,D*7B
$GPGGA,173513.250,4301.0168,N,07726.1939,W,2,06,1.46,208.4,M,-34.3,M,0000,0000*55
$GPRMC,173513.500,A,4301.0168,N,07726.1939,W,0.00,263.41,240819,,,D*75
$GPGGA,173513.750,4301.0168,N,07726.1939,W,2,06,1.46,208.4,M,-34.3,M,0000,0000*50
$GPRMC,173514.000,A,4301.0168,N,07726.1939,W,0.01,249.17,240819,,,D*7D
$GPGGA,173514.250,4301.0168,N,07726.1939,W,2,06,1.46,208.4,M,-34.3,M,0000,0000*52
$GPRMC,173514.500,A,4301.0168,N,07726.1939,W,0.01,232.95,240819,,,D*7E
$GPGGA,173514.750,4301.0168,N,07726.1939,W,2,06,1.46,208.4,M,-34.3,M,0000,0000*57
$GPRMC,173515.000,A,4301.0168,N,07726.1939,W,0.00,137.49,240819,,,D*7C
$GPGGA,173515.250,4301.0168,N,07726.1939,W,2,06,1.46,208.4,M,-34.3,M,0000,0000*53
$GPRMC,173515.500,A,4301.0168,N,07726.1939,W,0.00,0.00,240819,,,D*71
$GPGGA,173515.750,4301.0168,N,07726.1939,W,2,06,1.46,208.4,M,-34.3,M,0000,0000*56
$GPRMC,173516.000,A,4301.0168,N,07726.1939,W,0.00,342.98,240819,,,D*73
$GPGGA,173516.250,4301.0168,N,07726.1939,W,2,06,1.46,208.4,M,-34.3,M,0000,0000*50
$GPRMC,173516.500,A,4301.0168,N,07726.1939,W,0.01,62.39,240819,,,D*4D
$GPGGA,173516.750,4301.0168,N,07726.1939,W,2,06,1.46,208.4,M,-34.3,M,0000,0000*55
$GPRMC,173517.000,A,4301.0168,N,07726.1939,W,0.00,0.00,240819,,,D*76
$GPGGA,173517.250,4301.0168,N,07726.1939,W,2,06,1.46,208.4,M,-34.3,M,0000,0000*51
$GPRMC,173517.500,A,4301.0168,N,07726.1939,W,0.00,34.91,240819,,,D*4C
$GPGGA,173517.750,4301.0168,N,07726.1939,W,2,06,1.46,208.4,M,-34.3,M,0000,0000*54
$GPRMC,173518.000,A,4301.0168,N,07726.1939,W,0.00,75.82,240819,,,D*41
$GPGGA,173518.250,4301.0168,N,07726.1939,W,2,06,1.46,208.4,M,-34.3,M,0000,0000*5E
$GPRMC,173518.500,A,4301.0168,N,07726.1939,W,0.01,71.34,240819,,,D*4C
$GPGGA,173518.750,4301.0168,N,07726.1939,W,2,06,1.46,208.4,M,-34.3,M,0000,0000*5B
$GPRMC,173519.000,A,4301.0168,N,07726.1939,W,0.00,49.90,240819,,,D*4C
$GPGGA,173519.250,4301.0168,N,07726.1939,W,2,06,1.46,208.4,M,-34.3,M,0000,0000*5F
$GPRMC,173519.500,A,4301.0168,N,07726.1939,W,0.00,359.64,240819,,,D*70
$GPGGA,173519.750,4301.0168,N,07726.1939,W,2,06,1.46,208.4,M,-34.3,M,0000,0000*5A
$GPRMC,173520.000,A,4301.0168,N,07726.1939,W,0.01,62.85,240819,,,D*4A
$GPGGA,173520.250,4301.0168,N,07726.1939,W,2,06,1.46,208.4,M,-34.3,M,0000,0000*55
$GPRMC,173520.500,A,4301.0168,N,07726.1939,W,0.01,93.60,240819,,,D*4A
$GPGGA,173520.750,4301.0168,N,07726.1939,W,2,06,1.46,208.4,M,-34.3,M,0000,0000*50
$GPRMC,173521.000,A,4301.0168,N,07726.1939,W,0.01,56.63,240819,,,D*44
$GPGGA,173521.250,4301.0168,N,07726.1939,W,2,06,1.46,208.4,M,-34.3,M,0000,0000*54
$GPRMC,173521.500,A,4301.0168,N,07726.1939,W,0.01,21.90,240819,,,D*4D
$GPGGA,173521.750,4301.0168,N,07726.1939,W,2,06,1.46,208.4,M,-34.3,M,0000,0000*51
$GPRMC,173522.000,A,4301.0168,N,07726.1939,W,0.00,74.96,240819,,,D*4C
$GPGGA,173522.250,4301.0168,N,07726.1939,W,2,06,1.46,208.4,M,-34.3,M,0000,0000*57
$GPRMC,173522.500,A,4301.0168,N,07726.1939,W,0.00,24.45,240819,,,D*42
$GPGGA,173522.750,4301.0168,N,07726.1939,W,2,06,1.46,208.4,M,-34.3,M,0000,0000*52
$GPRMC,173523.000,A,4301.0168,N,07726.1939,W,0.00,117.49,240819,,,D*7B
$GPGGA,173523.250,4301.0168,N,07726.1939,W,2,06,1.46,208.4,M,-34.3,M,0000,0000*56
$GPRMC,173523.500,A,4301.0168,N,07726.1939,W,0.00,303.43,240819,,,D*73
$GPGGA,173523.750,4301.0168,N,07726.1939,W,2,06,1.46,208.4,M,-34.3,M,0000,0000*53
$GPRMC,173524.000,A,4301.0168,N,07726.1939,W,0.00,27.76,240819,,,D*42
