Vers 81
USE_SERIAL_FEEDBACK=true
DEVELOPMENT_MODE=false
USE_RMC_ONLY=false

$GPRMC,144040.750,A,4308.3974,N,07726.3802,W,22.90,7.69,220719,,,A*4E
$GPGGA,144041.000,4308.3992,N,07726.3797,W,1,05,2.28,148.9,M,-34.4,M,,*5D
$GPGGA,144041.500,4308.4029,N,07726.3788,W,1,05,2.28,148.9,M,-34.4,M,,*58
$GPRMC,144041.500,A,4308.4029,N,07726.3788,W,24.13,10.34,220719,,A*70
$GPRMC,144042.000,A,4308.4064,N,07726.3778,W,24.36,10.68,220719,,,A*7E
$GPGGA,144042.250,4308.4081,N,07726.3773,W,1,05,2.28,148.9,M,-34.4,M,,*5F
$GPGGA,144042.750,4308.4119,N,07726.3763,W,1,05,2.28,148.6,M,-34.4,M,,*54
$GPRMC,144042.750,A,4308.4119,N,07726.3763,W,24.40,10.27,2207195,2.29,148.6,M,-34.4,M,,*50
$GPGGA,144043.500,4308.4167,N,07726.3748,W,1,05,2.28,148.5,M,-34.4,M,,*51
$GPRMC,144043.500,A,4308.4167,N,07726.3748,W,24.29,9.91,220719,,,A*4B
$GPRMC,144044.000,A,4308.4200,N,07726.3738,W,23.99,9.89,220719,,,A*49
$GPGGA,144044.250,4308.4216,N,07726.3734,W,1,05,2.28,148.5,M,-34.4,M,,*5A
$GPGGA,144044.750,4308.4243,N,07726.3724,W,1,05,2.28,148.3,M,-34.4,M,,*58
$GPRMC,144044.750,A,4308.4243,N,07726.3724,W,22.95,9.91,220719,1,05,2.28,148.3,M,-34.4,M,,*5F
$GPGGA,144045.500,4308.4287,N,07726.3711,W,1,05,2.28,148.3,M,-34.4,M,,*50
$GPRMC,144045.500,A,4308.4287,N,07726.3711,W,22.51,8.84,220719,,A*40
$GPRMC,144046.000,A,4308.4318,N,07726.3704,W,22.48,8.32,220719,,,A*40
$GPGGA,144046.250,4308.4333,N,07726.3701,W,1,05,2.28,148.4,M,-34.4,M,,*59
$GPRMC,144046.250,A,4308.4333,N,07726.3701,W,22.49,8.03,220719,,220719,,,A*47
$GPGGA,144046.750,4308.4365,N,07726.3695,W,1,05,2.28,148.4,M,-34.4,M,,*53
$GPRMC,144047.250,A,4308.4392,N,07726.3688,W,21.95,6.72,220719,,,A*48
$GPGGA,144047.500,4308.4402,N,07726.3684,W,1,05,2.28,148.0,M,-34.4,M,,*57
$GPGGA,144048.000,4308.4425,N,07726.3678,W,1,05,2.28,147.8,M,-34.4,M,,*5C
$GPRMC,144048.000,A,4308.4425,N,07726.3678,W,20.47,6.41,220719,,,A*4A
$GPRMC,144048.500,A,4308.4451,N,07726.3673,W,19.94,6.07,220719,,,A*41
$GPGGA,144048.750,4308.4461,N,07726.3670,W,1,05,2.28,147.8,M,-34.4,M,,*56
$GPGGA,144049.250,4308.4486,N,07726.3666,W,1,05,2.28,147.7,M,-34.4,M,,*53
$GPRMC,144049.250,A,4308.4486,N,07726.3666,W,18.97,5.44,220719,1,05,2.28,147.7,M,-34.4,M,,*5D
$GPGGA,144050.000,4308.4520,N,07726.3659,W,1,05,2.28,147.7,M,-34.4,M,,*5D
$GPRMC,144050.000,A,4308.4520,N,07726.3659,W,18.06,5.74,220719,,,A*4F
$GPRMC,144050.500,A,4308.4538,N,07726.3656,W,16.69,5.18,220719,,,A*41
$GPGGA,144050.750,4308.4547,N,07726.3654,W,1,05,2.28,147.6,M,-34.4,M,,*52
$GPGGA,144051.250,4308.4566,N,07726.3653,W,1,05,2.28,147.5,M,-34.4,M,,*51
$GPRMC,144051.250,A,4308.4566,N,07726.3653,W,15.20,1.69,220719,,,A*40
$GPRMC,144051.750,A,4308.4581,N,07726.3654,W,14.09,357.92,220719,,,A*45
$GPGGA,144052.000,4308.4590,N,07726.3654,W,1,05,2.28,147.4,M,-34.4,M,,*5A
$GPGGA,144052.500,4308.4606,N,07726.3657,W,1,05,2.28,147.5,M,-34.4,M,,*51
$GPRMC,144052.500,A,4308.4606,N,07726.3657,W,13.34,352.92,220719,,,A*42
$GPRMC,144053.000,A,4308.4619,N,07726.3660,W,12.63,350.28,220719,,,A*4C
$GPGGA,144053.250,4308.4625,N,07726.3661,W,1,05,2.28,147.6,M,-34.4,M,,*55
$GPGGA,144053.750,4308.4634,N,07726.3665,W,1,05,2.28,147.8,M,-34.4,M,,*5A
$GPRMC,144053.750,A,4308.4634,N,07726.3665,W,11.35,345.52,220715,2.28,147.8,M,-34.4,M,,*50
$GPGGA,144054.500,4308.4645,N,07726.3670,W,1,05,2.03,147.9,M,-34.4,M,,*50
$GPRMC,144054.500,A,4308.4645,N,07726.3670,W,10.01,343.87,22071,,,A*47
$GPRMC,144055.000,A,4308.4652,N,07726.3673,W,9.29,344.71,220719,,,A*7A
$GPGGA,144055.250,4308.4656,N,07726.3674,W,1,05,2.03,148.1,M,-34.4,M,,*52
$GPGGA,144055.750,4308.4662,N,07726.3675,W,1,05,2.28,148.2,M,-34.4,M,,*5B
$GPRMC,144055.750,A,4308.4662,N,07726.3675,W,8.53,348.91,220719,,A*73
$GPRMC,144056.250,A,4308.4669,N,07726.3675,W,8.33,351.89,220719,,,A*79
$GPGGA,144056.500,4308.4674,N,07726.3675,W,1,05,2.28,148.4,M,-34.4,M,,*5E
$GPGGA,144057.000,4308.4680,N,07726.3674,W,1,05,2.28,148.4,M,-34.4,M,,*50
$GPRMC,144057.000,A,4308.4680,N,07726.3674,W,8.02,356.83,220719,,,A*76
$GPRMC,144057.500,A,4308.4682,N,07726.3670,W,7.93,358.87,220719,,,A*78
$GPGGA,144057.750,4308.4685,N,07726.3671,W,1,05,2.28,148.5,M,-34.4,M,,*53
$GPGGA,144058.250,4308.4680,N,07726.3670,W,1,05,2.28,148.1,M,-34.4,M,,*59
$GPRMC,144058.250,A,4308.4680,N,07726.3670,W,7.66,342.69,22071905,2.03,147.8,M,-34.4,M,,*5D
$GPGGA,144059.000,4308.4675,N,07726.3677,W,1,05,2.03,147.7,M,-34.4,M,,*52
$GPRMC,144059.000,A,4308.4675,N,07726.3677,W,8.05,321.08,220719,,,A*75
$GPRMC,144059.500,A,4308.4678,N,07726.3690,W,9.92,305.29,220719,,,A*7E
$GPGGA,144059.750,4308.4678,N,07726.3697,W,1,05,2.03,147.3,M,-34.4,M,,*57
$GPRMC,144059.750,A,4308.4678,N,07726.3697,W,10.92,301.26,220718.94,220719,,,A*4C
$GPGGA,144100.250,4308.4679,N,07726.3715,W,1,05,2.03,147.2,M,-34.4,M,,*54
$GPGGA,144100.750,4308.4677,N,07726.3738,W,1,05,2.03,147.1,M,-34.4,M,,*53
$GPRMC,144100.750,A,4308.4677,N,07726.3738,W,12.63,286.96,220719,,,A*42
$GPGGA,144101.000,4308.4678,N,07726.3751,W,1,05,2.04,147.0,M,-
$GPGGA,144101.250,4308.4678,N,07726.3764,W,1,05,2.04,146.9,M,-34.4,M,,*5F
$GPGGA,144101.750,4308.4676,N,07726.3794,W,1,05,2.04,146.9,M,-34.4,M,,*5B
$GPRMC,144101.750,A,4308.4676,N,07726.3794,W,15.02,279.32,22071,,,A*4A
$GPRMC,144102.250,A,4308.4675,N,07726.3824,W,15.79,278.11,220719,,,A*47
$GPGGA,144102.500,4308.4676,N,07726.3840,W,1,06,1.39,147.0,M,-34.4,M,,*5F
$GPGGA,144103.000,4308.4677,N,07726.3871,W,1,06,1.39,147.0,M,-34.4,M,,*58
$GPRMC,144103.000,A,4308.4677,N,07726.3871,W,16.27,277.57,220719,,,A*46
$GPRMC,144103.500,A,4308.4678,N,07726.3901,W,16.27,276.64,220719,,,A*4B
$GPGGA,144103.750,4308.4676,N,07726.3916,W,1,06,1.39,146.8,M,-34.4,M,,*52
$GPGGA,144104.250,4308.4677,N,07726.3947,W,1,06,1.39,146.5,M,-34.4,M,,*58
$GPRMC,144104.250,A,4308.4677,N,07726.3947,W,16.12,275.92,22071,,,A*4F
$GPRMC,144104.750,A,4308.4680,N,07726.3979,W,16.15,276.26,220719,,,A*44
$GPGGA,144105.000,4308.4679,N,07726.3993,W,1,06,1.39,146.0,M,-34.4,M,,*5C
$GPGGA,144105.500,4308.4679,N,07726.4023,W,1,06,1.39,145.7,M,-34.4,M,,*58
$GPRMC,144105.500,A,4308.4679,N,07726.4023,W,15.87,276.65,220719,,,A*4A
$GPRMC,144106.000,A,4308.4680,N,07726.4052,W,15.16,277.63,220719,,,A*43
$GPGGA,144106.250,4308.4681,N,07726.4066,W,1,06,1.66,145.3,M,-34.4,M,,*51
$GPGGA,144106.750,4308.4682,N,07726.4093,W,1,06,1.66,145.0,M,-34.4,M,,*5E
$GPRMC,144106.750,A,4308.4682,N,07726.4093,W,14.25,279.26,22071,06,1.39,144.8,M,-34.4,M,,*53
$GPGGA,144107.500,4308.4683,N,07726.4133,W,1,06,1.66,144.7,M,-34.4,M,,*54
$GPRMC,144107.500,A,4308.4683,N,07726.4133,W,13.93,278.94,220719,,,A*4E
$GPRMC,144108.000,A,4308.4684,N,07726.4161,W,15.02,278.74,220719,,,A*44
$GPGGA,144106.250,4308.4684,N,07726.4177,W,1,06,1.66,144.2,M,-34.4,M,,*55
$GPGGA,144106.750,4308.4687,N,07726.4208,W,1,06,1.66,144.0,M,-34.4,M,,*5A
$GPRMC,144106.750,A,4308.4687,N,07726.4208,W,17.13,276.68,220716,1.39,143.8,M,-34.4,M,,*55
$GPGGA,144107.500,4308.4678,N,07726.4253,W,1,06,1.66,143.5,M,-34.4,M,,*50
$GPRMC,144107.500,A,4308.4678,N,07726.4253,W,19.66,277.41,220719,,,A*48
$GPRMC,144108.000,A,4308.4678,N,07726.4300,W,21.81,277.30,220719,,,A*41
$GPGGA,144108.250,4308.4679,N,07726.4324,W,1,06,1.39,143.3,M,-34.4,M,,*51
$GPGGA,144108.750,4308.4682,N,07726.4372,W,1,06,1.39,143.2,M,-34.4,M,,*52
$GPRMC,144108.750,A,4308.4682,N,07726.4372,W,24.23,277.78,220719,,,A*42
$GPRMC,144109.250,A,4308.4688,N,07726.4420,W,25.68,277.66,220719,,,A*4D
$GPGGA,144109.500,4308.4691,N,07726.4446,W,1,06,1.39,143.1,M,-34.4,M,,*55
$GPGGA,144110.000,4308.4700,N,07726.4499,W,1,06,1.39,143.3,M,-34.4,M,,*51
$GPRMC,144110.000,A,4308.4700,N,07726.4499,W,27.05,279.49,220719,,,A*4B
$GPRMC,144110.500,A,4308.4707,N,07726.4553,W,27.91,279.23,220719,,,A*4F
$GPGGA,144110.750,4308.4710,N,07726.4582,W,1,06,1.66,143.5,M,-34.4,M,,*55
$GPGGA,144111.250,4308.4717,N,07726.4639,W,1,06,1.66,143.6,M,-34.4,M,,*56
$GPRMC,144111.250,A,4308.4717,N,07726.4639,W,29.13,278.47,22071-34.4,M,,*55
$GPGGA,144112.000,4308.4725,N,07726.4726,W,1,06,1.39,143.8,M,-34.4,M,,*58
$GPRMC,144112.000,A,4308.4725,N,07726.4726,W,29.70,278.60,220719,,,A*4F
$GPRMC,144112.500,A,4308.4731,N,07726.4784,W,30.03,278.38,220719,,,A*46
$GPGGA,144112.750,4308.4734,N,07726.4813,W,1,06,1.66,143.9,M,-34.4,M,,*58
$GPRMC,144112.750,A,4308.4734,N,07726.4813,W,30.34,278.15,22071
$GPGGA,144113.250,4308.4741,N,07726.4871,W,1,06,1.66,143.9,M,-34.4,M,,*5A
$GPRMC,144113.750,A,4308.4746,N,07726.4932,W,31.68,276.93,220719,,,A*40
$GPGGA,144114.000,4308.4749,N,07726.4963,W,1,06,1.39,144.0,M,-34.4,M,,*54
$GPGGA,144114.500,4308.4755,N,07726.5025,W,1,06,1.39,144.1,M,-34.4,M,,*57
$GPRMC,144114.500,A,4308.4755,N,07726.5025,W,32.57,276.66,22071,,,A*49
$GPRMC,144115.000,A,4308.4759,N,07726.5090,W,33.32,275.70,220719,,,A*49
$GPGGA,144115.250,4308.4761,N,07726.5123,W,1,06,1.39,144.1,M,-34.4,M,,*54
$GPGGA,144115.750,4308.4767,N,07726.5190,W,1,06,1.66,144.1,M,-34.4,M,,*55
$GPRMC,144115.750,A,4308.4767,N,07726.5190,W,33.71,275.46,2207106,1.39,144.1,M,-34.4,M,,*5B
$GPGGA,144116.500,4308.4774,N,07726.5290,W,1,06,1.66,144.1,M,-34.4,M,,*50
$GPRMC,144116.500,A,4308.4774,N,07726.5290,W,34.71,275.48,22071,,,A*49
$GPRMC,144117.000,A,4308.4778,N,07726.5357,W,34.92,275.03,220719,,,A*49
$GPGGA,144117.250,4308.4780,N,07726.5391,W,1,06,1.39,144.0,M,-34.4,M,,*53
$GPGGA,144117.750,4308.4782,N,07726.5461,W,1,06,1.66,143.9,M,-34.4,M,,*58
$GPRMC,144117.750,A,4308.4782,N,07726.5461,W,35.21,273.82,22071,,,A*4A
$GPRMC,144118.250,A,4308.4784,N,07726.5529,W,35.40,273.75,220719,,,A*44
$GPGGA,144118.500,4308.4786,N,07726.5564,W,1,06,1.66,143.9,M,-34.4,M,,*50
$GPGGA,144119.000,4308.4789,N,07726.5635,W,1,06,1.39,143.8,M,-34.4,M,,*57
$GPRMC,144119.000,A,4308.4789,N,07726.5635,W,35.67,273.59,22071,,,A*4A
$GPRMC,144119.500,A,4308.4792,N,07726.5707,W,36.55,273.75,220719,,,A*49
$GPGGA,144119.750,4308.4794,N,07726.5744,W,1,06,1.66,143.8,M,-34.4,M,,*54
$GPGGA,144120.250,4308.4797,N,07726.5815,W,1,06,1.39,143.9,M,-34.4,M,,*58
$GPRMC,144120.250,A,4308.4797,N,07726.5815,W,38.02,273.03,22071,M,-34.4,M,,*5D
$GPGGA,144121.000,4308.4803,N,07726.5928,W,1,06,1.39,143.8,M,-34.4,M,,*52
$GPRMC,144121.000,A,4308.4803,N,07726.5928,W,38.56,273.60,22071,,,A*4A
$GPRMC,144121.500,A,4308.4806,N,07726.6003,W,38.94,273.43,220719,,,A*46
$GPGGA,144121.750,4308.4807,N,07726.6041,W,1,06,1.66,143.7,M,-34.4,M,,*54
$GPGGA,144122.250,4308.4811,N,07726.6116,W,1,06,1.39,143.6,M,-34.4,M,,*5D
$GPRMC,144122.250,A,4308.4811,N,07726.6116,W,39.29,273.54,220719,,,A*45
$GPRMC,144122.750,A,4308.4814,N,07726.6192,W,39.74,273.11,220719,,,A*40
$GPGGA,144123.000,4308.4815,N,07726.6230,W,1,06,1.39,143.6,M,-34.4,M,,*58
$GPGGA,144123.500,4308.4818,N,07726.6307,W,1,06,1.39,143.6,M,-34.4,M,,*55
$GPRMC,144123.500,A,4308.4818,N,07726.6307,W,40.36,272.10,220719,,,A*4C
$GPRMC,144124.000,A,4308.4819,N,07726.6385,W,40.49,271.48,220719,,,A*43
$GPGGA,144124.250,4308.4819,N,07726.6424,W,1,06,1.66,143.5,M,-34.4,M,,*5E
$GPGGA,144124.750,4308.4820,N,07726.6501,W,1,06,1.66,143.6,M,-34.4,M,,*54
$GPRMC,144124.750,A,4308.4820,N,07726.6501,W,40.99,269.83,22071,1,06,1.39,143.7,M,-34.4,M,,*59
$GPGGA,144125.500,4308.4819,N,07726.6618,W,1,06,1.66,143.9,M,-34.4,M,,*5C
$GPRMC,144125.500,A,4308.4819,N,07726.6618,W,40.97,267.87,22071,,,A*41
$GPRMC,144126.000,A,4308.4816,N,07726.6695,W,40.77,266.92,220719,,,A*46
$GPGGA,144126.250,4308.4815,N,07726.6733,W,1,06,1.39,144.2,M,-34.4,M,,*5F
$GPGGA,144126.750,4308.4811,N,07726.6808,W,1,06,1.66,144.4,M,-34.4,M,,*55
$GPRMC,144126.750,A,4308.4811,N,07726.6808,W,40.36,265.67,220719,,,A*45
$GPRMC,144127.250,A,4308.4806,N,07726.6883,W,40.17,265.26,220719,,,A*42
$GPGGA,144127.500,4308.4804,N,07726.6920,W,1,06,1.66,144.8,M,-34.4,M,,*50
$GPGGA,144128.000,4308.4800,N,07726.6995,W,1,06,1.39,145.1,M,-34.4,M,,*52
$GPRMC,144128.000,A,4308.4800,N,07726.6995,W,39.46,265.20,220719,,,A*46
$GPRMC,144128.500,A,4308.4796,N,07726.7068,W,38.95,265.02,220719,,,A*46
$GPGGA,144128.750,4308.4794,N,07726.7105,W,1,06,1.66,145.5,M,-34.4,M,,*5C
$GPGGA,144129.250,4308.4790,N,07726.7178,W,1,06,1.39,145.7,M,-34.4,M,,*5E
$GPRMC,144129.250,A,4308.4790,N,07726.7178,W,38.34,265.63,220714.4,M,,*59
$GPGGA,144130.000,4308.4786,N,07726.7286,W,1,06,1.39,146.1,M,-34.4,M,,*51
$GPRMC,144130.000,A,4308.4786,N,07726.7286,W,37.94,265.75,22071,,,A*47
$GPRMC,144130.500,A,4308.4783,N,07726.7359,W,37.95,265.78,220719,,,A*48
$GPGGA,144130.750,4308.4782,N,07726.7395,W,1,06,1.66,146.6,M,-34.4,M,,*59
$GPGGA,144131.250,4308.4778,N,07726.7468,W,1,06,1.66,146.8,M,-34.4,M,,*53
$GPRMC,144131.250,A,4308.4778,N,07726.7468,W,38.09,265.68,220719,,,A*41
$GPRMC,144131.750,A,4308.4775,N,07726.7540,W,38.14,265.65,220719,,,A*43
$GPGGA,144132.000,4308.4773,N,07726.7577,W,1,06,1.39,147.2,M,-34.4,M,,*52
$GPGGA,144132.500,4308.4769,N,07726.7649,W,1,06,1.66,147.5,M,-34.4,M,,*5F
$GPRMC,144132.500,A,4308.4769,N,07726.7649,W,37.84,265.39,22071,,,A*4F
$GPRMC,144133.000,A,4308.4765,N,07726.7720,W,37.79,265.01,220719,,,A*40
$GPGGA,144133.250,4308.4762,N,07726.7756,W,1,06,1.39,148.0,M,-34.4,M,,*58
$GPGGA,144133.750,4308.4759,N,07726.7829,W,1,06,1.66,148.2,M,-34.4,M,,*5A
$GPRMC,144133.750,A,4308.4759,N,07726.7829,W,37.99,265.75,22071,1.39,148.3,M,-34.4,M,,*51
$GPGGA,144134.500,4308.4754,N,07726.7938,W,1,06,1.39,148.6,M,-34.4,M,,*58
$GPRMC,144134.500,A,4308.4754,N,07726.7938,W,37.78,266.24,22071,,,A*42
$GPRMC,144135.000,A,4308.4752,N,07726.8010,W,37.55,266.77,220719,,,A*45
$GPGGA,144135.250,4308.4750,N,07726.8046,W,1,06,1.39,148.9,M,-34.4,M,,*5F
$GPGGA,144135.750,4308.4746,N,07726.8116,W,1,06,1.39,149.3,M,-34.4,M,,*52
$GPRMC,144135.750,A,4308.4746,N,07726.8116,W,37.20,265.50,22071,,,A*41
$GPRMC,144136.250,A,4308.4741,N,07726.8186,W,36.71,265.03,220719,,,A*4A
$GPGGA,144136.500,4308.4738,N,07726.8221,W,1,06,1.39,149.7,M,-34.4,M,,*5C
$GPGGA,144137.000,4308.4733,N,07726.8290,W,1,06,1.39,150.0,M,-34.4,M,,*56
$GPRMC,144137.000,A,4308.4733,N,07726.8290,W,36.63,264.75,22071,,,A*4E
$GPRMC,144137.500,A,4308.4728,N,07726.8360,W,37.03,264.44,220719,,,A*4A
$GPGGA,144137.750,4308.4726,N,07726.8395,W,1,06,1.66,150.3,M,-34.4,M,,*5D
$GPGGA,144138.250,4308.4720,N,07726.8465,W,1,06,1.39,150.6,M,-34.4,M,,*56
$GPRMC,144138.250,A,4308.4720,N,07726.8465,W,37.05,263.50,22071M,-34.4,M,,*53
$GPGGA,144139.000,4308.4712,N,07726.8569,W,1,06,1.39,151.0,M,-34.4,M,,*5B
$GPRMC,144139.000,A,4308.4712,N,07726.8569,W,36.78,263.93,220719,,,A*47
$GPRMC,144139.500,A,4308.4707,N,07726.8639,W,36.67,263.80,220719,,,A*4C
$GPGGA,144139.750,4308.4704,N,07726.8675,W,1,06,1.66,151.5,M,-34.4,M,,*5F
$GPGGA,144140.250,4308.4699,N,07726.8744,W,1,06,1.66,151.8,M,-34.4,M,,*5F
$GPRMC,144140.250,A,4308.4699,N,07726.8744,W,36.42,263.97,2207106,1.66,151.9,M,-34.4,M,,*5C
$GPGGA,144141.000,4308.4692,N,07726.8847,W,1,06,1.39,152.2,M,-34.4,M,,*5D
$GPRMC,144141.000,A,4308.4692,N,07726.8847,W,36.03,264.80,22071,,,A*49
$GPRMC,144141.500,A,4308.4688,N,07726.8914,W,35.76,265.61,220719,,,A*4F
$GPGGA,144141.750,4308.4686,N,07726.8948,W,1,06,1.66,152.7,M,-34.4,M,,*5B
$GPGGA,144142.250,4308.4682,N,07726.9015,W,1,06,1.66,153.0,M,-34.4,M,,*5F
$GPRMC,144142.250,A,4308.4682,N,07726.9015,W,35.23,265.74,22071,,,A*49
$GPRMC,144142.750,A,4308.4678,N,07726.9080,W,34.92,265.64,220719,,,A*4F
$GPGGA,144143.000,4308.4676,N,07726.9113,W,1,06,1.39,153.5,M,-34.4,M,,*5A
$GPGGA,144143.500,4308.4671,N,07726.9179,W,1,06,1.66,153.8,M,-34.4,M,,*53
$GPRMC,144143.500,A,4308.4671,N,07726.9179,W,34.81,264.98,22071,,,A*47
$GPRMC,144144.000,A,4308.4666,N,07726.9245,W,35.30,264.84,220719,,,A*49
$GPGGA,144144.250,4308.4664,N,07726.9278,W,1,06,1.66,154.3,M,-34.4,M,,*5C
$GPGGA,144144.750,4308.4659,N,07726.9346,W,1,06,1.66,154.6,M,-34.4,M,,*5E
$GPRMC,144144.750,A,4308.4659,N,07726.9346,W,36.39,264.34,220716,1.39,154.8,M,-34.4,M,,*5C
$GPGGA,144145.500,4308.4652,N,07726.9451,W,1,06,1.66,155.0,M,-34.4,M,,*55
$GPRMC,144145.500,A,4308.4652,N,07726.9451,W,37.23,264.38,220719,,,A*4E
$GPRMC,144146.000,A,4308.4646,N,07726.9521,W,37.35,264.30,220719,,,A*44
$GPGGA,144146.250,4308.4644,N,07726.9557,W,1,06,1.66,155.5,M,-34.4,M,,*51
$GPGGA,144146.750,4308.4638,N,07726.9628,W,1,06,1.66,155.8,M,-34.4,M,,*59
$GPRMC,144146.750,A,4308.4638,N,07726.9628,W,37.95,264.20,220719,,,A*4E
$GPRMC,144147.250,A,4308.4632,N,07726.9700,W,38.50,264.24,220719,,,A*49
$GPGGA,144147.500,4308.4629,N,07726.9737,W,1,06,1.66,156.3,M,-34.4,M,,*58
$GPGGA,144148.000,4308.4624,N,07726.9811,W,1,06,1.39,156.6,M,-34.4,M,,*5B
$GPRMC,144148.000,A,4308.4624,N,07726.9811,W,38.93,264.57,220719,,,A*42
$GPRMC,144148.500,A,4308.4618,N,07726.9885,W,38.98,264.78,220719,,,A*43
$GPGGA,144148.750,4308.4616,N,07726.9923,W,1,06,1.66,157.0,M,-34.4,M,,*55
$GPGGA,144149.250,4308.4610,N,07726.9997,W,1,06,1.66,157.3,M,-34.4,M,,*5B
$GPRMC,144149.250,A,4308.4610,N,07726.9997,W,39.04,265.10,220711.66,157.5,M,-34.4,M,,*5E
$GPGGA,144150.000,4308.4603,N,07727.0108,W,1,06,1.39,157.7,M,-34.4,M,,*5E
$GPRMC,144150.000,A,4308.4603,N,07727.0108,W,38.72,264.98,22071,,,A*4B
$GPRMC,144150.500,A,4308.4598,N,07727.0181,W,38.53,265.10,220719,,,A*4C
$GPGGA,144150.750,4308.4596,N,07727.0218,W,1,06,1.66,158.1,M,-34.4,M,,*52
$GPGGA,144151.250,4308.4592,N,07727.0291,W,1,06,1.39,158.3,M,-34.4,M,,*5B
$GPRMC,144151.250,A,4308.4592,N,07727.0291,W,38.22,265.70,22071,,,A*47
$GPRMC,144151.750,A,4308.4590,N,07727.0364,W,37.69,267.06,220719,,,A*48
$GPGGA,144152.000,4308.4588,N,07727.0399,W,1,06,1.39,158.7,M,-34.4,M,,*59
$GPGGA,144152.500,4308.4587,N,07727.0471,W,1,06,1.66,158.8,M,-34.4,M,,*57
$GPRMC,144152.500,A,4308.4587,N,07727.0471,W,37.44,268.38,22071,,,A*44
$GPRMC,144153.000,A,4308.4586,N,07727.0542,W,37.28,268.91,220719,,,A*49
$GPGGA,144153.250,4308.4586,N,07727.0578,W,1,06,1.66,158.9,M,-34.4,M,,*5C
$GPGGA,144153.750,4308.4586,N,07727.0648,W,1,06,1.66,159.0,M,-34.4,M,,*51
$GPRMC,144153.750,A,4308.4586,N,07727.0648,W,37.11,269.84,2207106,1.39,159.1,M,-34.4,M,,*5F
$GPGGA,144154.500,4308.4588,N,07727.0755,W,1,07,1.63,159.0,M,-34.4,M,,*56
$GPRMC,144154.500,A,4308.4588,N,07727.0755,W,36.55,271.47,22071,,,A*49
$GPRMC,144155.000,A,4308.4592,N,07727.0824,W,36.04,273.04,220719,,,A*4E
$GPGGA,144155.250,4308.4594,N,07727.0859,W,1,07,1.63,159.1,M,-34.4,M,,*5A
$GPGGA,144155.750,4308.4600,N,07727.0928,W,1,07,1.63,159.2,M,-34.4,M,,*55
$GPRMC,144155.750,A,4308.4600,N,07727.0928,W,35.73,275.51,22071,,,A*4C
$GPRMC,144156.250,A,4308.4605,N,07727.0996,W,35.66,275.60,220719,,,A*4C
$GPGGA,144156.500,4308.4608,N,07727.1030,W,1,07,1.63,159.6,M,-34.4,M,,*5C
$GPGGA,144157.000,4308.4614,N,07727.1097,W,1,07,1.35,159.8,M,-34.4,M,,*55
$GPRMC,144157.000,A,4308.4614,N,07727.1097,W,35.20,277.10,22071,,,A*44
$GPRMC,144157.500,A,4308.4621,N,07727.1164,W,36.16,278.28,220719,,,A*48
$GPGGA,144157.750,4308.4624,N,07727.1198,W,1,07,1.63,159.8,M,-34.4,M,,*59
$GPGGA,144158.250,4308.4632,N,07727.1267,W,1,07,1.35,159.7,M,-34.4,M,,*5B
$GPRMC,144158.250,A,4308.4632,N,07727.1267,W,35.85,278.73,22071,1.63,159.7,M,-34.4,M,,*5E
$GPGGA,144159.000,4308.4642,N,07727.1372,W,1,07,1.63,159.6,M,-34.4,M,,*5D
$GPRMC,144159.000,A,4308.4642,N,07727.1372,W,35.39,278.86,220719,,,A*49
$GPRMC,144159.500,A,4308.4649,N,07727.1442,W,35.16,279.07,220719,,,A*46
$GPGGA,144159.750,4308.4652,N,07727.1476,W,1,07,1.63,159.4,M,-34.4,M,,*5F
$GPGGA,144200.250,4308.4660,N,07727.1543,W,1,07,1.63,159.3,M,-34.4,M,,*54
$GPRMC,144200.250,A,4308.4660,N,07727.1543,W,34.88,279.35,22071,159.3,M,-34.4,M,,*52
$GPGGA,144201.000,4308.4669,N,07727.1644,W,1,07,1.63,159.3,M,-34.4,M,,*5F
$GPRMC,144201.000,A,4308.4669,N,07727.1644,W,34.66,278.75,22071,,,A*49
$GPRMC,144201.500,A,4308.4676,N,07727.1710,W,34.45,278.74,220719,,,A*42
$GPGGA,144201.750,4308.4680,N,07727.1743,W,1,07,1.63,159.0,M,-34.4,M,,*5F
$GPGGA,144202.250,4308.4686,N,07727.1808,W,1,07,1.63,158.8,M,-34.4,M,,*56
$GPRMC,144202.250,A,4308.4686,N,07727.1808,W,33.95,278.81,22071,,,A*4A
$GPRMC,144202.750,A,4308.4692,N,07727.1872,W,33.68,278.97,220719,,,A*42
$GPGGA,144203.000,4308.4696,N,07727.1905,W,1,07,1.63,158.5,M,-34.4,M,,*50
$GPGGA,144203.500,4308.4703,N,07727.1970,W,1,07,1.63,158.4,M,-34.4,M,,*5B
$GPRMC,144203.500,A,4308.4703,N,07727.1970,W,34.09,278.90,22071,,,A*49
$GPRMC,144204.000,A,4308.4711,N,07727.2035,W,34.29,279.31,220719,,,A*4B
$GPGGA,144204.250,4308.4714,N,07727.2067,W,1,07,1.63,158.2,M,-34.4,M,,*52
$GPGGA,144204.750,4308.4722,N,07727.2133,W,1,07,1.63,158.0,M,-34.4,M,,*50
$GPRMC,144204.750,A,4308.4722,N,07727.2133,W,34.83,279.11,2207107,1.35,158.0,M,-34.4,M,,*57
$GPRMC,144205.500,A,4308.4732,N,07727.2232,W,35.20,278.58,220719,,,A*4D
$GPGGA,144205.750,4308.4736,N,07727.2265,W,1,07,1.63,157.8,M,-34.4,M,,*53
$GPGGA,144206.250,4308.4744,N,07727.2332,W,1,07,1.63,157.7,M,-34.4,M,,*5C
$GPRMC,144206.250,A,4308.4744,N,07727.2332,W,35.89,278.90,22071,,,A*4B
$GPRMC,144206.750,A,4308.4752,N,07727.2399,W,36.01,279.10,220719,,,A*42
$GPGGA,144207.000,4308.4756,N,07727.2433,W,1,07,1.63,157.6,M,-34.4,M,,*5E
$GPRMC,144207.500,A,4308.4765,N,07727.2502,W,36.68,279.81,220719,,,A*43
$GPGGA,144207.750,4308.4770,N,07727.2537,W,1,07,1.63,157.4,M,-34.4,M,,*5F
$GPGGA,144208.250,4308.4779,N,07727.2607,W,1,07,1.63,157.2,M,-34.4,M,,*5A
$GPRMC,144208.250,A,4308.4779,N,07727.2607,W,37.04,279.61,22071,,,A*40
$GPRMC,144208.750,A,4308.4787,N,07727.2678,W,37.19,279.39,220719,,,A*4D
$GPGGA,144209.000,4308.4791,N,07727.2714,W,1,07,1.35,157.1,M,-34.4,M,,*59
$GPGGA,144209.500,4308.4800,N,07727.2785,W,1,07,1.63,156.9,M,-34.4,M,,*59
$GPRMC,144209.500,A,4308.4800,N,07727.2785,W,37.37,280.02,220711.63,156.9,M,-34.4,M,,*5B
$GPGGA,144210.250,4308.4813,N,07727.2893,W,1,07,1.63,156.9,M,-34.4,M,,*59
$GPRMC,144210.250,A,4308.4813,N,07727.2893,W,37.92,279.94,22071,,,A*4C
$GPRMC,144210.750,A,4308.4821,N,07727.2965,W,38.23,280.09,220719,,,A*47
$GPGGA,144211.000,4308.4826,N,07727.3001,W,1,07,1.63,156.9,M,-34.4,M,,*5B
$GPGGA,144211.500,4308.4834,N,07727.3074,W,1,07,1.63,156.9,M,-34.4,M,,*5F
$GPRMC,144211.500,A,4308.4834,N,07727.3074,W,38.81,280.02,22071,,,A*4E
$GPRMC,144212.000,A,4308.4842,N,07727.3147,W,38.86,279.50,220719,,,A*4E
$GPGGA,144212.250,4308.4846,N,07727.3184,W,1,07,1.63,157.1,M,-34.4,M,,*5C
$GPGGA,144212.750,4308.4854,N,07727.3257,W,1,07,1.63,157.0,M,-34.4,M,,*56
$GPRMC,144212.750,A,4308.4854,N,07727.3257,W,38.61,279.70,22071,,,A*42
$GPRMC,144213.250,A,4308.4863,N,07727.3329,W,38.53,279.72,220719,,,A*49
$GPGGA,144213.500,4308.4867,N,07727.3366,W,1,07,1.63,157.1,M,-34.4,M,,*52
$GPGGA,144214.000,4308.4876,N,07727.3437,W,1,07,1.63,157.1,M,-34.4,M,,*53
$GPRMC,144214.000,A,4308.4876,N,07727.3437,W,38.07,279.60,220711.63,157.1,M,-34.4,M,,*5D
$GPRMC,144214.750,A,4308.4890,N,07727.3544,W,37.87,279.34,220719,,,A*4E
$GPGGA,144215.000,4308.4894,N,07727.3579,W,1,07,1.35,157.0,M,-34.4,M,,*57
$GPGGA,144215.500,4308.4901,N,07727.3650,W,1,07,1.63,157.0,M,-34.4,M,,*54
$GPRMC,144215.500,A,4308.4901,N,07727.3650,W,37.76,278.23,22071,,,A*4E
$GPRMC,144216.000,A,4308.4908,N,07727.3721,W,37.46,278.36,220719,,,A*41
$GPGGA,144216.250,4308.4912,N,07727.3756,W,1,07,1.63,157.0,M,-34.4,M,,*50
$GPRMC,144216.750,A,4308.4920,N,07727.3826,W,37.05,278.44,220719,,,A*43
$GPGGA,144217.000,4308.4924,N,07727.3861,W,1,07,1.35,157.0,M,-34.4,M,,*5B
$GPGGA,144217.500,4308.4932,N,07727.3930,W,1,07,1.63,157.0,M,-34.4,M,,*5F
$GPRMC,144217.500,A,4308.4932,N,07727.3930,W,36.80,278.89,220719,,,A*4D
$GPRMC,144218.000,A,4308.4940,N,07727.3999,W,36.69,278.61,220719,,,A*40
$GPGGA,144218.250,4308.4944,N,07727.4034,W,1,07,1.63,157.0,M,-34.4,M,,*59
$GPGGA,144218.750,4308.4952,N,07727.4104,W,1,07,1.63,157.0,M,-34.4,M,,*59
$GPRMC,144218.750,A,4308.4952,N,07727.4104,W,36.65,278.72,2207107,1.35,157.0,M,-34.4,M,,*52
$GPGGA,144219.500,4308.4964,N,07727.4208,W,1,07,1.63,157.1,M,-34.4,M,,*54
$GPRMC,144219.500,A,4308.4964,N,07727.4208,W,36.73,278.72,22071,,,A*4F
$GPRMC,144220.000,A,4308.4972,N,07727.4277,W,36.76,278.98,220719,,,A*4E
$GPGGA,144220.250,4308.4976,N,07727.4313,W,1,07,1.63,157.1,M,-34.4,M,,*54
$GPGGA,144220.750,4308.4985,N,07727.4384,W,1,07,1.63,157.3,M,-34.4,M,,*51
$GPRMC,144220.750,A,4308.4985,N,07727.4384,W,37.00,279.09,22071,,,A*40
$GPRMC,144221.250,A,4308.4994,N,07727.4453,W,36.80,279.16,220719,,,A*4E
$GPGGA,144221.500,4308.4998,N,07727.4488,W,1,07,1.63,157.8,M,-34.4,M,,*5B
$GPGGA,144222.000,4308.5005,N,07727.4558,W,1,07,1.63,158.1,M,-34.4,M,,*5B
$GPRMC,144222.000,A,4308.5005,N,07727.4558,W,36.89,278.73,220719,,,A*4B
$GPRMC,144222.500,A,4308.5014,N,07727.4630,W,37.13,278.66,220719,,,A*45
$GPGGA,144222.750,4308.5018,N,07727.4665,W,1,07,1.63,158.5,M,-34.4,M,,*5C
$GPGGA,144223.250,4308.5025,N,07727.4736,W,1,07,1.63,158.8,M,-34.4,M,,*5C
$GPRMC,144223.250,A,4308.5025,N,07727.4736,W,37.19,278.15,220719.0,M,-34.4,M,,*5B
$GPRMC,144224.000,A,4308.5036,N,07727.4842,W,37.08,278.29,220719,,,A*4C
$GPGGA,144224.250,4308.5040,N,07727.4877,W,1,07,1.35,159.5,M,-34.4,M,,*5D
$GPGGA,144224.750,4308.5046,N,07727.4949,W,1,07,1.63,159.6,M,-34.4,M,,*52
$GPRMC,144224.750,A,4308.5046,N,07727.4949,W,37.18,277.73,220719,,,A*42
$GPRMC,144225.250,A,4308.5053,N,07727.5021,W,37.42,277.70,220719,,,A*48
$GPGGA,144225.500,4308.5057,N,07727.5056,W,1,07,1.63,159.8,M,-34.4,M,,*5C
$GPRMC,144226.000,A,4308.5066,N,07727.5128,W,37.45,279.31,220719,,,A*4E
$GPGGA,144226.250,4308.5071,N,07727.5164,W,1,07,1.63,159.9,M,-34.4,M,,*58
$GPGGA,144226.750,4308.5080,N,07727.5235,W,1,07,1.63,160.2,M,-34.4,M,,*55
$GPRMC,144226.750,A,4308.5080,N,07727.5235,W,37.51,280.38,22071,,,A*41
$GPRMC,144227.250,A,4308.5089,N,07727.5305,W,37.49,280.42,220719,,,A*4A
$GPGGA,144227.500,4308.5094,N,07727.5340,W,1,07,1.63,160.5,M,-34.4,M,,*52
$GPRMC,144228.000,A,4308.5103,N,07727.5410,W,37.48,280.80,220719,,,A*4D
$GPGGA,144228.250,4308.5108,N,07727.5444,W,1,07,1.63,161.0,M,-34.4,M,,*5C
$GPGGA,144228.750,4308.5116,N,07727.5513,W,1,07,1.35,161.1,M,-34.4,M,,*57
$GPRMC,144228.750,A,4308.5116,N,07727.5513,W,37.35,279.94,22071,,,A*40
$GPRMC,144229.250,A,4308.5124,N,07727.5583,W,37.30,279.70,220719,,,A*43
$GPGGA,144229.500,4308.5128,N,07727.5618,W,1,07,1.35,161.0,M,-34.4,M,,*55
$GPGGA,144230.000,4308.5137,N,07727.5687,W,1,07,1.35,161.0,M,-34.4,M,,*50
$GPRMC,144230.000,A,4308.5137,N,07727.5687,W,36.90,279.19,220711.0,M,-34.4,M,,*58
$GPRMC,144230.250,A,4308.5142,N,07727.5721,W,36.73,279.20,2207145
$GPGGA,144230.750,4308.5150,N,07727.5789,W,1,07,1.63,160.9,M,-34.4,M,,*57
$GPGGA,144231.250,4308.5158,N,07727.5857,W,1,07,1.63,160.9,M,-34.4,M,,*57
$GPRMC,144231.250,A,4308.5158,N,07727.5857,W,36.11,278.68,22071,,,A*4F
$GPRMC,144231.750,A,4308.5165,N,07727.5924,W,36.03,278.53,220719,,,A*4A
$GPGGA,144232.000,4308.5169,N,07727.5958,W,1,07,1.35,160.9,M,-34.4,M,,*5C
$GPRMC,144232.500,A,4308.5177,N,07727.6026,W,35.72,278.47,220719,,,A*45
$GPGGA,144232.750,4308.5181,N,07727.6060,W,1,07,1.63,160.8,M,-34.4,M,,*5B
$GPRMC,144233.250,A,4308.5188,N,07727.6127,W,35.52,278.18,220719,,,A*4E
$GPGGA,144233.500,4308.5191,N,07727.6160,W,1,07,1.63,160.8,M,-34.4,M,,*5D
$GPRMC,144234.000,A,4308.5197,N,07727.6226,W,35.19,277.74,220719,,,A*48
$GPGGA,144234.250,4308.5200,N,07727.6259,W,1,07,1.63,160.8,M,-34.4,M,,*5A
$GPGGA,144234.750,4308.5206,N,07727.6323,W,1,07,1.63,160.7,M,-34.4,M,,*5A
$GPRMC,144234.750,A,4308.5206,N,07727.6323,W,34.71,276.91,220710.7,M,-34.4,M,,*5F
$GPRMC,144235.500,A,4308.5216,N,07727.6421,W,34.16,277.56,220719,,,A*49
$GPGGA,144235.750,4308.5219,N,07727.6453,W,1,07,1.63,160.6,M,-34.4,M,,*54
$GPRMC,144235.750,A,4308.5219,N,07727.6453,W,33.99,277.64,220719,,,A*45
$GPGGA,144236.250,4308.5225,N,07727.6516,W,1,07,1.63,160.6,M,-34.4,M,,*5D
$GPRMC,144236.250,A,4308.5225,N,07727.6516,W,33.88,277.92,220714C
$GPGGA,144236.750,4308.5232,N,07727.6580,W,1,07,1.63,160.5,M,-34.4,M,,*52
$GPRMC,144237.250,A,4308.5238,N,07727.6643,W,33.27,276.98,220719,,,A*45
$GPGGA,144237.500,4308.5241,N,07727.6674,W,1,07,1.63,160.5,M,-34.4,M,,*58
$GPGGA,144238.000,4308.5247,N,07727.6737,W,1,07,1.35,160.4,M,-34.4,M,,*50
$GPRMC,144238.000,A,4308.5247,N,07727.6737,W,33.18,276.82,220719,,,A*40
$GPRMC,144238.500,A,4308.5251,N,07727.6800,W,33.37,276.10,220719,,,A*4F
$GPGGA,144238.750,4308.5253,N,07727.6832,W,1,07,1.63,160.4,M,-34.4,M,,*5E
$GPGGA,144239.250,4308.5257,N,07727.6896,W,1,07,1.63,160.3,M,-34.4,M,,*57
$GPRMC,144239.250,A,4308.5257,N,07727.6896,W,33.13,274.36,22071160.2,M,-34.4,M,,*5A
$GPRMC,144240.000,A,4308.5264,N,07727.6990,W,32.88,274.51,220719,,,A*49
$GPGGA,144240.250,4308.5265,N,07727.7021,W,1,07,1.63,160.0,M,-34.4,M,,*5E
$GPRMC,144240.250,A,4308.5265,N,07727.7021,W,32.69,274.39,220719,,,A*4C
$GPGGA,144240.750,4308.5268,N,07727.7083,W,1,07,1.63,159.9,M,-34.4,M,,*5D
$GPGGA,144241.250,4308.5271,N,07727.7144,W,1,07,1.63,159.8,M,-34.4,M,,*5A
$GPRMC,144241.250,A,4308.5271,N,07727.7144,W,31.89,273.72,22071,,,A*4F
$GPRMC,144241.750,A,4308.5273,N,07727.7204,W,31.60,273.21,220719,,,A*4E
$GPGGA,144242.000,4308.5274,N,07727.7234,W,1,07,1.63,159.8,M,-34.4,M,,*5F
$GPRMC,144242.500,A,4308.5276,N,07727.7293,W,30.95,272.82,220719,,,A*42
$GPGGA,144242.750,4308.5277,N,07727.7323,W,1,07,1.63,159.9,M,-34.4,M,,*58
$GPGGA,144243.250,4308.5279,N,07727.7380,W,1,07,1.63,160.0,M,-34.4,M,,*58
$GPRMC,144243.250,A,4308.5279,N,07727.7380,W,30.08,272.33,22071,,,A*43
$GPRMC,144243.750,A,4308.5280,N,07727.7437,W,29.89,272.13,220719,,,A*48
$GPGGA,144244.000,4308.5281,N,07727.7464,W,1,07,1.63,160.2,M,-34.4,M,,*50
$GPRMC,144244.000,A,4308.5281,N,07727.7464,W,29.73,272.38,22071
$GPGGA,144244.500,4308.5283,N,07727.7517,W,1,07,1.63,160.4,M,-34.4,M,,*54
$GPRMC,144244.500,A,4308.5283,N,07727.7517,W,29.38,272.95,220715
$GPGGA,144245.000,4308.5287,N,07727.7567,W,1,07,1.63,160.3,M,-34.4,M,,*54
$GPRMC,144245.000,A,4308.5287,N,07727.7567,W,25.72,274.26,220718
$GPGGA,144245.500,4308.5289,N,07727.7613,W,1,07,1.63,160.5,M,-34.4,M,,*59
$GPGGA,144246.000,4308.5291,N,07727.7655,W,1,07,1.63,160.8,M,-34.4,M,,*59
$GPRMC,144246.000,A,4308.5291,N,07727.7655,W,22.05,273.09,220710,M,-34.4,M,,*56
$GPRMC,144246.250,A,4308.5292,N,07727.7675,W,21.41,272.96,22071
$GPGGA,144246.750,4308.5294,N,07727.7712,W,1,07,1.63,161.3,M,-34.4,M,,*56
$GPGGA,144247.250,4308.5295,N,07727.7748,W,1,07,1.63,161.5,M,-34.4,M,,*5A
$GPRMC,144247.250,A,4308.5295,N,07727.7748,W,18.49,272.00,22071,,,A*4A
$GPRMC,144247.750,A,4308.5296,N,07727.7782,W,16.99,272.69,220719,,,A*46
$GPGGA,144248.000,4308.5297,N,07727.7797,W,1,07,1.63,161.9,M,-34.4,M,,*5E
$GPRMC,144248.500,A,4308.5302,N,07727.7822,W,15.33,271.93,220719,,,A*42
$GPGGA,144248.750,4308.5303,N,07727.7835,W,1,07,1.63,162.2,M,-34.4,M,,*5F
$GPGGA,144249.250,4308.5306,N,07727.7862,W,1,07,1.63,162.5,M,-34.4,M,,*5B
$GPRMC,144249.250,A,4308.5306,N,07727.7862,W,14.09,271.74,220719,,,A*40
$GPRMC,144249.750,A,4308.5308,N,07727.7890,W,13.83,269.82,220719,,,A*43
$GPGGA,144250.000,4308.5308,N,07727.7904,W,1,07,1.63,162.7,M,-34.4,M,,*59
$GPGGA,144250.500,4308.5310,N,07727.7928,W,1,07,1.63,162.5,M,-34.4,M,,*59
$GPRMC,144250.500,A,4308.5310,N,07727.7928,W,12.25,272.63,22071.3,M,-34.4,M,,*59
$GPRMC,144251.250,A,4308.5314,N,07727.7957,W,9.68,277.06,220719,,,A*75
$GPGGA,144251.500,4308.5316,N,07727.7963,W,1,07,1.63,162.0,M,-34.4,M,,*54
$GPGGA,144252.000,4308.5319,N,07727.7974,W,1,07,1.63,161.7,M,-34.4,M,,*5F
$GPRMC,144252.000,A,4308.5319,N,07727.7974,W,6.97,280.24,220719,,,A*7A
$GPRMC,144252.500,A,4308.5322,N,07727.7983,W,5.38,280.29,220719,,,A*74
$GPGGA,144252.750,4308.5324,N,07727.7987,W,1,07,1.63,161.3,M,-34.4,M,,*5B
$GPRMC,144253.250,A,4308.5327,N,07727.7995,W,3.69,277.61,220719,,,A*73
$GPGGA,144253.500,4308.5328,N,07727.7997,W,1,07,1.35,160.7,M,-34.4,M,,*56
$GPGGA,144254.000,4308.5329,N,07727.8002,W,1,07,1.35,160.3,M,-34.4,M,,*5B
$GPRMC,144254.000,A,4308.5329,N,07727.8002,W,2.78,274.62,220719,,A*74
$GPRMC,144254.500,A,4308.5331,N,07727.8007,W,2.80,274.62,220719,,,A*7A
$GPGGA,144254.750,4308.5332,N,07727.8011,W,1,07,1.35,159.7,M,-34.4,M,,*5F
$GPGGA,144255.250,4308.5334,N,07727.8019,W,1,07,1.35,159.3,M,-34.4,M,,*51
$GPRMC,144255.250,A,4308.5334,N,07727.8019,W,3.95,272.50,220719.0,M,-34.4,M,,*5C
$GPRMC,144255.500,A,4308.5334,N,07727.8025,W,4.41,274.51,220719
$GPGGA,144256.000,4308.5336,N,07727.8035,W,1,07,1.63,158.7,M,-34.4,M,,*5F
$GPGGA,144256.500,4308.5338,N,07727.8047,W,1,07,1.63,158.2,M,-34.4,M,,*54
$GPRMC,144256.500,A,4308.5338,N,07727.8047,W,5.10,278.56,220719,,,A*70
$GPRMC,144257.000,A,4308.5339,N,07727.8060,W,5.73,276.67,220719,,,A*79
$GPGGA,144257.250,4308.5340,N,07727.8067,W,1,07,1.63,157.7,M,-34.4,M,,*50
$GPRMC,144257.750,A,4308.5341,N,07727.8088,W,7.86,273.33,220719,,,A*7E
$GPGGA,144258.000,4308.5342,N,07727.8096,W,1,07,1.35,157.4,M,-34.4,M,,*54
$GPGGA,144258.500,4308.5342,N,07727.8118,W,1,07,1.63,157.2,M,-34.4,M,,*53
$GPRMC,144258.500,A,4308.5342,N,07727.8118,W,11.50,272.64,22071,,,A*42
$GPRMC,144259.000,A,4308.5344,N,07727.8144,W,13.46,272.83,220719,,,A*45
$GPGGA,144259.250,4308.5344,N,07727.8160,W,1,07,1.63,156.9,M,-34.4,M,,*53
$GPGGA,144259.750,4308.5347,N,07727.8196,W,1,07,1.63,156.6,M,-34.4,M,,*53
$GPRMC,144259.750,A,4308.5347,N,07727.8196,W,16.57,275.11,220713,156.4,M,-34.4,M,,*59
$GPRMC,144300.500,A,4308.5351,N,07727.8254,W,18.75,276.30,220719,,,A*4C
$GPGGA,144300.750,4308.5352,N,07727.8274,W,1,07,1.63,156.0,M,-34.4,M,,*53
$GPGGA,144301.250,4308.5356,N,07727.8313,W,1,07,1.63,155.9,M,-34.4,M,,*59
$GPRMC,144301.250,A,4308.5356,N,07727.8313,W,20.20,276.70,22071,,,A*45
$GPRMC,144301.750,A,4308.5359,N,07727.8356,W,21.15,276.64,220719,,,A*4C
$GPGGA,144302.000,4308.5361,N,07727.8377,W,1,07,1.63,155.6,M,-34.4,M,,*54
$GPGGA,144303.000,4308.5369,N,07727.8464,W,1,07,1.63,155.3,M,-34.4,M,,*5D
$GPRMC,144303.000,A,4308.5369,N,07727.8464,W,22.26,277.24,22071,,,A*4F
$GPRMC,144303.500,A,4308.5373,N,07727.8510,W,23.12,277.27,220719,,,A*46
$GPGGA,144303.750,4308.5374,N,07727.8533,W,1,07,1.63,154.9,M,-34.4,M,,*5B
$GPGGA,144304.250,4308.5377,N,07727.8580,W,1,07,1.63,154.7,M,-34.4,M,,*5C
$GPRMC,144304.250,A,4308.5377,N,07727.8580,W,24.22,276.00,220719,,,A*4E
$GPRMC,144304.750,A,4308.5379,N,07727.8628,W,24.91,275.62,220719,,,A*4B
$GPGGA,144305.000,4308.5380,N,07727.8654,W,1,07,1.63,154.4,M,-34.4,M,,*5B
$GPRMC,144305.500,A,4308.5383,N,07727.8704,W,25.90,275.28,220719,,,A*49
$GPGGA,144305.750,4308.5384,N,07727.8730,W,1,07,1.63,154.1,M,-34.4,M,,*5B
$GPGGA,144306.250,4308.5386,N,07727.8782,W,1,07,1.63,154.0,M,-34.4,M,,*57
$GPRMC,144306.250,A,4308.5386,N,07727.8782,W,26.67,274.42,22071,,,A*45
$GPRMC,144306.750,A,4308.5387,N,07727.8835,W,27.65,273.22,220719,,,A*40
$GPGGA,144307.000,4308.5388,N,07727.8862,W,1,07,1.63,154.0,M,-34.4,M,,*5E
$GPRMC,144307.500,A,4308.5388,N,07727.8918,W,28.94,272.47,220719,,,A*44
$GPGGA,144307.750,4308.5388,N,07727.8946,W,1,07,1.63,154.0,M,-34.4,M,,*5B
$GPGGA,144308.250,4308.5389,N,07727.9004,W,1,07,1.63,153.9,M,-34.4,M,,*50
$GPRMC,144308.250,A,4308.5389,N,07727.9004,W,29.58,271.66,22071,,,A*4C
$GPRMC,144308.750,A,4308.5391,N,07727.9062,W,30.66,272.02,220719,,,A*44
$GPGGA,144309.000,4308.5392,N,07727.9092,W,1,07,1.63,153.9,M,-34.4,M,,*53
$GPGGA,144309.500,4308.5393,N,07727.9152,W,1,07,1.63,154.0,M,-34.4,M,,*54
$GPRMC,144309.500,A,4308.5393,N,07727.9152,W,31.34,272.72,22071PRMC,144309.750,A,4308.5394,N,07727.9182,W,31.36,272.68,220719,,,A*47
$GPRMC,144310.250,A,4308.5395,N,07727.9242,W,31.56,272.52,220719,,,A*4B
$GPGGA,144310.500,4308.5395,N,07727.9272,W,1,07,1.63,154.1,M,-34.4,M,,*5A
$GPGGA,144311.000,4308.5396,N,07727.9333,W,1,07,1.63,154.2,M,-34.4,M,,*5A
$GPRMC,144311.000,A,4308.5396,N,07727.9333,W,32.08,271.38,220719,,,A*4E
$GPRMC,144311.500,A,4308.5396,N,07727.9394,W,32.52,270.59,220719,,,A*4F
$GPGGA,144311.750,4308.5396,N,07727.9426,W,1,07,1.63,154.2,M,-34.4,M,,*5B
$GPRMC,144312.250,A,4308.5395,N,07727.9490,W,33.74,269.33,220719,,,A*4F
$GPGGA,144312.500,4308.5395,N,07727.9522,W,1,07,1.63,154.0,M,-34.4,M,,*5B
$GPGGA,144313.000,4308.5396,N,07727.9588,W,1,07,1.63,153.8,M,-34.4,M,,*53
$GPRMC,144313.000,A,4308.5396,N,07727.9588,W,34.33,270.36,22071,,,A*4B
$GPRMC,144313.500,A,4308.5396,N,07727.9654,W,34.44,270.51,220719,,,A*4D
$GPGGA,144313.750,4308.5397,N,07727.9687,W,1,07,1.63,153.0,M,-34.4,M,,*54
$GPRMC,144314.250,A,4308.5398,N,07727.9753,W,34.64,270.57,220719,,,A*44
$GPGGA,144314.500,4308.5398,N,07727.9786,W,1,07,1.63,152.4,M,-34.4,M,,*5E
$GPRMC,144315.000,A,4308.5397,N,07727.9853,W,34.84,269.60,220719,,,A*40
$GPGGA,144315.250,4308.5397,N,07727.9886,W,1,07,1.63,152.2,M,-34.4,M,,*5B
$GPGGA,144315.750,4308.5397,N,07727.9954,W,1,07,1.63,152.0,M,-34.4,M,,*52
$GPRMC,144315.750,A,4308.5397,N,07727.9954,W,35.00,269.94,22071,,,A*42
$GPRMC,144316.250,A,4308.5397,N,07728.0022,W,35.38,270.61,220719,,,A*43
$GPGGA,144316.500,4308.5398,N,07728.0058,W,1,07,1.63,151.9,M,-34.4,M,,*50
$GPRMC,144316.500,A,4308.5398,N,07728.0058,W,35.58,271.07,220710
$GPGGA,144317.000,4308.5399,N,07728.0128,W,1,07,1.35,151.9,M,-34.4,M,,*50
$GPGGA,144317.500,4308.5399,N,07728.0198,W,1,07,1.63,151.6,M,-34.4,M,,*52
$GPRMC,144317.500,A,4308.5399,N,07728.0198,W,35.83,272.16,22071,,,A*4C
$GPRMC,144318.000,A,4308.5398,N,07728.0268,W,36.06,271.34,220719,,,A*46
$GPGGA,144318.250,4308.5397,N,07728.0303,W,1,07,1.63,151.2,M,-34.4,M,,*55
$GPRMC,144318.750,A,4308.5397,N,07728.0372,W,36.58,270.49,220719,,,A*41
$GPGGA,144319.000,4308.5396,N,07728.0407,W,1,07,1.63,150.9,M,-34.4,M,,*5B
$GPGGA,144319.500,4308.5397,N,07728.0480,W,1,07,1.63,150.4,M,-34.4,M,,*5D
$GPRMC,144319.500,A,4308.5397,N,07728.0480,W,36.65,270.70,22071,,,A*49
$GPRMC,144320.000,A,4308.5397,N,07728.0551,W,36.72,271.25,220719,,,A*4C
$GPGGA,144320.250,4308.5397,N,07728.0586,W,1,07,1.63,150.0,M,-34.4,M,,*56
$GPGGA,144320.750,4308.5397,N,07728.0659,W,1,07,1.63,149.9,M,-34.4,M,,*53
$GPRMC,144320.750,A,4308.5397,N,07728.0659,W,36.83,270.95,220719.8,M,-34.4,M,,*5E
$GPRMC,144321.500,A,4308.5399,N,07728.0769,W,37.37,271.00,220719,,,A*48
$GPGGA,144321.750,4308.5398,N,07728.0805,W,1,07,1.63,149.6,M,-34.4,M,,*55
$GPGGA,144322.250,4308.5398,N,07728.0878,W,1,07,1.63,149.7,M,-34.4,M,,*58
$GPRMC,144322.250,A,4308.5398,N,07728.0878,W,37.38,270.54,22071,,,A*48
$GPRMC,144322.750,A,4308.5399,N,07728.0952,W,37.51,270.95,220719,,,A*47
$GPGGA,144323.000,4308.5398,N,07728.0989,W,1,07,1.63,150.0,M,-34.4,M,,*5E
$GPRMC,144323.500,A,4308.5397,N,07728.1063,W,37.77,269.88,220719,,,A*45
$GPGGA,144323.750,4308.5397,N,07728.1100,W,1,07,1.63,150.2,M,-34.4,M,,*59
$GPGGA,144324.250,4308.5396,N,07728.1175,W,1,07,1.63,150.4,M,-34.4,M,,*5E
$GPRMC,144324.250,A,4308.5396,N,07728.1175,W,38.00,269.50,22071,,,A*4D
$GPRMC,144324.750,A,4308.5397,N,07728.1250,W,38.22,270.16,220719,,,A*47
$GPGGA,144325.000,4308.5397,N,07728.1287,W,1,07,1.35,150.5,M,-34.4,M,,*55
$GPGGA,144325.500,4308.5397,N,07728.1361,W,1,07,1.63,150.7,M,-34.4,M,,*58
$GPRMC,144325.500,A,4308.5397,N,07728.1361,W,38.40,270.02,22071M,-34.4,M,,*57
$GPRMC,144325.750,A,4308.5397,N,07728.1399,W,38.38,270.07,220718
$GPGGA,144326.250,4308.5399,N,07728.1474,W,1,07,1.63,150.8,M,-34.4,M,,*5B
$GPGGA,144326.750,4308.5399,N,07728.1549,W,1,07,1.63,150.8,M,-34.4,M,,*51
$GPRMC,144326.750,A,4308.5399,N,07728.1549,W,38.12,270.49,220719,,,A*4D
$GPRMC,144327.250,A,4308.5400,N,07728.1623,W,37.86,271.04,220719,,,A*4B
$GPGGA,144327.500,4308.5401,N,07728.1661,W,1,07,1.63,150.6,M,-34.4,M,,*56
$GPRMC,144328.000,A,4308.5402,N,07728.1735,W,37.89,271.08,220719,,,A*44
$GPGGA,144328.250,4308.5404,N,07728.1772,W,1,07,1.63,150.2,M,-34.4,M,,*59
$GPGGA,144328.750,4308.5405,N,07728.1849,W,1,07,1.63,149.8,M,-34.4,M,,*58
$GPRMC,144328.750,A,4308.5405,N,07728.1849,W,38.41,270.87,22071,,,A*48
$GPRMC,144329.250,A,4308.5406,N,07728.1924,W,38.40,270.68,220719,,,A*45
$GPGGA,144329.500,4308.5406,N,07728.1962,W,1,07,1.63,149.7,M,-34.4,M,,*5A
$GPGGA,144330.000,4308.5407,N,07728.2037,W,1,07,1.63,149.7,M,-34.4,M,,*5C
$GPRMC,144330.000,A,4308.5407,N,07728.2037,W,38.07,270.59,2207149.8,M,-34.4,M,,*5C
$GPRMC,144330.250,A,4308.5408,N,07728.2074,W,38.03,270.94,22071
$GPGGA,144330.750,4308.5409,N,07728.2148,W,1,07,1.63,149.9,M,-34.4,M,,*57
$GPGGA,144331.250,4308.5410,N,07728.2223,W,1,07,1.63,150.0,M,-34.4,M,,*54
$GPRMC,144331.250,A,4308.5410,N,07728.2223,W,38.01,270.68,22071,,,A*41
$GPRMC,144331.750,A,4308.5412,N,07728.2298,W,38.45,270.37,220719,,,A*4C
$GPGGA,144332.000,4308.5413,N,07728.2335,W,1,07,1.63,150.1,M,-34.4,M,,*54
$GPRMC,144332.500,A,4308.5415,N,07728.2411,W,38.76,271.02,220719,,,A*4F
$GPGGA,144332.750,4308.5416,N,07728.2449,W,1,07,1.63,150.2,M,-34.4,M,,*5C
$GPGGA,144333.250,4308.5418,N,07728.2525,W,1,07,1.63,150.2,M,-34.4,M,,*5D
$GPRMC,144333.250,A,4308.5418,N,07728.2525,W,39.04,271.55,22071,,,A*41
$GPRMC,144333.750,A,4308.5421,N,07728.2601,W,39.21,271.92,220719,,,A*47
$GPGGA,144334.000,4308.5423,N,07728.2639,W,1,07,1.63,149.9,M,-34.4,M,,*58
$GPGGA,144334.500,4308.5425,N,07728.2714,W,1,07,1.63,149.8,M,-34.4,M,,*54
$GPRMC,144334.500,A,4308.5425,N,07728.2714,W,39.11,270.99,220719.6,M,-34.4,M,,*5C
$GPRMC,144334.750,A,4308.5426,N,07728.2752,W,38.90,271.33,22071
$GPGGA,144335.250,4308.5429,N,07728.2827,W,1,07,1.63,149.7,M,-34.4,M,,*5B
$GPGGA,144335.750,4308.5431,N,07728.2902,W,1,07,1.63,149.7,M,-34.4,M,,*51
$GPRMC,144335.750,A,4308.5431,N,07728.2902,W,39.14,271.61,22071,,,A*46
$GPRMC,144336.250,A,4308.5433,N,07728.2977,W,39.33,271.49,220719,,,A*4F
$GPGGA,144336.500,4308.5434,N,07728.3015,W,1,07,1.63,149.7,M,-34.4,M,,*5E
$GPRMC,144337.000,A,4308.5436,N,07728.3090,W,39.38,271.36,220719,,,A*4E
$GPGGA,144337.250,4308.5437,N,07728.3127,W,1,07,1.63,149.7,M,-34.4,M,,*5E
$GPGGA,144337.750,4308.5439,N,07728.3203,W,1,07,1.63,149.7,M,-34.4,M,,*50
$GPRMC,144337.750,A,4308.5439,N,07728.3203,W,39.39,271.36,22071,,,A*4A
$GPRMC,144338.250,A,4308.5441,N,07728.3279,W,39.57,271.59,220719,,,A*43
$GPGGA,144338.500,4308.5442,N,07728.3317,W,1,07,1.63,149.8,M,-34.4,M,,*5F
$GPGGA,144339.000,4308.5445,N,07728.3394,W,1,07,1.63,149.7,M,-34.4,M,,*58
$GPRMC,144339.000,A,4308.5445,N,07728.3394,W,39.52,272.00,22071149.5,M,-34.4,M,,*54
$GPRMC,144339.750,A,4308.5449,N,07728.3509,W,39.56,271.47,220719,,,A*41
$GPGGA,144340.000,4308.5450,N,07728.3547,W,1,07,1.63,149.4,M,-34.4,M,,*59
$GPGGA,144340.500,4308.5451,N,07728.3624,W,1,07,1.63,149.5,M,-34.4,M,,*5A
$GPRMC,144340.500,A,4308.5451,N,07728.3624,W,39.33,271.21,22071,,,A*4E
$GPRMC,144341.000,A,4308.5451,N,07728.3701,W,39.34,270.49,220719,,,A*44
$GPGGA,144341.250,4308.5452,N,07728.3740,W,1,07,1.63,149.7,M,-34.4,M,,*5B
$GPRMC,144341.750,A,4308.5453,N,07728.3816,W,39.74,271.27,220719,,,A*40
$GPGGA,144342.000,4308.5454,N,07728.3855,W,1,07,1.35,150.1,M,-34.4,M,,*5F
$GPGGA,144342.500,4308.5458,N,07728.3933,W,1,07,1.63,149.7,M,-34.4,M,,*5A
$GPRMC,144342.500,A,4308.5458,N,07728.3933,W,40.05,272.58,22071,,,A*4A
$GPRMC,144343.000,A,4308.5461,N,07728.4011,W,40.49,272.39,220719,,,A*45
$GPGGA,144343.250,4308.5462,N,07728.4052,W,1,07,1.63,149.6,M,-34.4,M,,*58
$GPGGA,144343.750,4308.5464,N,07728.4132,W,1,07,1.63,149.8,M,-34.4,M,,*52
$GPRMC,144343.750,A,4308.5464,N,07728.4132,W,40.50,271.64,220719.8,M,-34.4,M,,*50
$GPRMC,144344.000,A,4308.5466,N,07728.4173,W,40.45,271.77,22071
$GPGGA,144344.500,4308.5470,N,07728.4253,W,1,07,1.63,149.4,M,-34.4,M,,*5F
$GPGGA,144345.000,4308.5474,N,07728.4330,W,1,07,1.63,149.1,M,-34.4,M,,*5E
$GPRMC,144345.000,A,4308.5474,N,07728.4330,W,39.77,272.49,220719,,,A*43
$GPRMC,144345.500,A,4308.5476,N,07728.4406,W,39.50,272.06,220719,,,A*48
$GPGGA,144345.750,4308.5478,N,07728.4443,W,1,07,1.63,148.9,M,-34.4,M,,*5A
$GPRMC,144346.250,A,4308.5480,N,07728.4518,W,38.18,271.82,220719,,,A*4C
$GPGGA,144346.500,4308.5481,N,07728.4555,W,1,07,1.63,148.9,M,-34.4,M,,*5E
$GPGGA,144347.000,4308.5484,N,07728.4629,W,1,07,1.63,148.9,M,-34.4,M,,*57
$GPRMC,144347.000,A,4308.5484,N,07728.4629,W,37.78,272.08,220719,,,A*47
$GPRMC,144347.500,A,4308.5485,N,07728.4699,W,35.69,271.99,220719,,,A*41
$GPGGA,144347.750,4308.5486,N,07728.4734,W,1,07,1.63,149.1,M,-34.4,M,,*53
$GPGGA,144348.250,4308.5486,N,07728.4799,W,1,07,1.63,149.3,M,-34.4,M,,*5C
$GPRMC,144348.250,A,4308.5486,N,07728.4799,W,33.36,271.19,22071,M,-34.4,M,,*52
$GPRMC,144348.500,A,4308.5486,N,07728.4830,W,32.26,270.41,220710
$GPGGA,144349.000,4308.5485,N,07728.4891,W,1,07,1.63,149.5,M,-34.4,M,,*58
$GPGGA,144349.500,4308.5483,N,07728.4948,W,1,07,1.63,149.6,M,-34.4,M,,*5D
$GPRMC,144349.500,A,4308.5483,N,07728.4948,W,28.27,268.57,22071,,,A*46
$GPRMC,144350.000,A,4308.5480,N,07728.5000,W,25.24,267.80,220719,,,A*47
$GPGGA,144350.250,4308.5480,N,07728.5024,W,1,07,1.63,150.2,M,-34.4,M,,*5A
$GPRMC,144350.750,A,4308.5479,N,07728.5068,W,21.35,271.03,220719,,,A*45
$GPGGA,144351.000,4308.5479,N,07728.5087,W,1,07,1.63,151.2,M,-34.4,M,,*52
$GPGGA,144351.500,4308.5476,N,07728.5114,W,1,07,1.63,151.9,M,-34.4,M,,*58
$GPRMC,144351.500,A,4308.5476,N,07728.5114,W,14.99,274.35,22071,,,A*46
$GPRMC,144352.000,A,4308.5479,N,07728.5133,W,12.04,277.67,220719,,,A*4C
$GPGGA,144352.250,4308.5480,N,07728.5142,W,1,07,1.63,153.1,M,-34.4,M,,*59
$GPRMC,144352.250,A,4308.5480,N,07728.5142,W,10.20,279.13,22071
$GPGGA,144352.750,4308.5484,N,07728.5157,W,1,07,1.63,152.7,M,-34.4,M,,*5B
$GPRMC,144353.250,A,4308.5491,N,07728.5181,W,4.99,294.18,220719,,,A*73
$GPGGA,144353.500,4308.5495,N,07728.5195,W,1,07,1.63,151.6,M,-34.4,M,,*51
$GPRMC,144353.500,A,4308.5495,N,07728.5195,W,4.16,296.16,220719,A*7B
$GPGGA,144354.000,4308.5502,N,07728.5213,W,1,07,1.35,147.9,M,-34.4,M,,*5A
$GPGGA,144354.500,4308.5508,N,07728.5221,W,1,07,1.35,145.1,M,-34.4,M,,*5E
$GPRMC,144354.500,A,4308.5508,N,07728.5221,W,2.29,304.71,220719,,A*74
$GPRMC,144355.000,A,4308.5511,N,07728.5223,W,1.41,304.71,220719,,,A*77
$GPGGA,144355.250,4308.5511,N,07728.5222,W,1,07,1.35,143.8,M,-34.4,M,,*59
$GPGGA,144355.750,4308.5512,N,07728.5225,W,1,07,1.63,142.3,M,-34.4,M,,*51
$GPRMC,144355.750,A,4308.5512,N,07728.5225,W,0.57,304.71,220719,,,A*76
$GPRMC,144356.250,A,4308.5513,N,07728.5226,W,0.49,304.71,220719,,,A*7D
$GPGGA,144356.500,4308.5513,N,07728.5228,W,1,07,1.35,140.4,M,-34.4,M,,*5F
$GPGGA,144357.000,4308.5514,N,07728.5229,W,1,07,1.35,139.4,M,-34.4,M,,*53
$GPRMC,144357.000,A,4308.5514,N,07728.5229,W,0.38,304.71,220719.1,M,-34.4,M,,*56
$GPRMC,144357.250,A,4308.5513,N,07728.5229,W,0.35,304.71,2207197E
$GPGGA,144357.750,4308.5513,N,07728.5229,W,1,07,1.35,138.6,M,-34.4,M,,*55
$GPGGA,144358.250,4308.5513,N,07728.5229,W,1,07,1.35,138.4,M,-34.4,M,,*5D
$GPRMC,144358.250,A,4308.5513,N,07728.5229,W,0.21,82.92,220719,,,A*42
$GPRMC,144358.750,A,4308.5513,N,07728.5228,W,0.20,106.56,220719,,,A*72
$GPGGA,144359.000,4308.5513,N,07728.5228,W,1,07,1.35,138.5,M,-34.4,M,,*5B
$GPRMC,144359.500,A,4308.5512,N,07728.5228,W,0.19,108.48,220719,,,A*7E
$GPGGA,144359.750,4308.5512,N,07728.5227,W,1,07,1.35,138.5,M,-34.4,M,,*57
$GPGGA,144400.250,4308.5512,N,07728.5227,W,1,07,1.35,138.5,M,-34.4,M,,*59
$GPRMC,144400.250,A,4308.5512,N,07728.5227,W,0.21,104.24,220719,,A*75
$GPRMC,144400.750,A,4308.5512,N,07728.5227,W,0.19,102.00,220719,,,A*7B
$GPGGA,144401.000,4308.5512,N,07728.5226,W,1,07,1.35,138.5,M,-34.4,M,,*5E
$GPGGA,144401.500,4308.5512,N,07728.5226,W,1,07,1.35,138.6,M,-34.4,M,,*58
$GPRMC,144401.500,A,4308.5512,N,07728.5226,W,0.19,99.92,220719,38.6,M,-34.4,M,,*5F
$GPRMC,144401.750,A,4308.5512,N,07728.5226,W,0.20,99.71,220719,
$GPGGA,144402.250,4308.5512,N,07728.5226,W,1,07,1.35,138.6,M,-34.4,M,,*59
$GPGGA,144402.750,4308.5512,N,07728.5226,W,1,07,1.35,138.6,M,-34.4,M,,*5C
$GPRMC,144402.750,A,4308.5512,N,07728.5226,W,0.67,101.52,220719,,A*75
$GPRMC,144403.250,A,4308.5512,N,07728.5227,W,1.41,101.52,220719,,,A*75
$GPGGA,144403.500,4308.5512,N,07728.5229,W,1,07,1.35,138.6,M,-34.4,M,,*55
$GPRMC,144404.000,A,4308.5510,N,07728.5240,W,4.52,260.99,220719,,,A*72
$GPGGA,144404.250,4308.5510,N,07728.5250,W,1,07,1.63,138.4,M,-34.4,M,,*5D
$GPGGA,144404.750,4308.5507,N,07728.5267,W,1,07,1.63,138.3,M,-34.4,M,,*5D
$GPRMC,144404.750,A,4308.5507,N,07728.5267,W,8.72,261.27,220719,,A*79
$GPRMC,144405.250,A,4308.5502,N,07728.5290,W,10.54,260.52,220719,,,A*4E
$GPGGA,144405.500,4308.5503,N,07728.5306,W,1,07,1.63,138.0,M,-34.4,M,,*5A
$GPGGA,144406.000,4308.5504,N,07728.5337,W,1,07,1.63,137.8,M,-34.4,M,,*5E
$GPRMC,144406.000,A,4308.5504,N,07728.5337,W,14.66,266.80,22071137.6,M,-34.4,M,,*55
$GPRMC,144406.750,A,4308.5504,N,07728.5389,W,17.35,267.08,220719,,,A*4F
$GPGGA,144407.000,4308.5504,N,07728.5407,W,1,07,1.63,137.2,M,-34.4,M,,*51
$GPGGA,144407.500,4308.5503,N,07728.5447,W,1,07,1.63,136.8,M,-34.4,M,,*5C
$GPRMC,144407.500,A,4308.5503,N,07728.5447,W,19.93,266.06,22071,,,A*46
$GPRMC,144408.000,A,4308.5499,N,07728.5491,W,21.75,264.91,220719,,,A*4A
$GPGGA,144408.250,4308.5496,N,07728.5515,W,1,07,1.63,136.3,M,-34.4,M,,*51
$GPRMC,144408.750,A,4308.5493,N,07728.5567,W,24.87,265.72,220719,,,A*4E
$GPGGA,144409.000,4308.5492,N,07728.5593,W,1,07,1.63,136.1,M,-34.4,M,,*5F
$GPGGA,144409.500,4308.5491,N,07728.5651,W,1,07,1.63,135.9,M,-34.4,M,,*5F
$GPRMC,144409.500,A,4308.5491,N,07728.5651,W,28.68,267.77,22071,,,A*46
$GPRMC,144410.000,A,4308.5492,N,07728.5713,W,31.36,269.57,220719,,,A*40
$GPGGA,144410.250,4308.5492,N,07728.5746,W,1,07,1.35,135.9,M,-34.4,M,,*52
$GPGGA,144410.750,4308.5491,N,07728.5816,W,1,07,1.63,135.9,M,-34.4,M,,*5D
$GPRMC,144410.750,A,4308.5491,N,07728.5816,W,34.28,269.73,220715.9,M,-34.4,M,,*5C
$GPRMC,144411.000,A,4308.5491,N,07728.5850,W,34.87,269.70,2207143
$GPGGA,144411.500,4308.5491,N,07728.5923,W,1,07,1.63,135.9,M,-34.4,M,,*5C
$GPGGA,144412.000,4308.5489,N,07728.5995,W,1,07,1.35,135.9,M,-34.4,M,,*5D
$GPRMC,144412.000,A,4308.5489,N,07728.5995,W,37.08,268.74,22071,,,A*43
$GPRMC,144412.500,A,4308.5490,N,07728.6071,W,38.27,269.04,220719,,,A*4A
$GPGGA,144412.750,4308.5491,N,07728.6110,W,1,07,1.63,135.9,M,-34.4,M,,*53
$GPRMC,144413.250,A,4308.5491,N,07728.6187,W,39.28,268.85,220719,,,A*46
$GPGGA,144413.500,4308.5491,N,07728.6225,W,1,07,1.63,135.9,M,-34.4,M,,*50
$GPGGA,144414.000,4308.5491,N,07728.6300,W,1,07,1.35,136.0,M,-34.4,M,,*5D
$GPRMC,144414.000,A,4308.5491,N,07728.6300,W,39.41,269.18,220719,,,A*41
$GPRMC,144414.500,A,4308.5491,N,07728.6376,W,38.94,268.87,220719,,,A*4B
$GPGGA,144414.750,4308.5491,N,07728.6414,W,1,07,1.63,136.1,M,-34.4,M,,*5F
$GPGGA,144415.250,4308.5491,N,07728.6488,W,1,07,1.63,136.1,M,-34.4,M,,*5E
$GPRMC,144415.250,A,4308.5491,N,07728.6488,W,38.16,269.18,2207136.2,M,-34.4,M,,*59
$GPRMC,144415.500,A,4308.5491,N,07728.6525,W,38.11,269.03,22071
$GPGGA,144416.000,4308.5492,N,07728.6598,W,1,07,1.63,136.4,M,-34.4,M,,*5C
$GPGGA,144416.500,4308.5493,N,07728.6671,W,1,07,1.63,136.6,M,-34.4,M,,*5E
$GPRMC,144416.500,A,4308.5493,N,07728.6671,W,37.49,269.47,22071,,,A*4B
$GPRMC,144417.000,A,4308.5493,N,07728.6743,W,37.35,269.49,220719,,,A*4A
$GPGGA,144417.250,4308.5493,N,07728.6779,W,1,07,1.63,136.8,M,-34.4,M,,*5A
$GPRMC,144417.750,A,4308.5492,N,07728.6851,W,37.36,269.19,220719,,,A*43
$GPGGA,144418.000,4308.5492,N,07728.6886,W,1,07,1.35,137.1,M,-34.4,M,,*57
$GPGGA,144418.500,4308.5493,N,07728.6957,W,1,07,1.63,137.1,M,-34.4,M,,*5D
$GPRMC,144418.500,A,4308.5493,N,07728.6957,W,37.06,270.01,22071,,,A*4F
$GPRMC,144419.000,A,4308.5493,N,07728.7028,W,37.11,270.69,220719,,,A*43
$GPGGA,144419.250,4308.5494,N,07728.7063,W,1,07,1.63,137.2,M,-34.4,M,,*55
$GPGGA,144419.750,4308.5493,N,07728.7134,W,1,07,1.63,137.2,M,-34.4,M,,*54
$GPRMC,144419.750,A,4308.5493,N,07728.7134,W,37.07,270.42,2207137.2,M,-34.4,M,,*57
$GPRMC,144420.000,A,4308.5493,N,07728.7169,W,37.10,270.44,220714B
$GPGGA,144420.500,4308.5493,N,07728.7240,W,1,07,1.63,137.1,M,-34.4,M,,*5A
$GPGGA,144421.000,4308.5491,N,07728.7311,W,1,07,1.63,137.1,M,-34.4,M,,*59
$GPRMC,144421.000,A,4308.5491,N,07728.7311,W,37.36,269.70,220719,,,A*46
$GPRMC,144421.500,A,4308.5489,N,07728.7381,W,36.90,269.56,220719,,,A*4A
$GPGGA,144421.750,4308.5488,N,07728.7416,W,1,07,1.63,137.3,M,-34.4,M,,*51
$GPRMC,144422.250,A,4308.5487,N,07728.7486,W,36.70,270.00,220719,,,A*40
$GPGGA,144422.500,4308.5486,N,07728.7521,W,1,07,1.63,137.2,M,-34.4,M,,*5F
$GPRMC,144423.000,A,4308.5485,N,07728.7591,W,36.53,269.56,220719,,,A*49
$GPGGA,144423.250,4308.5485,N,07728.7626,W,1,07,1.63,137.1,M,-34.4,M,,*58
$GPGGA,144423.750,4308.5485,N,07728.7696,W,1,07,1.63,137.1,M,-34.4,M,,*56
$GPRMC,144423.750,A,4308.5485,N,07728.7696,W,36.09,269.98,22071,,,A*42
$GPRMC,144424.250,A,4308.5485,N,07728.7765,W,35.74,270.31,220719,,,A*4F
$GPGGA,144424.500,4308.5486,N,07728.7801,W,1,07,1.63,137.1,M,-34.4,M,,*55
$GPRMC,144425.000,A,4308.5486,N,07728.7870,W,35.69,270.50,220719,,,A*4A
$GPGGA,144425.250,4308.5485,N,07728.7905,W,1,07,1.63,137.3,M,-34.4,M,,*52
$GPGGA,144425.750,4308.5484,N,07728.7973,W,1,07,1.63,137.4,M,-34.4,M,,*50
$GPRMC,144425.750,A,4308.5484,N,07728.7973,W,35.52,269.75,22071,,,A*4F
$GPRMC,144426.250,A,4308.5483,N,07728.8041,W,35.29,270.15,220719,,,A*4B
$GPGGA,144426.500,4308.5484,N,07728.8076,W,1,07,1.63,137.1,M,-34.4,M,,*52
$GPRMC,144427.000,A,4308.5485,N,07728.8144,W,35.00,271.44,220719,,,A*41
$GPGGA,144427.250,4308.5486,N,07728.8178,W,1,07,1.63,137.0,M,-34.4,M,,*5D
$GPGGA,144427.750,4308.5486,N,07728.8246,W,1,07,1.63,137.0,M,-34.4,M,,*56
$GPRMC,144427.750,A,4308.5486,N,07728.8246,W,34.45,271.28,22071,,,A*4B
$GPRMC,144428.250,A,4308.5487,N,07728.8312,W,34.35,271.32,220719,,,A*4C
$GPGGA,144428.500,4308.5487,N,07728.8346,W,1,07,1.63,137.1,M,-34.4,M,,*5F
$GPGGA,144429.000,4308.5489,N,07728.8413,W,1,07,1.63,137.1,M,-34.4,M,,*52
$GPRMC,144429.000,A,4308.5489,N,07728.8413,W,34.30,271.32,2207137.1,M,-34.4,M,,*55
$GPRMC,144429.250,A,4308.5489,N,07728.8446,W,34.09,270.76,22071A
$GPGGA,144429.750,4308.5490,N,07728.8513,W,1,07,1.63,137.1,M,-34.4,M,,*59
$GPGGA,144430.250,4308.5491,N,07728.8576,W,1,07,1.63,136.8,M,-34.4,M,,*5E
$GPRMC,144430.250,A,4308.5491,N,07728.8576,W,33.73,271.17,22071,,,A*44
$GPRMC,144430.750,A,4308.5492,N,07728.8639,W,33.50,271.69,220719,,,A*42
$GPGGA,144431.000,4308.5494,N,07728.8670,W,1,07,1.63,137.1,M,-34.4,M,,*50
$GPRMC,144431.500,A,4308.5499,N,07728.8737,W,32.96,274.01,220719,,,A*40
$GPGGA,144431.750,4308.5502,N,07728.8770,W,1,07,1.63,137.4,M,-34.4,M,,*58
$GPRMC,144432.250,A,4308.5509,N,07728.8838,W,32.59,277.59,220719,,,A*44
$GPGGA,144432.500,4308.5514,N,07728.8870,W,1,07,1.63,137.6,M,-34.4,M,,*56
$GPGGA,144433.000,4308.5526,N,07728.8934,W,1,07,1.63,137.8,M,-34.4,M,,*5C
$GPRMC,144433.000,A,4308.5526,N,07728.8934,W,32.30,282.14,22071,,,A*4E
$GPRMC,144433.500,A,4308.5537,N,07728.8998,W,32.27,283.26,220719,,,A*4B
$GPGGA,144433.750,4308.5542,N,07728.9029,W,1,07,1.63,138.2,M,-34.4,M,,*5D
$GPRMC,144434.250,A,4308.5554,N,07728.9089,W,31.73,284.53,220719,,,A*44
$GPGGA,144434.500,4308.5561,N,07728.9119,W,1,07,1.63,138.6,M,-34.4,M,,*5A
$GPGGA,144435.000,4308.5578,N,07728.9177,W,1,07,1.35,138.9,M,-34.4,M,,*52
$GPRMC,144435.000,A,4308.5578,N,07728.9177,W,31.19,288.43,220719,,,A*4D
$GPRMC,144435.500,A,4308.5597,N,07728.9233,W,30.77,292.05,220719,,,A*4A
$GPGGA,144435.750,4308.5607,N,07728.9261,W,1,07,1.63,139.3,M,-34.4,M,,*57
$GPRMC,144436.250,A,4308.5629,N,07728.9314,W,30.52,296.01,220719,,,A*4E
$GPGGA,144436.500,4308.5641,N,07728.9340,W,1,07,1.63,139.8,M,-34.4,M,,*58
$GPGGA,144437.000,4308.5665,N,07728.9390,W,1,07,1.63,140.0,M,-34.4,M,,*51
$GPRMC,144437.000,A,4308.5665,N,07728.9390,W,30.57,300.85,22071,,,A*4B
$GPRMC,144437.500,A,4308.5695,N,07728.9440,W,30.75,305.57,220719,,,A*41
$GPGGA,144437.750,4308.5710,N,07728.9463,W,1,07,1.63,140.4,M,-34.4,M,,*5F
$GPGGA,144438.250,4308.5750,N,07728.9509,W,1,07,1.63,140.6,M,-34.4,M,,*5E
$GPRMC,144438.250,A,4308.5750,N,07728.9509,W,31.97,312.95,22071,140.7,M,-34.4,M,,*5C
$GPRMC,144439.000,A,4308.5807,N,07728.9575,W,32.86,317.12,220719,,,A*44
$GPGGA,144439.250,4308.5826,N,07728.9596,W,1,07,1.63,141.1,M,-34.4,M,,*51
$GPGGA,144439.750,4308.5867,N,07728.9638,W,1,07,1.63,141.4,M,-34.4,M,,*53
$GPRMC,144439.750,A,4308.5867,N,07728.9638,W,34.01,320.25,220719,,,A*43
$GPRMC,144440.250,A,4308.5907,N,07728.9679,W,34.10,321.23,220719,,,A*4D
$GPGGA,144440.500,4308.5927,N,07728.9700,W,1,07,1.63,141.9,M,-34.4,M,,*58
$GPRMC,144441.000,A,4308.5968,N,07728.9741,W,34.29,321.22,220719,,,A*43
$GPGGA,144441.250,4308.5988,N,07728.9762,W,1,07,1.63,142.5,M,-34.4,M,,*55
$GPGGA,144441.750,4308.6030,N,07728.9805,W,1,07,1.63,142.8,M,-34.4,M,,*5A
$GPRMC,144441.750,A,4308.6030,N,07728.9805,W,35.40,320.62,22071,,,A*42
$GPRMC,144442.250,A,4308.6073,N,07728.9849,W,36.07,320.04,220719,,,A*4B
$GPGGA,144442.500,4308.6094,N,07728.9872,W,1,07,1.63,143.5,M,-34.4,M,,*5C
$GPGGA,144443.000,4308.6138,N,07728.9916,W,1,07,1.63,143.9,M,-34.4,M,,*50
$GPRMC,144443.000,A,4308.6138,N,07728.9916,W,36.89,320.30,220712,M,-34.4,M,,*5B
$GPRMC,144443.250,A,4308.6160,N,07728.9939,W,37.06,320.33,220714D
$GPGGA,144443.750,4308.6205,N,07728.9985,W,1,07,1.63,144.6,M,-34.4,M,,*5D
$GPGGA,144444.250,4308.6248,N,07729.0032,W,1,07,1.63,145.0,M,-34.4,M,,*5C
$GPRMC,144444.250,A,4308.6248,N,07729.0032,W,38.49,320.20,22071,,,A*49
$GPRMC,144444.750,A,4308.6292,N,07729.0079,W,38.73,320.60,220719,,,A*49
$GPGGA,144445.000,4308.6314,N,07729.0102,W,1,07,1.63,145.8,M,-34.4,M,,*58
$GPRMC,144445.500,A,4308.6359,N,07729.0150,W,39.61,321.11,220719,,,A*46
$GPGGA,144445.750,4308.6381,N,07729.0174,W,1,07,1.63,146.6,M,-34.4,M,,*5A
$GPGGA,144446.250,4308.6426,N,07729.0222,W,1,07,1.63,147.1,M,-34.4,M,,*50
$GPRMC,144446.250,A,4308.6426,N,07729.0222,W,39.83,321.16,22071,,,A*45
$GPRMC,144446.750,A,4308.6470,N,07729.0270,W,39.61,320.64,220719,,,A*4C
$GPGGA,144447.000,4308.6492,N,07729.0294,W,1,07,1.63,147.8,M,-34.4,M,,*5D
$GPGGA,144447.500,4308.6537,N,07729.0342,W,1,07,1.63,148.3,M,-34.4,M,,*58
$GPRMC,144447.500,A,4308.6537,N,07729.0342,W,39.37,321.25,220718.5,M,-34.4,M,,*55
$GPGGA,144448.250,4308.6601,N,07729.0411,W,1,07,1.63,148.9,M,-34.4,M,,*58
$GPRMC,144448.250,A,4308.6601,N,07729.0411,W,39.12,321.33,22071,,,A*45
$GPRMC,144448.750,A,4308.6645,N,07729.0458,W,38.91,321.56,220719,,,A*44
$GPGGA,144449.000,4308.6666,N,07729.0481,W,1,07,1.35,149.4,M,-34.4,M,,*59
$GPGGA,144449.500,4308.6708,N,07729.0527,W,1,07,1.63,149.9,M,-34.4,M,,*56
$GPRMC,144449.500,A,4308.6708,N,07729.0527,W,38.13,321.22,22071,,,A*4A
$GPRMC,144450.000,A,4308.6750,N,07729.0571,W,37.90,321.67,220719,,,A*4C
$GPGGA,144450.250,4308.6771,N,07729.0593,W,1,07,1.63,150.5,M,-34.4,M,,*59
$GPGGA,144450.750,4308.6813,N,07729.0637,W,1,07,1.63,150.9,M,-34.4,M,,*56
$GPRMC,144450.750,A,4308.6813,N,07729.0637,W,37.72,322.43,220719,,,A*4E
$GPRMC,144451.250,A,4308.6854,N,07729.0680,W,36.56,322.47,220719,,,A*46
$GPGGA,144451.500,4308.6874,N,07729.0701,W,1,07,1.63,151.6,M,-34.4,M,,*5B
$GPGGA,144452.000,4308.6913,N,07729.0741,W,1,07,1.63,152.0,M,-34.4,M,,*5C
$GPRMC,144452.000,A,4308.6913,N,07729.0741,W,34.92,322.62,220713,152.3,M,-34.4,M,,*53
$GPRMC,144452.250,A,4308.6933,N,07729.0759,W,34.12,323.59,220710
$GPGGA,144452.750,4308.6970,N,07729.0796,W,1,07,1.63,152.8,M,-34.4,M,,*59
$GPGGA,144453.250,4308.7005,N,07729.0830,W,1,07,1.63,153.4,M,-34.4,M,,*59
$GPRMC,144453.250,A,4308.7005,N,07729.0830,W,29.85,323.69,22071,,,A*41
$GPRMC,144453.750,A,4308.7037,N,07729.0861,W,27.42,325.04,220719,,,A*49
$GPGGA,144454.000,4308.7055,N,07729.0880,W,1,07,1.35,151.2,M,-34.4,M,,*50
$GPRMC,144454.500,A,4308.7083,N,07729.0905,W,23.65,326.86,220719,,,A*4D
$GPGGA,144454.750,4308.7096,N,07729.0916,W,1,07,1.63,151.8,M,-34.4,M,,*5A
$GPGGA,144455.250,4308.7122,N,07729.0936,W,1,07,1.63,151.9,M,-34.4,M,,*53
$GPRMC,144455.250,A,4308.7122,N,07729.0936,W,19.89,329.97,22071,,,A*40
$GPRMC,144455.750,A,4308.7143,N,07729.0952,W,17.29,329.94,220719,,,A*47
$GPGGA,144456.000,4308.7154,N,07729.0961,W,1,07,1.63,152.2,M,-34.4,M,,*5C
$GPGGA,144456.500,4308.7175,N,07729.0983,W,1,07,1.63,152.2,M,-34.4,M,,*56
$GPRMC,144456.500,A,4308.7175,N,07729.0983,W,15.57,325.28,22071,152.3,M,-34.4,M,,*5D
$GPGGA,144457.250,4308.7202,N,07729.1012,W,1,07,1.63,152.7,M,-34.4,M,,*53
$GPRMC,144457.250,A,4308.7202,N,07729.1012,W,16.03,320.76,22071,,,A*46
$GPRMC,144457.750,A,4308.7219,N,07729.1036,W,17.02,315.09,220719,,,A*41
$GPGGA,144458.000,4308.7231,N,07729.1051,W,1,07,1.35,150.7,M,-34.4,M,,*5D
$GPGGA,144458.500,4308.7247,N,07729.1076,W,1,07,1.63,150.9,M,-34.4,M,,*51
$GPRMC,144458.500,A,4308.7247,N,07729.1076,W,17.52,310.44,22071,,,A*4F
$GPRMC,144459.000,A,4308.7250,N,07729.1104,W,16.35,294.97,220719,,,A*4A
$GPGGA,144459.250,4308.7249,N,07729.1114,W,1,07,1.63,150.7,M,-34.4,M,,*57
$GPRMC,144459.750,A,4308.7245,N,07729.1137,W,15.83,273.68,220719,,,A*4B
$GPGGA,144500.000,4308.7244,N,07729.1151,W,1,07,1.63,149.5,M,-34.4,M,,*5B
$GPGGA,144500.500,4308.7239,N,07729.1181,W,1,07,1.63,148.9,M,-34.4,M,,*54
$GPRMC,144500.500,A,4308.7239,N,07729.1181,W,17.62,264.12,22071,,,A*41
$GPRMC,144501.000,A,4308.7235,N,07729.1215,W,18.95,263.34,220719,,,A*43
$GPGGA,144501.250,4308.7233,N,07729.1234,W,1,07,1.63,147.8,M,-34.4,M,,*5E
$GPRMC,144501.250,A,4308.7233,N,07729.1234,W,19.71,263.45,22071
$GPGGA,144501.750,4308.7230,N,07729.1273,W,1,07,1.63,147.2,M,-34.4,M,,*51
$GPGGA,144502.250,4308.7227,N,07729.1314,W,1,07,1.63,146.7,M,-34.4,M,,*55
$GPRMC,144502.250,A,4308.7227,N,07729.1314,W,21.60,266.07,22071,,,A*41
$GPRMC,144502.750,A,4308.7228,N,07729.1357,W,22.34,269.55,220719,,,A*46
$GPGGA,144503.000,4308.7228,N,07729.1380,W,1,07,1.63,146.2,M,-34.4,M,,*54
