Vers 57
USE_SERIAL_FEEDBACK=false
DEVELOPMENT_MODE=false
USE_RMC_ONLY=false

$GPGGA,142218.600,4308.3073,N,07726.2587,W,1,05,1.36,149.3,M,-34.4,M,,*50
$GPRMC,142218.600,A,4308.3073,N,07726.2587,W,0.04,230.13,040419,,,A*7D
lng=-77.437644, lat=43.138450, altitude=149.30, speed=0.09, satellites=5, angle=232.4400, fixquality=1
$GPGGA,142218.800,4308.3072,N,07726.2587,W,1,05,1.36,149.5,M,-34.4,M,,*59
$GPRMC,142218.800,A,4308.3072,N,07726.2587,W,0.42,246.53,040419,,,A*75
lng=-77.437644, lat=43.138450, altitude=149.50, speed=0.04, satellites=5, angle=230.1300, fixquality=1
$GPGGA,142219.000,4308.3073,N,07726.2587,W,1,05,1.36,149.8,M,-34.4,M,,*5C
$GPRMC,142219.000,A,4308.3073,N,07726.2587,W,0.13,244.66,040419,,,A*7D
lng=-77.437644, lat=43.138450, altitude=149.80, speed=0.42, satellites=5, angle=246.5300, fixquality=1
$GPGGA,142219.200,4308.3073,N,07726.2588,W,1,05,1.36,150.0,M,-34.4,M,,*51
$GPRMC,142219.200,A,4308.3073,N,07726.2588,W,0.08,200.69,040419,,,A*75
lng=-77.437644, lat=43.138450, altitude=150.00, speed=0.13, satellites=5, angle=244.6600, fixquality=1
$GPGGA,142219.400,4308.3072,N,07726.2588,W,1,05,1.36,150.1,M,-34.4,M,,*57
$GPRMC,142219.400,A,4308.3072,N,07726.2588,W,0.02,237.12,040419,,,A*70
lng=-77.437644, lat=43.138450, altitude=150.10, speed=0.08, satellites=5, angle=200.6900, fixquality=1
$GPGGA,142219.600,4308.3072,N,07726.2587,W,1,05,1.36,150.3,M,-34.4,M,,*58
$GPRMC,142219.600,A,4308.3072,N,07726.2587,W,0.02,234.17,040419,,,A*7B
lng=-77.437644, lat=43.138450, altitude=150.30, speed=0.02, satellites=5, angle=237.1200, fixquality=1
$GPGGA,142219.800,4308.3073,N,07726.2587,W,1,05,1.36,150.6,M,-34.4,M,,*52
$GPRMC,142219.800,A,4308.3073,N,07726.2587,W,0.01,153.99,040419,,,A*73
lng=-77.437644, lat=43.138450, altitude=150.60, speed=0.02, satellites=5, angle=234.1700, fixquality=1
$GPGGA,142220.000,4308.3074,N,07726.2586,W,1,05,1.36,150.9,M,-34.4,M,,*59
$GPRMC,142220.000,A,4308.3074,N,07726.2586,W,0.01,53.24,040419,,,A*40
lng=-77.437644, lat=43.138462, altitude=150.90, speed=0.01, satellites=5, angle=153.9900, fixquality=1
$GPGGA,142220.200,4308.3074,N,07726.2586,W,1,05,1.36,151.2,M,-34.4,M,,*51
$GPRMC,142220.200,A,4308.3074,N,07726.2586,W,0.01,215.11,040419,,,A*74
lng=-77.437644, lat=43.138462, altitude=151.20, speed=0.01, satellites=5, angle=53.2400, fixquality=1
$GPGGA,142220.400,4308.3074,N,07726.2585,W,1,05,1.36,151.4,M,-34.4,M,,*52
$GPRMC,142220.400,A,4308.3074,N,07726.2585,W,0.03,243.71,040419,,,A*76
lng=-77.437637, lat=43.138462, altitude=151.40, speed=0.01, satellites=5, angle=215.1100, fixquality=1
$GPGGA,142220.600,4308.3075,N,07726.2585,W,1,05,1.36,151.8,M,-34.4,M,,*5D
$GPRMC,142220.600,A,4308.3075,N,07726.2585,W,0.03,219.87,04041
lng=-77.437637, lat=43.138462, altitude=151.80, speed=0.03, satellites=5, angle=243.7100, fixquality=1
$GPGGA,142220.800,4308.3075,N,07726.2585,W,1,05,1.36,152.0,M,-34.4,M,,*58
$GPRMC,142220.800,A,4308.3075,N,07726.2585,W,0.02,280.96,040419,,,A*7C
lng=-77.437637, lat=43.138462, altitude=152.00, speed=0.03, satellites=5, angle=219.8700, fixquality=1
$GPGGA,142221.000,4308.3076,N,07726.2585,W,1,05,1.36,152.4,M,-34.4,M,,*56
$GPRMC,142221.000,A,4308.3076,N,07726.2585,W,0.05,214.50,0404196
lng=-77.437637, lat=43.138462, altitude=152.40, speed=0.02, satellites=5, angle=280.9600, fixquality=1
$GPGGA,142221.200,4308.3076,N,07726.2584,W,1,05,1.36,152.7,M,-34.4,M,,*56
$GPRMC,142221.200,A,4308.3076,N,07726.2584,W,0.02,223.86,040419,,,A*7D
lng=-77.437637, lat=43.138462, altitude=152.70, speed=0.05, satellites=5, angle=214.5000, fixquality=1
$GPGGA,142221.400,4308.3076,N,07726.2584,W,1,05,1.36,153.0,M,-34.4,M,,*56
$GPRMC,142221.400,A,4308.3076,N,07726.2584,W,0.01,36.98,040419,
lng=-77.437637, lat=43.138462, altitude=153.00, speed=0.02, satellites=5, angle=223.8600, fixquality=1
$GPGGA,142221.600,4308.3075,N,07726.2584,W,1,05,1.36,153.3,M,-34.4,M,,*54
$GPRMC,142221.600,A,4308.3075,N,07726.2584,W,0.00,110.37,040419,,,A*71
lng=-77.437637, lat=43.138462, altitude=153.30, speed=0.01, satellites=5, angle=36.9800, fixquality=1
$GPGGA,142221.800,4308.3075,N,07726.2584,W,1,05,1.36,153.6,M,-34.4,M,,*5F
$GPRMC,142221.800,A,4308.3075,N,07726.2584,W,0.02,166.82,0404192
lng=-77.437637, lat=43.138462, altitude=153.60, speed=0.00, satellites=5, angle=110.3700, fixquality=1
$GPGGA,142222.000,4308.3075,N,07726.2584,W,1,05,1.36,153.8,M,-34.4,M,,*5A
$GPRMC,142222.000,A,4308.3075,N,07726.2584,W,0.03,195.25,040419,,,A*79
lng=-77.437637, lat=43.138462, altitude=153.80, speed=0.02, satellites=5, angle=166.8200, fixquality=1
$GPGGA,142222.200,4308.3074,N,07726.2584,W,1,05,1.36,154.0,M,-34.4,M,,*56
$GPRMC,142222.200,A,4308.3074,N,07726.2584,W,0.02,149.36,040419,,,A*78
lng=-77.437637, lat=43.138462, altitude=154.00, speed=0.03, satellites=5, angle=195.2500, fixquality=1
$GPGGA,142222.400,4308.3074,N,07726.2585,W,1,05,1.36,154.2,M,-34.4,M,,*53
$GPRMC,142222.400,A,4308.3074,N,07726.2585,W,0.04,208.07,040419,,,A*7D
lng=-77.437637, lat=43.138462, altitude=154.20, speed=0.02, satellites=5, angle=149.3600, fixquality=1
$GPGGA,142222.600,4308.3074,N,07726.2585,W,1,05,1.36,154.4,M,-34.4,M,,*57
$GPRMC,142222.600,A,4308.3074,N,07726.2585,W,0.04,345.21,040419,,,A*73
lng=-77.437637, lat=43.138462, altitude=154.40, speed=0.04, satellites=5, angle=208.0700, fixquality=1
$GPGGA,142222.800,4308.3073,N,07726.2585,W,1,05,1.46,154.5,M,-34.4,M,,*58
$GPRMC,142222.800,A,4308.3073,N,07726.2585,W,0.05,232.28,040419,,,A*73
lng=-77.437637, lat=43.138450, altitude=154.50, speed=0.04, satellites=5, angle=345.2100, fixquality=1
$GPGGA,142223.000,4308.3073,N,07726.2586,W,1,05,1.36,154.6,M,-34.4,M,,*56
$GPRMC,142223.000,A,4308.3073,N,07726.2586,W,0.02,325.50,040419,,,A*76
lng=-77.437644, lat=43.138450, altitude=154.60, speed=0.05, satellites=5, angle=232.2800, fixquality=1
$GPGGA,142223.200,4308.3073,N,07726.2586,W,1,05,1.36,154.8,M,-34.4,M,,*5A
$GPRMC,142223.200,A,4308.3073,N,07726.2586,W,0.05,137.56,040419,,,A*74
lng=-77.437644, lat=43.138450, altitude=154.80, speed=0.02, satellites=5, angle=325.5000, fixquality=1
$GPGGA,142223.400,4308.3072,N,07726.2586,W,1,05,1.36,154.9,M,-34.4,M,,*5C
$GPRMC,142223.400,A,4308.3072,N,07726.2586,W,0.05,237.77,040419,,,A*73
lng=-77.437644, lat=43.138450, altitude=154.90, speed=0.05, satellites=5, angle=137.5600, fixquality=1
$GPGGA,142223.600,4308.3072,N,07726.2586,W,1,05,1.36,155.1,M,-34.4,M,,*57
$GPRMC,142223.600,A,4308.3072,N,07726.2586,W,0.01,17.85,040419,,,A*48
lng=-77.437644, lat=43.138450, altitude=155.10, speed=0.05, satellites=5, angle=237.7700, fixquality=1
$GPGGA,142223.800,4308.3072,N,07726.2586,W,1,05,1.36,155.1,M,-34.4,M,,*59
$GPRMC,142223.800,A,4308.3072,N,07726.2586,W,0.02,119.21,040419,,,A*74
lng=-77.437644, lat=43.138450, altitude=155.10, speed=0.01, satellites=5, angle=17.8500, fixquality=1
$GPGGA,142224.000,4308.3072,N,07726.2586,W,1,05,1.36,155.1,M,-34.4,M,,*56
$GPRMC,142224.000,A,4308.3072,N,07726.2586,W,0.07,342.90,040419,,,A*78
lng=-77.437644, lat=43.138450, altitude=155.10, speed=0.02, satellites=5, angle=119.2100, fixquality=1
$GPGGA,142224.200,4308.3071,N,07726.2586,W,1,06,1.33,155.3,M,-34.4,M,,*53
$GPRMC,142224.200,A,4308.3071,N,07726.2586,W,0.03,86.23,040419,,,A*4E
lng=-77.437644, lat=43.138450, altitude=155.30, speed=0.07, satellites=6, angle=342.9000, fixquality=1
$GPGGA,142224.400,4308.3070,N,07726.2586,W,1,06,1.33,155.5,M,-34.4,M,,*52
$GPRMC,142224.400,A,4308.3070,N,07726.2586,W,0.04,112.62,040419,,,A*77
lng=-77.437644, lat=43.138450, altitude=155.50, speed=0.03, satellites=6, angle=86.2300, fixquality=1
$GPGGA,142224.600,4308.3070,N,07726.2586,W,1,06,1.33,155.7,M,-34.4,M,,*52
$GPRMC,142224.600,A,4308.3070,N,07726.2586,W,0.04,300.33,040419,,,A*70
lng=-77.437644, lat=43.138450, altitude=155.70, speed=0.04, satellites=6, angle=112.6200, fixquality=1
$GPGGA,142224.800,4308.3069,N,07726.2586,W,1,06,1.33,155.8,M,-34.4,M,,*5B
$GPRMC,142224.800,A,4308.3069,N,07726.2586,W,0.03,53.21,040419,,,A*47
lng=-77.437644, lat=43.138450, altitude=155.80, speed=0.04, satellites=6, angle=300.3300, fixquality=1
$GPGGA,142225.000,4308.3069,N,07726.2586,W,1,06,1.33,156.0,M,-34.4,M,,*59
$GPRMC,142225.000,A,4308.3069,N,07726.2586,W,0.03,140.65,040419,,,A*7D
lng=-77.437644, lat=43.138450, altitude=156.00, speed=0.03, satellites=6, angle=53.2100, fixquality=1
$GPGGA,142225.200,4308.3069,N,07726.2586,W,1,06,1.33,156.2,M,-34.4,M,,*59
$GPRMC,142225.200,A,4308.3069,N,07726.2586,W,0.12,51.41,040419,,,A*48
lng=-77.437644, lat=43.138450, altitude=156.20, speed=0.03, satellites=6, angle=140.6500, fixquality=1
$GPGGA,142225.400,4308.3069,N,07726.2586,W,1,06,1.33,156.3,M,-34.4,M,,*5E
$GPRMC,142225.400,A,4308.3069,N,07726.2586,W,0.38,27.79,040419,,,A*4C
lng=-77.437644, lat=43.138450, altitude=156.30, speed=0.12, satellites=6, angle=51.4100, fixquality=1
$GPGGA,142225.600,4308.3069,N,07726.2586,W,1,06,1.33,156.5,M,-34.4,M,,*5A
$GPRMC,142225.600,A,4308.3069,N,07726.2586,W,1.06,11.93,040419,,,A*43
lng=-77.437644, lat=43.138450, altitude=156.50, speed=0.38, satellites=6, angle=27.7900, fixquality=1
$GPGGA,142225.800,4308.3069,N,07726.2586,W,1,06,1.45,156.6,M,-34.4,M,,*56
$GPRMC,142225.800,A,4308.3069,N,07726.2586,W,1.41,16.59,040419,,,A*4F
lng=-77.437644, lat=43.138450, altitude=156.60, speed=1.06, satellites=6, angle=11.9300, fixquality=1
$GPGGA,142226.000,4308.3070,N,07726.2585,W,1,06,1.33,156.7,M,-34.4,M,,*56
$GPRMC,142226.000,A,4308.3070,N,07726.2585,W,2.07,5.37,040419,,$GPGGA,142226.200,4308.3071,N,07726.2585,W,1,06,1.45,156.7,M,-34.4,M,,*54
lng=-77.437637, lat=43.138450, altitude=156.70, speed=1.41, satellites=6, angle=16.5900, fixquality=1
$GPRMC,142226.400,A,4308.3073,N,07726.2585,W,3.13,13.50,040419,,,A*41
$GPGGA,142226.600,4308.3075,N,07726.2584,W,1,06,1.45,156.8,M,-34.4,M,,*5A
lng=-77.437637, lat=43.138450, altitude=156.70, speed=3.13, satellites=6, angle=13.5000, fixquality=1
$GPRMC,142226.800,A,4308.3077,N,07726.2584,W,3.99,7.14,040419,,,A*7F
$GPGGA,142227.000,4308.3079,N,07726.2584,W,1,06,1.45,156.9,M,-34.4,M,,*50
lng=-77.437637, lat=43.138462, altitude=156.80, speed=3.99, satellites=6, angle=7.1400, fixquality=1
$GPRMC,142227.200,A,4308.3082,N,07726.2584,W,4.87,6.71,040419,,,A*74
$GPGGA,142227.400,4308.3085,N,07726.2584,W,1,06,1.45,157.2,M,-34.4,M,,*5D
lng=-77.437637, lat=43.138469, altitude=156.90, speed=4.87, satellites=6, angle=6.7100, fixquality=1
$GPRMC,142227.600,A,4308.3089,N,07726.2584,W,5.60,5.09,040419,,,A*7F
$GPGGA,142227.800,4308.3092,N,07726.2584,W,1,06,1.45,157.4,M,-34.4,M,,*51
lng=-77.437637, lat=43.138484, altitude=157.20, speed=5.60, satellites=6, angle=5.0900, fixquality=1
$GPRMC,142228.000,A,4308.3096,N,07726.2583,W,6.43,2.54,040419,,,A*72
$GPGGA,142228.200,4308.3100,N,07726.2583,W,1,06,1.45,157.7,M,-34.4,M,,*5A
lng=-77.437637, lat=43.138492, altitude=157.40, speed=6.43, satellites=6, angle=2.5400, fixquality=1
$GPRMC,142228.400,A,4308.3104,N,07726.2583,W,6.98,1.43,040419,,,A*7F
$GPGGA,142228.600,4308.3108,N,07726.2583,W,1,06,1.45,158.0,M,-34.4,M,,*5E
lng=-77.437637, lat=43.138507, altitude=157.70, speed=6.98, satellites=6, angle=1.4300, fixquality=1
$GPRMC,142228.800,A,4308.3113,N,07726.2583,W,7.43,1.49,040419,,,A*78
$GPGGA,142229.000,4308.3117,N,07726.2583,W,1,06,1.45,158.0,M,-34.4,M,,*57
lng=-77.437637, lat=43.138526, altitude=158.00, speed=7.43, satellites=6, angle=1.4900, fixquality=1
$GPRMC,142229.200,A,4308.3122,N,07726.2582,W,7.62,5.66,040419,,,A*7A
$GPGGA,142229.400,4308.3127,N,07726.2582,W,1,06,1.45,158.2,M,-34.4,M,,*53
lng=-77.437637, lat=43.138534, altitude=158.00, speed=7.62, satellites=6, angle=5.6600, fixquality=1
$GPRMC,142229.600,A,4308.3131,N,07726.2581,W,7.53,6.29,040419,,,A*75
$GPGGA,142229.800,4308.3136,N,07726.2581,W,1,06,1.45,158.3,M,-34.4,M,,*5D
lng=-77.437637, lat=43.138549, altitude=158.20, speed=7.53, satellites=6, angle=6.2900, fixquality=1
$GPRMC,142230.000,A,4308.3140,N,07726.2581,W,7.78,8.64,040419,,,A*73
$GPGGA,142230.200,4308.3144,N,07726.2581,W,1,07,1.27,158.2,M,-34.4,M,,*5E
lng=-77.437637, lat=43.138565, altitude=158.30, speed=7.78, satellites=6, angle=8.6400, fixquality=1
$GPRMC,142230.400,A,4308.3148,N,07726.2581,W,7.29,9.45,040419,,,A*79
$GPGGA,142230.600,4308.3152,N,07726.2581,W,1,07,1.27,158.0,M,-34.4,M,,*5F
lng=-77.437637, lat=43.138584, altitude=158.20, speed=7.29, satellites=7, angle=9.4500, fixquality=1
$GPRMC,142230.800,A,4308.3155,N,07726.2581,W,6.67,11.62,040419,,,A*4E
$GPGGA,142231.000,4308.3158,N,07726.2581,W,1,07,1.27,158.0,M,-34.4,M,,*52
lng=-77.437637, lat=43.138591, altitude=158.00, speed=6.67, satellites=7, angle=11.6200, fixquality=1
$GPRMC,142231.200,A,4308.3161,N,07726.2581,W,5.77,11.40,040419,,,A*40
$GPGGA,142231.400,4308.3163,N,07726.2581,W,1,07,1.27,157.9,M,-34.4,M,,*58
lng=-77.437637, lat=43.138599, altitude=158.00, speed=5.77, satellites=7, angle=11.4000, fixquality=1
$GPRMC,142231.600,A,4308.3166,N,07726.2580,W,5.15,15.61,040419,,,A*41
$GPGGA,142231.800,4308.3169,N,07726.2579,W,1,07,1.27,157.7,M,-34.4,M,,*57
lng=-77.437629, lat=43.138607, altitude=157.90, speed=5.15, satellites=7, angle=15.6100, fixquality=1
$GPRMC,142232.000,A,4308.3171,N,07726.2579,W,4.32,16.97,040419,,,A*4A
$GPGGA,142232.200,4308.3173,N,07726.2579,W,1,07,1.27,157.4,M,-34.4,M,,*56
lng=-77.437629, lat=43.138614, altitude=157.70, speed=4.32, satellites=7, angle=16.9700, fixquality=1
$GPRMC,142232.400,A,4308.3175,N,07726.2578,W,3.51,22.45,040419,,,A*41
$GPGGA,142232.600,4308.3177,N,07726.2577,W,1,07,1.16,157.2,M,-34.4,M,,*5C
lng=-77.437629, lat=43.138622, altitude=157.40, speed=3.51, satellites=7, angle=22.4500, fixquality=1
$GPRMC,142232.800,A,4308.3179,N,07726.2577,W,3.19,24.53,040419,,,A*43
$GPGGA,142233.000,4308.3180,N,07726.2576,W,1,07,1.16,157.1,M,-34.4,M,,*51
lng=-77.437629, lat=43.138629, altitude=157.20, speed=3.19, satellites=7, angle=24.5300, fixquality=1
$GPRMC,142233.200,A,4308.3181,N,07726.2575,W,3.16,30.03,040419,,,A*42
$GPGGA,142233.400,4308.3182,N,07726.2574,W,1,07,1.16,157.0,M,-34.4,M,,*54
lng=-77.437622, lat=43.138629, altitude=157.10, speed=3.16, satellites=7, angle=30.0300, fixquality=1
$GPRMC,142233.600,A,4308.3184,N,07726.2573,W,3.49,37.37,040419,,,A*4F
$GPGGA,142233.800,4308.3185,N,07726.2572,W,1,07,1.16,156.7,M,-34.4,M,,*5F
lng=-77.437622, lat=43.138637, altitude=157.00, speed=3.49, satellites=7, angle=37.3700, fixquality=1
$GPRMC,142234.000,A,4308.3186,N,07726.2570,W,4.00,45.95,040419,,,A*48
$GPGGA,142234.200,4308.3187,N,07726.2568,W,1,07,1.27,156.4,M,-34.4,M,,*5A
lng=-77.437614, lat=43.138637, altitude=156.70, speed=4.00, satellites=7, angle=45.9500, fixquality=1
$GPRMC,142234.400,A,4308.3188,N,07726.2566,W,4.38,51.11,040419,,,A*47
$GPGGA,142234.600,4308.3190,N,07726.2564,W,1,07,1.27,156.2,M,-34.4,M,,*52
lng=-77.437614, lat=43.138648, altitude=156.40, speed=4.38, satellites=7, angle=51.1100, fixquality=1
$GPRMC,142234.800,A,4308.3191,N,07726.2561,W,4.37,61.28,040419,,,A*42
$GPGGA,142235.000,4308.3192,N,07726.2559,W,1,07,1.27,155.9,M,-34.4,M,,*51
lng=-77.437599, lat=43.138656, altitude=156.20, speed=4.37, satellites=7, angle=61.2800, fixquality=1
$GPRMC,142235.200,A,4308.3193,N,07726.2557,W,3.83,70.34,040419,,,A*4B
$GPGGA,142235.400,4308.3193,N,07726.2555,W,1,07,1.16,155.4,M,-34.4,M,,*57
lng=-77.437599, lat=43.138656, altitude=155.90, speed=3.83, satellites=7, angle=70.3400, fixquality=1
$GPRMC,142235.600,A,4308.3193,N,07726.2553,W,2.65,75.50,040419,,,A*45
$GPGGA,142235.800,4308.3194,N,07726.2551,W,1,05,1.59,155.2,M,-34.4,M,,*57
lng=-77.437591, lat=43.138656, altitude=155.40, speed=2.65, satellites=7, angle=75.5000, fixquality=1
$GPRMC,142236.000,A,4308.3194,N,07726.2550,W,2.04,76.85,040419,,,A*48
$GPGGA,142236.200,4308.3194,N,07726.2549,W,1,06,1.19,154.9,M,-34.4,M,,*5A
lng=-77.437583, lat=43.138656, altitude=155.20, speed=2.04, satellites=5, angle=76.8500, fixquality=1
$GPRMC,142236.400,A,4308.3194,N,07726.2549,W,0.91,69.16,040419,,,A*4E
$GPGGA,142236.600,4308.3194,N,07726.2548,W,1,06,1.19,154.7,M,-34.4,M,,*51
lng=-77.437583, lat=43.138656, altitude=154.90, speed=0.91, satellites=6, angle=69.1600, fixquality=1
$GPRMC,142236.800,A,4308.3194,N,07726.2549,W,0.53,57.93,040419,,,A*4C
$GPGGA,142237.000,4308.3194,N,07726.2550,W,1,06,1.19,154.5,M,-34.4,M,,*5D
lng=-77.437583, lat=43.138656, altitude=154.70, speed=0.53, satellites=6, angle=57.9300, fixquality=1
$GPRMC,142237.200,A,4308.3195,N,07726.2552,W,0.63,315.31,040419,,,A*72
$GPGGA,142237.400,4308.3195,N,07726.2554,W,1,06,1.19,154.3,M,-34.4,M,,*5A
lng=-77.437591, lat=43.138656, altitude=154.50, speed=0.63, satellites=6, angle=315.3100, fixquality=1
$GPRMC,142237.600,A,4308.3195,N,07726.2556,W,1.33,296.03,040419,,,A*7D
$GPGGA,142237.800,4308.3195,N,07726.2562,W,1,06,1.19,154.0,M,-34.4,M,,*50
lng=-77.437591, lat=43.138656, altitude=154.30, speed=1.33, satellites=6, angle=296.0300, fixquality=1
$GPRMC,142238.000,A,4308.3196,N,07726.2567,W,3.06,286.01,040419,,,A*72
$GPGGA,142238.200,4308.3196,N,07726.2570,W,1,06,1.19,153.7,M,-34.4,M,,*55
lng=-77.437614, lat=43.138664, altitude=154.00, speed=3.06, satellites=6, angle=286.0100, fixquality=1
$GPRMC,142238.400,A,4308.3197,N,07726.2574,W,4.71,291.38,040419,,,A*7E
$GPGGA,142238.600,4308.3197,N,07726.2578,W,1,06,1.19,153.5,M,-34.4,M,,*5A
lng=-77.437622, lat=43.138664, altitude=153.70, speed=4.71, satellites=6, angle=291.3800, fixquality=1
$GPRMC,142238.800,A,4308.3197,N,07726.2583,W,5.43,285.51,040419,,,A*70
$GPGGA,142239.000,4308.3197,N,07726.2588,W,1,07,1.27,153.3,M,-34.4,M,,*58
lng=-77.437637, lat=43.138664, altitude=153.50, speed=5.43, satellites=6, angle=285.5100, fixquality=1
$GPRMC,142239.200,A,4308.3192,N,07726.2602,W,9.49,261.68,040419,,,A*72
$GPGGA,142239.400,4308.3191,N,07726.2614,W,1,07,1.27,153.2,M,-34.4,M,,*5D
lng=-77.437667, lat=43.138656, altitude=153.30, speed=9.49, satellites=7, angle=261.6800, fixquality=1
$GPRMC,142239.600,A,4308.3191,N,07726.2624,W,12.57,266.32,040419,,,A*4C
$GPGGA,142239.800,4308.3190,N,07726.2635,W,1,07,1.16,153.2,M,-34.4,M,,*51
lng=-77.437705, lat=43.138656, altitude=153.20, speed=12.57, satellites=7, angle=266.3200, fixquality=1
$GPRMC,142240.000,A,4308.3190,N,07726.2647,W,15.06,268.68,040419,,,A*42
$GPGGA,142240.200,4308.3191,N,07726.2659,W,1,07,1.16,153.2,M,-34.4,M,,*5E
lng=-77.437744, lat=43.138648, altitude=153.20, speed=15.06, satellites=7, angle=268.6800, fixquality=1
$GPRMC,142240.400,A,4308.3193,N,07726.2673,W,16.81,274.16,040419,,,A*4A
$GPGGA,142240.600,4308.3194,N,07726.2686,W,1,07,1.16,153.1,M,-34.4,M,,*5E
lng=-77.437782, lat=43.138656, altitude=153.20, speed=16.81, satellites=7, angle=274.1600, fixquality=1
$GPRMC,142240.800,A,4308.3195,N,07726.2701,W,17.82,277.36,040419,,,A*47
$GPGGA,142241.000,4308.3197,N,07726.2715,W,1,07,1.27,153.1,M,-34.4,M,,*53
lng=-77.437835, lat=43.138656, altitude=153.10, speed=17.82, satellites=7, angle=277.3600, fixquality=1
$GPRMC,142241.200,A,4308.3200,N,07726.2729,W,18.52,281.03,040419,,,A*44
$GPGGA,142241.400,4308.3203,N,07726.2744,W,1,07,1.27,153.0,M,-34.4,M,,*5C
lng=-77.437881, lat=43.138664, altitude=153.10, speed=18.52, satellites=7, angle=281.0300, fixquality=1
$GPRMC,142241.600,A,4308.3206,N,07726.2760,W,19.61,284.14,040419,,,A*49
$GPGGA,142241.800,4308.3210,N,07726.2776,W,1,07,1.27,152.8,M,-34.4,M,,*5A
lng=-77.437934, lat=43.138679, altitude=153.00, speed=19.61, satellites=7, angle=284.1400, fixquality=1
$GPRMC,142242.000,A,4308.3214,N,07726.2793,W,21.36,288.50,040419,,,A*46
$GPGGA,142242.200,4308.3219,N,07726.2809,W,1,07,1.27,152.7,M,-34.4,M,,*52
lng=-77.437988, lat=43.138687, altitude=152.80, speed=21.36, satellites=7, angle=288.5000, fixquality=1
$GPRMC,142242.400,A,4308.3223,N,07726.2825,W,22.37,291.10,040419,,,A*4A
$GPGGA,142242.600,4308.3228,N,07726.2842,W,1,07,1.16,152.6,M,-34.4,M,,*58
lng=-77.438041, lat=43.138706, altitude=152.70, speed=22.37, satellites=7, angle=291.1000, fixquality=1
$GPRMC,142242.800,A,4308.3233,N,07726.2859,W,22.90,292.65,040419,,,A*40
$GPGGA,142243.000,4308.3239,N,07726.2876,W,1,07,1.16,152.6,M,-34.4,M,,*58
lng=-77.438102, lat=43.138721, altitude=152.60, speed=22.90, satellites=7, angle=292.6500, fixquality=1
$GPRMC,142243.200,A,4308.3246,N,07726.2893,W,23.83,294.91,040419,,,A*41
$GPGGA,142243.400,4308.3253,N,07726.2911,W,1,07,1.16,152.6,M,-34.4,M,,*50
lng=-77.438148, lat=43.138744, altitude=152.60, speed=23.83, satellites=7, angle=294.9100, fixquality=1
$GPRMC,142243.600,A,4308.3260,N,07726.2928,W,24.83,297.30,040419,,,A*4F
$GPGGA,142243.800,4308.3268,N,07726.2946,W,1,07,1.16,152.6,M,-34.4,M,,*56
lng=-77.438217, lat=43.138771, altitude=152.60, speed=24.83, satellites=7, angle=297.3000, fixquality=1
$GPRMC,142244.000,A,4308.3275,N,07726.2964,W,25.86,299.05,040419,,,A*4E
$GPGGA,142244.200,4308.3283,N,07726.2983,W,1,07,1.27,152.6,M,-34.4,M,,*55
lng=-77.438270, lat=43.138793, altitude=152.60, speed=25.86, satellites=7, angle=299.0500, fixquality=1
$GPRMC,142244.400,A,4308.3291,N,07726.3001,W,26.80,300.40,040419,,,A*4E
$GPGGA,142244.600,4308.3299,N,07726.3019,W,1,07,1.16,152.6,M,-34.4,M,,*53
lng=-77.438339, lat=43.138816, altitude=152.60, speed=26.80, satellites=7, angle=300.4000, fixquality=1
$GPRMC,142244.800,A,4308.3307,N,07726.3038,W,27.08,300.43,040419,,,A*44
$GPGGA,142245.000,4308.3315,N,07726.3056,W,1,07,1.27,152.6,M,-34.4,M,,*58
lng=-77.438392, lat=43.138843, altitude=152.60, speed=27.08, satellites=7, angle=300.4300, fixquality=1
$GPRMC,142245.200,A,4308.3324,N,07726.3074,W,27.38,301.14,040419,,,A*46
$GPGGA,142245.400,4308.3333,N,07726.3092,W,1,07,1.27,152.7,M,-34.4,M,,*51
lng=-77.438461, lat=43.138874, altitude=152.60, speed=27.38, satellites=7, angle=301.1400, fixquality=1
$GPRMC,142245.600,A,4308.3341,N,07726.3110,W,28.01,303.11,040419,,,A*40
$GPGGA,142245.800,4308.3350,N,07726.3128,W,1,07,1.27,152.7,M,-34.4,M,,*58
lng=-77.438514, lat=43.138900, altitude=152.70, speed=28.01, satellites=7, angle=303.1100, fixquality=1
$GPRMC,142246.000,A,4308.3359,N,07726.3146,W,28.25,303.22,040419,,,A*49
$GPGGA,142246.200,4308.3368,N,07726.3164,W,1,07,1.16,152.8,M,-34.4,M,,*5F
lng=-77.438575, lat=43.138931, altitude=152.70, speed=28.25, satellites=7, angle=303.2200, fixquality=1
$GPRMC,142246.400,A,4308.3377,N,07726.3182,W,28.22,303.59,040419,,,A*42
$GPGGA,142246.600,4308.3385,N,07726.3200,W,1,07,1.16,152.8,M,-34.4,M,,*59
lng=-77.438636, lat=43.138965, altitude=152.80, speed=28.22, satellites=7, angle=303.5900, fixquality=1
$GPRMC,142246.800,A,4308.3394,N,07726.3218,W,28.19,304.16,040419,,,A*47
$GPGGA,142247.000,4308.3403,N,07726.3236,W,1,07,1.16,152.9,M,-34.4,M,,*53
lng=-77.438697, lat=43.138988, altitude=152.80, speed=28.19, satellites=7, angle=304.1600, fixquality=1
$GPRMC,142247.200,A,4308.3412,N,07726.3254,W,28.27,304.25,040419,,,A*40
$GPGGA,142247.400,4308.3421,N,07726.3272,W,1,07,1.16,152.9,M,-34.4,M,,*57
lng=-77.438751, lat=43.139022, altitude=152.90, speed=28.27, satellites=7, angle=304.2500, fixquality=1
$GPRMC,142247.600,A,4308.3430,N,07726.3289,W,27.75,304.63,040419,,,A*4E
$GPGGA,142247.800,4308.3439,N,07726.3307,W,1,07,1.16,153.0,M,-34.4,M,,*59
lng=-77.438819, lat=43.139045, altitude=152.90, speed=27.75, satellites=7, angle=304.6300, fixquality=1
$GPRMC,142248.000,A,4308.3448,N,07726.3325,W,27.69,304.63,040419,,,A*42
$GPGGA,142248.200,4308.3457,N,07726.3343,W,1,07,1.16,153.0,M,-34.4,M,,*54
lng=-77.438873, lat=43.139080, altitude=153.00, speed=27.69, satellites=7, angle=304.6300, fixquality=1
$GPRMC,142248.400,A,4308.3466,N,07726.3360,W,27.33,304.66,040419,,,A*41
$GPGGA,142248.600,4308.3475,N,07726.3377,W,1,07,1.16,153.1,M,-34.4,M,,*56
lng=-77.438934, lat=43.139110, altitude=153.00, speed=27.33, satellites=7, angle=304.6600, fixquality=1
$GPRMC,142248.800,A,4308.3483,N,07726.3394,W,27.06,304.87,040419,,,A*44
$GPGGA,142249.000,4308.3492,N,07726.3411,W,1,07,1.16,153.2,M,-34.4,M,,*5C
lng=-77.438987, lat=43.139137, altitude=153.10, speed=27.06, satellites=7, angle=304.8700, fixquality=1
$GPRMC,142249.200,A,4308.3501,N,07726.3428,W,26.73,305.27,040419,,,A*4C
$GPGGA,142249.400,4308.3509,N,07726.3444,W,1,07,1.16,153.2,M,-34.4,M,,*5B
lng=-77.439048, lat=43.139167, altitude=153.20, speed=26.73, satellites=7, angle=305.2700, fixquality=1
$GPRMC,142249.600,A,4308.3518,N,07726.3461,W,26.15,305.42,040419,,,A*4E
$GPGGA,142249.800,4308.3526,N,07726.3476,W,1,07,1.16,153.2,M,-34.4,M,,*5B
lng=-77.439102, lat=43.139194, altitude=153.20, speed=26.15, satellites=7, angle=305.4200, fixquality=1
$GPRMC,142250.000,A,4308.3534,N,07726.3492,W,25.33,306.30,040419,,,A*43
$GPGGA,142250.200,4308.3542,N,07726.3507,W,1,07,1.16,153.3,M,-34.4,M,,*5D
lng=-77.439155, lat=43.139225, altitude=153.20, speed=25.33, satellites=7, angle=306.3000, fixquality=1
$GPRMC,142250.400,A,4308.3551,N,07726.3523,W,24.97,307.31,040419,,,A*40
$GPGGA,142250.600,4308.3559,N,07726.3538,W,1,07,1.16,153.3,M,-34.4,M,,*5F
lng=-77.439208, lat=43.139247, altitude=153.30, speed=24.97, satellites=7, angle=307.3100, fixquality=1
$GPRMC,142250.800,A,4308.3568,N,07726.3552,W,24.62,307.82,040419,,,A*42
$GPGGA,142251.000,4308.3576,N,07726.3567,W,1,07,1.16,153.4,M,-34.4,M,,*58
lng=-77.439247, lat=43.139282, altitude=153.30, speed=24.62, satellites=7, angle=307.8200, fixquality=1
$GPRMC,142251.200,A,4308.3585,N,07726.3581,W,23.76,308.92,040419,,,A*48
$GPGGA,142251.400,4308.3593,N,07726.3594,W,1,07,1.16,153.4,M,-34.4,M,,*5B
lng=-77.439300, lat=43.139305, altitude=153.40, speed=23.76, satellites=7, angle=308.9200, fixquality=1
$GPRMC,142251.600,A,4308.3601,N,07726.3608,W,23.09,309.88,040419,,,A*43
$GPGGA,142251.800,4308.3610,N,07726.3621,W,1,07,1.16,153.5,M,-34.4,M,,*53
lng=-77.439346, lat=43.139331, altitude=153.40, speed=23.09, satellites=7, angle=309.8800, fixquality=1
$GPRMC,142252.000,A,4308.3619,N,07726.3634,W,22.67,311.45,040419,,,A*41
$GPGGA,142252.200,4308.3628,N,07726.3646,W,1,07,1.16,153.5,M,-34.4,M,,*50
lng=-77.439384, lat=43.139362, altitude=153.50, speed=22.67, satellites=7, angle=311.4500, fixquality=1
$GPRMC,142252.400,A,4308.3637,N,07726.3658,W,22.33,314.71,040419,,,A*40
$GPGGA,142252.600,4308.3647,N,07726.3669,W,1,07,1.16,153.5,M,-34.4,M,,*50
lng=-77.439430, lat=43.139396, altitude=153.50, speed=22.33, satellites=7, angle=314.7100, fixquality=1
$GPRMC,142252.800,A,4308.3657,N,07726.3680,W,21.93,319.56,040419,,,A*4E
$GPGGA,142253.000,4308.3667,N,07726.3690,W,1,07,1.16,153.4,M,-34.4,M,,*52
lng=-77.439468, lat=43.139427, altitude=153.50, speed=21.93, satellites=7, angle=319.5600, fixquality=1
$GPRMC,142253.200,A,4308.3677,N,07726.3700,W,21.88,322.92,040419,,,A*44
$GPGGA,142253.400,4308.3687,N,07726.3710,W,1,07,1.16,153.4,M,-34.4,M,,*51
lng=-77.439498, lat=43.139461, altitude=153.40, speed=21.88, satellites=7, angle=322.9200, fixquality=1
$GPRMC,142253.600,A,4308.3697,N,07726.3720,W,21.80,325.20,040419,,,A*4A
$GPGGA,142253.800,4308.3708,N,07726.3729,W,1,07,1.16,153.4,M,-34.4,M,,*51
lng=-77.439537, lat=43.139492, altitude=153.40, speed=21.80, satellites=7, angle=325.2000, fixquality=1
$GPRMC,142254.000,A,4308.3719,N,07726.3736,W,21.73,329.74,040419,,,A*4A
$GPGGA,142254.200,4308.3730,N,07726.3745,W,1,07,1.16,153.4,M,-34.4,M,,*5D
lng=-77.439559, lat=43.139533, altitude=153.40, speed=21.73, satellites=7, angle=329.7400, fixquality=1
$GPRMC,142254.400,A,4308.3740,N,07726.3753,W,21.66,330.50,040419,,,A*4B
$GPGGA,142254.600,4308.3751,N,07726.3761,W,1,07,1.16,153.4,M,-34.4,M,,*58
lng=-77.439590, lat=43.139568, altitude=153.40, speed=21.66, satellites=7, angle=330.5000, fixquality=1
$GPRMC,142254.800,A,4308.3761,N,07726.3768,W,21.51,331.48,040419,,,A*40
$GPGGA,142255.000,4308.3772,N,07726.3775,W,1,07,1.16,153.5,M,-34.4,M,,*5A
lng=-77.439613, lat=43.139598, altitude=153.40, speed=21.51, satellites=7, angle=331.4800, fixquality=1
$GPRMC,142255.200,A,4308.3782,N,07726.3781,W,21.17,333.45,040419,,,A*4C
$GPGGA,142255.400,4308.3793,N,07726.3786,W,1,07,1.16,153.5,M,-34.4,M,,*5D
lng=-77.439628, lat=43.139640, altitude=153.50, speed=21.17, satellites=7, angle=333.4500, fixquality=1
$GPRMC,142255.600,A,4308.3805,N,07726.3791,W,21.11,336.32,040419,,,A*4A
$GPGGA,142255.800,4308.3817,N,07726.3795,W,1,07,1.16,153.5,M,-34.4,M,,*50
lng=-77.439651, lat=43.139671, altitude=153.50, speed=21.11, satellites=7, angle=336.3200, fixquality=1
$GPRMC,142256.000,A,4308.3829,N,07726.3798,W,20.77,340.85,040419,,,A*44
$GPGGA,142256.200,4308.3841,N,07726.3801,W,1,07,1.16,153.6,M,-34.4,M,,*5B
lng=-77.439666, lat=43.139713, altitude=153.50, speed=20.77, satellites=7, angle=340.8500, fixquality=1
$GPRMC,142256.400,A,4308.3857,N,07726.3801,W,21.50,346.76,040419,,,A*48
$GPGGA,142256.600,4308.3874,N,07726.3798,W,1,07,1.27,153.6,M,-34.4,M,,*54
lng=-77.439666, lat=43.139762, altitude=153.60, speed=21.50, satellites=7, angle=346.7600, fixquality=1
$GPRMC,142256.800,A,4308.3891,N,07726.3795,W,23.06,356.70,040419,,,A*4A
$GPGGA,142257.000,4308.3905,N,07726.3794,W,1,07,1.27,153.6,M,-34.4,M,,*58
lng=-77.439659, lat=43.139820, altitude=153.60, speed=23.06, satellites=7, angle=356.7000, fixquality=1
$GPRMC,142257.200,A,4308.3919,N,07726.3793,W,23.82,0.23,040419,,,A*4C
$GPGGA,142257.400,4308.3934,N,07726.3791,W,1,07,1.27,153.6,M,-34.4,M,,*5B
lng=-77.439659, lat=43.139869, altitude=153.60, speed=23.82, satellites=7, angle=0.2300, fixquality=1
$GPRMC,142257.600,A,4308.3948,N,07726.3790,W,24.80,2.54,040419,,,A*48
$GPGGA,142257.800,4308.3962,N,07726.3788,W,1,07,1.27,153.6,M,-34.4,M,,*5C
lng=-77.439651, lat=43.139915, altitude=153.60, speed=24.80, satellites=7, angle=2.5400, fixquality=1
$GPRMC,142258.000,A,4308.3977,N,07726.3786,W,25.48,4.95,040419,,,A*44
$GPGGA,142258.200,4308.3992,N,07726.3783,W,1,07,1.27,153.6,M,-34.4,M,,*5D
lng=-77.439643, lat=43.139957, altitude=153.60, speed=25.48, satellites=7, angle=4.9500, fixquality=1
$GPRMC,142258.400,A,4308.4007,N,07726.3780,W,25.97,6.92,040419,,,A*48
$GPGGA,142258.600,4308.4021,N,07726.3777,W,1,07,1.16,153.6,M,-34.4,M,,*56
lng=-77.439628, lat=43.140014, altitude=153.60, speed=25.97, satellites=7, angle=6.9200, fixquality=1
$GPRMC,142258.800,A,4308.4036,N,07726.3774,W,26.03,8.04,040419,,,A*42
$GPGGA,142259.000,4308.4050,N,07726.3771,W,1,07,1.16,153.6,M,-34.4,M,,*51
lng=-77.439620, lat=43.140064, altitude=153.60, speed=26.03, satellites=7, angle=8.0400, fixquality=1
$GPRMC,142259.200,A,4308.4064,N,07726.3766,W,26.21,9.62,040419,,,A*4C
$GPGGA,142259.400,4308.4079,N,07726.3762,W,1,07,1.16,153.7,M,-34.4,M,,*5D
lng=-77.439605, lat=43.140102, altitude=153.60, speed=26.21, satellites=7, angle=9.6200, fixquality=1
$GPRMC,142259.600,A,4308.4094,N,07726.3757,W,26.24,10.71,040419,,,A*7A
$GPGGA,142259.800,4308.4109,N,07726.3753,W,1,07,1.16,153.7,M,-34.4,M,,*55
lng=-77.439590, lat=43.140151, altitude=153.70, speed=26.24, satellites=7, angle=10.7100, fixquality=1
$GPRMC,142300.000,A,4308.4124,N,07726.3748,W,26.38,11.53,040419,,,A*79
$GPGGA,142300.200,4308.4139,N,07726.3743,W,1,07,1.27,153.7,M,-34.4,M,,*52
lng=-77.439582, lat=43.140209, altitude=153.70, speed=26.38, satellites=7, angle=11.5300, fixquality=1
$GPRMC,142300.400,A,4308.4154,N,07726.3738,W,27.22,11.26,040419,,,A*75
$GPGGA,142300.600,4308.4170,N,07726.3733,W,1,07,1.16,153.7,M,-34.4,M,,*5E
lng=-77.439567, lat=43.140258, altitude=153.70, speed=27.22, satellites=7, angle=11.2600, fixquality=1
$GPRMC,142300.800,A,4308.4185,N,07726.3728,W,27.57,10.41,040419,,,A*76
$GPGGA,142301.000,4308.4200,N,07726.3724,W,1,07,1.27,153.7,M,-34.4,M,,*59
lng=-77.439544, lat=43.140308, altitude=153.70, speed=27.57, satellites=7, angle=10.4100, fixquality=1
$GPRMC,142301.200,A,4308.4216,N,07726.3720,W,27.61,9.86,040419,,,A*4A
$GPGGA,142301.400,4308.4231,N,07726.3716,W,1,07,1.16,153.6,M,-34.4,M,,*5D
lng=-77.439537, lat=43.140357, altitude=153.70, speed=27.61, satellites=7, angle=9.8600, fixquality=1
$GPRMC,142301.600,A,4308.4245,N,07726.3712,W,27.65,9.30,040419,,,A*40
$GPGGA,142301.800,4308.4260,N,07726.3708,W,1,07,1.16,153.6,M,-34.4,M,,*5A
lng=-77.439521, lat=43.140403, altitude=153.60, speed=27.65, satellites=7, angle=9.3000, fixquality=1
$GPRMC,142302.000,A,4308.4275,N,07726.3705,W,26.73,9.26,040419,,,A*41
$GPGGA,142302.200,4308.4289,N,07726.3701,W,1,07,1.27,153.6,M,-34.4,M,,*5F
lng=-77.439506, lat=43.140460, altitude=153.60, speed=26.73, satellites=7, angle=9.2600, fixquality=1
$GPRMC,142302.400,A,4308.4304,N,07726.3697,W,26.32,9.27,040419,,,A*4C
$GPGGA,142302.600,4308.4317,N,07726.3694,W,1,07,1.16,153.6,M,-34.4,M,,*52
lng=-77.439491, lat=43.140502, altitude=153.60, speed=26.32, satellites=7, angle=9.2700, fixquality=1
$GPRMC,142302.800,A,4308.4331,N,07726.3690,W,25.86,9.13,040419,,,A*4A
$GPGGA,142303.000,4308.4346,N,07726.3687,W,1,07,1.16,153.6,M,-34.4,M,,*53
lng=-77.439483, lat=43.140552, altitude=153.60, speed=25.86, satellites=7, angle=9.1300, fixquality=1
$GPRMC,142303.200,A,4308.4360,N,07726.3683,W,25.73,9.57,040419,,,A*4D
$GPGGA,142303.400,4308.4374,N,07726.3679,W,1,07,1.16,153.6,M,-34.4,M,,*57
lng=-77.439468, lat=43.140602, altitude=153.60, speed=25.73, satellites=7, angle=9.5700, fixquality=1
$GPRMC,142303.600,A,4308.4388,N,07726.3676,W,24.96,10.30,040419,,,A*76
$GPGGA,142303.800,4308.4401,N,07726.3673,W,1,07,1.27,153.6,M,-34.4,M,,*56
lng=-77.439460, lat=43.140647, altitude=153.60, speed=24.96, satellites=7, angle=10.3000, fixquality=1
$GPRMC,142304.000,A,4308.4414,N,07726.3670,W,24.01,9.52,040419,,,A*41
$GPGGA,142304.200,4308.4426,N,07726.3667,W,1,07,1.27,153.5,M,-34.4,M,,*58
lng=-77.439453, lat=43.140689, altitude=153.60, speed=24.01, satellites=7, angle=9.5200, fixquality=1
$GPRMC,142304.400,A,4308.4438,N,07726.3664,W,22.81,9.87,040419,,,A*48
$GPGGA,142304.600,4308.4450,N,07726.3660,W,1,07,1.27,153.5,M,-34.4,M,,*5A
lng=-77.439437, lat=43.140731, altitude=153.50, speed=22.81, satellites=7, angle=9.8700, fixquality=1
$GPRMC,142304.800,A,4308.4461,N,07726.3657,W,21.64,10.07,040419,,,A*70
$GPGGA,142305.000,4308.4472,N,07726.3655,W,1,07,1.27,153.4,M,-34.4,M,,*5A
lng=-77.439430, lat=43.140769, altitude=153.50, speed=21.64, satellites=7, angle=10.0700, fixquality=1
$GPRMC,142305.200,A,4308.4483,N,07726.3652,W,19.90,9.85,040419,,,A*40
$GPGGA,142305.400,4308.4494,N,07726.3649,W,1,07,1.27,153.4,M,-34.4,M,,*5B
lng=-77.439422, lat=43.140804, altitude=153.40, speed=19.90, satellites=7, angle=9.8500, fixquality=1
$GPRMC,142305.600,A,4308.4504,N,07726.3647,W,18.98,9.73,040419,,,A*4E
$GPGGA,142305.800,4308.4513,N,07726.3644,W,1,07,1.27,153.4,M,-34.4,M,,*54
lng=-77.439414, lat=43.140834, altitude=153.40, speed=18.98, satellites=7, angle=9.7300, fixquality=1
$GPRMC,142306.000,A,4308.4522,N,07726.3642,W,16.89,11.01,040419,,,A*78
$GPGGA,142306.200,4308.4528,N,07726.3640,W,1,07,1.27,153.3,M,-34.4,M,,*56
lng=-77.439407, lat=43.140869, altitude=153.40, speed=16.89, satellites=7, angle=11.0100, fixquality=1
$GPRMC,142306.400,A,4308.4534,N,07726.3638,W,12.77,12.62,040419,,,A*75
$GPGGA,142306.600,4308.4539,N,07726.3637,W,1,07,1.27,153.1,M,-34.4,M,,*50
lng=-77.439399, lat=43.140892, altitude=153.30, speed=12.77, satellites=7, angle=12.6200, fixquality=1
$GPRMC,142306.800,A,4308.4544,N,07726.3636,W,10.49,12.22,040419,,,A*7B
$GPGGA,142307.000,4308.4549,N,07726.3634,W,1,07,1.27,153.3,M,-34.4,M,,*51
lng=-77.439399, lat=43.140911, altitude=153.10, speed=10.49, satellites=7, angle=12.2200, fixquality=1
$GPRMC,142307.200,A,4308.4553,N,07726.3633,W,6.87,11.41,040419,,,A*40
$GPGGA,142307.400,4308.4555,N,07726.3632,W,1,07,1.27,153.4,M,-34.4,M,,*59
lng=-77.439384, lat=43.140918, altitude=153.30, speed=6.87, satellites=7, angle=11.4100, fixquality=1
$GPRMC,142307.600,A,4308.4556,N,07726.3631,W,4.42,9.73,040419,,,A*70
$GPGGA,142307.800,4308.4557,N,07726.3631,W,1,07,1.27,153.4,M,-34.4,M,,*54
lng=-77.439384, lat=43.140926, altitude=153.40, speed=4.42, satellites=7, angle=9.7300, fixquality=1
$GPRMC,142308.000,A,4308.4558,N,07726.3630,W,2.92,1.21,040419,,,A*72
$GPGGA,142308.200,4308.4558,N,07726.3630,W,1,07,1.27,153.6,M,-34.4,M,,*5D
lng=-77.439376, lat=43.140926, altitude=153.40, speed=2.92, satellites=7, angle=1.2100, fixquality=1
$GPRMC,142308.400,A,4308.4558,N,07726.3629,W,1.49,1.21,040419,,,A*7B
$GPGGA,142308.600,4308.4558,N,07726.3629,W,1,07,1.27,153.7,M,-34.4,M,,*50
lng=-77.439376, lat=43.140926, altitude=153.60, speed=1.49, satellites=7, angle=1.2100, fixquality=1
$GPRMC,142308.800,A,4308.4558,N,07726.3629,W,0.71,1.21,040419,,,A*7D
$GPGGA,142309.000,4308.4557,N,07726.3629,W,1,07,1.27,153.8,M,-34.4,M,,*57
lng=-77.439376, lat=43.140926, altitude=153.70, speed=0.71, satellites=7, angle=1.2100, fixquality=1
$GPRMC,142309.200,A,4308.4557,N,07726.3629,W,0.53,1.21,040419,,,A*79
$GPGGA,142309.400,4308.4557,N,07726.3628,W,1,07,1.27,153.8,M,-34.4,M,,*52
lng=-77.439376, lat=43.140926, altitude=153.80, speed=0.53, satellites=7, angle=1.2100, fixquality=1
$GPRMC,142309.600,A,4308.4557,N,07726.3628,W,0.44,1.21,040419,,,A*7A
$GPGGA,142309.800,4308.4557,N,07726.3628,W,1,07,1.27,153.8,M,-34.4,M,,*5E
lng=-77.439376, lat=43.140926, altitude=153.80, speed=0.44, satellites=7, angle=1.2100, fixquality=1
$GPRMC,142310.000,A,4308.4557,N,07726.3627,W,0.33,12.94,040419,,,A*47
$GPGGA,142310.200,4308.4556,N,07726.3627,W,1,07,1.27,153.9,M,-34.4,M,,*53
lng=-77.439376, lat=43.140926, altitude=153.80, speed=0.33, satellites=7, angle=12.9400, fixquality=1
$GPRMC,142310.400,A,4308.4556,N,07726.3627,W,0.25,350.34,040419,,,A*7A
$GPGGA,142310.600,4308.4556,N,07726.3626,W,1,07,1.27,153.9,M,-34.4,M,,*56
lng=-77.439376, lat=43.140926, altitude=153.90, speed=0.25, satellites=7, angle=350.3400, fixquality=1
$GPRMC,142310.800,A,4308.4555,N,07726.3626,W,0.18,357.00,040419,,,A*7A
$GPGGA,142311.000,4308.4555,N,07726.3626,W,1,07,1.27,153.8,M,-34.4,M,,*53
lng=-77.439376, lat=43.140926, altitude=153.90, speed=0.18, satellites=7, angle=357.0000, fixquality=1
$GPRMC,142311.200,A,4308.4555,N,07726.3626,W,0.14,356.88,040419,,,A*7C
$GPGGA,142311.400,4308.4554,N,07726.3625,W,1,07,1.16,153.5,M,-34.4,M,,*5A
lng=-77.439376, lat=43.140926, altitude=153.80, speed=0.14, satellites=7, angle=356.8800, fixquality=1
$GPRMC,142311.600,A,4308.4554,N,07726.3625,W,0.09,356.88,040419,,,A*76
$GPGGA,142311.800,4308.4554,N,07726.3625,W,1,07,1.27,153.4,M,-34.4,M,,*55
lng=-77.439369, lat=43.140926, altitude=153.50, speed=0.09, satellites=7, angle=356.8800, fixquality=1
$GPRMC,142312.000,A,4308.4554,N,07726.3625,W,0.06,356.88,040419,,,A*7C
$GPGGA,142312.200,4308.4554,N,07726.3625,W,1,07,1.16,153.4,M,-34.4,M,,*5E
lng=-77.439369, lat=43.140926, altitude=153.40, speed=0.06, satellites=7, angle=356.8800, fixquality=1
$GPRMC,142312.400,A,4308.4554,N,07726.3625,W,0.06,356.88,040419,,,A*78
$GPGGA,142312.600,4308.4554,N,07726.3625,W,1,07,1.27,153.4,M,-34.4,M,,*58
lng=-77.439369, lat=43.140926, altitude=153.40, speed=0.06, satellites=7, angle=356.8800, fixquality=1
$GPRMC,142312.800,A,4308.4554,N,07726.3625,W,0.01,356.88,040419,,,A*73
$GPGGA,142313.000,4308.4554,N,07726.3625,W,1,07,1.16,153.4,M,-34.4,M,,*5D
lng=-77.439369, lat=43.140926, altitude=153.40, speed=0.01, satellites=7, angle=356.8800, fixquality=1
$GPRMC,142313.200,A,4308.4554,N,07726.3625,W,0.02,356.88,040419,,,A*7B
$GPGGA,142313.400,4308.4554,N,07726.3625,W,1,07,1.16,153.4,M,-34.4,M,,*59
lng=-77.439369, lat=43.140926, altitude=153.40, speed=0.02, satellites=7, angle=356.8800, fixquality=1
$GPRMC,142313.600,A,4308.4554,N,07726.3625,W,0.16,356.88,040419,,,A*7A
$GPGGA,142313.800,4308.4554,N,07726.3625,W,1,07,1.27,153.5,M,-34.4,M,,*56
lng=-77.439369, lat=43.140926, altitude=153.40, speed=0.16, satellites=7, angle=356.8800, fixquality=1
$GPRMC,142314.000,A,4308.4554,N,07726.3625,W,0.68,356.88,040419,,,A*72
$GPGGA,142314.200,4308.4554,N,07726.3624,W,1,07,1.27,153.5,M,-34.4,M,,*5A
lng=-77.439369, lat=43.140926, altitude=153.50, speed=0.68, satellites=7, angle=356.8800, fixquality=1
$GPRMC,142314.400,A,4308.4555,N,07726.3624,W,1.91,358.62,040419,,,A*7B
$GPGGA,142314.600,4308.4556,N,07726.3624,W,1,07,1.27,153.5,M,-34.4,M,,*5C
lng=-77.439369, lat=43.140926, altitude=153.50, speed=1.91, satellites=7, angle=358.6200, fixquality=1
$GPRMC,142314.800,A,4308.4557,N,07726.3624,W,2.02,358.62,040419,,,A*7C
$GPGGA,142315.000,4308.4559,N,07726.3623,W,1,07,1.26,153.4,M,-34.4,M,,*53
lng=-77.439369, lat=43.140926, altitude=153.50, speed=2.02, satellites=7, angle=358.6200, fixquality=1
$GPRMC,142315.200,A,4308.4560,N,07726.3620,W,2.37,3.07,040419,,,A*7F
$GPGGA,142315.400,4308.4562,N,07726.3618,W,1,07,1.27,153.4,M,-34.4,M,,*56
lng=-77.439361, lat=43.140933, altitude=153.40, speed=2.37, satellites=7, angle=3.0700, fixquality=1
$GPRMC,142315.600,A,4308.4564,N,07726.3618,W,2.86,357.62,040419,,,A*7F
$GPGGA,142315.800,4308.4566,N,07726.3617,W,1,07,1.27,153.4,M,-34.4,M,,*51
lng=-77.439361, lat=43.140941, altitude=153.40, speed=2.86, satellites=7, angle=357.6200, fixquality=1
$GPRMC,142316.000,A,4308.4572,N,07726.3617,W,3.45,348.42,040419,,,A*70
$GPGGA,142316.200,4308.4578,N,07726.3618,W,1,07,1.26,153.3,M,-34.4,M,,*5E
lng=-77.439361, lat=43.140949, altitude=153.40, speed=3.45, satellites=7, angle=348.4200, fixquality=1
$GPRMC,142316.400,A,4308.4583,N,07726.3620,W,4.65,338.00,040419,,,A*7A
$GPGGA,142316.600,4308.4590,N,07726.3622,W,1,07,1.16,153.1,M,-34.4,M,,*54
lng=-77.439361, lat=43.140975, altitude=153.30, speed=4.65, satellites=7, angle=338.0000, fixquality=1
$GPRMC,142316.800,A,4308.4597,N,07726.3625,W,5.84,326.09,040419,,,A*7E
$GPGGA,142317.000,4308.4603,N,07726.3629,W,1,07,1.16,153.0,M,-34.4,M,,*50
lng=-77.439369, lat=43.140991, altitude=153.10, speed=5.84, satellites=7, angle=326.0900, fixquality=1
$GPRMC,142317.200,A,4308.4610,N,07726.3634,W,7.19,315.08,040419,,,A*7E
$GPGGA,142317.400,4308.4616,N,07726.3640,W,1,07,1.16,153.0,M,-34.4,M,,*5F
lng=-77.439384, lat=43.141014, altitude=153.00, speed=7.19, satellites=7, angle=315.0800, fixquality=1
$GPRMC,142317.600,A,4308.4623,N,07726.3648,W,9.16,308.22,040419,,,A*74
$GPGGA,142317.800,4308.4631,N,07726.3660,W,1,07,1.16,152.8,M,-34.4,M,,*5D
lng=-77.439414, lat=43.141040, altitude=153.00, speed=9.16, satellites=7, angle=308.2200, fixquality=1
$GPRMC,142318.000,A,4308.4636,N,07726.3669,W,12.32,298.98,040419,,,A*4F
$GPGGA,142318.200,4308.4640,N,07726.3679,W,1,07,1.16,152.8,M,-34.4,M,,*56
lng=-77.439445, lat=43.141056, altitude=152.80, speed=12.32, satellites=7, angle=298.9800, fixquality=1
$GPRMC,142318.400,A,4308.4645,N,07726.3691,W,14.02,293.25,040419,,,A*40
$GPGGA,142318.600,4308.4648,N,07726.3701,W,1,07,1.16,152.7,M,-34.4,M,,*5B
lng=-77.439483, lat=43.141071, altitude=152.80, speed=14.02, satellites=7, angle=293.2500, fixquality=1
$GPRMC,142318.800,A,4308.4650,N,07726.3712,W,15.14,290.07,040419,,,A*47
$GPGGA,142319.000,4308.4652,N,07726.3723,W,1,07,1.16,152.6,M,-34.4,M,,*56
lng=-77.439521, lat=43.141078, altitude=152.70, speed=15.14, satellites=7, angle=290.0700, fixquality=1
$GPRMC,142319.200,A,4308.4654,N,07726.3736,W,16.74,285.28,040419,,,A*42
$GPGGA,142319.400,4308.4656,N,07726.3749,W,1,07,1.16,152.4,M,-34.4,M,,*58
lng=-77.439559, lat=43.141090, altitude=152.60, speed=16.74, satellites=7, angle=285.2800, fixquality=1
$GPRMC,142319.600,A,4308.4658,N,07726.3762,W,17.73,282.92,040419,,,A*4B
$GPGGA,142319.800,4308.4661,N,07726.3775,W,1,07,1.16,152.4,M,-34.4,M,,*5F
lng=-77.439598, lat=43.141098, altitude=152.40, speed=17.73, satellites=7, angle=282.9200, fixquality=1
$GPRMC,142320.000,A,4308.4663,N,07726.3788,W,18.25,280.53,040419,,,A*48
$GPGGA,142320.200,4308.4665,N,07726.3802,W,1,06,1.29,152.4,M,-34.4,M,,*59
lng=-77.439651, lat=43.141105, altitude=152.40, speed=18.25, satellites=7, angle=280.5300, fixquality=1
$GPRMC,142320.400,A,4308.4667,N,07726.3816,W,18.69,278.47,040419,,,A*4A
$GPGGA,142320.600,4308.4668,N,07726.3830,W,1,07,1.16,152.4,M,-34.4,M,,*5C
lng=-77.439697, lat=43.141113, altitude=152.40, speed=18.69, satellites=6, angle=278.4700, fixquality=1
$GPRMC,142320.800,A,4308.4670,N,07726.3843,W,18.67,277.85,040419,,,A*4F
$GPGGA,142321.000,4308.4672,N,07726.3857,W,1,07,1.16,152.4,M,-34.4,M,,*51
lng=-77.439735, lat=43.141113, altitude=152.40, speed=18.67, satellites=7, angle=277.8500, fixquality=1
$GPRMC,142321.200,A,4308.4673,N,07726.3870,W,18.52,277.08,040419,,,A*44
$GPGGA,142321.400,4308.4674,N,07726.3883,W,1,07,1.16,152.3,M,-34.4,M,,*5D
lng=-77.439788, lat=43.141120, altitude=152.40, speed=18.52, satellites=7, angle=277.0800, fixquality=1
$GPRMC,142321.600,A,4308.4675,N,07726.3896,W,18.28,276.73,040419,,,A*4E
$GPGGA,142321.800,4308.4676,N,07726.3909,W,1,07,1.16,152.3,M,-34.4,M,,*50
lng=-77.439826, lat=43.141120, altitude=152.30, speed=18.28, satellites=7, angle=276.7300, fixquality=1
$GPRMC,142322.000,A,4308.4677,N,07726.3923,W,18.01,275.75,040419,,,A*48
$GPGGA,142322.200,4308.4678,N,07726.3936,W,1,07,1.16,152.2,M,-34.4,M,,*5A
lng=-77.439865, lat=43.141128, altitude=152.30, speed=18.01, satellites=7, angle=275.7500, fixquality=1
$GPRMC,142322.400,A,4308.4679,N,07726.3949,W,17.76,275.61,040419,,,A*44
$GPGGA,142322.600,4308.4680,N,07726.3963,W,1,07,1.16,152.2,M,-34.4,M,,*59
lng=-77.439918, lat=43.141128, altitude=152.20, speed=17.76, satellites=7, angle=275.6100, fixquality=1
$GPRMC,142322.800,A,4308.4681,N,07726.3977,W,17.65,275.43,040419,,,A*40
$GPGGA,142323.000,4308.4683,N,07726.3990,W,1,07,1.16,152.2,M,-34.4,M,,*51
lng=-77.439956, lat=43.141136, altitude=152.20, speed=17.65, satellites=7, angle=275.4300, fixquality=1
$GPRMC,142323.200,A,4308.4684,N,07726.4004,W,17.62,275.52,040419,,,A*43
$GPGGA,142323.400,4308.4686,N,07726.4018,W,1,07,1.26,152.1,M,-34.4,M,,*5E
lng=-77.440010, lat=43.141136, altitude=152.20, speed=17.62, satellites=7, angle=275.5200, fixquality=1
$GPRMC,142323.600,A,4308.4687,N,07726.4031,W,17.52,275.75,040419,,,A*44
$GPGGA,142323.800,4308.4688,N,07726.4045,W,1,07,1.16,152.1,M,-34.4,M,,*57
lng=-77.440055, lat=43.141147, altitude=152.10, speed=17.52, satellites=7, angle=275.7500, fixquality=1
$GPRMC,142324.000,A,4308.4690,N,07726.4059,W,17.07,275.78,040419,,,A*40
$GPGGA,142324.200,4308.4691,N,07726.4073,W,1,07,1.16,152.1,M,-34.4,M,,*57
lng=-77.440093, lat=43.141155, altitude=152.10, speed=17.07, satellites=7, angle=275.7800, fixquality=1
$GPRMC,142324.400,A,4308.4693,N,07726.4087,W,16.85,276.01,040419,,,A*42
$GPGGA,142324.600,4308.4694,N,07726.4101,W,1,07,1.16,152.0,M,-34.4,M,,*53
lng=-77.440147, lat=43.141155, altitude=152.10, speed=16.85, satellites=7, angle=276.0100, fixquality=1
$GPRMC,142324.800,A,4308.4696,N,07726.4114,W,16.31,276.43,040419,,,A*49
$GPGGA,142325.000,4308.4698,N,07726.4127,W,1,07,1.16,151.9,M,-34.4,M,,*56
lng=-77.440193, lat=43.141162, altitude=152.00, speed=16.31, satellites=7, angle=276.4300, fixquality=1
$GPRMC,142325.200,A,4308.4700,N,07726.4139,W,15.36,276.10,040419,,,A*41
$GPGGA,142325.400,4308.4702,N,07726.4151,W,1,07,1.26,151.8,M,-34.4,M,,*53
lng=-77.440231, lat=43.141170, altitude=151.90, speed=15.36, satellites=7, angle=276.1000, fixquality=1
$GPRMC,142325.600,A,4308.4703,N,07726.4162,W,14.58,276.12,040419,,,A*43
$GPGGA,142325.800,4308.4704,N,07726.4173,W,1,07,1.16,151.7,M,-34.4,M,,*55
lng=-77.440269, lat=43.141170, altitude=151.80, speed=14.58, satellites=7, angle=276.1200, fixquality=1
$GPRMC,142326.000,A,4308.4705,N,07726.4183,W,13.30,275.73,040419,,,A*42
$GPGGA,142326.200,4308.4706,N,07726.4193,W,1,07,1.16,151.6,M,-34.4,M,,*51
lng=-77.440307, lat=43.141178, altitude=151.70, speed=13.30, satellites=7, angle=275.7300, fixquality=1
$GPRMC,142326.400,A,4308.4707,N,07726.4203,W,12.18,277.27,040419,,,A*47
$GPGGA,142326.600,4308.4708,N,07726.4211,W,1,07,1.16,151.6,M,-34.4,M,,*52
lng=-77.440338, lat=43.141178, altitude=151.60, speed=12.18, satellites=7, angle=277.2700, fixquality=1
$GPRMC,142326.800,A,4308.4710,N,07726.4220,W,11.38,278.00,040419,,,A*47
$GPGGA,142327.000,4308.4709,N,07726.4225,W,1,07,1.16,151.5,M,-34.4,M,,*50
lng=-77.440361, lat=43.141185, altitude=151.60, speed=11.38, satellites=7, angle=278.0000, fixquality=1
$GPRMC,142327.200,A,4308.4710,N,07726.4232,W,8.70,278.17,040419,,,A*7D
$GPGGA,142327.400,4308.4711,N,07726.4238,W,1,07,1.16,151.4,M,-34.4,M,,*50
lng=-77.440391, lat=43.141185, altitude=151.50, speed=8.70, satellites=7, angle=278.1700, fixquality=1
$GPRMC,142327.600,A,4308.4711,N,07726.4244,W,7.83,277.65,040419,,,A*70
$GPGGA,142327.800,4308.4712,N,07726.4250,W,1,07,1.16,151.3,M,-34.4,M,,*56
lng=-77.440406, lat=43.141185, altitude=151.40, speed=7.83, satellites=7, angle=277.6500, fixquality=1
$GPRMC,142328.000,A,4308.4713,N,07726.4256,W,7.15,278.44,040419,,,A*7B
$GPGGA,142328.200,4308.4713,N,07726.4261,W,1,07,1.16,151.2,M,-34.4,M,,*51
lng=-77.440429, lat=43.141185, altitude=151.30, speed=7.15, satellites=7, angle=278.4400, fixquality=1
$GPRMC,142328.400,A,4308.4714,N,07726.4265,W,6.13,278.82,040419,,,A*75
$GPGGA,142328.600,4308.4715,N,07726.4269,W,1,07,1.16,151.2,M,-34.4,M,,*5B
lng=-77.440437, lat=43.141185, altitude=151.20, speed=6.13, satellites=7, angle=278.8200, fixquality=1
$GPRMC,142328.800,A,4308.4715,N,07726.4273,W,5.25,280.33,040419,,,A*74
$GPGGA,142329.000,4308.4715,N,07726.4276,W,1,07,1.16,151.2,M,-34.4,M,,*52
lng=-77.440452, lat=43.141193, altitude=151.20, speed=5.25, satellites=7, angle=280.3300, fixquality=1
$GPRMC,142329.200,A,4308.4715,N,07726.4279,W,4.23,281.94,040419,,,A*7E
$GPGGA,142329.400,4308.4715,N,07726.4282,W,1,07,1.26,151.1,M,-34.4,M,,*5D
lng=-77.440460, lat=43.141193, altitude=151.20, speed=4.23, satellites=7, angle=281.9400, fixquality=1
$GPRMC,142329.600,A,4308.4716,N,07726.4284,W,3.22,281.55,040419,,,A*70
$GPGGA,142329.800,4308.4716,N,07726.4285,W,1,07,1.16,151.1,M,-34.4,M,,*56
lng=-77.440467, lat=43.141193, altitude=151.10, speed=3.22, satellites=7, angle=281.5500, fixquality=1
$GPRMC,142330.000,A,4308.4717,N,07726.4287,W,2.63,281.55,040419,,,A*78
$GPGGA,142330.200,4308.4716,N,07726.4291,W,1,07,1.16,151.1,M,-34.4,M,,*51
lng=-77.440475, lat=43.141193, altitude=151.10, speed=2.63, satellites=7, angle=281.5500, fixquality=1
$GPRMC,142330.400,A,4308.4717,N,07726.4293,W,1.68,281.55,040419,,,A*71
$GPGGA,142330.600,4308.4717,N,07726.4295,W,1,07,1.16,151.2,M,-34.4,M,,*53
lng=-77.440483, lat=43.141193, altitude=151.10, speed=1.68, satellites=7, angle=281.5500, fixquality=1
$GPRMC,142330.800,A,4308.4716,N,07726.4296,W,1.05,281.55,040419,,,A*72
$GPGGA,142331.000,4308.4716,N,07726.4297,W,1,07,1.16,151.2,M,-34.4,M,,*57
lng=-77.440498, lat=43.141193, altitude=151.20, speed=1.05, satellites=7, angle=281.5500, fixquality=1
$GPRMC,142331.200,A,4308.4716,N,07726.4297,W,0.33,281.55,040419,,,A*7C
$GPGGA,142331.400,4308.4715,N,07726.4296,W,1,07,1.16,151.2,M,-34.4,M,,*51
lng=-77.440498, lat=43.141193, altitude=151.20, speed=0.33, satellites=7, angle=281.5500, fixquality=1
$GPRMC,142331.600,A,4308.4715,N,07726.4295,W,0.15,281.55,040419,,,A*7D
$GPGGA,142331.800,4308.4714,N,07726.4294,W,1,07,1.26,151.2,M,-34.4,M,,*5D
lng=-77.440498, lat=43.141193, altitude=151.20, speed=0.15, satellites=7, angle=281.5500, fixquality=1
$GPRMC,142332.000,A,4308.4713,N,07726.4293,W,0.14,281.55,040419,,,A*79
$GPGGA,142332.200,4308.4712,N,07726.4292,W,1,07,1.16,151.2,M,-34.4,M,,*57
lng=-77.440483, lat=43.141185, altitude=151.20, speed=0.14, satellites=7, angle=281.5500, fixquality=1
$GPRMC,142332.400,A,4308.4711,N,07726.4291,W,0.19,281.55,040419,,,A*70
$GPGGA,142332.600,4308.4710,N,07726.4290,W,1,07,1.16,151.1,M,-34.4,M,,*50
lng=-77.440483, lat=43.141185, altitude=151.20, speed=0.19, satellites=7, angle=281.5500, fixquality=1
$GPRMC,142332.800,A,4308.4709,N,07726.4289,W,0.20,281.55,040419,,,A*76
$GPGGA,142333.000,4308.4709,N,07726.4287,W,1,07,1.16,151.1,M,-34.4,M,,*59
lng=-77.440475, lat=43.141178, altitude=151.10, speed=0.20, satellites=7, angle=281.5500, fixquality=1
$GPRMC,142333.200,A,4308.4708,N,07726.4286,W,0.17,281.55,040419,,,A*77
$GPGGA,142333.400,4308.4708,N,07726.4285,W,1,07,1.16,151.1,M,-34.4,M,,*5E
lng=-77.440475, lat=43.141178, altitude=151.10, speed=0.17, satellites=7, angle=281.5500, fixquality=1
$GPGGA,142333.800,4308.4707,N,07726.4283,W,1,07,1.16,151.1,M,-34.4,M,,*5B
$GPRMC,142333.800,A,4308.4707,N,07726.4283,W,0.13,281.55,040419$GPGGA,142334.000,4308.4707,N,07726.4283,W,1,07,1.16,151.1,M,-34.4,M,,*54
lng=-77.440467, lat=43.141178, altitude=151.10, speed=0.17, satellites=7, angle=281.5500, fixquality=1
$GPRMC,142334.200,A,4308.4707,N,07726.4283,W,0.11,281.55,040419,,,A*7C
$GPGGA,142334.400,4308.4707,N,07726.4283,W,1,07,1.16,151.1,M,-34.4,M,,*50
lng=-77.440467, lat=43.141178, altitude=151.10, speed=0.11, satellites=7, angle=281.5500, fixquality=1
$GPRMC,142334.600,A,4308.4707,N,07726.4283,W,0.10,281.55,040419,,,A*79
$GPGGA,142334.800,4308.4707,N,07726.4283,W,1,07,1.16,151.1,M,-34.4,M,,*5C
lng=-77.440467, lat=43.141178, altitude=151.10, speed=0.10, satellites=7, angle=281.5500, fixquality=1
$GPRMC,142335.000,A,4308.4707,N,07726.4283,W,0.37,281.55,040419,,,A*7B
$GPGGA,142335.200,4308.4707,N,07726.4283,W,1,07,1.16,151.1,M,-34.4,M,,*57
lng=-77.440467, lat=43.141178, altitude=151.10, speed=0.37, satellites=7, angle=281.5500, fixquality=1
$GPRMC,142335.400,A,4308.4707,N,07726.4283,W,1.33,281.55,040419,,,A*7A
$GPGGA,142335.600,4308.4707,N,07726.4284,W,1,07,1.16,151.1,M,-34.4,M,,*54
lng=-77.440467, lat=43.141178, altitude=151.10, speed=1.33, satellites=7, angle=281.5500, fixquality=1
$GPRMC,142335.800,A,4308.4707,N,07726.4286,W,2.02,275.28,040419,,,A*73
$GPGGA,142336.000,4308.4706,N,07726.4287,W,1,07,1.16,151.0,M,-34.4,M,,*52
lng=-77.440475, lat=43.141178, altitude=151.10, speed=2.02, satellites=7, angle=275.2800, fixquality=1
$GPRMC,142336.200,A,4308.4706,N,07726.4289,W,2.64,280.90,040419,,,A*7D
$GPGGA,142336.400,4308.4706,N,07726.4290,W,1,07,1.16,150.9,M,-34.4,M,,*58
lng=-77.440475, lat=43.141178, altitude=151.00, speed=2.64, satellites=7, angle=280.9000, fixquality=1
$GPRMC,142336.600,A,4308.4705,N,07726.4292,W,2.81,277.50,040419,,,A*7F
$GPGGA,142336.800,4308.4704,N,07726.4294,W,1,07,1.16,150.8,M,-34.4,M,,*53
lng=-77.440483, lat=43.141178, altitude=150.90, speed=2.81, satellites=7, angle=277.5000, fixquality=1
$GPRMC,142337.000,A,4308.4703,N,07726.4295,W,2.62,280.47,040419,,,A*7A
$GPGGA,142337.200,4308.4702,N,07726.4297,W,1,07,1.16,150.8,M,-34.4,M,,*5D
lng=-77.440498, lat=43.141170, altitude=150.80, speed=2.62, satellites=7, angle=280.4700, fixquality=1
$GPRMC,142337.400,A,4308.4702,N,07726.4299,W,2.50,276.94,040419,,,A*75
$GPGGA,142337.600,4308.4701,N,07726.4300,W,1,07,1.16,150.7,M,-34.4,M,,*5A
lng=-77.440498, lat=43.141170, altitude=150.80, speed=2.50, satellites=7, angle=276.9400, fixquality=1
$GPRMC,142337.800,A,4308.4700,N,07726.4302,W,1.94,283.36,040419,,,A*71
$GPGGA,142338.000,4308.4699,N,07726.4303,W,1,07,1.16,150.6,M,-34.4,M,,*51
lng=-77.440505, lat=43.141170, altitude=150.70, speed=1.94, satellites=7, angle=283.3600, fixquality=1
$GPRMC,142338.200,A,4308.4698,N,07726.4304,W,1.35,282.34,040419,,,A*7A
$GPGGA,142338.400,4308.4698,N,07726.4305,W,1,07,1.16,150.5,M,-34.4,M,,*51
lng=-77.440505, lat=43.141162, altitude=150.60, speed=1.35, satellites=7, angle=282.3400, fixquality=1
$GPRMC,142338.600,A,4308.4697,N,07726.4306,W,0.74,281.46,040419,,,A*71
$GPGGA,142338.800,4308.4696,N,07726.4306,W,1,07,1.16,150.5,M,-34.4,M,,*50
lng=-77.440513, lat=43.141162, altitude=150.50, speed=0.74, satellites=7, angle=281.4600, fixquality=1
$GPRMC,142339.000,A,4308.4696,N,07726.4307,W,0.45,276.91,040419,,,A*76
$GPGGA,142339.200,4308.4696,N,07726.4307,W,1,07,1.16,150.4,M,-34.4,M,,*5B
lng=-77.440513, lat=43.141162, altitude=150.50, speed=0.45, satellites=7, angle=276.9100, fixquality=1
$GPRMC,142339.400,A,4308.4695,N,07726.4308,W,0.32,276.91,040419,,,A*7E
$GPGGA,142339.600,4308.4694,N,07726.4309,W,1,07,1.16,150.4,M,-34.4,M,,*53
lng=-77.440513, lat=43.141162, altitude=150.40, speed=0.32, satellites=7, angle=276.9100, fixquality=1
$GPRMC,142339.800,A,4308.4694,N,07726.4309,W,0.09,276.91,040419,,,A*7A
$GPGGA,142340.000,4308.4693,N,07726.4309,W,1,07,1.16,150.4,M,-34.4,M,,*5C
lng=-77.440513, lat=43.141155, altitude=150.40, speed=0.09, satellites=7, angle=276.9100, fixquality=1
$GPRMC,142340.200,A,4308.4693,N,07726.4309,W,0.05,276.91,040419,,,A*75
$GPGGA,142340.400,4308.4693,N,07726.4309,W,1,07,1.16,150.5,M,-34.4,M,,*59
lng=-77.440513, lat=43.141155, altitude=150.40, speed=0.05, satellites=7, angle=276.9100, fixquality=1
$GPRMC,142340.600,A,4308.4692,N,07726.4310,W,0.03,276.91,040419,,,A*7E
$GPGGA,142340.800,4308.4692,N,07726.4310,W,1,07,1.16,150.5,M,-34.4,M,,*5C
lng=-77.440521, lat=43.141155, altitude=150.50, speed=0.03, satellites=7, angle=276.9100, fixquality=1
$GPRMC,142341.000,A,4308.4692,N,07726.4310,W,0.01,276.91,040419,,,A*7B
$GPGGA,142341.200,4308.4692,N,07726.4311,W,1,07,1.16,150.6,M,-34.4,M,,*55
lng=-77.440521, lat=43.141155, altitude=150.50, speed=0.01, satellites=7, angle=276.9100, fixquality=1
$GPRMC,142341.400,A,4308.4692,N,07726.4311,W,0.01,276.91,040419,,,A*7E
$GPGGA,142341.600,4308.4692,N,07726.4311,W,1,07,1.16,150.7,M,-34.4,M,,*50
lng=-77.440521, lat=43.141155, altitude=150.60, speed=0.01, satellites=7, angle=276.9100, fixquality=1
$GPRMC,142341.800,A,4308.4692,N,07726.4311,W,0.03,276.91,040419,,,A*70
$GPGGA,142342.000,4308.4692,N,07726.4310,W,1,07,1.16,150.7,M,-34.4,M,,*54
lng=-77.440521, lat=43.141155, altitude=150.70, speed=0.03, satellites=7, angle=276.9100, fixquality=1
$GPRMC,142342.200,A,4308.4692,N,07726.4310,W,0.03,276.91,040419,,,A*78
$GPGGA,142342.400,4308.4692,N,07726.4310,W,1,07,1.16,150.8,M,-34.4,M,,*5F
lng=-77.440521, lat=43.141155, altitude=150.70, speed=0.03, satellites=7, angle=276.9100, fixquality=1
$GPRMC,142342.600,A,4308.4692,N,07726.4310,W,0.04,276.91,040419,,,A*7B
$GPGGA,142342.800,4308.4692,N,07726.4310,W,1,07,1.16,150.8,M,-34.4,M,,*53
lng=-77.440521, lat=43.141155, altitude=150.80, speed=0.04, satellites=7, angle=276.9100, fixquality=1
$GPRMC,142343.000,A,4308.4692,N,07726.4310,W,0.03,276.91,040419,,,A*7B
$GPGGA,142343.200,4308.4692,N,07726.4310,W,1,07,1.16,150.8,M,-34.4,M,,*58
lng=-77.440521, lat=43.141155, altitude=150.80, speed=0.03, satellites=7, angle=276.9100, fixquality=1
$GPRMC,142343.400,A,4308.4692,N,07726.4310,W,0.02,276.91,040419,,,A*7E
$GPGGA,142343.600,4308.4692,N,07726.4310,W,1,07,1.16,150.8,M,-34.4,M,,*5C
lng=-77.440521, lat=43.141155, altitude=150.80, speed=0.02, satellites=7, angle=276.9100, fixquality=1
$GPRMC,142343.800,A,4308.4692,N,07726.4310,W,0.02,276.91,040419,,,A*72
$GPGGA,142344.000,4308.4692,N,07726.4310,W,1,07,1.16,150.8,M,-34.4,M,,*5D
lng=-77.440521, lat=43.141155, altitude=150.80, speed=0.02, satellites=7, angle=276.9100, fixquality=1
$GPRMC,142344.200,A,4308.4692,N,07726.4310,W,0.03,276.91,040419,,,A*7E
$GPGGA,142344.400,4308.4692,N,07726.4310,W,1,07,1.16,150.8,M,-34.4,M,,*59
lng=-77.440521, lat=43.141155, altitude=150.80, speed=0.03, satellites=7, angle=276.9100, fixquality=1
$GPRMC,142344.600,A,4308.4692,N,07726.4310,W,0.01,276.91,040419,,,A*78
$GPGGA,142344.800,4308.4692,N,07726.4309,W,1,07,1.16,150.8,M,-34.4,M,,*5D
lng=-77.440521, lat=43.141155, altitude=150.80, speed=0.01, satellites=7, angle=276.9100, fixquality=1
$GPRMC,142345.000,A,4308.4692,N,07726.4309,W,0.01,276.91,040419,,,A*77
$GPGGA,142345.200,4308.4692,N,07726.4309,W,1,07,1.26,150.8,M,-34.4,M,,*55
lng=-77.440513, lat=43.141155, altitude=150.80, speed=0.01, satellites=7, angle=276.9100, fixquality=1
$GPRMC,142345.400,A,4308.4692,N,07726.4309,W,0.04,276.91,040419,,,A*76
$GPGGA,142345.600,4308.4692,N,07726.4309,W,1,07,1.16,150.8,M,-34.4,M,,*52
lng=-77.440513, lat=43.141155, altitude=150.80, speed=0.04, satellites=7, angle=276.9100, fixquality=1
$GPRMC,142345.800,A,4308.4692,N,07726.4309,W,0.02,276.91,040419,,,A*7C
$GPGGA,142346.000,4308.4692,N,07726.4309,W,1,07,1.16,150.8,M,-34.4,M,,*57
lng=-77.440513, lat=43.141155, altitude=150.80, speed=0.02, satellites=7, angle=276.9100, fixquality=1
$GPRMC,142346.200,A,4308.4692,N,07726.4309,W,0.02,276.91,040419,,,A*75
$GPGGA,142346.400,4308.4692,N,07726.4309,W,1,07,1.16,150.8,M,-34.4,M,,*53
lng=-77.440513, lat=43.141155, altitude=150.80, speed=0.02, satellites=7, angle=276.9100, fixquality=1
$GPRMC,142346.600,A,4308.4692,N,07726.4309,W,0.01,276.91,040419,,,A*72
$GPGGA,142346.800,4308.4692,N,07726.4309,W,1,07,1.16,150.8,M,-34.4,M,,*5F
lng=-77.440513, lat=43.141155, altitude=150.80, speed=0.01, satellites=7, angle=276.9100, fixquality=1
$GPRMC,142347.000,A,4308.4692,N,07726.4309,W,0.03,276.91,040419,,,A*77
$GPGGA,142347.200,4308.4692,N,07726.4309,W,1,07,1.16,150.8,M,-34.4,M,,*54
lng=-77.440513, lat=43.141155, altitude=150.80, speed=0.03, satellites=7, angle=276.9100, fixquality=1
$GPRMC,142347.400,A,4308.4692,N,07726.4309,W,0.05,276.91,040419,,,A*75
$GPGGA,142347.600,4308.4692,N,07726.4309,W,1,07,1.16,150.8,M,-34.4,M,,*50
lng=-77.440513, lat=43.141155, altitude=150.80, speed=0.05, satellites=7, angle=276.9100, fixquality=1
$GPRMC,142347.800,A,4308.4692,N,07726.4309,W,0.01,276.91,040419,,,A*7D
