Vers 57
USE_SERIAL_FEEDBACK=false
DEVELOPMENT_MODE=false
USE_RMC_ONLY=false

$GPRMC,142118.200,A,4308.3006,N,07726.2519,W,0.34,295.52,150419,,,A*76
$GPGGA,142118.400,4308.3006,N,07726.2518,W,1,06,1.59,156.5,M,-34.4,M,,*57
lng=-77.437530, lat=43.138347, altitude=156.50, speed=0.34, satellites=6, angle=295.5200, fixquality=1
$GPRMC,142118.600,A,4308.3006,N,07726.2520,W,0.42,285.20,150419,,,A*7D
$GPGGA,142118.800,4308.3006,N,07726.2521,W,1,06,1.59,156.5,M,-34.4,M,,*51
lng=-77.437530, lat=43.138347, altitude=156.50, speed=0.42, satellites=6, angle=285.2000, fixquality=1
$GPRMC,142119.000,A,4308.3008,N,07726.2524,W,0.30,265.23,150419,,,A*78
$GPGGA,142119.200,4308.3009,N,07726.2528,W,1,06,1.59,156.5,M,-34.4,M,,*5C
lng=-77.437538, lat=43.138347, altitude=156.50, speed=0.30, satellites=6, angle=265.2300, fixquality=1
$GPRMC,142119.400,A,4308.3010,N,07726.2530,W,0.25,263.70,150419,,,A*74
$GPGGA,142119.600,4308.3010,N,07726.2531,W,1,08,0.97,156.5,M,-34.4,M,,*55
lng=-77.437545, lat=43.138347, altitude=156.50, speed=0.25, satellites=6, angle=263.7000, fixquality=1
$GPRMC,142119.800,A,4308.3010,N,07726.2534,W,0.23,237.64,150419,,,A*7E
$GPGGA,142120.000,4308.3012,N,07726.2538,W,1,08,0.97,156.5,M,-34.4,M,,*52
lng=-77.437553, lat=43.138347, altitude=156.50, speed=0.23, satellites=8, angle=237.6400, fixquality=1
$GPRMC,142120.200,A,4308.3013,N,07726.2545,W,0.31,256.65,150419,,,A*7E
$GPGGA,142120.400,4308.3014,N,07726.2549,W,1,08,0.97,156.5,M,-34.4,M,,*56
lng=-77.437576, lat=43.138355, altitude=156.50, speed=0.31, satellites=8, angle=256.6500, fixquality=1
$GPRMC,142120.600,A,4308.3015,N,07726.2552,W,0.39,261.55,150419,,,A*75
$GPGGA,142120.800,4308.3016,N,07726.2554,W,1,08,0.97,156.5,M,-34.4,M,,*54
lng=-77.437591, lat=43.138355, altitude=156.50, speed=0.39, satellites=8, angle=261.5500, fixquality=1
$GPRMC,142121.000,A,4308.3017,N,07726.2556,W,0.28,260.97,150419,,,A*7B
$GPGGA,142121.200,4308.3017,N,07726.2559,W,1,09,0.90,156.5,M,-34.4,M,,*55
lng=-77.437591, lat=43.138362, altitude=156.50, speed=0.28, satellites=8, angle=260.9700, fixquality=1
$GPRMC,142121.400,A,4308.3018,N,07726.2560,W,0.15,262.78,150419,,,A*78
$GPGGA,142121.600,4308.3019,N,07726.2563,W,1,09,0.90,156.5,M,-34.4,M,,*56
lng=-77.437599, lat=43.138362, altitude=156.50, speed=0.15, satellites=9, angle=262.7800, fixquality=1
$GPRMC,142121.800,A,4308.3019,N,07726.2566,W,0.11,254.38,150419,,,A*76
$GPGGA,142122.000,4308.3020,N,07726.2568,W,1,09,0.90,156.5,M,-34.4,M,,*52
lng=-77.437614, lat=43.138362, altitude=156.50, speed=0.11, satellites=9, angle=254.3800, fixquality=1
$GPRMC,142122.200,A,4308.3020,N,07726.2570,W,0.16,282.16,150419,,,A*72
$GPGGA,142122.400,4308.3021,N,07726.2571,W,1,09,0.90,156.5,M,-34.4,M,,*5F
lng=-77.437614, lat=43.138362, altitude=156.50, speed=0.16, satellites=9, angle=282.1600, fixquality=1
$GPRMC,142122.600,A,4308.3021,N,07726.2573,W,0.21,280.39,150419,,,A*7F
$GPGGA,142122.800,4308.3021,N,07726.2575,W,1,09,0.90,156.5,M,-34.4,M,,*57
lng=-77.437622, lat=43.138370, altitude=156.50, speed=0.21, satellites=9, angle=280.3900, fixquality=1
$GPRMC,142123.000,A,4308.3021,N,07726.2577,W,0.27,271.15,150419,,,A*7A
$GPGGA,142123.200,4308.3021,N,07726.2579,W,1,09,0.90,156.5,M,-34.4,M,,*50
lng=-77.437629, lat=43.138370, altitude=156.50, speed=0.27, satellites=9, angle=271.1500, fixquality=1
$GPRMC,142123.400,A,4308.3021,N,07726.2581,W,0.26,282.57,150419,,,A*7C
$GPGGA,142123.600,4308.3021,N,07726.2581,W,1,09,0.90,156.5,M,-34.4,M,,*53
lng=-77.437637, lat=43.138370, altitude=156.50, speed=0.26, satellites=9, angle=282.5700, fixquality=1
$GPRMC,142123.800,A,4308.3021,N,07726.2582,W,0.18,299.93,150419,,,A*7C
$GPGGA,142124.000,4308.3021,N,07726.2583,W,1,09,0.90,156.5,M,-34.4,M,,*50
lng=-77.437637, lat=43.138370, altitude=156.50, speed=0.18, satellites=9, angle=299.9300, fixquality=1
$GPRMC,142124.200,A,4308.3021,N,07726.2584,W,0.16,303.69,150419,,,A*7E
$GPGGA,142124.400,4308.3021,N,07726.2584,W,1,09,0.90,156.5,M,-34.4,M,,*53
lng=-77.437637, lat=43.138370, altitude=156.50, speed=0.16, satellites=9, angle=303.6900, fixquality=1
$GPRMC,142124.600,A,4308.3020,N,07726.2585,W,0.11,276.16,150419,,,A*76
$GPGGA,142124.800,4308.3020,N,07726.2586,W,1,09,0.90,156.5,M,-34.4,M,,*5C
lng=-77.437637, lat=43.138362, altitude=156.50, speed=0.11, satellites=9, angle=276.1600, fixquality=1
$GPRMC,142125.000,A,4308.3020,N,07726.2587,W,0.13,279.94,150419,,,A*74
$GPGGA,142125.200,4308.3021,N,07726.2587,W,1,09,0.90,156.5,M,-34.4,M,,*57
lng=-77.437644, lat=43.138362, altitude=156.50, speed=0.13, satellites=9, angle=279.9400, fixquality=1
$GPRMC,142125.400,A,4308.3021,N,07726.2588,W,0.14,300.76,150419,,,A*7A
$GPGGA,142125.600,4308.3021,N,07726.2589,W,1,09,0.90,156.5,M,-34.4,M,,*5D
lng=-77.437644, lat=43.138370, altitude=156.50, speed=0.14, satellites=9, angle=300.7600, fixquality=1
$GPRMC,142125.800,A,4308.3020,N,07726.2589,W,0.08,265.46,150419,,,A*7A
$GPGGA,142126.000,4308.3021,N,07726.2590,W,1,09,0.90,156.5,M,-34.4,M,,*50
lng=-77.437644, lat=43.138362, altitude=156.50, speed=0.08, satellites=9, angle=265.4600, fixquality=1
$GPRMC,142126.200,A,4308.3021,N,07726.2591,W,0.08,284.83,150419,,,A*7D
$GPGGA,142126.400,4308.3021,N,07726.2592,W,1,09,0.90,156.5,M,-34.4,M,,*56
lng=-77.437652, lat=43.138370, altitude=156.50, speed=0.08, satellites=9, angle=284.8300, fixquality=1
$GPRMC,142126.600,A,4308.3022,N,07726.2593,W,0.12,302.13,150419,,,A*75
$GPGGA,142126.800,4308.3022,N,07726.2594,W,1,09,0.90,156.5,M,-34.4,M,,*5F
lng=-77.437652, lat=43.138370, altitude=156.50, speed=0.12, satellites=9, angle=302.1300, fixquality=1
$GPRMC,142127.000,A,4308.3022,N,07726.2594,W,0.14,307.04,150419,,,A*70
$GPGGA,142127.200,4308.3022,N,07726.2595,W,1,09,0.90,156.5,M,-34.4,M,,*55
lng=-77.437652, lat=43.138370, altitude=156.50, speed=0.14, satellites=9, angle=307.0400, fixquality=1
$GPRMC,142127.400,A,4308.3023,N,07726.2596,W,0.16,310.89,150419,,,A*76
$GPGGA,142127.600,4308.3023,N,07726.2597,W,1,09,0.90,156.5,M,-34.4,M,,*52
lng=-77.437660, lat=43.138370, altitude=156.50, speed=0.16, satellites=9, angle=310.8900, fixquality=1
$GPRMC,142127.800,A,4308.3023,N,07726.2598,W,0.14,290.59,150419,,,A*72
$GPGGA,142128.000,4308.3023,N,07726.2598,W,1,09,0.90,156.5,M,-34.4,M,,*54
lng=-77.437660, lat=43.138370, altitude=156.50, speed=0.14, satellites=9, angle=290.5900, fixquality=1
$GPRMC,142128.200,A,4308.3023,N,07726.2599,W,0.12,287.68,150419,,,A*74
$GPGGA,142128.400,4308.3023,N,07726.2600,W,1,09,0.90,156.5,M,-34.4,M,,*52
lng=-77.437660, lat=43.138370, altitude=156.50, speed=0.12, satellites=9, angle=287.6800, fixquality=1
$GPRMC,142128.600,A,4308.3023,N,07726.2600,W,0.10,285.45,150419,,,A*7C
$GPGGA,142128.800,4308.3023,N,07726.2601,W,1,09,0.90,156.5,M,-34.4,M,,*5F
lng=-77.437660, lat=43.138370, altitude=156.50, speed=0.10, satellites=9, angle=285.4500, fixquality=1
$GPRMC,142129.000,A,4308.3023,N,07726.2601,W,0.07,288.72,150419,,,A*75
$GPGGA,142129.200,4308.3023,N,07726.2602,W,1,09,0.90,156.5,M,-34.4,M,,*57
lng=-77.437667, lat=43.138370, altitude=156.50, speed=0.07, satellites=9, angle=288.7200, fixquality=1
$GPRMC,142129.400,A,4308.3023,N,07726.2602,W,0.08,292.39,150419,,,A*79
$GPGGA,142129.600,4308.3023,N,07726.2603,W,1,09,0.90,156.5,M,-34.4,M,,*52
lng=-77.437667, lat=43.138370, altitude=156.50, speed=0.08, satellites=9, angle=292.3900, fixquality=1
$GPRMC,142129.800,A,4308.3024,N,07726.2603,W,0.10,327.17,150419,,,A*79
$GPGGA,142130.000,4308.3024,N,07726.2603,W,1,09,0.90,156.5,M,-34.4,M,,*5B
lng=-77.437667, lat=43.138370, altitude=156.50, speed=0.10, satellites=9, angle=327.1700, fixquality=1
$GPRMC,142130.200,A,4308.3024,N,07726.2604,W,0.14,325.72,150419,,,A*79
$GPGGA,142130.400,4308.3024,N,07726.2604,W,1,09,0.90,156.5,M,-34.4,M,,*58
lng=-77.437667, lat=43.138370, altitude=156.50, speed=0.14, satellites=9, angle=325.7200, fixquality=1
$GPRMC,142130.600,A,4308.3025,N,07726.2605,W,0.20,321.36,150419,,,A*7E
$GPGGA,142130.800,4308.3025,N,07726.2606,W,1,09,0.90,156.5,M,-34.4,M,,*57
lng=-77.437675, lat=43.138378, altitude=156.50, speed=0.20, satellites=9, angle=321.3600, fixquality=1
$GPRMC,142131.000,A,4308.3026,N,07726.2607,W,0.28,329.36,150419,,,A*78
$GPGGA,142131.200,4308.3026,N,07726.2608,W,1,09,0.90,156.5,M,-34.4,M,,*51
lng=-77.437675, lat=43.138378, altitude=156.50, speed=0.28, satellites=9, angle=329.3600, fixquality=1
$GPRMC,142131.400,A,4308.3026,N,07726.2608,W,0.28,308.71,150419,,,A*73
$GPGGA,142131.600,4308.3025,N,07726.2609,W,1,09,0.90,156.5,M,-34.4,M,,*57
lng=-77.437675, lat=43.138378, altitude=156.50, speed=0.28, satellites=9, angle=308.7100, fixquality=1
$GPRMC,142131.800,A,4308.3025,N,07726.2609,W,0.23,270.06,150419,,,A*78
$GPGGA,142132.000,4308.3025,N,07726.2609,W,1,09,0.90,156.5,M,-34.4,M,,*52
lng=-77.437675, lat=43.138378, altitude=156.50, speed=0.23, satellites=9, angle=270.0600, fixquality=1
$GPRMC,142132.200,A,4308.3024,N,07726.2609,W,0.23,261.42,150419,,,A*70
$GPGGA,142132.400,4308.3024,N,07726.2609,W,1,09,0.90,156.5,M,-34.4,M,,*57
lng=-77.437675, lat=43.138370, altitude=156.50, speed=0.23, satellites=9, angle=261.4200, fixquality=1
$GPRMC,142132.600,A,4308.3023,N,07726.2609,W,0.17,259.56,150419,,,A*7A
$GPGGA,142132.800,4308.3023,N,07726.2609,W,1,09,0.90,156.5,M,-34.4,M,,*5C
lng=-77.437675, lat=43.138370, altitude=156.50, speed=0.17, satellites=9, angle=259.5600, fixquality=1
$GPRMC,142133.000,A,4308.3022,N,07726.2609,W,0.20,227.75,150419,,,A*70
$GPGGA,142133.200,4308.3022,N,07726.2609,W,1,09,0.90,156.5,M,-34.4,M,,*56
lng=-77.437675, lat=43.138370, altitude=156.50, speed=0.20, satellites=9, angle=227.7500, fixquality=1
$GPRMC,142133.400,A,4308.3021,N,07726.2609,W,0.18,222.82,150419,,,A*71
$GPGGA,142133.600,4308.3021,N,07726.2608,W,1,09,0.90,156.5,M,-34.4,M,,*50
lng=-77.437675, lat=43.138370, altitude=156.50, speed=0.18, satellites=9, angle=222.8200, fixquality=1
$GPRMC,142133.800,A,4308.3021,N,07726.2608,W,0.12,212.28,150419,,,A*75
$GPGGA,142134.000,4308.3020,N,07726.2608,W,1,09,0.90,156.5,M,-34.4,M,,*50
lng=-77.437675, lat=43.138370, altitude=156.50, speed=0.12, satellites=9, angle=212.2800, fixquality=1
$GPRMC,142134.200,A,4308.3020,N,07726.2608,W,0.11,173.05,150419,,,A*71
$GPGGA,142134.400,4308.3019,N,07726.2607,W,1,09,0.90,156.5,M,-34.4,M,,*51
lng=-77.437675, lat=43.138362, altitude=156.50, speed=0.11, satellites=9, angle=173.0500, fixquality=1
$GPRMC,142134.600,A,4308.3019,N,07726.2607,W,0.13,149.65,150419,,,A*7D
$GPGGA,142134.800,4308.3019,N,07726.2606,W,1,09,0.90,156.5,M,-34.4,M,,*5C
lng=-77.437675, lat=43.138362, altitude=156.50, speed=0.13, satellites=9, angle=149.6500, fixquality=1
$GPRMC,142135.000,A,4308.3018,N,07726.2606,W,0.12,149.37,150419,,,A*7C
$GPGGA,142135.200,4308.3018,N,07726.2606,W,1,09,0.90,156.4,M,-34.4,M,,*57
lng=-77.437675, lat=43.138362, altitude=156.50, speed=0.12, satellites=9, angle=149.3700, fixquality=1
$GPRMC,142135.400,A,4308.3017,N,07726.2606,W,0.10,143.66,150419,,,A*7B
$GPGGA,142135.600,4308.3017,N,07726.2606,W,1,09,0.90,156.4,M,-34.4,M,,*5C
lng=-77.437675, lat=43.138362, altitude=156.40, speed=0.10, satellites=9, angle=143.6600, fixquality=1
$GPRMC,142135.800,A,4308.3017,N,07726.2605,W,0.09,153.34,150419,,,A*7A
$GPGGA,142136.000,4308.3016,N,07726.2605,W,1,09,0.90,156.4,M,-34.4,M,,*5B
lng=-77.437675, lat=43.138362, altitude=156.40, speed=0.09, satellites=9, angle=153.3400, fixquality=1
$GPRMC,142136.200,A,4308.3016,N,07726.2605,W,0.08,135.08,150419,,,A*7C
$GPGGA,142136.400,4308.3015,N,07726.2604,W,1,09,0.90,156.4,M,-34.4,M,,*5D
lng=-77.437675, lat=43.138362, altitude=156.40, speed=0.08, satellites=9, angle=135.0800, fixquality=1
$GPRMC,142136.600,A,4308.3015,N,07726.2604,W,0.09,148.61,150419,,,A*7E
$GPGGA,142136.800,4308.3014,N,07726.2604,W,1,09,0.90,156.4,M,-34.4,M,,*50
lng=-77.437667, lat=43.138355, altitude=156.40, speed=0.09, satellites=9, angle=148.6100, fixquality=1
$GPRMC,142137.000,A,4308.3014,N,07726.2604,W,0.11,188.64,150419,,,A*78
$GPGGA,142137.200,4308.3013,N,07726.2604,W,1,09,0.90,156.4,M,-34.4,M,,*5C
lng=-77.437667, lat=43.138355, altitude=156.40, speed=0.11, satellites=9, angle=188.6400, fixquality=1
$GPRMC,142137.400,A,4308.3013,N,07726.2604,W,0.14,210.58,150419,,,A*73
$GPGGA,142137.600,4308.3012,N,07726.2604,W,1,09,0.90,156.4,M,-34.4,M,,*59
lng=-77.437667, lat=43.138355, altitude=156.40, speed=0.14, satellites=9, angle=210.5800, fixquality=1
$GPRMC,142137.800,A,4308.3011,N,07726.2604,W,0.21,211.50,150419,,,A*72
$GPGGA,142138.000,4308.3011,N,07726.2604,W,1,09,0.90,156.3,M,-34.4,M,,*54
lng=-77.437667, lat=43.138355, altitude=156.40, speed=0.21, satellites=9, angle=211.5000, fixquality=1
$GPRMC,142138.200,A,4308.3011,N,07726.2604,W,0.22,205.54,150419,,,A*75
$GPGGA,142138.400,4308.3010,N,07726.2604,W,1,09,0.90,156.3,M,-34.4,M,,*51
lng=-77.437667, lat=43.138355, altitude=156.30, speed=0.22, satellites=9, angle=205.5400, fixquality=1
$GPRMC,142138.600,A,4308.3010,N,07726.2604,W,0.20,198.62,150419,,,A*70
$GPGGA,142138.800,4308.3010,N,07726.2603,W,1,09,0.90,156.3,M,-34.4,M,,*5A
lng=-77.437667, lat=43.138347, altitude=156.30, speed=0.20, satellites=9, angle=198.6200, fixquality=1
$GPRMC,142139.000,A,4308.3009,N,07726.2603,W,0.18,186.13,150419,,,A*7A
$GPGGA,142139.200,4308.3009,N,07726.2603,W,1,09,0.90,156.3,M,-34.4,M,,*59
lng=-77.437667, lat=43.138347, altitude=156.30, speed=0.18, satellites=9, angle=186.1300, fixquality=1
$GPRMC,142139.400,A,4308.3009,N,07726.2603,W,0.15,180.40,150419,,,A*73
$GPGGA,142139.600,4308.3009,N,07726.2604,W,1,09,0.90,156.3,M,-34.4,M,,*5A
lng=-77.437667, lat=43.138347, altitude=156.30, speed=0.15, satellites=9, angle=180.4000, fixquality=1
$GPRMC,142139.800,A,4308.3010,N,07726.2605,W,0.09,203.98,150419,,,A*71
$GPGGA,142140.000,4308.3010,N,07726.2606,W,1,09,0.90,156.3,M,-34.4,M,,*58
lng=-77.437675, lat=43.138347, altitude=156.30, speed=0.09, satellites=9, angle=203.9800, fixquality=1
$GPRMC,142140.200,A,4308.3010,N,07726.2606,W,0.07,328.07,150419,,,A*76
$GPGGA,142140.400,4308.3010,N,07726.2607,W,1,09,0.90,156.2,M,-34.4,M,,*5C
lng=-77.437675, lat=43.138347, altitude=156.30, speed=0.07, satellites=9, angle=328.0700, fixquality=1
$GPRMC,142140.600,A,4308.3011,N,07726.2607,W,0.18,346.70,150419,,,A*74
$GPGGA,142140.800,4308.3011,N,07726.2608,W,1,09,0.91,156.2,M,-34.4,M,,*5F
lng=-77.437675, lat=43.138355, altitude=156.20, speed=0.18, satellites=9, angle=346.7000, fixquality=1
$GPRMC,142141.000,A,4308.3012,N,07726.2608,W,0.32,2.77,150419,,,A*73
$GPGGA,142141.200,4308.3013,N,07726.2609,W,1,09,0.91,156.2,M,-34.4,M,,*57
lng=-77.437675, lat=43.138355, altitude=156.20, speed=0.32, satellites=9, angle=2.7700, fixquality=1
$GPRMC,142141.400,A,4308.3013,N,07726.2609,W,0.38,10.21,150419,,,A*4D
$GPGGA,142141.600,4308.3013,N,07726.2610,W,1,09,0.91,156.2,M,-34.4,M,,*5B
lng=-77.437675, lat=43.138355, altitude=156.20, speed=0.38, satellites=9, angle=10.2100, fixquality=1
$GPRMC,142141.800,A,4308.3014,N,07726.2612,W,0.48,1.09,150419,,,A*71
$GPGGA,142142.000,4308.3015,N,07726.2613,W,1,09,0.91,156.2,M,-34.4,M,,*5B
lng=-77.437690, lat=43.138355, altitude=156.20, speed=0.48, satellites=9, angle=1.0900, fixquality=1
$GPRMC,142142.200,A,4308.3016,N,07726.2615,W,0.51,1.05,150419,,,A*79
$GPGGA,142142.400,4308.3017,N,07726.2615,W,1,09,0.91,156.1,M,-34.4,M,,*58
lng=-77.437698, lat=43.138362, altitude=156.20, speed=0.51, satellites=9, angle=1.0500, fixquality=1
$GPRMC,142142.600,A,4308.3018,N,07726.2616,W,0.65,4.79,150419,,,A*79
$GPGGA,142142.800,4308.3020,N,07726.2617,W,1,09,0.91,156.1,M,-34.4,M,,*52
lng=-77.437698, lat=43.138362, altitude=156.10, speed=0.65, satellites=9, angle=4.7900, fixquality=1
$GPRMC,142143.000,A,4308.3021,N,07726.2618,W,0.79,9.99,150419,,,A*74
$GPGGA,142143.200,4308.3022,N,07726.2620,W,1,09,0.91,156.1,M,-34.4,M,,*5F
lng=-77.437698, lat=43.138370, altitude=156.10, speed=0.79, satellites=9, angle=9.9900, fixquality=1
$GPRMC,142143.400,A,4308.3023,N,07726.2621,W,0.80,2.78,150419,,,A*7A
$GPGGA,142143.600,4308.3024,N,07726.2622,W,1,09,0.91,156.0,M,-34.4,M,,*5E
lng=-77.437705, lat=43.138370, altitude=156.10, speed=0.80, satellites=9, angle=2.7800, fixquality=1
$GPRMC,142143.800,A,4308.3025,N,07726.2622,W,0.82,3.51,150419,,,A*7B
$GPGGA,142144.000,4308.3026,N,07726.2624,W,1,09,0.91,156.0,M,-34.4,M,,*5B
lng=-77.437705, lat=43.138378, altitude=156.00, speed=0.82, satellites=9, angle=3.5100, fixquality=1
$GPRMC,142144.200,A,4308.3027,N,07726.2624,W,0.86,5.76,150419,,,A*75
$GPGGA,142144.400,4308.3028,N,07726.2624,W,1,09,0.91,156.0,M,-34.4,M,,*51
lng=-77.437705, lat=43.138378, altitude=156.00, speed=0.86, satellites=9, angle=5.7600, fixquality=1
$GPRMC,142144.600,A,4308.3029,N,07726.2625,W,0.88,2.32,150419,,,A*77
$GPGGA,142144.800,4308.3029,N,07726.2625,W,1,09,0.91,155.9,M,-34.4,M,,*57
lng=-77.437713, lat=43.138378, altitude=156.00, speed=0.88, satellites=9, angle=2.3200, fixquality=1
$GPRMC,142145.000,A,4308.3030,N,07726.2626,W,0.84,357.83,150419,,,A*7E
$GPGGA,142145.200,4308.3031,N,07726.2626,W,1,09,0.91,155.9,M,-34.4,M,,*56
lng=-77.437713, lat=43.138385, altitude=155.90, speed=0.84, satellites=9, angle=357.8300, fixquality=1
$GPRMC,142145.400,A,4308.3031,N,07726.2626,W,0.84,0.98,150419,,,A*70
$GPGGA,142145.600,4308.3033,N,07726.2627,W,1,09,0.91,155.9,M,-34.4,M,,*51
lng=-77.437713, lat=43.138385, altitude=155.90, speed=0.84, satellites=9, angle=0.9800, fixquality=1
$GPRMC,142145.800,A,4308.3034,N,07726.2627,W,0.99,3.30,150419,,,A*75
$GPGGA,142146.000,4308.3036,N,07726.2628,W,1,09,0.91,155.9,M,-34.4,M,,*5E
lng=-77.437713, lat=43.138385, altitude=155.90, speed=0.99, satellites=9, angle=3.3000, fixquality=1
$GPRMC,142146.200,A,4308.3037,N,07726.2628,W,1.60,2.55,150419,,,A*75
$GPGGA,142146.400,4308.3039,N,07726.2628,W,1,09,0.91,155.8,M,-34.4,M,,*54
lng=-77.437713, lat=43.138393, altitude=155.90, speed=1.60, satellites=9, angle=2.5500, fixquality=1
$GPRMC,142146.600,A,4308.3040,N,07726.2628,W,1.87,2.08,150419,,,A*70
$GPGGA,142146.800,4308.3041,N,07726.2628,W,1,09,0.91,155.8,M,-34.4,M,,*57
lng=-77.437713, lat=43.138404, altitude=155.80, speed=1.87, satellites=9, angle=2.0800, fixquality=1
$GPRMC,142147.000,A,4308.3043,N,07726.2628,W,1.72,2.54,150419,,,A*77
$GPGGA,142147.200,4308.3044,N,07726.2628,W,1,09,0.91,155.8,M,-34.4,M,,*59
lng=-77.437713, lat=43.138404, altitude=155.80, speed=1.72, satellites=9, angle=2.5400, fixquality=1
$GPRMC,142147.400,A,4308.3045,N,07726.2629,W,1.94,1.68,150419,,,A*70
$GPGGA,142147.600,4308.3047,N,07726.2629,W,1,09,0.91,155.7,M,-34.4,M,,*50
lng=-77.437713, lat=43.138412, altitude=155.80, speed=1.94, satellites=9, angle=1.6800, fixquality=1
$GPRMC,142147.800,A,4308.3048,N,07726.2628,W,2.19,7.13,150419,,,A*7C
$GPGGA,142148.000,4308.3050,N,07726.2628,W,1,09,0.91,155.7,M,-34.4,M,,*5E
lng=-77.437713, lat=43.138412, altitude=155.70, speed=2.19, satellites=9, angle=7.1300, fixquality=1
$GPRMC,142148.200,A,4308.3051,N,07726.2628,W,2.28,11.31,150419,,,A*44
$GPGGA,142148.400,4308.3053,N,07726.2627,W,1,09,0.91,155.7,M,-34.4,M,,*56
lng=-77.437713, lat=43.138420, altitude=155.70, speed=2.28, satellites=9, angle=11.3100, fixquality=1
$GPRMC,142148.600,A,4308.3054,N,07726.2627,W,2.46,9.13,150419,,,A*7B
$GPGGA,142148.800,4308.3056,N,07726.2627,W,1,09,0.91,155.7,M,-34.4,M,,*5F
lng=-77.437713, lat=43.138420, altitude=155.70, speed=2.46, satellites=9, angle=9.1300, fixquality=1
$GPRMC,142149.000,A,4308.3058,N,07726.2627,W,2.69,7.72,150419,,,A*74
$GPGGA,142149.200,4308.3060,N,07726.2626,W,1,09,0.91,155.6,M,-34.4,M,,*51
lng=-77.437713, lat=43.138427, altitude=155.70, speed=2.69, satellites=9, angle=7.7200, fixquality=1
$GPRMC,142149.400,A,4308.3061,N,07726.2626,W,2.99,7.78,150419,,,A*7E
$GPGGA,142149.600,4308.3063,N,07726.2626,W,1,09,0.91,155.6,M,-34.4,M,,*56
lng=-77.437713, lat=43.138435, altitude=155.60, speed=2.99, satellites=9, angle=7.7800, fixquality=1
$GPRMC,142149.800,A,4308.3065,N,07726.2625,W,3.02,12.06,150419,,,A*4B
$GPGGA,142150.000,4308.3067,N,07726.2625,W,1,09,0.91,155.6,M,-34.4,M,,*5F
lng=-77.437713, lat=43.138442, altitude=155.60, speed=3.02, satellites=9, angle=12.0600, fixquality=1
$GPRMC,142150.200,A,4308.3069,N,07726.2625,W,3.75,9.24,150419,,,A*7F
$GPGGA,142150.400,4308.3072,N,07726.2624,W,1,09,0.91,155.4,M,-34.4,M,,*5C
lng=-77.437713, lat=43.138450, altitude=155.60, speed=3.75, satellites=9, angle=9.2400, fixquality=1
$GPRMC,142150.600,A,4308.3075,N,07726.2624,W,4.74,7.79,150419,,,A*77
$GPGGA,142150.800,4308.3078,N,07726.2623,W,1,09,0.91,155.4,M,-34.4,M,,*5D
lng=-77.437705, lat=43.138462, altitude=155.40, speed=4.74, satellites=9, angle=7.7900, fixquality=1
$GPRMC,142151.000,A,4308.3081,N,07726.2623,W,5.28,8.26,150419,,,A*71
$GPGGA,142151.200,4308.3084,N,07726.2622,W,1,09,0.91,155.4,M,-34.4,M,,*54
lng=-77.437705, lat=43.138469, altitude=155.40, speed=5.28, satellites=9, angle=8.2600, fixquality=1
$GPRMC,142151.400,A,4308.3088,N,07726.2622,W,5.70,7.04,150419,,,A*7F
$GPGGA,142151.600,4308.3091,N,07726.2621,W,1,09,0.91,155.3,M,-34.4,M,,*50
lng=-77.437705, lat=43.138477, altitude=155.40, speed=5.70, satellites=9, angle=7.0400, fixquality=1
$GPRMC,142151.800,A,4308.3095,N,07726.2621,W,6.38,6.79,150419,,,A*78
$GPGGA,142152.000,4308.3099,N,07726.2620,W,1,09,0.91,155.3,M,-34.4,M,,*5C
lng=-77.437705, lat=43.138492, altitude=155.30, speed=6.38, satellites=9, angle=6.7900, fixquality=1
$GPRMC,142152.200,A,4308.3103,N,07726.2619,W,6.51,8.96,150419,,,A*74
$GPGGA,142152.400,4308.3107,N,07726.2619,W,1,09,0.91,155.2,M,-34.4,M,,*55
lng=-77.437698, lat=43.138500, altitude=155.30, speed=6.51, satellites=9, angle=8.9600, fixquality=1
$GPRMC,142152.600,A,4308.3111,N,07726.2618,W,6.54,9.54,150419,,,A*78
$GPGGA,142152.800,4308.3114,N,07726.2617,W,1,09,0.91,155.1,M,-34.4,M,,*56
lng=-77.437698, lat=43.138515, altitude=155.20, speed=6.54, satellites=9, angle=9.5400, fixquality=1
$GPRMC,142153.000,A,4308.3118,N,07726.2616,W,6.29,11.14,150419,,,A*4F
$GPGGA,142153.200,4308.3121,N,07726.2616,W,1,09,0.91,155.1,M,-34.4,M,,*5A
lng=-77.437698, lat=43.138534, altitude=155.10, speed=6.29, satellites=9, angle=11.1400, fixquality=1
$GPRMC,142153.400,A,4308.3125,N,07726.2615,W,5.56,11.31,150419,,,A*4A
$GPGGA,142153.600,4308.3128,N,07726.2615,W,1,09,0.91,155.0,M,-34.4,M,,*55
lng=-77.437698, lat=43.138542, altitude=155.10, speed=5.56, satellites=9, angle=11.3100, fixquality=1
$GPRMC,142153.800,A,4308.3131,N,07726.2614,W,5.20,9.31,150419,,,A*7A
$GPGGA,142154.000,4308.3134,N,07726.2613,W,1,09,0.91,154.9,M,-34.4,M,,*57
lng=-77.437690, lat=43.138549, altitude=155.00, speed=5.20, satellites=9, angle=9.3100, fixquality=1
$GPRMC,142154.200,A,4308.3137,N,07726.2613,W,4.74,9.18,150419,,,A*7D
$GPGGA,142154.400,4308.3139,N,07726.2612,W,1,09,0.91,154.8,M,-34.4,M,,*5E
lng=-77.437690, lat=43.138557, altitude=154.90, speed=4.74, satellites=9, angle=9.1800, fixquality=1
$GPRMC,142154.600,A,4308.3142,N,07726.2612,W,4.57,10.63,150419,,,A*4F
$GPGGA,142154.800,4308.3145,N,07726.2611,W,1,09,0.91,154.7,M,-34.4,M,,*55
lng=-77.437690, lat=43.138565, altitude=154.80, speed=4.57, satellites=9, angle=10.6300, fixquality=1
$GPRMC,142155.000,A,4308.3147,N,07726.2610,W,4.52,11.67,150419,,,A*4F
$GPGGA,142155.200,4308.3150,N,07726.2610,W,1,09,0.91,154.7,M,-34.4,M,,*5B
lng=-77.437690, lat=43.138584, altitude=154.70, speed=4.52, satellites=9, angle=11.6700, fixquality=1
$GPRMC,142155.400,A,4308.3153,N,07726.2609,W,4.39,11.40,150419,,,A*4E
$GPGGA,142155.600,4308.3155,N,07726.2608,W,1,09,0.91,154.6,M,-34.4,M,,*52
lng=-77.437675, lat=43.138591, altitude=154.70, speed=4.39, satellites=9, angle=11.4000, fixquality=1
$GPRMC,142155.800,A,4308.3158,N,07726.2607,W,4.00,12.42,150419,,,A*4C
$GPGGA,142156.000,4308.3160,N,07726.2607,W,1,09,0.91,154.6,M,-34.4,M,,*5E
lng=-77.437675, lat=43.138599, altitude=154.60, speed=4.00, satellites=9, angle=12.4200, fixquality=1
$GPRMC,142156.200,A,4308.3162,N,07726.2606,W,3.05,10.22,150419,,,A*4B
$GPGGA,142156.400,4308.3163,N,07726.2606,W,1,09,0.91,154.6,M,-34.4,M,,*58
lng=-77.437675, lat=43.138607, altitude=154.60, speed=3.05, satellites=9, angle=10.2200, fixquality=1
$GPRMC,142156.600,A,4308.3165,N,07726.2606,W,2.47,13.68,150419,,,A*42
$GPGGA,142156.800,4308.3166,N,07726.2605,W,1,09,0.91,154.5,M,-34.4,M,,*51
lng=-77.437675, lat=43.138607, altitude=154.60, speed=2.47, satellites=9, angle=13.6800, fixquality=1
$GPRMC,142157.000,A,4308.3167,N,07726.2605,W,2.07,12.93,150419,,,A*45
$GPGGA,142157.200,4308.3169,N,07726.2604,W,1,09,0.91,154.4,M,-34.4,M,,*55
lng=-77.437675, lat=43.138614, altitude=154.50, speed=2.07, satellites=9, angle=12.9300, fixquality=1
$GPRMC,142157.400,A,4308.3170,N,07726.2603,W,2.42,19.45,150419,,,A*40
$GPGGA,142157.600,4308.3172,N,07726.2602,W,1,09,0.90,154.4,M,-34.4,M,,*5C
lng=-77.437667, lat=43.138614, altitude=154.40, speed=2.42, satellites=9, angle=19.4500, fixquality=1
$GPRMC,142157.800,A,4308.3174,N,07726.2601,W,3.62,21.59,150419,,,A*4F
$GPGGA,142158.000,4308.3176,N,07726.2600,W,1,09,0.90,154.3,M,-34.4,M,,*54
lng=-77.437667, lat=43.138622, altitude=154.40, speed=3.62, satellites=9, angle=21.5900, fixquality=1
$GPRMC,142158.200,A,4308.3178,N,07726.2598,W,3.94,31.56,150419,,,A*42
$GPGGA,142158.400,4308.3179,N,07726.2596,W,1,08,1.00,154.2,M,-34.4,M,,*5B
lng=-77.437660, lat=43.138629, altitude=154.30, speed=3.94, satellites=9, angle=31.5600, fixquality=1
$GPRMC,142158.600,A,4308.3180,N,07726.2594,W,3.92,35.62,150419,,,A*48
$GPGGA,142158.800,4308.3181,N,07726.2591,W,1,09,0.91,154.0,M,-34.4,M,,*5D
lng=-77.437652, lat=43.138629, altitude=154.20, speed=3.92, satellites=8, angle=35.6200, fixquality=1
$GPRMC,142159.000,A,4308.3182,N,07726.2589,W,4.11,46.52,150419,,,A*4A
$GPGGA,142159.200,4308.3183,N,07726.2586,W,1,09,0.91,153.9,M,-34.4,M,,*5C
lng=-77.437644, lat=43.138637, altitude=154.00, speed=4.11, satellites=9, angle=46.5200, fixquality=1
$GPRMC,142159.400,A,4308.3184,N,07726.2584,W,3.92,51.72,150419,,,A*4D
$GPGGA,142159.600,4308.3184,N,07726.2582,W,1,09,0.91,153.7,M,-34.4,M,,*55
lng=-77.437637, lat=43.138637, altitude=153.90, speed=3.92, satellites=9, angle=51.7200, fixquality=1
$GPRMC,142159.800,A,4308.3185,N,07726.2579,W,3.59,59.37,150419,,,A*4C
$GPGGA,142200.000,4308.3185,N,07726.2576,W,1,09,0.90,153.6,M,-34.4,M,,*56
lng=-77.437629, lat=43.138637, altitude=153.70, speed=3.59, satellites=9, angle=59.3700, fixquality=1
$GPRMC,142200.200,A,4308.3185,N,07726.2574,W,3.48,74.23,150419,,,A*4E
$GPGGA,142200.400,4308.3185,N,07726.2571,W,1,09,0.90,153.5,M,-34.4,M,,*56
lng=-77.437622, lat=43.138637, altitude=153.60, speed=3.48, satellites=9, angle=74.2300, fixquality=1
$GPRMC,142200.600,A,4308.3185,N,07726.2569,W,3.21,80.30,150419,,,A*40
$GPGGA,142200.800,4308.3185,N,07726.2567,W,1,09,0.90,153.4,M,-34.4,M,,*5C
lng=-77.437614, lat=43.138637, altitude=153.50, speed=3.21, satellites=9, angle=80.3000, fixquality=1
$GPRMC,142201.000,A,4308.3185,N,07726.2565,W,2.41,77.87,150419,,,A*48
$GPGGA,142201.200,4308.3185,N,07726.2563,W,1,09,0.90,153.3,M,-34.4,M,,*54
lng=-77.437606, lat=43.138637, altitude=153.40, speed=2.41, satellites=9, angle=77.8700, fixquality=1
$GPRMC,142201.400,A,4308.3185,N,07726.2563,W,1.25,68.78,150419,,,A*45
$GPGGA,142201.600,4308.3185,N,07726.2562,W,1,09,0.90,153.2,M,-34.4,M,,*50
lng=-77.437606, lat=43.138637, altitude=153.30, speed=1.25, satellites=9, angle=68.7800, fixquality=1
$GPRMC,142201.800,A,4308.3184,N,07726.2562,W,0.52,80.98,150419,,,A*40
$GPGGA,142202.000,4308.3185,N,07726.2563,W,1,09,0.90,153.1,M,-34.4,M,,*57
lng=-77.437606, lat=43.138637, altitude=153.20, speed=0.52, satellites=9, angle=80.9800, fixquality=1
$GPRMC,142202.200,A,4308.3185,N,07726.2564,W,0.63,294.68,150419,,,A*74
$GPGGA,142202.400,4308.3185,N,07726.2566,W,1,09,0.90,153.0,M,-34.4,M,,*57
lng=-77.437606, lat=43.138637, altitude=153.10, speed=0.63, satellites=9, angle=294.6800, fixquality=1
$GPRMC,142202.600,A,4308.3185,N,07726.2568,W,2.37,262.74,150419,,,A*7B
$GPGGA,142202.800,4308.3184,N,07726.2570,W,1,09,0.90,152.9,M,-34.4,M,,*55
lng=-77.437614, lat=43.138637, altitude=153.00, speed=2.37, satellites=9, angle=262.7400, fixquality=1
$GPRMC,142203.000,A,4308.3184,N,07726.2573,W,3.91,264.01,150419,,,A*7E
$GPGGA,142203.200,4308.3183,N,07726.2577,W,1,09,0.91,152.8,M,-34.4,M,,*5E
lng=-77.437622, lat=43.138637, altitude=152.90, speed=3.91, satellites=9, angle=264.0100, fixquality=1
$GPRMC,142203.400,A,4308.3183,N,07726.2581,W,5.49,266.03,150419,,,A*73
$GPGGA,142203.600,4308.3183,N,07726.2586,W,1,09,0.91,152.7,M,-34.4,M,,*5B
lng=-77.437637, lat=43.138637, altitude=152.80, speed=5.49, satellites=9, angle=266.0300, fixquality=1
$GPRMC,142203.800,A,4308.3182,N,07726.2591,W,6.92,268.29,150419,,,A*7C
$GPGGA,142204.000,4308.3182,N,07726.2597,W,1,09,0.91,152.7,M,-34.4,M,,*5B
lng=-77.437652, lat=43.138637, altitude=152.70, speed=6.92, satellites=9, angle=268.2900, fixquality=1
$GPRMC,142204.200,A,4308.3182,N,07726.2603,W,8.24,270.32,150419,,,A*79
$GPGGA,142204.400,4308.3181,N,07726.2610,W,1,09,0.91,152.6,M,-34.4,M,,*51
lng=-77.437667, lat=43.138637, altitude=152.70, speed=8.24, satellites=9, angle=270.3200, fixquality=1
$GPRMC,142204.600,A,4308.3181,N,07726.2617,W,9.60,274.02,150419,,,A*7D
$GPGGA,142204.800,4308.3181,N,07726.2625,W,1,09,0.91,152.5,M,-34.4,M,,*58
lng=-77.437698, lat=43.138629, altitude=152.60, speed=9.60, satellites=9, angle=274.0200, fixquality=1
$GPRMC,142205.000,A,4308.3181,N,07726.2633,W,10.83,275.47,150419,,,A*49
$GPGGA,142205.200,4308.3178,N,07726.2643,W,1,09,0.91,152.4,M,-34.4,M,,*54
lng=-77.437721, lat=43.138629, altitude=152.50, speed=10.83, satellites=9, angle=275.4700, fixquality=1
$GPRMC,142205.400,A,4308.3175,N,07726.2652,W,11.98,277.68,150419,,,A*45
$GPGGA,142205.600,4308.3173,N,07726.2662,W,1,09,0.91,152.4,M,-34.4,M,,*58
lng=-77.437751, lat=43.138622, altitude=152.40, speed=11.98, satellites=9, angle=277.6800, fixquality=1
$GPRMC,142205.800,A,4308.3172,N,07726.2673,W,13.38,280.17,150419,,,A*45
$GPGGA,142206.000,4308.3172,N,07726.2683,W,1,09,0.91,152.5,M,-34.4,M,,*52
lng=-77.437782, lat=43.138622, altitude=152.40, speed=13.38, satellites=9, angle=280.1700, fixquality=1
$GPRMC,142206.200,A,4308.3172,N,07726.2695,W,14.34,281.37,150419,,,A*4C
$GPGGA,142206.400,4308.3173,N,07726.2706,W,1,08,1.03,152.5,M,-34.4,M,,*50
lng=-77.437828, lat=43.138622, altitude=152.50, speed=14.34, satellites=9, angle=281.3700, fixquality=1
$GPRMC,142206.600,A,4308.3174,N,07726.2718,W,15.56,283.07,150419,,,A*4E
$GPGGA,142206.800,4308.3175,N,07726.2730,W,1,09,0.91,152.5,M,-34.4,M,,*54
lng=-77.437866, lat=43.138622, altitude=152.50, speed=15.56, satellites=8, angle=283.0700, fixquality=1
$GPRMC,142207.000,A,4308.3177,N,07726.2742,W,16.46,284.66,150419,,,A*47
$GPGGA,142207.200,4308.3179,N,07726.2755,W,1,09,0.91,152.6,M,-34.4,M,,*53
lng=-77.437904, lat=43.138629, altitude=152.50, speed=16.46, satellites=9, angle=284.6600, fixquality=1
$GPRMC,142207.400,A,4308.3180,N,07726.2767,W,17.14,286.13,150419,,,A*4A
$GPGGA,142207.600,4308.3183,N,07726.2780,W,1,09,0.91,152.5,M,-34.4,M,,*59
lng=-77.437950, lat=43.138629, altitude=152.60, speed=17.14, satellites=9, angle=286.1300, fixquality=1
$GPRMC,142207.800,A,4308.3185,N,07726.2792,W,17.83,287.10,150419,,,A*45
$GPGGA,142208.000,4308.3188,N,07726.2805,W,1,09,0.91,152.5,M,-34.4,M,,*59
lng=-77.437988, lat=43.138637, altitude=152.50, speed=17.83, satellites=9, angle=287.1000, fixquality=1
$GPRMC,142208.200,A,4308.3191,N,07726.2818,W,18.57,289.16,150419,,,A*46
$GPGGA,142208.400,4308.3194,N,07726.2831,W,1,09,0.91,152.5,M,-34.4,M,,*57
lng=-77.438026, lat=43.138656, altitude=152.50, speed=18.57, satellites=9, angle=289.1600, fixquality=1
$GPRMC,142208.600,A,4308.3197,N,07726.2845,W,19.43,291.08,150419,,,A*4E
$GPGGA,142208.800,4308.3201,N,07726.2859,W,1,09,0.91,152.5,M,-34.4,M,,*5A
lng=-77.438079, lat=43.138664, altitude=152.50, speed=19.43, satellites=9, angle=291.0800, fixquality=1
$GPRMC,142209.000,A,4308.3205,N,07726.2873,W,19.86,292.58,150419,,,A*4B
$GPGGA,142209.200,4308.3209,N,07726.2887,W,1,09,0.91,152.6,M,-34.4,M,,*59
lng=-77.438117, lat=43.138671, altitude=152.50, speed=19.86, satellites=9, angle=292.5800, fixquality=1
$GPRMC,142209.400,A,4308.3214,N,07726.2902,W,20.35,295.56,150419,,,A*43
$GPGGA,142209.600,4308.3219,N,07726.2916,W,1,09,0.91,152.7,M,-34.4,M,,*54
lng=-77.438163, lat=43.138687, altitude=152.60, speed=20.35, satellites=9, angle=295.5600, fixquality=1
$GPRMC,142209.800,A,4308.3225,N,07726.2930,W,20.78,297.66,150419,,,A*44
$GPGGA,142210.000,4308.3230,N,07726.2945,W,1,09,0.91,152.9,M,-34.4,M,,*59
lng=-77.438217, lat=43.138706, altitude=152.70, speed=20.78, satellites=9, angle=297.6600, fixquality=1
$GPRMC,142210.200,A,4308.3236,N,07726.2959,W,21.27,299.23,150419,,,A*4F
$GPGGA,142210.400,4308.3242,N,07726.2973,W,1,09,0.91,153.1,M,-34.4,M,,*54
lng=-77.438262, lat=43.138729, altitude=152.90, speed=21.27, satellites=9, angle=299.2300, fixquality=1
$GPRMC,142210.600,A,4308.3248,N,07726.2988,W,21.54,300.65,150419,,,A*49
$GPGGA,142210.800,4308.3254,N,07726.3002,W,1,09,0.91,153.2,M,-34.4,M,,*52
lng=-77.438316, lat=43.138744, altitude=153.10, speed=21.54, satellites=9, angle=300.6500, fixquality=1
$GPRMC,142211.000,A,4308.3261,N,07726.3017,W,21.86,301.44,150419,,,A*46
$GPGGA,142211.200,4308.3267,N,07726.3031,W,1,09,0.91,153.3,M,-34.4,M,,*58
lng=-77.438362, lat=43.138771, altitude=153.20, speed=21.86, satellites=9, angle=301.4400, fixquality=1
$GPRMC,142211.400,A,4308.3274,N,07726.3046,W,21.94,301.69,150419,,,A*4E
$GPGGA,142211.600,4308.3280,N,07726.3061,W,1,09,0.91,153.4,M,-34.4,M,,*57
lng=-77.438407, lat=43.138793, altitude=153.30, speed=21.94, satellites=9, angle=301.6900, fixquality=1
$GPRMC,142211.800,A,4308.3287,N,07726.3076,W,22.16,301.67,150419,,,A*4A
$GPGGA,142212.000,4308.3293,N,07726.3091,W,1,09,0.91,153.5,M,-34.4,M,,*5E
lng=-77.438461, lat=43.138809, altitude=153.40, speed=22.16, satellites=9, angle=301.6700, fixquality=1
$GPRMC,142212.200,A,4308.3300,N,07726.3106,W,22.44,301.69,150419,,,A*42
$GPGGA,142212.400,4308.3307,N,07726.3121,W,1,09,0.90,153.6,M,-34.4,M,,*5E
lng=-77.438507, lat=43.138835, altitude=153.50, speed=22.44, satellites=9, angle=301.6900, fixquality=1
$GPRMC,142212.600,A,4308.3313,N,07726.3136,W,22.70,301.72,150419,,,A*4A
$GPGGA,142212.800,4308.3320,N,07726.3152,W,1,09,0.91,153.6,M,-34.4,M,,*52
lng=-77.438560, lat=43.138858, altitude=153.60, speed=22.70, satellites=9, angle=301.7200, fixquality=1
$GPRMC,142213.000,A,4308.3327,N,07726.3167,W,23.11,301.08,150419,,,A*45
$GPGGA,142213.200,4308.3334,N,07726.3183,W,1,09,0.91,153.7,M,-34.4,M,,*51
lng=-77.438613, lat=43.138874, altitude=153.60, speed=23.11, satellites=9, angle=301.0800, fixquality=1
$GPRMC,142213.400,A,4308.3341,N,07726.3199,W,23.34,300.89,150419,,,A*4F
$GPGGA,142213.600,4308.3348,N,07726.3215,W,1,09,0.91,153.8,M,-34.4,M,,*5D
lng=-77.438667, lat=43.138900, altitude=153.70, speed=23.34, satellites=9, angle=300.8900, fixquality=1
$GPRMC,142213.800,A,4308.3355,N,07726.3231,W,23.82,301.30,150419,,,A*49
$GPGGA,142214.000,4308.3362,N,07726.3248,W,1,09,0.91,153.8,M,-34.4,M,,*5C
lng=-77.438720, lat=43.138923, altitude=153.80, speed=23.82, satellites=9, angle=301.3000, fixquality=1
$GPRMC,142214.200,A,4308.3369,N,07726.3264,W,24.17,301.40,150419,,,A*47
$GPGGA,142214.400,4308.3377,N,07726.3280,W,1,09,0.90,153.9,M,-34.4,M,,*58
lng=-77.438766, lat=43.138950, altitude=153.80, speed=24.17, satellites=9, angle=301.4000, fixquality=1
$GPRMC,142214.600,A,4308.3384,N,07726.3296,W,24.39,301.15,150419,,,A*41
$GPGGA,142214.800,4308.3392,N,07726.3313,W,1,09,0.91,154.0,M,-34.4,M,,*5B
lng=-77.438827, lat=43.138973, altitude=153.90, speed=24.39, satellites=9, angle=301.1500, fixquality=1
$GPRMC,142215.000,A,4308.3400,N,07726.3330,W,24.97,301.56,150419,,,A*43
$GPGGA,142215.200,4308.3408,N,07726.3347,W,1,09,0.91,154.0,M,-34.4,M,,*55
lng=-77.438880, lat=43.138996, altitude=154.00, speed=24.97, satellites=9, angle=301.5600, fixquality=1
$GPRMC,142215.400,A,4308.3415,N,07726.3364,W,25.32,301.73,150419,,,A*4B
$GPGGA,142215.600,4308.3423,N,07726.3381,W,1,09,0.91,154.1,M,-34.4,M,,*53
lng=-77.438941, lat=43.139022, altitude=154.00, speed=25.32, satellites=9, angle=301.7300, fixquality=1
$GPRMC,142215.800,A,4308.3431,N,07726.3398,W,25.56,302.02,150419,,,A*45
$GPGGA,142216.000,4308.3439,N,07726.3415,W,1,09,0.91,154.2,M,-34.4,M,,*54
lng=-77.438995, lat=43.139053, altitude=154.10, speed=25.56, satellites=9, angle=302.0200, fixquality=1
$GPRMC,142216.200,A,4308.3447,N,07726.3432,W,25.58,302.65,150419,,,A*45
$GPGGA,142216.400,4308.3455,N,07726.3449,W,1,09,0.90,154.3,M,-34.4,M,,*53
lng=-77.439056, lat=43.139080, altitude=154.20, speed=25.58, satellites=9, angle=302.6500, fixquality=1
$GPRMC,142216.600,A,4308.3463,N,07726.3466,W,25.84,302.18,150419,,,A*4D
$GPGGA,142216.800,4308.3471,N,07726.3483,W,1,09,0.91,154.4,M,-34.4,M,,*59
lng=-77.439109, lat=43.139102, altitude=154.30, speed=25.84, satellites=9, angle=302.1800, fixquality=1
$GPRMC,142217.000,A,4308.3480,N,07726.3499,W,25.71,305.76,150419,,,A*42
$GPGGA,142217.200,4308.3489,N,07726.3515,W,1,09,0.91,154.5,M,-34.4,M,,*5A
lng=-77.439170, lat=43.139137, altitude=154.40, speed=25.71, satellites=9, angle=305.7600, fixquality=1
$GPRMC,142217.400,A,4308.3498,N,07726.3531,W,25.63,308.53,150419,,,A*45
$GPGGA,142217.600,4308.3506,N,07726.3546,W,1,09,0.91,154.6,M,-34.4,M,,*5D
lng=-77.439216, lat=43.139160, altitude=154.50, speed=25.63, satellites=9, angle=308.5300, fixquality=1
$GPRMC,142217.800,A,4308.3516,N,07726.3560,W,24.84,310.72,150419,,,A*48
$GPGGA,142218.000,4308.3525,N,07726.3574,W,1,09,0.91,154.6,M,-34.4,M,,*54
lng=-77.439262, lat=43.139194, altitude=154.60, speed=24.84, satellites=9, angle=310.7200, fixquality=1
$GPRMC,142218.200,A,4308.3534,N,07726.3587,W,24.34,314.24,150419,,,A*48
$GPGGA,142218.400,4308.3544,N,07726.3600,W,1,09,0.90,154.9,M,-34.4,M,,*59
lng=-77.439315, lat=43.139225, altitude=154.60, speed=24.34, satellites=9, angle=314.2400, fixquality=1
$GPRMC,142218.600,A,4308.3555,N,07726.3612,W,23.87,318.74,150419,,,A*42
$GPGGA,142218.800,4308.3566,N,07726.3624,W,1,09,0.91,155.2,M,-34.4,M,,*58
lng=-77.439353, lat=43.139259, altitude=154.90, speed=23.87, satellites=9, angle=318.7400, fixquality=1
$GPRMC,142219.000,A,4308.3577,N,07726.3635,W,23.08,323.90,150419,,,A*45
$GPGGA,142219.200,4308.3588,N,07726.3646,W,1,09,0.91,155.1,M,-34.4,M,,*54
lng=-77.439384, lat=43.139297, altitude=155.20, speed=23.08, satellites=9, angle=323.9000, fixquality=1
$GPRMC,142219.400,A,4308.3598,N,07726.3656,W,22.46,326.14,150419,,,A*47
$GPGGA,142219.600,4308.3609,N,07726.3665,W,1,09,0.91,155.2,M,-34.4,M,,*58
lng=-77.439430, lat=43.139331, altitude=155.10, speed=22.46, satellites=9, angle=326.1400, fixquality=1
$GPRMC,142219.800,A,4308.3620,N,07726.3674,W,22.10,329.95,150419,,,A*4E
$GPGGA,142220.000,4308.3631,N,07726.3683,W,1,09,0.91,155.4,M,-34.4,M,,*51
lng=-77.439453, lat=43.139362, altitude=155.20, speed=22.10, satellites=9, angle=329.9500, fixquality=1
$GPRMC,142220.200,A,4308.3642,N,07726.3690,W,21.89,332.64,150419,,,A*47
$GPGGA,142220.400,4308.3653,N,07726.3697,W,1,09,0.91,155.6,M,-34.4,M,,*56
lng=-77.439483, lat=43.139404, altitude=155.40, speed=21.89, satellites=9, angle=332.6400, fixquality=1
$GPRMC,142220.600,A,4308.3664,N,07726.3704,W,21.53,336.38,150419,,,A*41
$GPGGA,142220.800,4308.3676,N,07726.3711,W,1,09,0.91,155.7,M,-34.4,M,,*53
lng=-77.439506, lat=43.139438, altitude=155.60, speed=21.53, satellites=9, angle=336.3800, fixquality=1
$GPRMC,142221.000,A,4308.3687,N,07726.3717,W,21.67,338.98,150419,,,A*4A
$GPGGA,142221.200,4308.3699,N,07726.3722,W,1,09,0.91,155.8,M,-34.4,M,,*56
lng=-77.439529, lat=43.139476, altitude=155.70, speed=21.67, satellites=9, angle=338.9800, fixquality=1
$GPRMC,142221.400,A,4308.3711,N,07726.3727,W,21.68,342.17,150419,,,A*46
$GPGGA,142221.600,4308.3723,N,07726.3732,W,1,09,0.91,155.9,M,-34.4,M,,*52
lng=-77.439544, lat=43.139518, altitude=155.80, speed=21.68, satellites=9, angle=342.1700, fixquality=1
$GPRMC,142221.800,A,4308.3735,N,07726.3736,W,22.24,344.76,150419,,,A*46
$GPGGA,142222.000,4308.3747,N,07726.3741,W,1,09,0.91,156.0,M,-34.4,M,,*5B
lng=-77.439559, lat=43.139560, altitude=155.90, speed=22.24, satellites=9, angle=344.7600, fixquality=1
$GPRMC,142222.200,A,4308.3760,N,07726.3744,W,23.17,347.84,150419,,,A*45
$GPGGA,142222.400,4308.3772,N,07726.3747,W,1,09,0.91,156.1,M,-34.4,M,,*5E
lng=-77.439575, lat=43.139598, altitude=156.00, speed=23.17, satellites=9, angle=347.8400, fixquality=1
$GPRMC,142222.600,A,4308.3785,N,07726.3750,W,23.79,350.40,150419,,,A*49
$GPGGA,142222.800,4308.3799,N,07726.3753,W,1,09,0.91,156.2,M,-34.4,M,,*51
lng=-77.439582, lat=43.139640, altitude=156.10, speed=23.79, satellites=9, angle=350.4000, fixquality=1
$GPRMC,142223.000,A,4308.3812,N,07726.3756,W,23.90,352.33,150419,,,A*48
$GPGGA,142223.200,4308.3825,N,07726.3758,W,1,09,0.91,156.3,M,-34.4,M,,*58
lng=-77.439590, lat=43.139690, altitude=156.20, speed=23.90, satellites=9, angle=352.3300, fixquality=1
$GPRMC,142223.400,A,4308.3839,N,07726.3761,W,23.90,352.60,150419,,,A*47
$GPGGA,142223.600,4308.3852,N,07726.3763,W,1,09,0.91,156.4,M,-34.4,M,,*53
lng=-77.439598, lat=43.139728, altitude=156.30, speed=23.90, satellites=9, angle=352.6000, fixquality=1
$GPRMC,142223.800,A,4308.3866,N,07726.3764,W,24.38,354.13,150419,,,A*43
$GPGGA,142224.000,4308.3879,N,07726.3765,W,1,09,0.91,156.5,M,-34.4,M,,*5C
lng=-77.439605, lat=43.139778, altitude=156.40, speed=24.38, satellites=9, angle=354.1300, fixquality=1
$GPRMC,142224.200,A,4308.3893,N,07726.3766,W,24.75,356.10,150419,,,A*4E
$GPGGA,142224.400,4308.3907,N,07726.3767,W,1,09,0.91,156.7,M,-34.4,M,,*50
lng=-77.439605, lat=43.139820, altitude=156.50, speed=24.75, satellites=9, angle=356.1000, fixquality=1
$GPRMC,142224.600,A,4308.3921,N,07726.3767,W,25.16,357.86,150419,,,A*49
$GPGGA,142224.800,4308.3935,N,07726.3766,W,1,09,0.91,156.8,M,-34.4,M,,*53
lng=-77.439605, lat=43.139869, altitude=156.70, speed=25.16, satellites=9, angle=357.8600, fixquality=1
$GPRMC,142225.000,A,4308.3950,N,07726.3765,W,26.13,0.43,150419,,,A*44
$GPGGA,142225.200,4308.3965,N,07726.3764,W,1,09,0.91,156.9,M,-34.4,M,,*5E
lng=-77.439605, lat=43.139915, altitude=156.80, speed=26.13, satellites=9, angle=0.4300, fixquality=1
$GPRMC,142225.400,A,4308.3980,N,07726.3762,W,26.53,2.55,150419,,,A*4B
$GPGGA,142225.600,4308.3995,N,07726.3760,W,1,09,0.91,157.0,M,-34.4,M,,*59
lng=-77.439598, lat=43.139965, altitude=156.90, speed=26.53, satellites=9, angle=2.5500, fixquality=1
$GPRMC,142225.800,A,4308.4010,N,07726.3757,W,26.85,5.75,150419,,,A*48
$GPGGA,142226.000,4308.4025,N,07726.3754,W,1,09,0.91,157.0,M,-34.4,M,,*5E
lng=-77.439590, lat=43.140014, altitude=157.00, speed=26.85, satellites=9, angle=5.7500, fixquality=1
$GPRMC,142226.200,A,4308.4041,N,07726.3751,W,27.71,8.32,150419,,,A*47
$GPGGA,142226.400,4308.4057,N,07726.3747,W,1,09,0.91,157.1,M,-34.4,M,,*5C
lng=-77.439582, lat=43.140071, altitude=157.00, speed=27.71, satellites=9, angle=8.3200, fixquality=1
$GPRMC,142226.600,A,4308.4072,N,07726.3744,W,28.01,9.31,150419,,,A*4D
$GPGGA,142226.800,4308.4088,N,07726.3740,W,1,09,0.91,157.2,M,-34.4,M,,*56
lng=-77.439575, lat=43.140121, altitude=157.10, speed=28.01, satellites=9, angle=9.3100, fixquality=1
$GPRMC,142227.000,A,4308.4103,N,07726.3736,W,28.32,10.06,150419,,,A*74
$GPGGA,142227.200,4308.4119,N,07726.3733,W,1,09,0.91,157.2,M,-34.4,M,,*50
lng=-77.439559, lat=43.140171, altitude=157.20, speed=28.32, satellites=9, angle=10.0600, fixquality=1
$GPRMC,142227.400,A,4308.4135,N,07726.3728,W,28.68,10.45,150419,,,A*72
$GPGGA,142227.600,4308.4151,N,07726.3724,W,1,09,0.91,157.3,M,-34.4,M,,*5F
lng=-77.439544, lat=43.140224, altitude=157.20, speed=28.68, satellites=9, angle=10.4500, fixquality=1
$GPRMC,142227.800,A,4308.4167,N,07726.3720,W,28.92,10.89,150419,,,A*74
$GPGGA,142228.000,4308.4183,N,07726.3716,W,1,09,0.91,157.4,M,-34.4,M,,*5F
lng=-77.439537, lat=43.140274, altitude=157.30, speed=28.92, satellites=9, angle=10.8900, fixquality=1
$GPRMC,142228.200,A,4308.4200,N,07726.3711,W,29.15,11.28,150419,,,A*75
$GPGGA,142228.400,4308.4216,N,07726.3706,W,1,09,0.91,157.5,M,-34.4,M,,*54
lng=-77.439521, lat=43.140331, altitude=157.40, speed=29.15, satellites=9, angle=11.2800, fixquality=1
$GPRMC,142228.600,A,4308.4232,N,07726.3702,W,29.10,11.26,150419,,,A*79
$GPGGA,142228.800,4308.4248,N,07726.3697,W,1,09,0.91,157.7,M,-34.4,M,,*58
lng=-77.439498, lat=43.140388, altitude=157.50, speed=29.10, satellites=9, angle=11.2600, fixquality=1
$GPRMC,142229.000,A,4308.4263,N,07726.3693,W,28.87,11.53,150419,,,A*7E
$GPGGA,142229.200,4308.4279,N,07726.3688,W,1,09,0.91,157.8,M,-34.4,M,,*50
lng=-77.439483, lat=43.140438, altitude=157.70, speed=28.87, satellites=9, angle=11.5300, fixquality=1
$GPRMC,142229.400,A,4308.4295,N,07726.3684,W,28.81,11.36,150419,,,A*70
$GPGGA,142229.600,4308.4310,N,07726.3679,W,1,09,0.91,157.8,M,-34.4,M,,*54
lng=-77.439468, lat=43.140495, altitude=157.80, speed=28.81, satellites=9, angle=11.3600, fixquality=1
$GPRMC,142229.800,A,4308.4325,N,07726.3675,W,27.85,10.96,150419,,,A*78
$GPGGA,142230.000,4308.4340,N,07726.3670,W,1,09,0.91,157.9,M,-34.4,M,,*57
lng=-77.439460, lat=43.140544, altitude=157.80, speed=27.85, satellites=9, angle=10.9600, fixquality=1
$GPRMC,142230.200,A,4308.4356,N,07726.3666,W,27.51,10.63,150419,,,A*7F
$GPGGA,142230.400,4308.4371,N,07726.3663,W,1,09,0.90,158.1,M,-34.4,M,,*55
lng=-77.439445, lat=43.140590, altitude=157.90, speed=27.51, satellites=9, angle=10.6300, fixquality=1
$GPRMC,142230.600,A,4308.4385,N,07726.3659,W,27.19,10.20,150419,,,A*72
$GPGGA,142230.800,4308.4399,N,07726.3655,W,1,08,1.03,158.2,M,-34.4,M,,*53
lng=-77.439430, lat=43.140640, altitude=158.10, speed=27.19, satellites=9, angle=10.2000, fixquality=1
$GPRMC,142231.000,A,4308.4413,N,07726.3652,W,25.76,9.96,150419,,,A*48
$GPGGA,142231.200,4308.4427,N,07726.3648,W,1,09,0.91,158.4,M,-34.4,M,,*5B
lng=-77.439422, lat=43.140689, altitude=158.20, speed=25.76, satellites=8, angle=9.9600, fixquality=1
$GPRMC,142231.400,A,4308.4440,N,07726.3645,W,24.85,9.31,150419,,,A*4C
$GPGGA,142231.600,4308.4453,N,07726.3642,W,1,09,0.91,158.5,M,-34.4,M,,*57
lng=-77.439407, lat=43.140731, altitude=158.40, speed=24.85, satellites=9, angle=9.3100, fixquality=1
$GPRMC,142231.800,A,4308.4466,N,07726.3639,W,23.37,8.78,150419,,,A*4D
$GPGGA,142232.000,4308.4478,N,07726.3636,W,1,09,0.91,158.7,M,-34.4,M,,*5A
lng=-77.439399, lat=43.140781, altitude=158.50, speed=23.37, satellites=9, angle=8.7800, fixquality=1
$GPRMC,142232.200,A,4308.4489,N,07726.3634,W,21.66,9.23,150419,,,A*41
$GPGGA,142232.400,4308.4500,N,07726.3631,W,1,09,0.91,158.9,M,-34.4,M,,*59
lng=-77.439384, lat=43.140811, altitude=158.70, speed=21.66, satellites=9, angle=9.2300, fixquality=1
$GPRMC,142232.600,A,4308.4510,N,07726.3629,W,20.18,9.46,150419,,,A*43
$GPGGA,142232.800,4308.4519,N,07726.3626,W,1,09,0.91,159.1,M,-34.4,M,,*52
lng=-77.439376, lat=43.140853, altitude=158.90, speed=20.18, satellites=9, angle=9.4600, fixquality=1
$GPRMC,142233.000,A,4308.4526,N,07726.3625,W,17.32,8.27,150419,,,A*47
$GPGGA,142233.200,4308.4532,N,07726.3622,W,1,09,0.91,159.4,M,-34.4,M,,*51
lng=-77.439369, lat=43.140876, altitude=159.10, speed=17.32, satellites=9, angle=8.2700, fixquality=1
$GPRMC,142233.400,A,4308.4539,N,07726.3619,W,14.99,8.36,150419,,,A*40
$GPGGA,142233.600,4308.4546,N,07726.3616,W,1,09,0.91,159.5,M,-34.4,M,,*50
lng=-77.439361, lat=43.140903, altitude=159.40, speed=14.99, satellites=9, angle=8.3600, fixquality=1
$GPRMC,142233.800,A,4308.4551,N,07726.3614,W,12.93,8.11,150419,,,A*46
$GPGGA,142234.001,4308.4556,N,07726.3612,W,1,09,0.91,159.6,M,-34.4,M,,*56
lng=-77.439353, lat=43.140918, altitude=159.50, speed=12.93, satellites=9, angle=8.1100, fixquality=1
$GPRMC,142234.201,A,4308.4561,N,07726.3611,W,10.94,5.96,150419,,,A*4B
$GPGGA,142234.401,4308.4565,N,07726.3611,W,1,09,0.91,159.7,M,-34.4,M,,*50
lng=-77.439353, lat=43.140933, altitude=159.60, speed=10.94, satellites=9, angle=5.9600, fixquality=1
$GPRMC,142234.600,A,4308.4569,N,07726.3610,W,9.35,5.90,150419,,,A*72
$GPGGA,142234.800,4308.4572,N,07726.3610,W,1,09,0.91,159.9,M,-34.4,M,,*54
lng=-77.439346, lat=43.140949, altitude=159.70, speed=9.35, satellites=9, angle=5.9000, fixquality=1
$GPRMC,142235.000,A,4308.4572,N,07726.3610,W,6.83,2.71,150419,,,A*75
$GPGGA,142235.200,4308.4574,N,07726.3610,W,1,09,0.91,160.1,M,-34.4,M,,*5B
lng=-77.439346, lat=43.140949, altitude=159.90, speed=6.83, satellites=9, angle=2.7100, fixquality=1
$GPRMC,142235.400,A,4308.4576,N,07726.3611,W,5.97,2.08,150419,,,A*7C
$GPGGA,142235.600,4308.4577,N,07726.3611,W,1,09,0.91,160.1,M,-34.4,M,,*5D
lng=-77.439353, lat=43.140956, altitude=160.10, speed=5.97, satellites=9, angle=2.0800, fixquality=1
$GPRMC,142235.800,A,4308.4578,N,07726.3610,W,5.40,5.94,150419,,,A*77
$GPGGA,142236.000,4308.4580,N,07726.3609,W,1,09,0.91,160.2,M,-34.4,M,,*5A
lng=-77.439346, lat=43.140968, altitude=160.10, speed=5.40, satellites=9, angle=5.9400, fixquality=1
$GPRMC,142236.200,A,4308.4583,N,07726.3610,W,5.98,357.24,150419,,,A*70
$GPGGA,142236.400,4308.4586,N,07726.3610,W,1,09,0.91,160.4,M,-34.4,M,,*56
lng=-77.439346, lat=43.140975, altitude=160.20, speed=5.98, satellites=9, angle=357.2400, fixquality=1
$GPRMC,142236.600,A,4308.4590,N,07726.3610,W,6.69,350.74,150419,,,A*79
$GPGGA,142236.800,4308.4593,N,07726.3612,W,1,09,0.91,160.7,M,-34.4,M,,*5F
lng=-77.439346, lat=43.140983, altitude=160.40, speed=6.69, satellites=9, angle=350.7400, fixquality=1
$GPRMC,142237.000,A,4308.4598,N,07726.3614,W,8.31,343.09,150419,,,A*79
$GPGGA,142237.200,4308.4603,N,07726.3617,W,1,09,0.91,161.0,M,-34.4,M,,*5D
lng=-77.439353, lat=43.140998, altitude=160.70, speed=8.31, satellites=9, angle=343.0900, fixquality=1
$GPRMC,142237.400,A,4308.4607,N,07726.3620,W,9.16,334.64,150419,,,A*70
$GPGGA,142237.600,4308.4611,N,07726.3624,W,1,09,0.91,161.3,M,-34.4,M,,*59
lng=-77.439361, lat=43.141014, altitude=161.00, speed=9.16, satellites=9, angle=334.6400, fixquality=1
$GPRMC,142237.800,A,4308.4616,N,07726.3628,W,9.76,325.73,150419,,,A*74
$GPGGA,142238.000,4308.4620,N,07726.3635,W,1,09,0.91,161.2,M,-34.4,M,,*53
lng=-77.439376, lat=43.141025, altitude=161.30, speed=9.76, satellites=9, angle=325.7300, fixquality=1
$GPRMC,142238.200,A,4308.4624,N,07726.3642,W,11.11,313.84,150419,,,A*49
$GPGGA,142238.400,4308.4628,N,07726.3650,W,1,09,0.90,161.1,M,-34.4,M,,*5E
lng=-77.439407, lat=43.141040, altitude=161.20, speed=11.11, satellites=9, angle=313.8400, fixquality=1
$GPRMC,142238.600,A,4308.4631,N,07726.3659,W,12.16,304.11,150419,,,A*4D
$GPGGA,142238.800,4308.4634,N,07726.3667,W,1,09,0.91,161.1,M,-34.4,M,,*5A
lng=-77.439430, lat=43.141048, altitude=161.10, speed=12.16, satellites=9, angle=304.1100, fixquality=1
$GPRMC,142239.000,A,4308.4637,N,07726.3676,W,13.31,297.64,150419,,,A*4C
$GPGGA,142239.200,4308.4640,N,07726.3687,W,1,08,1.03,161.0,M,-34.4,M,,*56
lng=-77.439460, lat=43.141063, altitude=161.10, speed=13.31, satellites=9, angle=297.6400, fixquality=1
$GPRMC,142239.400,A,4308.4643,N,07726.3697,W,14.24,292.82,150419,,,A*4A
$GPGGA,142239.600,4308.4645,N,07726.3708,W,1,08,1.03,161.1,M,-34.4,M,,*50
lng=-77.439491, lat=43.141071, altitude=161.00, speed=14.24, satellites=8, angle=292.8200, fixquality=1
$GPRMC,142239.800,A,4308.4648,N,07726.3720,W,15.50,287.79,150419,,,A*42
$GPGGA,142240.000,4308.4650,N,07726.3732,W,1,09,0.91,161.1,M,-34.4,M,,*5E
lng=-77.439537, lat=43.141078, altitude=161.10, speed=15.50, satellites=8, angle=287.7900, fixquality=1
$GPRMC,142240.200,A,4308.4650,N,07726.3744,W,16.69,284.26,150419,,,A*4D
$GPGGA,142240.400,4308.4651,N,07726.3756,W,1,09,0.90,161.0,M,-34.4,M,,*59
lng=-77.439575, lat=43.141078, altitude=161.10, speed=16.69, satellites=9, angle=284.2600, fixquality=1
$GPRMC,142240.600,A,4308.4651,N,07726.3769,W,17.48,282.00,150419,,,A*47
$GPGGA,142240.800,4308.4652,N,07726.3783,W,1,09,0.91,160.9,M,-34.4,M,,*57
lng=-77.439613, lat=43.141090, altitude=161.00, speed=17.48, satellites=9, angle=282.0000, fixquality=1
$GPRMC,142241.000,A,4308.4653,N,07726.3798,W,18.39,280.28,150419,,,A*4D
$GPGGA,142241.200,4308.4653,N,07726.3813,W,1,09,0.91,160.7,M,-34.4,M,,*55
lng=-77.439666, lat=43.141090, altitude=160.90, speed=18.39, satellites=9, angle=280.2800, fixquality=1
$GPRMC,142241.400,A,4308.4653,N,07726.3828,W,19.21,278.72,150419,,,A*4D
$GPGGA,142241.600,4308.4653,N,07726.3843,W,1,09,0.91,160.6,M,-34.4,M,,*55
lng=-77.439712, lat=43.141090, altitude=160.70, speed=19.21, satellites=9, angle=278.7200, fixquality=1
$GPRMC,142241.800,A,4308.4654,N,07726.3859,W,19.94,277.86,150419,,,A*4A
$GPGGA,142242.000,4308.4655,N,07726.3875,W,1,09,0.91,160.5,M,-34.4,M,,*50
lng=-77.439765, lat=43.141090, altitude=160.60, speed=19.94, satellites=9, angle=277.8600, fixquality=1
$GPRMC,142242.200,A,4308.4656,N,07726.3892,W,20.47,279.12,150419,,,A*41
$GPGGA,142242.400,4308.4657,N,07726.3907,W,1,09,0.90,160.3,M,-34.4,M,,*55
lng=-77.439819, lat=43.141098, altitude=160.50, speed=20.47, satellites=9, angle=279.1200, fixquality=1
$GPRMC,142242.600,A,4308.4658,N,07726.3924,W,20.84,278.56,150419,,,A*49
$GPGGA,142242.800,4308.4659,N,07726.3940,W,1,09,0.91,160.1,M,-34.4,M,,*57
lng=-77.439872, lat=43.141098, altitude=160.30, speed=20.84, satellites=9, angle=278.5600, fixquality=1
$GPRMC,142243.000,A,4308.4660,N,07726.3956,W,21.09,278.29,150419,,,A*4C
$GPGGA,142243.200,4308.4660,N,07726.3973,W,1,09,0.91,159.8,M,-34.4,M,,*55
lng=-77.439926, lat=43.141098, altitude=160.10, speed=21.09, satellites=9, angle=278.2900, fixquality=1
$GPRMC,142243.400,A,4308.4661,N,07726.3990,W,21.30,277.90,150419,,,A*44
$GPGGA,142243.600,4308.4662,N,07726.4007,W,1,09,0.90,159.7,M,-34.4,M,,*50
lng=-77.439979, lat=43.141105, altitude=159.80, speed=21.30, satellites=9, angle=277.9000, fixquality=1
$GPRMC,142243.800,A,4308.4663,N,07726.4024,W,21.55,277.69,150419,,,A*4E
$GPGGA,142244.000,4308.4665,N,07726.4040,W,1,09,0.91,159.4,M,-34.4,M,,*57
lng=-77.440040, lat=43.141105, altitude=159.70, speed=21.55, satellites=9, angle=277.6900, fixquality=1
$GPRMC,142244.200,A,4308.4667,N,07726.4057,W,21.50,277.95,150419,,,A*45
$GPGGA,142244.400,4308.4669,N,07726.4073,W,1,09,0.91,159.1,M,-34.4,M,,*5A
lng=-77.440093, lat=43.141113, altitude=159.40, speed=21.50, satellites=9, angle=277.9500, fixquality=1
$GPRMC,142244.600,A,4308.4670,N,07726.4090,W,21.42,278.46,150419,,,A*4E
$GPGGA,142244.800,4308.4672,N,07726.4107,W,1,09,0.91,158.8,M,-34.4,M,,*56
lng=-77.440155, lat=43.141113, altitude=159.10, speed=21.42, satellites=9, angle=278.4600, fixquality=1
$GPRMC,142245.000,A,4308.4674,N,07726.4123,W,21.36,279.53,150419,,,A*42
$GPGGA,142245.200,4308.4675,N,07726.4139,W,1,09,0.91,158.4,M,-34.4,M,,*5B
lng=-77.440200, lat=43.141120, altitude=158.80, speed=21.36, satellites=9, angle=279.5300, fixquality=1
$GPRMC,142245.400,A,4308.4677,N,07726.4155,W,21.28,279.49,150419,,,A*40
$GPGGA,142245.600,4308.4678,N,07726.4172,W,1,09,0.91,158.1,M,-34.4,M,,*58
lng=-77.440261, lat=43.141128, altitude=158.40, speed=21.28, satellites=9, angle=279.4900, fixquality=1
$GPRMC,142245.800,A,4308.4680,N,07726.4188,W,20.93,279.50,150419,,,A*4D
$GPGGA,142246.000,4308.4681,N,07726.4203,W,1,09,0.91,157.9,M,-34.4,M,,*59
lng=-77.440315, lat=43.141128, altitude=158.10, speed=20.93, satellites=9, angle=279.5000, fixquality=1
$GPRMC,142246.200,A,4308.4682,N,07726.4218,W,20.03,279.52,150419,,,A*47
$GPGGA,142246.400,4308.4684,N,07726.4233,W,1,09,0.91,157.6,M,-34.4,M,,*54
lng=-77.440361, lat=43.141136, altitude=157.90, speed=20.03, satellites=9, angle=279.5200, fixquality=1
$GPRMC,142246.600,A,4308.4686,N,07726.4247,W,19.08,279.98,150419,,,A*4A
$GPGGA,142246.800,4308.4687,N,07726.4261,W,1,09,0.91,157.4,M,-34.4,M,,*5E
lng=-77.440414, lat=43.141147, altitude=157.60, speed=19.08, satellites=9, angle=279.9800, fixquality=1
$GPRMC,142247.000,A,4308.4688,N,07726.4274,W,17.47,280.33,150419,,,A*41
$GPGGA,142247.200,4308.4689,N,07726.4286,W,1,09,0.91,157.1,M,-34.4,M,,*57
lng=-77.440452, lat=43.141147, altitude=157.40, speed=17.47, satellites=9, angle=280.3300, fixquality=1
$GPRMC,142247.400,A,4308.4691,N,07726.4298,W,15.85,280.04,150419,,,A*47
$GPGGA,142247.600,4308.4692,N,07726.4309,W,1,08,1.03,156.7,M,-34.4,M,,*53
lng=-77.440498, lat=43.141155, altitude=157.10, speed=15.85, satellites=9, angle=280.0400, fixquality=1
$GPRMC,142247.800,A,4308.4693,N,07726.4320,W,13.95,280.13,150419,,,A*4A
$GPGGA,142248.000,4308.4693,N,07726.4329,W,1,08,1.03,156.4,M,-34.4,M,,*5A
lng=-77.440536, lat=43.141155, altitude=156.70, speed=13.95, satellites=8, angle=280.1300, fixquality=1
$GPRMC,142248.200,A,4308.4693,N,07726.4338,W,11.98,279.72,150419,,,A*48
$GPGGA,142248.400,4308.4694,N,07726.4345,W,1,08,1.02,156.1,M,-34.4,M,,*57
lng=-77.440559, lat=43.141155, altitude=156.40, speed=11.98, satellites=8, angle=279.7200, fixquality=1
$GPRMC,142248.600,A,4308.4695,N,07726.4351,W,10.54,281.08,150419,,,A*4E
$GPGGA,142248.800,4308.4695,N,07726.4358,W,1,08,1.03,156.0,M,-34.4,M,,*56
lng=-77.440582, lat=43.141162, altitude=156.10, speed=10.54, satellites=8, angle=281.0800, fixquality=1
$GPRMC,142249.000,A,4308.4695,N,07726.4364,W,9.27,281.16,150419,,,A*7C
$GPGGA,142249.200,4308.4695,N,07726.4370,W,1,08,1.03,155.9,M,-34.4,M,,*5D
lng=-77.440605, lat=43.141162, altitude=156.00, speed=9.27, satellites=8, angle=281.1600, fixquality=1
$GPRMC,142249.400,A,4308.4696,N,07726.4375,W,8.25,281.00,150419,,,A*7F
$GPGGA,142249.600,4308.4696,N,07726.4380,W,1,08,1.03,155.8,M,-34.4,M,,*54
lng=-77.440628, lat=43.141162, altitude=155.90, speed=8.25, satellites=8, angle=281.0000, fixquality=1
$GPRMC,142249.800,A,4308.4696,N,07726.4384,W,6.79,279.97,150419,,,A*73
$GPGGA,142250.000,4308.4696,N,07726.4388,W,1,08,1.03,155.7,M,-34.4,M,,*5D
lng=-77.440643, lat=43.141162, altitude=155.80, speed=6.79, satellites=8, angle=279.9700, fixquality=1
$GPRMC,142250.200,A,4308.4696,N,07726.4392,W,5.57,279.56,150419,,,A*74
$GPGGA,142250.400,4308.4696,N,07726.4395,W,1,08,1.03,155.5,M,-34.4,M,,*57
lng=-77.440650, lat=43.141162, altitude=155.70, speed=5.57, satellites=8, angle=279.5600, fixquality=1
$GPRMC,142250.600,A,4308.4695,N,07726.4399,W,4.70,279.88,150419,,,A*7F
$GPGGA,142250.800,4308.4695,N,07726.4402,W,1,09,0.91,155.5,M,-34.4,M,,*5A
lng=-77.440666, lat=43.141162, altitude=155.50, speed=4.70, satellites=8, angle=279.8800, fixquality=1
$GPRMC,142251.000,A,4308.4695,N,07726.4404,W,3.97,278.94,150419,,,A*79
$GPGGA,142251.200,4308.4696,N,07726.4408,W,1,09,0.91,155.5,M,-34.4,M,,*58
lng=-77.440673, lat=43.141162, altitude=155.50, speed=3.97, satellites=9, angle=278.9400, fixquality=1
$GPRMC,142251.400,A,4308.4696,N,07726.4411,W,4.24,275.69,150419,,,A*7A
$GPGGA,142251.600,4308.4695,N,07726.4415,W,1,09,0.91,155.4,M,-34.4,M,,*52
lng=-77.440681, lat=43.141162, altitude=155.50, speed=4.24, satellites=9, angle=275.6900, fixquality=1
$GPRMC,142251.800,A,4308.4695,N,07726.4420,W,5.37,270.39,150419,,,A*74
$GPGGA,142252.000,4308.4695,N,07726.4425,W,1,09,0.91,155.3,M,-34.4,M,,*53
lng=-77.440696, lat=43.141162, altitude=155.40, speed=5.37, satellites=9, angle=270.3900, fixquality=1
$GPRMC,142252.200,A,4308.4695,N,07726.4431,W,7.18,270.21,150419,,,A*7B
$GPGGA,142252.400,4308.4695,N,07726.4437,W,1,09,0.91,155.3,M,-34.4,M,,*54
lng=-77.440711, lat=43.141162, altitude=155.30, speed=7.18, satellites=9, angle=270.2100, fixquality=1
$GPRMC,142252.600,A,4308.4695,N,07726.4444,W,8.59,270.87,150419,,,A*7B
$GPGGA,142252.800,4308.4696,N,07726.4452,W,1,09,0.91,155.4,M,-34.4,M,,*5F
lng=-77.440742, lat=43.141162, altitude=155.30, speed=8.59, satellites=9, angle=270.8700, fixquality=1
$GPRMC,142253.000,A,4308.4696,N,07726.4461,W,10.57,271.42,150419,,,A*47
$GPGGA,142253.200,4308.4697,N,07726.4471,W,1,09,0.91,155.5,M,-34.4,M,,*55
lng=-77.440773, lat=43.141162, altitude=155.40, speed=10.57, satellites=9, angle=271.4200, fixquality=1
$GPRMC,142253.400,A,4308.4697,N,07726.4480,W,12.10,271.22,150419,,,A*4A
$GPGGA,142253.600,4308.4697,N,07726.4492,W,1,09,0.91,155.4,M,-34.4,M,,*5D
lng=-77.440803, lat=43.141162, altitude=155.50, speed=12.10, satellites=9, angle=271.2200, fixquality=1
$GPRMC,142253.800,A,4308.4698,N,07726.4504,W,14.04,270.61,150419,,,A*41
$GPGGA,142254.000,4308.4697,N,07726.4516,W,1,09,0.91,155.3,M,-34.4,M,,*56
lng=-77.440834, lat=43.141162, altitude=155.40, speed=14.04, satellites=9, angle=270.6100, fixquality=1
$GPRMC,142254.200,A,4308.4700,N,07726.4528,W,15.92,272.16,150419,,,A*4E
$GPGGA,142254.400,4308.4703,N,07726.4540,W,1,09,0.91,154.9,M,-34.4,M,,*56
lng=-77.440879, lat=43.141170, altitude=155.30, speed=15.92, satellites=9, angle=272.1600, fixquality=1
$GPRMC,142254.600,A,4308.4705,N,07726.4553,W,16.62,274.55,150419,,,A*4E
$GPGGA,142254.800,4308.4707,N,07726.4567,W,1,09,0.91,154.8,M,-34.4,M,,*5A
