Vers 81
USE_SERIAL_FEEDBACK=true
DEVELOPMENT_MODE=false
USE_RMC_ONLY=false

$GPRMC,143034.000,A,4308.3163,N,07726.2687,W,0.16,167.22,190719,,,A*7A
$GPGGA,143034.250,4308.3165,N,07726.2689,W,1,05,4.48,149.1,M,-34.4,M,,*59
$GPRMC,143034.500,A,4308.3165,N,07726.2690,W,0.47,163.51,190719,,,A*7B
$GPGGA,143034.750,4308.3167,N,07726.2692,W,1,05,4.48,149.4,M,-34.4,M,,*51
$GPRMC,143035.000,A,4308.3166,N,07726.2692,W,0.48,171.25,190719,,,A*71
$GPGGA,143035.250,4308.3165,N,07726.2692,W,1,05,4.48,149.3,M,-34.4,M,,*50
$GPRMC,143035.500,A,4308.3165,N,07726.2691,W,0.46,158.74,190719,,,A*75
$GPGGA,143035.750,4308.3164,N,07726.2690,W,1,05,4.48,149.4,M,-34.4,M,,*51
$GPRMC,143036.000,A,4308.3162,N,07726.2689,W,0.37,152.02,190719,,,A*70
$GPGGA,143036.250,4308.3159,N,07726.2688,W,1,05,4.48,149.3,M,-34.4,M,,*57
$GPRMC,143036.500,A,4308.3157,N,07726.2687,W,0.28,147.86,190719,,,A*7B
$GPGGA,143036.750,4308.3155,N,07726.2685,W,1,05,4.48,149.4,M,-34.4,M,,*54
$GPRMC,143037.000,A,4308.3150,N,07726.2684,W,0.23,123.27,190719,,,A*79
$GPGGA,143037.250,4308.3147,N,07726.2682,W,1,05,4.48,149.1,M,-34.4,M,,*51
$GPRMC,143037.500,A,4308.3143,N,07726.2680,W,0.21,120.80,190719,,,A*76
$GPGGA,143037.750,4308.3139,N,07726.2679,W,1,05,4.48,149.0,M,-34.4,M,,*58
$GPRMC,143038.000,A,4308.3137,N,07726.2678,W,0.18,133.45,190719,,,A*79
$GPGGA,143038.250,4308.3134,N,07726.2677,W,1,05,4.48,148.8,M,-34.4,M,,*58
$GPRMC,143038.500,A,4308.3132,N,07726.2677,W,0.13,160.13,190719,,,A*78
$GPGGA,143038.750,4308.3131,N,07726.2676,W,1,05,4.48,148.9,M,-34.4,M,,*58
$GPRMC,143039.000,A,4308.3131,N,07726.2676,W,0.05,330.34,190719,,,A*7B
$GPGGA,143039.250,4308.3129,N,07726.2676,W,1,05,4.48,149.1,M,-34.4,M,,*5C
$GPRMC,143039.500,A,4308.3128,N,07726.2675,W,0.05,113.06,190719,,,A*77
$GPGGA,143039.750,4308.3127,N,07726.2674,W,1,05,4.48,149.2,M,-34.4,M,,*56
$GPRMC,143040.000,A,4308.3127,N,07726.2674,W,0.13,50.45,190719,,,A*44
$GPGGA,143040.250,4308.3125,N,07726.2674,W,1,05,4.48,149.3,M,-34.4,M,,*5E
$GPRMC,143040.500,A,4308.3124,N,07726.2674,W,0.04,168.56,190719,,,A*7C
$GPGGA,143040.750,4308.3123,N,07726.2674,W,1,05,4.48,149.5,M,-34.4,M,,*5B
$GPRMC,143041.000,A,4308.3123,N,07726.2674,W,0.02,84.53,190719,,,A*4F
$GPGGA,143041.250,4308.3121,N,07726.2673,W,1,05,4.48,149.7,M,-34.4,M,,*58
$GPRMC,143041.500,A,4308.3120,N,07726.2673,W,0.06,162.62,190719,,,A*71
$GPGGA,143041.750,4308.3119,N,07726.2673,W,1,05,4.48,149.8,M,-34.4,M,,*59
$GPRMC,143042.000,A,4308.3117,N,07726.2672,W,0.02,226.96,190719,,,A*7E
$GPGGA,143042.250,4308.3115,N,07726.2671,W,1,05,4.48,149.8,M,-34.4,M,,*51
$GPRMC,143042.500,A,4308.3114,N,07726.2670,W,0.06,36.30,190719,,,A*41
$GPGGA,143042.750,4308.3112,N,07726.2670,W,1,05,4.49,149.8,M,-34.4,M,,*53
$GPRMC,143043.000,A,4308.3111,N,07726.2669,W,0.05,121.91,190719,,,A*77
$GPGGA,143043.250,4308.3111,N,07726.2669,W,1,05,4.49,149.8,M,-34.4,M,,*5C
$GPRMC,143043.500,A,4308.3111,N,07726.2670,W,0.07,146.28,190719,,,A*7B
$GPGGA,143043.750,4308.3111,N,07726.2671,W,1,05,4.49,150.0,M,-34.4,M,,*50
$GPRMC,143044.000,A,4308.3112,N,07726.2672,W,0.03,172.55,190719,,,A*71
$GPGGA,143044.250,4308.3113,N,07726.2672,W,1,05,4.49,150.1,M,-34.4,M,,*52
$GPRMC,143044.500,A,4308.3114,N,07726.2673,W,0.05,199.26,190719,,,A*74
$GPGGA,143044.750,4308.3114,N,07726.2673,W,1,05,4.49,150.2,M,-34.4,M,,*52
$GPRMC,143045.000,A,4308.3115,N,07726.2673,W,0.03,174.74,190719,,,A*73
$GPGGA,143045.250,4308.3115,N,07726.2673,W,1,05,4.49,150.3,M,-34.4,M,,*56
$GPRMC,143045.500,A,4308.3116,N,07726.2673,W,0.09,130.40,190719,,,A*78
$GPGGA,143045.750,4308.3117,N,07726.2673,W,1,05,4.49,150.4,M,-34.4,M,,*56
$GPRMC,143046.000,A,4308.3117,N,07726.2673,W,0.06,89.60,190719,,,A*41
$GPGGA,143046.250,4308.3118,N,07726.2673,W,1,05,4.49,150.5,M,-34.4,M,,*5E
$GPRMC,143046.500,A,4308.3119,N,07726.2673,W,0.06,103.76,190719,,,A*7E
$GPGGA,143046.750,4308.3120,N,07726.2673,W,1,05,4.49,150.5,M,-34.4,M,,*50
$GPRMC,143047.000,A,4308.3120,N,07726.2673,W,0.02,117.49,190719,,,A*7D
$GPGGA,143047.250,4308.3121,N,07726.2672,W,1,05,4.49,150.6,M,-34.4,M,,*57
$GPRMC,143047.500,A,4308.3123,N,07726.2672,W,0.08,148.20,190719,,,A*75
$GPGGA,143047.750,4308.3124,N,07726.2672,W,1,05,4.49,150.7,M,-34.4,M,,*56
$GPRMC,143048.000,A,4308.3126,N,07726.2673,W,0.01,288.36,190719,,,A*7A
$GPGGA,143048.250,4308.3127,N,07726.2673,W,1,05,4.49,150.7,M,-34.4,M,,*5E
$GPRMC,143048.500,A,4308.3128,N,07726.2673,W,0.03,327.41,190719,,,A*77
$GPGGA,143048.750,4308.3130,N,07726.2673,W,1,05,4.49,150.8,M,-34.4,M,,*52
$GPRMC,143049.000,A,4308.3131,N,07726.2673,W,0.07,222.87,190719,,,A*71
$GPGGA,143049.250,4308.3132,N,07726.2673,W,1,05,4.49,150.8,M,-34.4,M,,*54
$GPRMC,143049.500,A,4308.3134,N,07726.2674,W,0.03,288.11,190719,,,A*7D
$GPGGA,143049.750,4308.3135,N,07726.2674,W,1,05,4.49,150.9,M,-34.4,M,,*50
$GPRMC,143050.000,A,4308.3137,N,07726.2674,W,0.01,315.46,190719,,,A*76
$GPGGA,143050.250,4308.3130,N,07726.2669,W,1,06,3.23,149.7,M,-34.4,M,,*5A
$GPRMC,143050.500,A,4308.3126,N,07726.2666,W,0.01,113.47,190719,,,A*75
$GPGGA,143050.750,4308.3122,N,07726.2663,W,1,06,3.23,148.1,M,-34.4,M,,*51
$GPRMC,143051.000,A,4308.3119,N,07726.2661,W,0.01,245.13,190719,,,A*7B
$GPGGA,143051.250,4308.3118,N,07726.2660,W,1,06,3.24,147.1,M,-34.4,M,,*57
$GPRMC,143051.500,A,4308.3117,N,07726.2658,W,0.05,335.24,190719,,,A*7C
$GPGGA,143051.750,4308.3116,N,07726.2657,W,1,06,3.23,146.4,M,-34.4,M,,*5B
$GPRMC,143052.000,A,4308.3115,N,07726.2656,W,0.07,348.45,190719,,,A*79
$GPGGA,143052.250,4308.3114,N,07726.2655,W,1,06,3.25,145.7,M,-34.4,M,,*5B
$GPRMC,143052.500,A,4308.3114,N,07726.2655,W,0.03,226.59,190719,,,A*7E
$GPGGA,143052.750,4308.3113,N,07726.2654,W,1,06,3.24,145.2,M,-34.4,M,,*5C
$GPRMC,143053.000,A,4308.3113,N,07726.2654,W,0.04,332.31,190719,,,A*71
$GPGGA,143053.250,4308.3113,N,07726.2653,W,1,06,3.24,144.8,M,-34.4,M,,*54
$GPRMC,143053.500,A,4308.3113,N,07726.2653,W,0.02,88.45,190719,,,A*44
$GPGGA,143053.750,4308.3113,N,07726.2653,W,1,06,3.24,144.5,M,-34.4,M,,*5C
$GPRMC,143054.000,A,4308.3113,N,07726.2652,W,0.02,4.54,190719,,,A*73
$GPGGA,143054.250,4308.3114,N,07726.2652,W,1,06,3.25,144.1,M,-34.4,M,,*5D
$GPRMC,143054.500,A,4308.3114,N,07726.2652,W,0.02,80.04,190719,,,A*48
$GPGGA,143054.750,4308.3114,N,07726.2652,W,1,06,3.24,143.7,M,-34.4,M,,*58
$GPRMC,143055.000,A,4308.3114,N,07726.2652,W,0.07,343.46,190719,,,A*73
$GPGGA,143055.250,4308.3114,N,07726.2652,W,1,06,3.24,143.4,M,-34.4,M,,*5F
$GPRMC,143055.500,A,4308.3115,N,07726.2652,W,0.03,286.30,190719,,,A*7A
$GPGGA,143055.750,4308.3115,N,07726.2651,W,1,06,3.24,143.1,M,-34.4,M,,*5D
$GPRMC,143056.000,A,4308.3116,N,07726.2651,W,0.03,338.92,190719,,,A*70
$GPGGA,143056.250,4308.3116,N,07726.2651,W,1,07,2.92,142.9,M,-34.4,M,,*5C
$GPRMC,143056.500,A,4308.3116,N,07726.2651,W,0.02,147.65,190719,,,A*76
$GPGGA,143056.750,4308.3116,N,07726.2651,W,1,07,2.92,142.8,M,-34.4,M,,*58
$GPRMC,143057.000,A,4308.3116,N,07726.2651,W,0.09,331.55,190719,,,A*79
$GPGGA,143057.250,4308.3116,N,07726.2650,W,1,07,2.93,142.7,M,-34.4,M,,*53
$GPRMC,143057.500,A,4308.3116,N,07726.2650,W,0.01,325.47,190719,,,A*73
$GPGGA,143057.750,4308.3116,N,07726.2650,W,1,07,2.93,142.6,M,-34.4,M,,*57
$GPRMC,143058.000,A,4308.3116,N,07726.2649,W,0.01,334.05,190719,,,A*77
$GPGGA,143058.250,4308.3116,N,07726.2649,W,1,07,2.93,142.9,M,-34.4,M,,*5A
$GPRMC,143058.500,A,4308.3116,N,07726.2648,W,0.02,277.84,190719,,,A*7F
$GPGGA,143058.750,4308.3116,N,07726.2647,W,1,07,2.93,143.5,M,-34.4,M,,*5C
$GPRMC,143059.000,A,4308.3115,N,07726.2646,W,0.05,217.58,190719,,,A*76
$GPGGA,143059.250,4308.3115,N,07726.2646,W,1,07,2.93,144.0,M,-34.4,M,,*58
$GPRMC,143059.500,A,4308.3115,N,07726.2645,W,0.02,146.94,190719,,,A*70
$GPGGA,143059.750,4308.3115,N,07726.2644,W,1,07,2.93,144.4,M,-34.4,M,,*5B
$GPRMC,143100.000,A,4308.3115,N,07726.2644,W,0.01,65.36,190719,,,A*42
$GPGGA,143100.250,4308.3115,N,07726.2643,W,1,07,2.93,144.8,M,-34.4,M,,*58
$GPRMC,143100.500,A,4308.3115,N,07726.2643,W,0.02,200.47,190719,,,A*74
$GPGGA,143100.750,4308.3115,N,07726.2642,W,1,07,2.93,145.2,M,-34.4,M,,*57
$GPRMC,143101.000,A,4308.3115,N,07726.2642,W,0.01,96.74,190719,,,A*4F
$GPGGA,143101.250,4308.3115,N,07726.2641,W,1,07,2.93,145.4,M,-34.4,M,,*56
$GPRMC,143101.500,A,4308.3115,N,07726.2641,W,0.02,187.65,190719,,,A*7B
$GPGGA,143101.750,4308.3114,N,07726.2640,W,1,07,2.93,145.7,M,-34.4,M,,*50
$GPRMC,143102.000,A,4308.3114,N,07726.2640,W,0.03,112.57,190719,,,A*71
$GPGGA,143102.250,4308.3114,N,07726.2640,W,1,07,2.93,145.9,M,-34.4,M,,*58
$GPRMC,143102.500,A,4308.3114,N,07726.2639,W,0.02,339.12,190719,,,A*71
$GPGGA,143102.750,4308.3114,N,07726.2639,W,1,07,2.93,146.0,M,-34.4,M,,*59
$GPRMC,143103.000,A,4308.3114,N,07726.2639,W,0.07,310.93,190719,,,A*72
$GPGGA,143103.250,4308.3114,N,07726.2639,W,1,07,2.93,146.2,M,-34.4,M,,*5F
$GPRMC,143103.500,A,4308.3114,N,07726.2638,W,0.02,328.00,190719,,,A*72
$GPGGA,143103.750,4308.3114,N,07726.2638,W,1,07,2.93,146.4,M,-34.4,M,,*5D
$GPRMC,143104.000,A,4308.3114,N,07726.2638,W,0.02,286.29,190719,,,A*7E
$GPGGA,143104.250,4308.3114,N,07726.2637,W,1,07,2.94,146.5,M,-34.4,M,,*56
$GPRMC,143104.500,A,4308.3115,N,07726.2637,W,0.04,343.74,190719,,,A*73
$GPGGA,143104.750,4308.3115,N,07726.2637,W,1,07,2.94,146.8,M,-34.4,M,,*5F
$GPRMC,143105.000,A,4308.3115,N,07726.2637,W,0.02,227.65,190719,,,A*72
$GPGGA,143105.250,4308.3115,N,07726.2636,W,1,07,2.94,147.0,M,-34.4,M,,*53
$GPRMC,143105.500,A,4308.3115,N,07726.2636,W,0.02,309.13,190719,,,A*7A
$GPGGA,143105.750,4308.3115,N,07726.2636,W,1,07,2.94,147.0,M,-34.4,M,,*56
$GPRMC,143106.000,A,4308.3115,N,07726.2636,W,0.01,81.90,190719,,,A*47
$GPGGA,143106.250,4308.3115,N,07726.2636,W,1,07,2.94,147.0,M,-34.4,M,,*50
$GPRMC,143106.500,A,4308.3115,N,07726.2636,W,0.05,350.46,190719,,,A*72
$GPGGA,143106.750,4308.3115,N,07726.2636,W,1,07,3.04,147.0,M,-34.4,M,,*5D
$GPRMC,143107.000,A,4308.3115,N,07726.2636,W,0.02,341.85,190719,,,A*7E
$GPGGA,143107.250,4308.3115,N,07726.2636,W,1,07,2.94,147.0,M,-34.4,M,,*51
$GPRMC,143107.500,A,4308.3115,N,07726.2636,W,0.04,308.56,190719,,,A*7E
$GPGGA,143107.750,4308.3115,N,07726.2636,W,1,07,2.94,147.0,M,-34.4,M,,*54
$GPRMC,143108.000,A,4308.3115,N,07726.2636,W,0.03,160.47,190719,,,A*7F
$GPGGA,143106.250,4308.3116,N,07726.2636,W,1,07,2.94,147.0,M,-34.4,M,,*53
$GPRMC,143106.500,A,4308.3116,N,07726.2636,W,0.05,354.65,190719,,,A*74
$GPGGA,143106.750,4308.3116,N,07726.2636,W,1,07,3.04,147.1,M,-34.4,M,,*5F
$GPRMC,143107.000,A,4308.3116,N,07726.2636,W,0.03,330.81,190719,,,A*7E
$GPGGA,143107.250,4308.3117,N,07726.2636,W,1,07,2.94,147.2,M,-34.4,M,,*51
$GPRMC,143107.500,A,4308.3117,N,07726.2636,W,0.06,182.99,190719,,,A*7D
$GPGGA,143107.750,4308.3117,N,07726.2635,W,1,07,2.94,147.3,M,-34.4,M,,*56
$GPRMC,143108.000,A,4308.3117,N,07726.2635,W,0.04,78.85,190719,,,A*4F
$GPGGA,143108.250,4308.3117,N,07726.2635,W,1,07,2.94,147.4,M,-34.4,M,,*5B
$GPRMC,143108.500,A,4308.3118,N,07726.2635,W,0.12,339.69,190719,,,A*76
$GPGGA,143108.750,4308.3118,N,07726.2635,W,1,07,2.94,147.6,M,-34.4,M,,*53
$GPRMC,143109.000,A,4308.3118,N,07726.2635,W,0.06,329.35,190719,,,A*7F
$GPGGA,143109.250,4308.3119,N,07726.2635,W,1,07,2.94,147.7,M,-34.4,M,,*57
$GPRMC,143109.500,A,4308.3119,N,07726.2635,W,0.05,149.38,190719,,,A*71
$GPGGA,143109.750,4308.3119,N,07726.2635,W,1,07,2.94,147.8,M,-34.4,M,,*5D
$GPRMC,143110.000,A,4308.3119,N,07726.2635,W,0.03,115.22,190719,,,A*78
$GPGGA,143110.250,4308.3119,N,07726.2635,W,1,07,2.94,147.9,M,-34.4,M,,*51
$GPRMC,143110.500,A,4308.3120,N,07726.2635,W,0.08,344.16,190719,,,A*7D
$GPGGA,143110.750,4308.3120,N,07726.2634,W,1,07,2.95,148.0,M,-34.4,M,,*58
$GPRMC,143111.000,A,4308.3120,N,07726.2634,W,0.04,269.92,190719,,,A*76
$GPGGA,143111.250,4308.3121,N,07726.2634,W,1,07,2.95,148.1,M,-34.4,M,,*5C
$GPRMC,143111.500,A,4308.3121,N,07726.2634,W,0.02,154.18,190719,,,A*7B
$GPGGA,143111.750,4308.3121,N,07726.2634,W,1,07,2.95,148.2,M,-34.4,M,,*5A
$GPRMC,143112.000,A,4308.3121,N,07726.2634,W,0.02,340.50,190719,,,A*76
$GPGGA,143112.250,4308.3122,N,07726.2634,W,1,07,2.95,148.4,M,-34.4,M,,*59
$GPRMC,143112.500,A,4308.3122,N,07726.2634,W,0.05,338.69,190719,,,A*72
$GPGGA,143112.750,4308.3122,N,07726.2633,W,1,07,2.95,148.5,M,-34.4,M,,*5A
$GPRMC,143113.000,A,4308.3122,N,07726.2633,W,0.01,309.88,190719,,,A*78
$GPGGA,143113.250,4308.3122,N,07726.2633,W,1,07,2.95,148.6,M,-34.4,M,,*5D
$GPRMC,143113.500,A,4308.3122,N,07726.2633,W,0.07,2.53,190719,,,A*75
$GPGGA,143113.750,4308.3123,N,07726.2632,W,1,07,3.05,148.7,M,-34.4,M,,*51
$GPRMC,143114.000,A,4308.3123,N,07726.2632,W,0.05,9.74,190719,,,A*7B
$GPGGA,143114.250,4308.3123,N,07726.2632,W,1,07,3.05,148.8,M,-34.4,M,,*5C
$GPRMC,143114.500,A,4308.3123,N,07726.2631,W,0.06,347.70,190719,,,A*73
$GPGGA,143114.750,4308.3123,N,07726.2631,W,1,07,3.05,149.0,M,-34.4,M,,*53
$GPRMC,143115.000,A,4308.3123,N,07726.2631,W,0.05,349.05,190719,,,A*78
$GPGGA,143115.250,4308.3123,N,07726.2631,W,1,07,3.05,149.1,M,-34.4,M,,*56
$GPRMC,143115.500,A,4308.3123,N,07726.2631,W,0.02,334.22,190719,,,A*75
$GPGGA,143115.750,4308.3123,N,07726.2630,W,1,07,2.95,149.2,M,-34.4,M,,*59
$GPRMC,143116.000,A,4308.3122,N,07726.2630,W,0.02,237.87,190719,,,A*7E
$GPGGA,143116.250,4308.3122,N,07726.2630,W,1,07,2.95,149.4,M,-34.4,M,,*58
$GPRMC,143116.500,A,4308.3122,N,07726.2629,W,0.05,313.93,190719,,,A*76
$GPGGA,143116.750,4308.3123,N,07726.2629,W,1,07,2.95,149.5,M,-34.4,M,,*55
$GPRMC,143117.000,A,4308.3123,N,07726.2629,W,0.03,46.28,190719,,,A*46
$GPGGA,143117.250,4308.3123,N,07726.2628,W,1,07,2.95,149.7,M,-34.4,M,,*52
$GPRMC,143117.500,A,4308.3122,N,07726.2628,W,0.07,164.35,190719,,,A*7A
$GPGGA,143117.750,4308.3123,N,07726.2628,W,1,07,2.96,149.8,M,-34.4,M,,*5B
$GPRMC,143118.000,A,4308.3122,N,07726.2628,W,0.04,230.12,190719,,,A*74
$GPGGA,143118.250,4308.3122,N,07726.2628,W,1,07,2.96,150.0,M,-34.4,M,,*50
$GPRMC,143118.500,A,4308.3122,N,07726.2628,W,0.02,226.29,190719,,,A*78
$GPGGA,143118.750,4308.3122,N,07726.2627,W,1,07,3.06,150.1,M,-34.4,M,,*53
$GPRMC,143119.000,A,4308.3122,N,07726.2627,W,0.01,357.84,190719,,,A*70
$GPGGA,143119.250,4308.3122,N,07726.2627,W,1,07,3.06,150.2,M,-34.4,M,,*54
$GPRMC,143119.500,A,4308.3122,N,07726.2627,W,0.01,248.75,190719,,,A*74
$GPGGA,143119.750,4308.3122,N,07726.2627,W,1,07,3.06,150.2,M,-34.4,M,,*51
$GPRMC,143120.000,A,4308.3122,N,07726.2627,W,0.01,327.34,190719,,,A*76
$GPGGA,143120.250,4308.3122,N,07726.2627,W,1,07,3.06,150.2,M,-34.4,M,,*5E
$GPRMC,143120.500,A,4308.3122,N,07726.2627,W,0.01,224.91,190719,,,A*7E
$GPGGA,143120.750,4308.3122,N,07726.2627,W,1,07,3.06,150.2,M,-34.4,M,,*5B
$GPRMC,143121.000,A,4308.3122,N,07726.2627,W,0.01,314.94,190719,,,A*7D
$GPGGA,143121.250,4308.3122,N,07726.2627,W,1,07,3.06,150.2,M,-34.4,M,,*5F
$GPRMC,143121.500,A,4308.3122,N,07726.2627,W,0.00,118.89,190719,,,A*7B
$GPGGA,143121.750,4308.3122,N,07726.2627,W,1,07,3.06,150.2,M,-34.4,M,,*5A
$GPRMC,143122.000,A,4308.3122,N,07726.2627,W,0.00,275.69,190719,,,A*7B
$GPGGA,143122.250,4308.3122,N,07726.2627,W,1,07,3.06,150.3,M,-34.4,M,,*5D
$GPRMC,143122.500,A,4308.3122,N,07726.2627,W,0.00,60.60,190719,,,A*41
$GPGGA,143122.750,4308.3122,N,07726.2627,W,1,07,3.06,150.3,M,-34.4,M,,*58
$GPRMC,143123.000,A,4308.3122,N,07726.2627,W,0.00,311.66,190719,,,A*76
$GPGGA,143123.250,4308.3122,N,07726.2627,W,1,07,3.06,150.3,M,-34.4,M,,*5C
$GPRMC,143123.500,A,4308.3122,N,07726.2627,W,0.00,228.11,190719,,,A*78
$GPGGA,143123.750,4308.3122,N,07726.2627,W,1,07,3.06,150.3,M,-34.4,M,,*59
$GPRMC,143124.000,A,4308.3122,N,07726.2627,W,0.01,0.16,190719,,,A*74
$GPGGA,143124.250,4308.3122,N,07726.2627,W,1,07,3.07,150.3,M,-34.4,M,,*5A
$GPRMC,143124.500,A,4308.3122,N,07726.2627,W,0.01,205.85,190719,,,A*7C
$GPGGA,143124.750,4308.3122,N,07726.2627,W,1,07,3.07,150.3,M,-34.4,M,,*5F
$GPRMC,143125.000,A,4308.3122,N,07726.2627,W,0.00,175.01,190719,,,A*71
$GPGGA,143125.250,4308.3122,N,07726.2627,W,1,07,3.07,150.3,M,-34.4,M,,*5B
$GPRMC,143125.500,A,4308.3122,N,07726.2627,W,0.02,317.93,190719,,,A*7B
$GPGGA,143125.750,4308.3122,N,07726.2627,W,1,07,3.07,150.3,M,-34.4,M,,*5E
$GPRMC,143126.000,A,4308.3122,N,07726.2627,W,0.00,112.05,190719,,,A*77
$GPGGA,143126.250,4308.3122,N,07726.2627,W,1,07,3.07,150.3,M,-34.4,M,,*58
$GPRMC,143126.500,A,4308.3122,N,07726.2627,W,0.01,134.44,190719,,,A*72
$GPGGA,143126.750,4308.3122,N,07726.2627,W,1,07,3.07,150.3,M,-34.4,M,,*5D
$GPRMC,143127.000,A,4308.3122,N,07726.2627,W,0.00,146.83,190719,,,A*79
$GPGGA,143127.250,4308.3122,N,07726.2627,W,1,07,3.07,150.3,M,-34.4,M,,*59
$GPRMC,143127.500,A,4308.3122,N,07726.2627,W,0.00,73.63,190719,,,A*45
$GPGGA,143127.750,4308.3122,N,07726.2627,W,1,07,3.07,150.3,M,-34.4,M,,*5C
$GPRMC,143128.000,A,4308.3122,N,07726.2627,W,0.01,183.05,190719,,,A*70
$GPGGA,143128.250,4308.3122,N,07726.2627,W,1,07,3.07,150.3,M,-34.4,M,,*56
$GPRMC,143128.500,A,4308.3122,N,07726.2627,W,0.00,188.34,190719,,,A*7D
$GPGGA,143128.750,4308.3122,N,07726.2627,W,1,07,3.07,150.3,M,-34.4,M,,*53
$GPRMC,143129.000,A,4308.3122,N,07726.2627,W,0.00,76.95,190719,,,A*42
$GPGGA,143129.250,4308.3122,N,07726.2627,W,1,07,3.07,150.3,M,-34.4,M,,*57
$GPRMC,143129.500,A,4308.3122,N,07726.2627,W,0.01,260.80,190719,,,A*77
$GPGGA,143129.750,4308.3122,N,07726.2627,W,1,07,3.07,150.3,M,-34.4,M,,*52
$GPRMC,143130.000,A,4308.3122,N,07726.2627,W,0.01,278.77,190719,,,A*7B
$GPGGA,143130.250,4308.3122,N,07726.2627,W,1,07,3.07,150.3,M,-34.4,M,,*5F
$GPRMC,143130.500,A,4308.3122,N,07726.2627,W,0.01,164.32,190719,,,A*71
$GPGGA,143130.750,4308.3122,N,07726.2627,W,1,07,3.07,150.3,M,-34.4,M,,*5A
$GPRMC,143131.000,A,4308.3122,N,07726.2627,W,0.01,215.05,190719,,,A*74
$GPGGA,143131.250,4308.3122,N,07726.2627,W,1,07,3.07,150.3,M,-34.4,M,,*5E
$GPRMC,143131.500,A,4308.3122,N,07726.2627,W,0.01,277.84,190719,,,A*7C
$GPGGA,143131.750,4308.3122,N,07726.2627,W,1,07,3.07,150.3,M,-34.4,M,,*5B
$GPRMC,143132.000,A,4308.3122,N,07726.2627,W,0.00,0.00,190719,,,A*75
$GPGGA,143132.250,4308.3122,N,07726.2627,W,1,07,3.08,150.3,M,-34.4,M,,*52
$GPRMC,143132.500,A,4308.3122,N,07726.2627,W,0.01,271.01,190719,,,A*74
$GPGGA,143132.750,4308.3122,N,07726.2627,W,1,07,3.08,150.3,M,-34.4,M,,*57
$GPRMC,143133.000,A,4308.3122,N,07726.2627,W,0.00,176.10,190719,,,A*75
$GPGGA,143133.250,4308.3122,N,07726.2627,W,1,07,3.08,150.3,M,-34.4,M,,*53
$GPRMC,143133.500,A,4308.3122,N,07726.2627,W,0.01,189.45,190719,,,A*71
$GPGGA,143133.750,4308.3122,N,07726.2627,W,1,07,3.08,150.3,M,-34.4,M,,*56
$GPRMC,143134.000,A,4308.3122,N,07726.2627,W,0.01,326.74,190719,,,A*76
$GPGGA,143134.250,4308.3122,N,07726.2627,W,1,07,3.08,150.3,M,-34.4,M,,*54
$GPRMC,143134.500,A,4308.3122,N,07726.2627,W,0.01,277.71,190719,,,A*73
$GPGGA,143134.750,4308.3122,N,07726.2627,W,1,07,3.08,150.3,M,-34.4,M,,*51
$GPRMC,143135.000,A,4308.3122,N,07726.2627,W,0.00,5.69,190719,,,A*78
$GPGGA,143135.250,4308.3122,N,07726.2627,W,1,07,3.08,150.3,M,-34.4,M,,*55
$GPRMC,143135.500,A,4308.3122,N,07726.2627,W,0.00,345.33,190719,,,A*75
$GPGGA,143135.750,4308.3122,N,07726.2627,W,1,07,3.08,150.3,M,-34.4,M,,*50
$GPRMC,143136.000,A,4308.3122,N,07726.2627,W,0.01,61.80,190719,,,A*4F
$GPGGA,143136.250,4308.3122,N,07726.2627,W,1,07,3.08,150.3,M,-34.4,M,,*56
$GPRMC,143136.500,A,4308.3122,N,07726.2627,W,0.02,197.61,190719,,,A*7E
$GPGGA,143136.750,4308.3122,N,07726.2627,W,1,07,3.08,150.3,M,-34.4,M,,*53
$GPRMC,143137.000,A,4308.3122,N,07726.2627,W,0.01,349.65,190719,,,A*7C
$GPGGA,143137.250,4308.3122,N,07726.2627,W,1,07,3.08,150.3,M,-34.4,M,,*57
$GPRMC,143137.500,A,4308.3122,N,07726.2627,W,0.01,287.15,190719,,,A*7D
$GPGGA,143137.750,4308.3122,N,07726.2627,W,1,07,3.08,150.3,M,-34.4,M,,*52
$GPRMC,143138.000,A,4308.3122,N,07726.2627,W,0.00,313.22,190719,,,A*7E
$GPGGA,143138.250,4308.3122,N,07726.2627,W,1,07,3.08,150.3,M,-34.4,M,,*58
$GPRMC,143138.500,A,4308.3122,N,07726.2627,W,0.00,155.75,190719,,,A*79
$GPGGA,143138.750,4308.3122,N,07726.2627,W,1,07,3.08,150.3,M,-34.4,M,,*5D
$GPRMC,143139.000,A,4308.3122,N,07726.2627,W,0.01,245.03,190719,,,A*7F
$GPGGA,143139.250,4308.3122,N,07726.2627,W,1,07,3.09,150.3,M,-34.4,M,,*58
$GPRMC,143139.500,A,4308.3122,N,07726.2627,W,0.00,218.19,190719,,,A*78
$GPGGA,143139.750,4308.3122,N,07726.2627,W,1,07,3.08,150.3,M,-34.4,M,,*5C
$GPRMC,143140.000,A,4308.3122,N,07726.2627,W,0.00,284.79,190719,,,A*70
$GPGGA,143140.250,4308.3122,N,07726.2627,W,1,07,3.08,150.3,M,-34.4,M,,*57
$GPRMC,143140.500,A,4308.3122,N,07726.2627,W,0.01,175.70,190719,,,A*70
$GPGGA,143140.750,4308.3122,N,07726.2627,W,1,07,3.09,150.3,M,-34.4,M,,*53
$GPRMC,143141.000,A,4308.3122,N,07726.2627,W,0.00,313.90,190719,,,A*79
$GPGGA,143141.250,4308.3122,N,07726.2627,W,1,07,3.09,150.3,M,-34.4,M,,*57
$GPRMC,143141.500,A,4308.3122,N,07726.2627,W,0.00,305.84,190719,,,A*7E
$GPGGA,143141.750,4308.3122,N,07726.2627,W,1,07,3.09,150.3,M,-34.4,M,,*52
$GPRMC,143142.000,A,4308.3122,N,07726.2627,W,0.01,15.25,190719,,,A*40
$GPGGA,143142.250,4308.3122,N,07726.2627,W,1,07,3.09,150.3,M,-34.4,M,,*54
$GPRMC,143142.500,A,4308.3122,N,07726.2627,W,0.01,340.42,190719,,,A*77
$GPGGA,143142.750,4308.3122,N,07726.2627,W,1,07,3.09,150.3,M,-34.4,M,,*51
$GPRMC,143143.000,A,4308.3122,N,07726.2627,W,0.00,213.22,190719,,,A*73
$GPGGA,143143.250,4308.3122,N,07726.2626,W,1,07,3.09,150.3,M,-34.4,M,,*54
$GPRMC,143143.500,A,4308.3122,N,07726.2626,W,0.00,66.26,190719,,,A*43
$GPGGA,143143.750,4308.3122,N,07726.2626,W,1,07,3.09,150.3,M,-34.4,M,,*51
$GPRMC,143144.000,A,4308.3122,N,07726.2626,W,0.01,196.66,190719,,,A*7A
$GPGGA,143144.250,4308.3122,N,07726.2626,W,1,07,3.09,150.2,M,-34.4,M,,*52
$GPRMC,143144.500,A,4308.3122,N,07726.2625,W,0.01,151.68,190719,,,A*79
$GPGGA,143144.750,4308.3122,N,07726.2625,W,1,07,3.09,150.2,M,-34.4,M,,*54
$GPRMC,143145.000,A,4308.3122,N,07726.2625,W,0.01,116.80,190719,,,A*78
$GPGGA,143145.250,4308.3122,N,07726.2625,W,1,07,3.09,150.2,M,-34.4,M,,*50
$GPRMC,143145.500,A,4308.3122,N,07726.2625,W,0.00,222.96,190719,,,A*7F
$GPGGA,143145.750,4308.3122,N,07726.2625,W,1,07,3.09,150.2,M,-34.4,M,,*55
$GPRMC,143146.000,A,4308.3122,N,07726.2624,W,0.00,216.79,190719,,,A*7E
$GPGGA,143146.250,4308.3122,N,07726.2624,W,1,07,3.09,150.3,M,-34.4,M,,*53
$GPRMC,143146.500,A,4308.3122,N,07726.2624,W,0.00,219.46,190719,,,A*78
$GPGGA,143146.750,4308.3122,N,07726.2624,W,1,07,3.09,150.3,M,-34.4,M,,*56
$GPRMC,143147.000,A,4308.3122,N,07726.2624,W,0.00,221.43,190719,,,A*72
$GPGGA,143147.250,4308.3122,N,07726.2624,W,1,07,3.09,150.3,M,-34.4,M,,*52
$GPRMC,143147.500,A,4308.3122,N,07726.2623,W,0.00,191.02,190719,,,A*7D
$GPGGA,143147.750,4308.3122,N,07726.2623,W,1,07,3.09,150.3,M,-34.4,M,,*50
$GPRMC,143148.000,A,4308.3122,N,07726.2623,W,0.01,296.80,190719,,,A*78
$GPGGA,143148.250,4308.3122,N,07726.2623,W,1,07,3.10,150.3,M,-34.4,M,,*52
$GPRMC,143148.500,A,4308.3122,N,07726.2623,W,0.01,353.75,190719,,,A*7F
$GPGGA,143148.750,4308.3122,N,07726.2623,W,1,07,3.10,150.3,M,-34.4,M,,*57
$GPRMC,143149.000,A,4308.3122,N,07726.2622,W,0.01,281.91,190719,,,A*7E
$GPGGA,143149.250,4308.3122,N,07726.2622,W,1,07,3.10,150.4,M,-34.4,M,,*55
$GPRMC,143149.500,A,4308.3122,N,07726.2622,W,0.02,191.15,190719,,,A*76
$GPGGA,143149.750,4308.3122,N,07726.2622,W,1,07,3.10,150.4,M,-34.4,M,,*50
$GPRMC,143150.000,A,4308.3122,N,07726.2622,W,0.01,55.22,190719,,,A*45
$GPGGA,143150.250,4308.3122,N,07726.2622,W,1,07,3.10,150.4,M,-34.4,M,,*5D
$GPRMC,143150.500,A,4308.3122,N,07726.2621,W,0.00,149.43,190719,,,A*79
$GPGGA,143150.750,4308.3122,N,07726.2621,W,1,07,3.10,150.4,M,-34.4,M,,*5B
$GPRMC,143151.000,A,4308.3122,N,07726.2621,W,0.00,242.95,190719,,,A*7E
$GPGGA,143151.250,4308.3121,N,07726.2621,W,1,07,3.10,150.4,M,-34.4,M,,*5C
$GPRMC,143151.500,A,4308.3121,N,07726.2621,W,0.01,281.20,190719,,,A*78
$GPGGA,143151.750,4308.3121,N,07726.2621,W,1,07,3.10,150.4,M,-34.4,M,,*59
$GPRMC,143152.000,A,4308.3121,N,07726.2621,W,0.01,263.39,190719,,,A*7A
$GPGGA,143152.250,4308.3121,N,07726.2621,W,1,07,3.10,150.4,M,-34.4,M,,*5F
$GPRMC,143152.500,A,4308.3121,N,07726.2621,W,0.01,326.08,190719,,,A*7D
$GPGGA,143152.750,4308.3121,N,07726.2621,W,1,07,3.10,150.4,M,-34.4,M,,*5A
$GPRMC,143153.000,A,4308.3121,N,07726.2621,W,0.01,297.01,190719,,,A*7B
$GPGGA,143153.250,4308.3121,N,07726.2621,W,1,07,3.10,150.4,M,-34.4,M,,*5E
$GPRMC,143153.500,A,4308.3121,N,07726.2621,W,0.01,337.06,190719,,,A*72
$GPGGA,143153.750,4308.3121,N,07726.2621,W,1,07,3.10,150.4,M,-34.4,M,,*5B
$GPRMC,143154.000,A,4308.3121,N,07726.2621,W,0.00,258.87,190719,,,A*70
$GPGGA,143154.250,4308.3121,N,07726.2621,W,1,07,3.10,150.4,M,-34.4,M,,*59
$GPRMC,143154.500,A,4308.3121,N,07726.2621,W,0.01,184.04,190719,,,A*7D
$GPGGA,143154.750,4308.3121,N,07726.2621,W,1,07,3.10,150.4,M,-34.4,M,,*5C
$GPRMC,143155.000,A,4308.3121,N,07726.2621,W,0.01,351.34,190719,,,A*70
$GPGGA,143155.250,4308.3121,N,07726.2621,W,1,07,3.10,150.4,M,-34.4,M,,*58
$GPRMC,143155.500,A,4308.3121,N,07726.2621,W,0.01,351.34,190719,,,A*75
$GPGGA,143155.750,4308.3121,N,07726.2621,W,1,07,3.11,150.4,M,-34.4,M,,*5C
$GPRMC,143156.000,A,4308.3121,N,07726.2621,W,0.00,161.43,190719,,,A*73
$GPGGA,143156.250,4308.3121,N,07726.2621,W,1,07,3.11,150.4,M,-34.4,M,,*5A
$GPRMC,143156.500,A,4308.3121,N,07726.2621,W,0.00,30.57,190719,,,A*46
$GPGGA,143156.750,4308.3121,N,07726.2621,W,1,07,3.11,150.4,M,-34.4,M,,*5F
$GPRMC,143157.000,A,4308.3121,N,07726.2621,W,0.01,180.80,190719,,,A*73
$GPGGA,143157.250,4308.3121,N,07726.2621,W,1,07,3.11,150.4,M,-34.4,M,,*5B
$GPRMC,143157.500,A,4308.3121,N,07726.2621,W,0.00,0.21,190719,,,A*75
$GPGGA,143157.750,4308.3121,N,07726.2621,W,1,07,3.11,150.4,M,-34.4,M,,*5E
$GPRMC,143158.000,A,4308.3121,N,07726.2621,W,0.01,192.72,190719,,,A*72
$GPGGA,143158.250,4308.3121,N,07726.2621,W,1,07,3.11,150.4,M,-34.4,M,,*54
$GPRMC,143158.500,A,4308.3121,N,07726.2621,W,0.01,128.43,190719,,,A*74
$GPGGA,143158.750,4308.3121,N,07726.2621,W,1,07,3.11,150.4,M,-34.4,M,,*51
$GPRMC,143159.000,A,4308.3121,N,07726.2621,W,0.01,266.09,190719,,,A*77
$GPGGA,143159.250,4308.3121,N,07726.2621,W,1,07,3.11,150.4,M,-34.4,M,,*55
$GPRMC,143159.500,A,4308.3121,N,07726.2621,W,0.00,236.70,190719,,,A*78
$GPGGA,143159.750,4308.3121,N,07726.2621,W,1,07,3.11,150.4,M,-34.4,M,,*50
$GPRMC,143200.000,A,4308.3122,N,07726.2621,W,0.00,217.08,190719,,,A*7D
$GPGGA,143200.250,4308.3122,N,07726.2621,W,1,07,3.11,150.4,M,-34.4,M,,*59
$GPRMC,143200.500,A,4308.3122,N,07726.2621,W,0.01,151.62,190719,,,A*74
$GPGGA,143200.750,4308.3122,N,07726.2621,W,1,07,3.11,150.4,M,-34.4,M,,*5C
$GPRMC,143201.000,A,4308.3122,N,07726.2621,W,0.00,282.59,190719,,,A*74
$GPGGA,143201.250,4308.3122,N,07726.2620,W,1,07,3.11,150.4,M,-34.4,M,,*59
$GPRMC,143201.500,A,4308.3122,N,07726.2620,W,0.00,61.98,190719,,,A*42
$GPGGA,143201.750,4308.3122,N,07726.2620,W,1,07,3.11,150.4,M,-34.4,M,,*5C
$GPRMC,143202.000,A,4308.3122,N,07726.2620,W,0.01,259.98,190719,,,A*7C
$GPGGA,143202.250,4308.3122,N,07726.2620,W,1,07,3.11,150.4,M,-34.4,M,,*5A
$GPRMC,143202.500,A,4308.3122,N,07726.2620,W,0.01,144.56,190719,,,A*74
$GPGGA,143202.750,4308.3122,N,07726.2620,W,1,07,3.11,150.4,M,-34.4,M,,*5F
$GPRMC,143203.000,A,4308.3122,N,07726.2620,W,0.01,354.71,190719,,,A*76
$GPGGA,143203.250,4308.3122,N,07726.2620,W,1,07,3.11,150.4,M,-34.4,M,,*5B
$GPRMC,143203.500,A,4308.3122,N,07726.2620,W,0.01,11.87,190719,,,A*48
$GPGGA,143203.750,4308.3122,N,07726.2620,W,1,07,3.11,150.4,M,-34.4,M,,*5E
$GPRMC,143204.000,A,4308.3122,N,07726.2620,W,0.01,151.31,190719,,,A*72
$GPGGA,143204.250,4308.3122,N,07726.2620,W,1,07,3.12,150.4,M,-34.4,M,,*5F
$GPRMC,143204.500,A,4308.3122,N,07726.2620,W,0.01,156.16,190719,,,A*75
$GPGGA,143204.750,4308.3122,N,07726.2620,W,1,07,3.12,150.4,M,-34.4,M,,*5A
$GPRMC,143205.000,A,4308.3122,N,07726.2620,W,0.02,19.94,190719,,,A*42
$GPGGA,143205.250,4308.3122,N,07726.2620,W,1,07,3.12,150.4,M,-34.4,M,,*5E
$GPRMC,143205.500,A,4308.3122,N,07726.2620,W,0.00,302.58,190719,,,A*7C
$GPGGA,143205.750,4308.3122,N,07726.2620,W,1,07,3.12,150.4,M,-34.4,M,,*5B
$GPRMC,143206.000,A,4308.3122,N,07726.2620,W,0.02,339.00,190719,,,A*7D
$GPGGA,143206.250,4308.3122,N,07726.2620,W,1,07,3.12,150.4,M,-34.4,M,,*5D
$GPRMC,143206.500,A,4308.3122,N,07726.2620,W,0.01,293.72,190719,,,A*7F
$GPGGA,143206.750,4308.3122,N,07726.2620,W,1,07,3.12,150.4,M,-34.4,M,,*58
$GPRMC,143207.000,A,4308.3122,N,07726.2620,W,0.01,236.11,190719,,,A*71
$GPGGA,143207.250,4308.3122,N,07726.2620,W,1,07,3.12,150.4,M,-34.4,M,,*5C
$GPRMC,143207.500,A,4308.3122,N,07726.2620,W,0.00,254.20,190719,,,A*73
$GPGGA,143207.750,4308.3122,N,07726.2620,W,1,07,3.12,150.4,M,-34.4,M,,*59
$GPRMC,143208.000,A,4308.3122,N,07726.2620,W,0.01,158.00,190719,,,A*75
$GPGGA,143208.250,4308.3122,N,07726.2620,W,1,07,3.12,150.4,M,-34.4,M,,*53
$GPRMC,143208.500,A,4308.3122,N,07726.2620,W,0.01,306.94,190719,,,A*74
$GPGGA,143208.750,4308.3122,N,07726.2620,W,1,07,3.12,150.4,M,-34.4,M,,*56
$GPRMC,143209.000,A,4308.3122,N,07726.2620,W,0.00,67.36,190719,,,A*4D
$GPGGA,143209.250,4308.3122,N,07726.2620,W,1,07,3.12,150.4,M,-34.4,M,,*52
$GPRMC,143209.500,A,4308.3122,N,07726.2620,W,0.00,245.96,190719,,,A*70
$GPGGA,143209.750,4308.3122,N,07726.2620,W,1,07,3.12,150.4,M,-34.4,M,,*57
$GPRMC,143210.000,A,4308.3122,N,07726.2620,W,0.01,255.80,190719,,,A*7A
$GPGGA,143210.250,4308.3122,N,07726.2620,W,1,07,3.12,150.4,M,-34.4,M,,*5A
$GPRMC,143210.500,A,4308.3122,N,07726.2620,W,0.01,146.97,190719,,,A*78
$GPGGA,143210.750,4308.3122,N,07726.2620,W,1,07,3.12,150.4,M,-34.4,M,,*5F
$GPRMC,143211.000,A,4308.3122,N,07726.2620,W,0.01,254.51,190719,,,A*76
$GPGGA,143211.250,4308.3122,N,07726.2620,W,1,07,3.12,150.4,M,-34.4,M,,*5B
$GPRMC,143211.500,A,4308.3122,N,07726.2620,W,0.01,292.19,190719,,,A*75
$GPGGA,143211.750,4308.3122,N,07726.2620,W,1,07,3.13,150.4,M,-34.4,M,,*5F
$GPRMC,143212.000,A,4308.3122,N,07726.2620,W,0.00,0.13,190719,,,A*71
$GPGGA,143212.250,4308.3122,N,07726.2620,W,1,07,3.13,150.4,M,-34.4,M,,*59
$GPRMC,143212.500,A,4308.3122,N,07726.2620,W,0.02,140.34,190719,,,A*76
$GPGGA,143212.750,4308.3122,N,07726.2620,W,1,07,3.13,150.4,M,-34.4,M,,*5C
$GPRMC,143213.000,A,4308.3122,N,07726.2620,W,0.00,118.21,190719,,,A*79
$GPGGA,143213.250,4308.3122,N,07726.2620,W,1,07,3.13,150.4,M,-34.4,M,,*58
$GPRMC,143213.500,A,4308.3122,N,07726.2620,W,0.01,359.23,190719,,,A*78
$GPGGA,143213.750,4308.3122,N,07726.2620,W,1,07,3.13,150.4,M,-34.4,M,,*5D
$GPRMC,143214.000,A,4308.3122,N,07726.2620,W,0.01,273.40,190719,,,A*76
$GPGGA,143214.250,4308.3122,N,07726.2620,W,1,07,3.13,150.4,M,-34.4,M,,*5F
$GPRMC,143214.500,A,4308.3122,N,07726.2620,W,0.00,291.21,190719,,,A*79
$GPGGA,143214.750,4308.3122,N,07726.2620,W,1,07,3.13,150.4,M,-34.4,M,,*5A
$GPRMC,143215.000,A,4308.3122,N,07726.2620,W,0.00,1.91,190719,,,A*7D
$GPGGA,143215.250,4308.3122,N,07726.2620,W,1,07,3.13,150.4,M,-34.4,M,,*5E
$GPRMC,143215.500,A,4308.3122,N,07726.2620,W,0.00,247.02,190719,,,D*77
$GPGGA,143215.750,4308.3122,N,07726.2620,W,2,07,3.13,150.4,M,-34.4,M,0000,0000*58
$GPRMC,143216.000,A,4308.3122,N,07726.2620,W,0.01,285.50,190719,,,D*79
$GPGGA,143216.250,4308.3122,N,07726.2620,W,2,07,3.13,150.5,M,-34.4,M,0000,0000*5F
$GPRMC,143216.500,A,4308.3121,N,07726.2620,W,0.01,297.84,190719,,,D*75
$GPGGA,143216.750,4308.3121,N,07726.2620,W,2,07,3.13,150.5,M,-34.4,M,0000,0000*59
$GPRMC,143217.000,A,4308.3121,N,07726.2620,W,0.01,326.15,190719,,,D*72
$GPGGA,143217.250,4308.3121,N,07726.2620,W,2,07,3.13,150.5,M,-34.4,M,0000,0000*5D
$GPRMC,143217.500,A,4308.3122,N,07726.2620,W,0.02,333.24,190719,,,D*71
$GPGGA,143217.750,4308.3122,N,07726.2620,W,2,07,3.13,150.6,M,-34.4,M,0000,0000*58
$GPRMC,143218.000,A,4308.3121,N,07726.2620,W,0.02,339.36,190719,,,D*71
$GPGGA,143218.250,4308.3121,N,07726.2620,W,2,07,3.13,150.6,M,-34.4,M,0000,0000*51
$GPRMC,143218.500,A,4308.3121,N,07726.2620,W,0.03,346.14,190719,,,D*7D
$GPGGA,143218.750,4308.3121,N,07726.2620,W,2,07,3.13,150.6,M,-34.4,M,0000,0000*54
$GPRMC,143219.000,A,4308.3121,N,07726.2620,W,0.03,345.50,190719,,,D*7A
$GPGGA,143219.250,4308.3121,N,07726.2620,W,2,07,3.13,150.7,M,-34.4,M,0000,0000*51
$GPRMC,143219.500,A,4308.3122,N,07726.2619,W,0.04,349.75,190719,,,D*7A
$GPGGA,143219.750,4308.3122,N,07726.2619,W,2,07,3.13,150.7,M,-34.4,M,0000,0000*5D
$GPRMC,143220.000,A,4308.3122,N,07726.2619,W,0.05,352.87,190719,,,D*73
$GPGGA,143220.250,4308.3122,N,07726.2619,W,2,07,3.14,150.7,M,-34.4,M,0000,0000*55
$GPRMC,143220.500,A,4308.3122,N,07726.2619,W,0.05,353.35,190719,,,D*7E
$GPGGA,143220.750,4308.3122,N,07726.2619,W,2,07,3.14,150.8,M,-34.4,M,0000,0000*5F
$GPRMC,143221.000,A,4308.3122,N,07726.2619,W,0.06,353.67,190719,,,D*7E
$GPGGA,143221.250,4308.3123,N,07726.2619,W,2,07,3.14,150.8,M,-34.4,M,0000,0000*5A
$GPRMC,143221.500,A,4308.3123,N,07726.2619,W,0.07,352.75,190719,,,D*79
$GPGGA,143221.750,4308.3123,N,07726.2619,W,2,07,3.14,150.9,M,-34.4,M,0000,0000*5E
$GPRMC,143222.000,A,4308.3123,N,07726.2619,W,0.07,355.63,190719,,,D*7F
$GPGGA,143222.250,4308.3123,N,07726.2619,W,2,07,3.14,150.9,M,-34.4,M,0000,0000*58
$GPRMC,143222.500,A,4308.3123,N,07726.2619,W,0.07,352.67,190719,,,D*79
$GPGGA,143222.750,4308.3123,N,07726.2619,W,2,07,3.14,151.0,M,-34.4,M,0000,0000*55
$GPRMC,143223.000,A,4308.3123,N,07726.2619,W,0.08,349.05,190719,,,D*7C
$GPGGA,143223.250,4308.3123,N,07726.2619,W,2,07,3.14,151.0,M,-34.4,M,0000,0000*51
$GPRMC,143223.500,A,4308.3123,N,07726.2619,W,0.07,344.01,190719,,,D*7F
$GPGGA,143223.750,4308.3123,N,07726.2619,W,2,07,3.14,151.1,M,-34.4,M,0000,0000*55
$GPRMC,143224.000,A,4308.3123,N,07726.2619,W,0.08,345.65,190719,,,D*71
$GPGGA,143224.250,4308.3123,N,07726.2619,W,2,07,3.14,151.1,M,-34.4,M,0000,0000*57
$GPRMC,143224.500,A,4308.3123,N,07726.2619,W,0.07,344.11,190719,,,D*79
$GPGGA,143224.750,4308.3123,N,07726.2619,W,2,07,3.14,151.1,M,-34.4,M,0000,0000*52
$GPRMC,143225.000,A,4308.3123,N,07726.2619,W,0.06,345.22,190719,,,D*7D
$GPGGA,143225.250,4308.3122,N,07726.2619,W,2,07,3.14,151.2,M,-34.4,M,0000,0000*54
$GPRMC,143225.500,A,4308.3122,N,07726.2619,W,0.05,343.52,190719,,,D*7B
$GPGGA,143225.750,4308.3122,N,07726.2619,W,2,07,3.14,151.2,M,-34.4,M,0000,0000*51
$GPRMC,143226.000,A,4308.3122,N,07726.2619,W,0.01,165.47,190719,,,D*7B
$GPGGA,143226.250,4308.3121,N,07726.2619,W,2,07,3.14,151.3,M,-34.4,M,0000,0000*55
$GPRMC,143226.500,A,4308.3121,N,07726.2619,W,0.00,100.62,190719,,,D*78
$GPGGA,143226.750,4308.3121,N,07726.2619,W,2,07,3.14,151.3,M,-34.4,M,0000,0000*50
$GPRMC,143227.000,A,4308.3121,N,07726.2619,W,0.01,310.38,190719,,,D*71
$GPGGA,143227.250,4308.3121,N,07726.2619,W,2,07,3.15,151.3,M,-34.4,M,0000,0000*55
$GPRMC,143227.500,A,4308.3121,N,07726.2619,W,0.00,171.14,190719,,,D*7E
$GPGGA,143227.750,4308.3121,N,07726.2619,W,2,07,3.15,151.4,M,-34.4,M,0000,0000*57
$GPRMC,143228.000,A,4308.3121,N,07726.2619,W,0.00,250.84,190719,,,D*7D
$GPGGA,143228.250,4308.3121,N,07726.2619,W,2,07,3.15,151.4,M,-34.4,M,0000,0000*5D
$GPRMC,143228.500,A,4308.3121,N,07726.2619,W,0.00,0.00,190719,,,D*73
$GPGGA,143228.750,4308.3121,N,07726.2619,W,2,07,3.15,151.4,M,-34.4,M,0000,0000*58
$GPRMC,143229.000,A,4308.3121,N,07726.2619,W,0.00,142.41,190719,,,D*75
$GPGGA,143229.250,4308.3121,N,07726.2619,W,2,07,3.15,151.5,M,-34.4,M,0000,0000*5D
$GPRMC,143229.500,A,4308.3121,N,07726.2619,W,0.01,93.29,190719,,,D*42
$GPGGA,143229.750,4308.3121,N,07726.2619,W,2,07,3.15,151.5,M,-34.4,M,0000,0000*58
$GPRMC,143230.000,A,4308.3120,N,07726.2619,W,0.01,164.86,190719,,,D*72
$GPGGA,143230.250,4308.3120,N,07726.2619,W,2,08,2.51,151.5,M,-34.4,M,0000,0000*5A
$GPRMC,143230.500,A,4308.3120,N,07726.2619,W,0.00,1.69,190719,,,D*75
$GPGGA,143230.750,4308.3120,N,07726.2620,W,2,08,2.51,151.6,M,-34.4,M,0000,0000*56
$GPRMC,143231.000,A,4308.3120,N,07726.2620,W,0.01,316.76,190719,,,D*71
$GPGGA,143231.250,4308.3120,N,07726.2620,W,2,08,2.51,151.6,M,-34.4,M,0000,0000*52
$GPRMC,143231.500,A,4308.3119,N,07726.2620,W,0.01,146.28,190719,,,D*72
$GPGGA,143231.750,4308.3119,N,07726.2620,W,2,08,2.51,151.7,M,-34.4,M,0000,0000*5C
$GPRMC,143232.000,A,4308.3119,N,07726.2620,W,0.00,131.65,190719,,,D*7C
$GPGGA,143232.250,4308.3119,N,07726.2620,W,2,08,2.51,151.7,M,-34.4,M,0000,0000*5A
$GPRMC,143232.500,A,4308.3119,N,07726.2620,W,0.00,259.81,190719,,,D*7E
$GPGGA,143232.750,4308.3119,N,07726.2620,W,2,08,2.51,151.8,M,-34.4,M,0000,0000*50
$GPRMC,143233.000,A,4308.3119,N,07726.2621,W,0.00,320.40,190719,,,D*79
$GPGGA,143233.250,4308.3118,N,07726.2621,W,2,08,2.51,151.8,M,-34.4,M,0000,0000*54
$GPRMC,143233.500,A,4308.3118,N,07726.2621,W,0.00,326.04,190719,,,D*7B
$GPGGA,143233.750,4308.3118,N,07726.2621,W,2,08,2.51,151.9,M,-34.4,M,0000,0000*50
$GPRMC,143234.000,A,4308.3118,N,07726.2621,W,0.00,110.85,190719,,,D*77
$GPGGA,143234.250,4308.3118,N,07726.2621,W,2,08,2.51,151.9,M,-34.4,M,0000,0000*52
$GPRMC,143234.500,A,4308.3118,N,07726.2621,W,0.01,247.30,190719,,,D*7C
$GPGGA,143234.750,4308.3117,N,07726.2621,W,2,08,2.51,152.0,M,-34.4,M,0000,0000*52
$GPRMC,143235.000,A,4308.3117,N,07726.2621,W,0.00,185.61,190719,,,D*7F
$GPGGA,143235.250,4308.3117,N,07726.2621,W,2,08,2.51,152.0,M,-34.4,M,0000,0000*56
$GPRMC,143235.500,A,4308.3117,N,07726.2621,W,0.01,267.81,190719,,,D*7A
$GPGGA,143235.750,4308.3117,N,07726.2622,W,2,08,2.51,152.0,M,-34.4,M,0000,0000*50
$GPRMC,143236.000,A,4308.3116,N,07726.2622,W,0.00,118.17,190719,,,D*7B
$GPGGA,143236.250,4308.3116,N,07726.2622,W,2,08,2.51,152.1,M,-34.4,M,0000,0000*56
$GPRMC,143236.500,A,4308.3116,N,07726.2622,W,0.00,13.76,190719,,,D*43
$GPGGA,143236.750,4308.3116,N,07726.2622,W,2,08,2.51,152.1,M,-34.4,M,0000,0000*53
$GPRMC,143237.000,A,4308.3115,N,07726.2622,W,0.01,182.12,190719,,,D*7E
$GPGGA,143237.250,4308.3115,N,07726.2622,W,2,08,2.52,152.1,M,-34.4,M,0000,0000*57
$GPRMC,143237.500,A,4308.3115,N,07726.2622,W,0.00,265.09,190719,,,D*7A
$GPGGA,143237.750,4308.3115,N,07726.2622,W,2,08,2.52,152.2,M,-34.4,M,0000,0000*51
$GPRMC,143238.000,A,4308.3115,N,07726.2623,W,0.00,190.43,190719,,,D*76
$GPGGA,143238.250,4308.3114,N,07726.2623,W,2,08,2.52,152.2,M,-34.4,M,0000,0000*5B
$GPRMC,143238.500,A,4308.3114,N,07726.2623,W,0.00,0.00,190719,,,D*7D
$GPGGA,143238.750,4308.3114,N,07726.2623,W,2,08,2.52,152.2,M,-34.4,M,0000,0000*5E
$GPRMC,143239.000,A,4308.3114,N,07726.2623,W,0.01,255.94,190719,,,D*77
$GPGGA,143239.250,4308.3114,N,07726.2623,W,2,08,2.52,152.3,M,-34.4,M,0000,0000*5B
$GPRMC,143239.500,A,4308.3114,N,07726.2623,W,0.00,233.69,190719,,,D*71
$GPGGA,143239.750,4308.3113,N,07726.2624,W,2,08,2.52,152.3,M,-34.4,M,0000,0000*5E
$GPRMC,143240.000,A,4308.3113,N,07726.2624,W,0.00,188.44,190719,,,D*76
$GPGGA,143240.250,4308.3113,N,07726.2624,W,2,08,2.52,152.4,M,-34.4,M,0000,0000*52
$GPRMC,143240.500,A,4308.3113,N,07726.2624,W,0.01,331.67,190719,,,D*73
$GPGGA,143240.750,4308.3113,N,07726.2624,W,2,08,2.52,152.4,M,-34.4,M,0000,0000*57
$GPRMC,143241.000,A,4308.3113,N,07726.2624,W,0.00,351.14,190719,,,D*74
$GPGGA,143241.250,4308.3113,N,07726.2625,W,2,08,2.52,152.4,M,-34.4,M,0000,0000*52
$GPRMC,143241.500,A,4308.3113,N,07726.2625,W,0.00,349.06,190719,,,D*7A
$GPGGA,143241.750,4308.3113,N,07726.2625,W,2,08,2.52,152.4,M,-34.4,M,0000,0000*57
$GPRMC,143242.000,A,4308.3113,N,07726.2625,W,0.00,37.86,190719,,,D*4E
$GPGGA,143242.250,4308.3113,N,07726.2625,W,2,08,2.52,152.4,M,-34.4,M,0000,0000*51
$GPRMC,143242.500,A,4308.3112,N,07726.2625,W,0.00,0.00,190719,,,D*70
$GPGGA,143242.750,4308.3112,N,07726.2625,W,2,08,2.52,152.5,M,-34.4,M,0000,0000*54
$GPRMC,143243.000,A,4308.3112,N,07726.2626,W,0.00,7.86,190719,,,D*7E
$GPGGA,143243.250,4308.3112,N,07726.2626,W,2,08,2.52,152.5,M,-34.4,M,0000,0000*53
$GPRMC,143243.500,A,4308.3112,N,07726.2626,W,0.00,10.99,190719,,,D*43
$GPGGA,143243.750,4308.3112,N,07726.2626,W,2,08,2.52,152.5,M,-34.4,M,0000,0000*56
$GPRMC,143244.000,A,4308.3112,N,07726.2626,W,0.00,47.91,190719,,,D*4B
$GPGGA,143244.250,4308.3112,N,07726.2626,W,2,08,2.52,152.5,M,-34.4,M,0000,0000*54
$GPRMC,143244.500,A,4308.3113,N,07726.2626,W,0.00,34.25,190719,,,D*44
$GPGGA,143244.750,4308.3113,N,07726.2626,W,2,08,2.52,152.5,M,-34.4,M,0000,0000*50
$GPRMC,143245.000,A,4308.3112,N,07726.2626,W,0.00,136.97,190719,,,D*7B
$GPGGA,143245.250,4308.3112,N,07726.2626,W,2,08,2.52,152.5,M,-34.4,M,0000,0000*55
$GPRMC,143245.500,A,4308.3112,N,07726.2627,W,0.01,68.16,190719,,,D*4D
$GPGGA,143245.750,4308.3112,N,07726.2627,W,2,08,2.52,152.5,M,-34.4,M,0000,0000*51
$GPRMC,143246.000,A,4308.3112,N,07726.2627,W,0.01,15.43,190719,,,D*41
$GPGGA,143246.250,4308.3112,N,07726.2627,W,2,08,2.52,152.5,M,-34.4,M,0000,0000*57
$GPRMC,143246.500,A,4308.3112,N,07726.2628,W,0.00,305.47,190719,,,D*7C
$GPGGA,143246.750,4308.3112,N,07726.2628,W,2,08,2.52,152.5,M,-34.4,M,0000,0000*5D
$GPRMC,143247.000,A,4308.3112,N,07726.2628,W,0.01,157.15,190719,,,D*7B
$GPGGA,143247.250,4308.3112,N,07726.2628,W,2,08,2.53,152.6,M,-34.4,M,0000,0000*5B
$GPRMC,143247.500,A,4308.3112,N,07726.2629,W,0.00,28.18,190719,,,D*4A
$GPGGA,143247.750,4308.3112,N,07726.2629,W,2,08,2.53,152.6,M,-34.4,M,0000,0000*5F
$GPRMC,143248.000,A,4308.3112,N,07726.2629,W,0.00,210.47,190719,,,D*73
$GPGGA,143248.250,4308.3112,N,07726.2629,W,2,08,2.53,152.6,M,-34.4,M,0000,0000*55
$GPRMC,143248.500,A,4308.3112,N,07726.2630,W,0.00,207.14,190719,,,D*7E
$GPGGA,143248.750,4308.3112,N,07726.2630,W,2,08,2.53,152.7,M,-34.4,M,0000,0000*59
$GPRMC,143249.000,A,4308.3112,N,07726.2630,W,0.00,8.99,190719,,,D*72
$GPGGA,143249.250,4308.3112,N,07726.2630,W,2,08,2.53,152.7,M,-34.4,M,0000,0000*5D
$GPRMC,143249.500,A,4308.3113,N,07726.2631,W,0.00,5.33,190719,,,D*7A
$GPGGA,143249.750,4308.3113,N,07726.2631,W,2,08,2.53,152.7,M,-34.4,M,0000,0000*58
$GPRMC,143250.000,A,4308.3113,N,07726.2631,W,0.01,104.46,190719,,,D*74
$GPGGA,143250.250,4308.3113,N,07726.2631,W,2,08,2.53,152.7,M,-34.4,M,0000,0000*55
$GPRMC,143250.500,A,4308.3113,N,07726.2632,W,0.01,242.22,190719,,,D*71
$GPGGA,143250.750,4308.3113,N,07726.2632,W,2,08,2.53,152.7,M,-34.4,M,0000,0000*53
$GPRMC,143251.000,A,4308.3113,N,07726.2632,W,0.00,86.79,190719,,,D*40
$GPGGA,143251.250,4308.3113,N,07726.2632,W,2,08,2.53,152.8,M,-34.4,M,0000,0000*58
$GPRMC,143251.500,A,4308.3113,N,07726.2633,W,0.00,43.74,190719,,,D*40
$GPGGA,143251.750,4308.3114,N,07726.2633,W,2,08,2.53,152.8,M,-34.4,M,0000,0000*5B
$GPRMC,143252.000,A,4308.3114,N,07726.2633,W,0.00,150.55,190719,,,D*71
$GPGGA,143252.250,4308.3114,N,07726.2633,W,2,08,2.53,152.8,M,-34.4,M,0000,0000*5D
$GPRMC,143252.500,A,4308.3114,N,07726.2633,W,0.00,313.50,190719,,,D*74
$GPGGA,143252.750,4308.3114,N,07726.2634,W,2,08,2.53,152.8,M,-34.4,M,0000,0000*5F
$GPRMC,143253.000,A,4308.3114,N,07726.2634,W,0.01,55.42,190719,,,D*44
$GPGGA,143253.250,4308.3115,N,07726.2634,W,2,08,2.53,152.8,M,-34.4,M,0000,0000*5A
$GPRMC,143253.500,A,4308.3115,N,07726.2634,W,0.01,37.25,190719,,,D*45
$GPGGA,143253.750,4308.3115,N,07726.2634,W,2,08,2.53,152.8,M,-34.4,M,0000,0000*5F
$GPRMC,143254.000,A,4308.3115,N,07726.2634,W,0.01,106.71,190719,,,D*75
$GPGGA,143254.250,4308.3115,N,07726.2634,W,2,08,2.53,152.8,M,-34.4,M,0000,0000*5D
$GPRMC,143254.500,A,4308.3115,N,07726.2635,W,0.01,249.20,190719,,,D*7D
$GPGGA,143254.750,4308.3116,N,07726.2635,W,2,08,2.53,152.8,M,-34.4,M,0000,0000*5A
$GPRMC,143255.000,A,4308.3116,N,07726.2635,W,0.01,310.38,190719,,,D*7E
$GPGGA,143255.250,4308.3116,N,07726.2635,W,2,08,2.53,152.7,M,-34.4,M,0000,0000*51
$GPRMC,143255.500,A,4308.3116,N,07726.2635,W,0.00,331.42,190719,,,D*74
$GPGGA,143255.750,4308.3116,N,07726.2635,W,2,08,2.53,152.7,M,-34.4,M,0000,0000*54
$GPRMC,143256.000,A,4308.3117,N,07726.2635,W,0.01,359.79,190719,,,D*74
$GPGGA,143256.250,4308.3117,N,07726.2635,W,2,08,2.53,152.7,M,-34.4,M,0000,0000*53
$GPRMC,143256.500,A,4308.3117,N,07726.2636,W,0.00,9.10,190719,,,D*7A
$GPGGA,143256.750,4308.3117,N,07726.2636,W,2,08,2.54,152.6,M,-34.4,M,0000,0000*53
$GPRMC,143257.000,A,4308.3117,N,07726.2636,W,0.01,358.02,190719,,,D*7B
$GPGGA,143257.250,4308.3117,N,07726.2636,W,2,08,2.54,152.6,M,-34.4,M,0000,0000*57
$GPRMC,143257.500,A,4308.3117,N,07726.2636,W,0.00,353.58,190719,,,D*7B
$GPGGA,143257.750,4308.3117,N,07726.2636,W,2,08,2.54,152.6,M,-34.4,M,0000,0000*52
$GPRMC,143258.000,A,4308.3117,N,07726.2636,W,0.01,322.10,190719,,,D*7A
$GPGGA,143258.250,4308.3118,N,07726.2636,W,2,08,2.54,152.5,M,-34.4,M,0000,0000*54
$GPRMC,143258.500,A,4308.3117,N,07726.2636,W,0.00,110.91,190719,,,D*74
$GPGGA,143258.750,4308.3117,N,07726.2636,W,2,08,2.54,152.5,M,-34.4,M,0000,0000*5E
$GPRMC,143259.000,A,4308.3117,N,07726.2636,W,0.00,10.74,190719,,,D*4A
$GPGGA,143259.250,4308.3117,N,07726.2636,W,2,08,2.54,152.5,M,-34.4,M,0000,0000*5A
$GPRMC,143259.500,A,4308.3117,N,07726.2636,W,0.00,342.82,190719,,,D*72
$GPGGA,143259.750,4308.3117,N,07726.2636,W,2,08,2.54,152.5,M,-34.4,M,0000,0000*5F
$GPRMC,143300.000,A,4308.3117,N,07726.2636,W,0.00,320.88,190719,,,D*74
$GPGGA,143300.250,4308.3117,N,07726.2636,W,2,08,2.54,152.5,M,-34.4,M,0000,0000*57
$GPRMC,143300.500,A,4308.3117,N,07726.2636,W,0.00,294.72,190719,,,D*7A
$GPGGA,143300.750,4308.3117,N,07726.2636,W,2,08,2.54,152.5,M,-34.4,M,0000,0000*52
$GPRMC,143301.000,A,4308.3117,N,07726.2636,W,0.01,337.00,190719,,,D*72
$GPGGA,143301.250,4308.3117,N,07726.2636,W,2,08,2.54,152.5,M,-34.4,M,0000,0000*56
$GPRMC,143301.500,A,4308.3117,N,07726.2636,W,0.00,328.82,190719,,,D*72
$GPGGA,143301.750,4308.3117,N,07726.2636,W,2,08,2.54,152.5,M,-34.4,M,0000,0000*53
$GPRMC,143302.000,A,4308.3117,N,07726.2636,W,0.00,5.40,190719,,,D*76
$GPGGA,143302.250,4308.3117,N,07726.2636,W,2,08,2.54,152.5,M,-34.4,M,0000,0000*55
$GPRMC,143302.500,A,4308.3117,N,07726.2636,W,0.00,226.13,190719,,,D*76
$GPGGA,143302.750,4308.3117,N,07726.2636,W,2,08,2.54,152.5,M,-34.4,M,0000,0000*50
$GPRMC,143303.000,A,4308.3117,N,07726.2636,W,0.01,280.14,190719,,,D*78
$GPGGA,143303.250,4308.3117,N,07726.2636,W,2,08,2.54,152.5,M,-34.4,M,0000,0000*54
$GPRMC,143303.500,A,4308.3117,N,07726.2636,W,0.01,224.24,190719,,,D*70
$GPGGA,143303.750,4308.3117,N,07726.2636,W,2,08,2.54,152.5,M,-34.4,M,0000,0000*51
$GPRMC,143304.000,A,4308.3117,N,07726.2636,W,0.00,325.83,190719,,,D*7E
$GPGGA,143304.250,4308.3117,N,07726.2636,W,2,08,2.54,152.5,M,-34.4,M,0000,0000*53
$GPRMC,143304.500,A,4308.3117,N,07726.2636,W,0.01,4.57,190719,,,D*73
$GPGGA,143304.750,4308.3117,N,07726.2636,W,2,08,2.54,152.5,M,-34.4,M,0000,0000*56
$GPRMC,143305.000,A,4308.3117,N,07726.2636,W,0.00,342.15,190719,,,D*71
$GPGGA,143305.250,4308.3118,N,07726.2636,W,2,08,2.54,152.5,M,-34.4,M,0000,0000*5D
$GPRMC,143305.500,A,4308.3118,N,07726.2636,W,0.00,0.00,190719,,,D*7A
$GPGGA,143305.750,4308.3118,N,07726.2636,W,2,08,2.54,152.5,M,-34.4,M,0000,0000*58
$GPRMC,143306.000,A,4308.3118,N,07726.2636,W,0.01,280.45,190719,,,D*76
$GPGGA,143306.250,4308.3118,N,07726.2636,W,2,08,2.55,152.5,M,-34.4,M,0000,0000*5F
$GPRMC,143306.500,A,4308.3118,N,07726.2636,W,0.00,327.06,190719,,,D*79
$GPGGA,143306.750,4308.3118,N,07726.2636,W,2,08,2.55,152.5,M,-34.4,M,0000,0000*5A
$GPRMC,143307.000,A,4308.3118,N,07726.2636,W,0.01,277.80,190719,,,D*76
$GPGGA,143307.250,4308.3118,N,07726.2636,W,2,08,2.55,152.5,M,-34.4,M,0000,0000*5E
$GPRMC,143307.500,A,4308.3118,N,07726.2636,W,0.01,352.71,190719,,,D*7B
$GPGGA,143307.750,4308.3118,N,07726.2636,W,2,08,2.55,152.5,M,-34.4,M,0000,0000*5B
$GPRMC,143308.000,A,4308.3118,N,07726.2636,W,0.00,132.22,190719,,,D*72
$GPGGA,143308.250,4308.3118,N,07726.2636,W,2,08,2.55,152.5,M,-34.4,M,0000,0000*51
$GPRMC,143308.500,A,4308.3118,N,07726.2636,W,0.01,314.87,190719,,,D*7F
$GPGGA,143308.750,4308.3118,N,07726.2636,W,2,08,2.55,152.5,M,-34.4,M,0000,0000*54
$GPRMC,143309.000,A,4308.3118,N,07726.2636,W,0.00,20.63,190719,,,D*44
$GPGGA,143309.250,4308.3118,N,07726.2636,W,2,08,2.55,152.5,M,-34.4,M,0000,0000*50
$GPRMC,143309.500,A,4308.3118,N,07726.2636,W,0.01,51.44,190719,,,D*43
$GPGGA,143309.750,4308.3118,N,07726.2636,W,2,08,2.55,152.5,M,-34.4,M,0000,0000*55
$GPRMC,143310.000,A,4308.3118,N,07726.2636,W,0.01,16.47,190719,,,D*4E
$GPGGA,143310.250,4308.3118,N,07726.2636,W,2,08,2.55,152.5,M,-34.4,M,0000,0000*58
$GPRMC,143310.500,A,4308.3118,N,07726.2636,W,0.00,10.65,190719,,,D*4C
$GPGGA,143310.750,4308.3118,N,07726.2636,W,2,08,2.55,152.5,M,-34.4,M,0000,0000*5D
$GPRMC,143311.000,A,4308.3118,N,07726.2636,W,0.01,347.14,190719,,,D*7E
$GPGGA,143311.250,4308.3118,N,07726.2636,W,2,08,2.55,152.5,M,-34.4,M,0000,0000*59
$GPRMC,143311.500,A,4308.3118,N,07726.2636,W,0.00,141.08,190719,,,D*73
$GPGGA,143311.750,4308.3118,N,07726.2636,W,2,08,2.55,152.5,M,-34.4,M,0000,0000*5C
$GPRMC,143312.000,A,4308.3118,N,07726.2636,W,0.00,309.53,190719,,,D*75
$GPGGA,143312.250,4308.3118,N,07726.2636,W,2,08,2.55,152.5,M,-34.4,M,0000,0000*5A
$GPRMC,143312.500,A,4308.3118,N,07726.2636,W,0.00,58.88,190719,,,D*41
$GPGGA,143312.750,4308.3118,N,07726.2636,W,2,08,2.55,152.5,M,-34.4,M,0000,0000*5F
$GPRMC,143313.000,A,4308.3118,N,07726.2636,W,0.00,119.23,190719,,,D*70
$GPGGA,143313.250,4308.3118,N,07726.2636,W,2,08,2.55,152.5,M,-34.4,M,0000,0000*5B
$GPRMC,143313.500,A,4308.3118,N,07726.2636,W,0.00,27.27,190719,,,D*4D
$GPGGA,143313.750,4308.3118,N,07726.2636,W,2,08,2.55,152.5,M,-34.4,M,0000,0000*5E
$GPRMC,143314.000,A,4308.3118,N,07726.2636,W,0.00,184.71,190719,,,D*74
$GPGGA,143314.250,4308.3118,N,07726.2636,W,2,08,2.55,152.5,M,-34.4,M,0000,0000*5C
$GPRMC,143314.500,A,4308.3118,N,07726.2636,W,0.00,65.87,190719,,,D*46
$GPGGA,143314.750,4308.3118,N,07726.2636,W,2,08,2.55,152.5,M,-34.4,M,0000,0000*59
$GPRMC,143315.000,A,4308.3118,N,07726.2636,W,0.00,42.04,190719,,,D*4C
$GPGGA,143315.250,4308.3118,N,07726.2636,W,2,08,2.56,152.5,M,-34.4,M,0000,0000*5E
$GPRMC,143315.500,A,4308.3118,N,07726.2636,W,0.00,53.62,190719,,,D*49
$GPGGA,143315.750,4308.3118,N,07726.2636,W,2,08,2.56,152.5,M,-34.4,M,0000,0000*5B
$GPRMC,143316.000,A,4308.3118,N,07726.2636,W,0.00,176.02,190719,,,D*7F
$GPGGA,143316.250,4308.3118,N,07726.2636,W,2,08,2.56,152.5,M,-34.4,M,0000,0000*5D
$GPRMC,143316.500,A,4308.3118,N,07726.2636,W,0.00,149.64,190719,,,D*76
$GPGGA,143316.750,4308.3118,N,07726.2636,W,2,08,2.56,152.5,M,-34.4,M,0000,0000*58
$GPRMC,143317.000,A,4308.3118,N,07726.2636,W,0.00,155.66,190719,,,D*7D
$GPGGA,143317.250,4308.3118,N,07726.2636,W,2,08,2.56,152.5,M,-34.4,M,0000,0000*5C
$GPRMC,143317.500,A,4308.3118,N,07726.2636,W,0.00,0.00,190719,,,D*79
$GPGGA,143317.750,4308.3118,N,07726.2636,W,2,08,2.56,152.5,M,-34.4,M,0000,0000*59
$GPRMC,143318.000,A,4308.3118,N,07726.2636,W,0.01,77.12,190719,,,D*41
$GPGGA,143318.250,4308.3118,N,07726.2636,W,2,08,2.56,152.5,M,-34.4,M,0000,0000*53
$GPRMC,143318.500,A,4308.3118,N,07726.2636,W,0.01,107.57,190719,,,D*73
$GPGGA,143318.750,4308.3118,N,07726.2636,W,2,08,2.56,152.5,M,-34.4,M,0000,0000*56
$GPRMC,143319.000,A,4308.3118,N,07726.2636,W,0.01,81.53,190719,,,D*4C
$GPGGA,143319.250,4308.3118,N,07726.2636,W,2,08,2.56,152.5,M,-34.4,M,0000,0000*52
$GPRMC,143319.500,A,4308.3118,N,07726.2636,W,0.00,110.04,190719,,,D*73
$GPGGA,143319.750,4308.3118,N,07726.2636,W,2,08,2.56,152.5,M,-34.4,M,0000,0000*57
$GPRMC,143320.000,A,4308.3118,N,07726.2636,W,0.00,181.93,190719,,,D*7A
$GPGGA,143320.250,4308.3118,N,07726.2636,W,2,08,2.56,152.5,M,-34.4,M,0000,0000*58
$GPRMC,143320.500,A,4308.3118,N,07726.2636,W,0.00,100.82,190719,,,D*76
$GPGGA,143320.750,4308.3118,N,07726.2636,W,2,08,2.56,152.5,M,-34.4,M,0000,0000*5D
$GPRMC,143321.000,A,4308.3118,N,07726.2636,W,0.00,201.19,190719,,,D*72
$GPGGA,143321.250,4308.3118,N,07726.2636,W,2,08,2.56,152.5,M,-34.4,M,0000,0000*59
$GPRMC,143321.500,A,4308.3118,N,07726.2636,W,0.00,192.19,190719,,,D*7E
$GPGGA,143321.750,4308.3118,N,07726.2636,W,2,08,2.56,152.6,M,-34.4,M,0000,0000*5F
$GPRMC,143322.000,A,4308.3118,N,07726.2636,W,0.00,256.65,190719,,,D*78
$GPGGA,143322.250,4308.3118,N,07726.2636,W,2,08,2.56,152.6,M,-34.4,M,0000,0000*59
$GPRMC,143322.500,A,4308.3118,N,07726.2636,W,0.00,0.00,190719,,,D*7F
$GPGGA,143322.750,4308.3118,N,07726.2636,W,2,08,2.56,152.6,M,-34.4,M,0000,0000*5C
$GPRMC,143323.000,A,4308.3118,N,07726.2636,W,0.00,326.91,190719,,,D*74
$GPGGA,143323.250,4308.3118,N,07726.2636,W,2,08,2.56,152.6,M,-34.4,M,0000,0000*58
$GPRMC,143323.500,A,4308.3118,N,07726.2637,W,0.00,115.02,190719,,,D*78
$GPGGA,143323.750,4308.3118,N,07726.2637,W,2,08,2.56,152.6,M,-34.4,M,0000,0000*5C
$GPRMC,143324.000,A,4308.3118,N,07726.2637,W,0.00,159.68,190719,,,D*7E
$GPGGA,143324.250,4308.3118,N,07726.2637,W,2,08,2.56,152.6,M,-34.4,M,0000,0000*5E
$GPRMC,143324.500,A,4308.3118,N,07726.2637,W,0.00,3.29,190719,,,D*70
$GPGGA,143324.750,4308.3119,N,07726.2638,W,2,08,2.57,152.6,M,-34.4,M,0000,0000*54
$GPRMC,143325.000,A,4308.3119,N,07726.2638,W,0.00,159.01,190719,,,D*7E
$GPGGA,143325.250,4308.3119,N,07726.2638,W,2,08,2.57,152.6,M,-34.4,M,0000,0000*50
$GPRMC,143325.500,A,4308.3119,N,07726.2639,W,0.00,277.20,190719,,,D*76
$GPGGA,143325.750,4308.3119,N,07726.2639,W,2,08,2.57,152.6,M,-34.4,M,0000,0000*54
$GPRMC,143326.000,A,4308.3119,N,07726.2639,W,0.00,187.44,190719,,,D*7E
$GPGGA,143326.250,4308.3119,N,07726.2640,W,2,08,2.57,152.6,M,-34.4,M,0000,0000*5C
$GPRMC,143326.500,A,4308.3120,N,07726.2640,W,0.01,87.53,190719,,,D*49
$GPGGA,143326.750,4308.3120,N,07726.2640,W,2,08,2.57,152.7,M,-34.4,M,0000,0000*52
$GPRMC,143327.000,A,4308.3120,N,07726.2640,W,0.00,14.43,190719,,,D*47
$GPGGA,143327.250,4308.3120,N,07726.2640,W,2,08,2.57,152.7,M,-34.4,M,0000,0000*56
$GPRMC,143327.500,A,4308.3120,N,07726.2640,W,0.00,4.54,190719,,,D*75
$GPGGA,143327.750,4308.3120,N,07726.2640,W,2,08,2.57,152.7,M,-34.4,M,0000,0000*53
$GPRMC,143328.000,A,4308.3120,N,07726.2640,W,0.00,73.52,190719,,,D*49
$GPGGA,143328.250,4308.3120,N,07726.2640,W,2,08,2.57,152.7,M,-34.4,M,0000,0000*59
$GPRMC,143328.500,A,4308.3120,N,07726.2640,W,0.00,22.01,190719,,,D*4E
$GPGGA,143328.750,4308.3120,N,07726.2640,W,2,08,2.57,152.7,M,-34.4,M,0000,0000*5C
$GPRMC,143329.000,A,4308.3120,N,07726.2640,W,0.00,0.00,190719,,,D*7B
$GPGGA,143329.250,4308.3120,N,07726.2640,W,2,08,2.57,152.7,M,-34.4,M,0000,0000*58
$GPRMC,143329.500,A,4308.3120,N,07726.2640,W,0.00,30.10,190719,,,D*4C
$GPGGA,143329.750,4308.3120,N,07726.2640,W,2,08,2.57,152.7,M,-34.4,M,0000,0000*5D
$GPRMC,143330.000,A,4308.3120,N,07726.2640,W,0.00,190.63,190719,,,D*7E
$GPGGA,143330.250,4308.3120,N,07726.2640,W,2,08,2.57,152.7,M,-34.4,M,0000,0000*50
$GPRMC,143330.500,A,4308.3120,N,07726.2640,W,0.00,243.76,190719,,,D*72
$GPGGA,143330.750,4308.3120,N,07726.2640,W,2,08,2.57,152.7,M,-34.4,M,0000,0000*55
$GPRMC,143331.000,A,4308.3119,N,07726.2640,W,0.00,128.05,190719,,,D*76
$GPGGA,143331.250,4308.3119,N,07726.2640,W,2,08,2.57,152.7,M,-34.4,M,0000,0000*5B
$GPRMC,143331.500,A,4308.3119,N,07726.2640,W,0.00,167.62,190719,,,D*79
$GPGGA,143331.750,4308.3119,N,07726.2640,W,2,08,2.57,152.7,M,-34.4,M,0000,0000*5E
$GPRMC,143332.000,A,4308.3119,N,07726.2640,W,0.00,252.94,190719,,,D*73
$GPGGA,143332.250,4308.3119,N,07726.2640,W,2,08,2.57,152.7,M,-34.4,M,0000,0000*58
$GPRMC,143332.500,A,4308.3119,N,07726.2640,W,0.00,273.41,190719,,,D*7D
$GPGGA,143332.750,4308.3119,N,07726.2640,W,2,08,2.57,152.7,M,-34.4,M,0000,0000*5D
$GPRMC,143333.000,A,4308.3119,N,07726.2640,W,0.00,230.36,190719,,,D*7E
$GPGGA,143333.250,4308.3119,N,07726.2640,W,2,08,2.57,152.7,M,-34.4,M,0000,0000*59
$GPRMC,143333.500,A,4308.3119,N,07726.2640,W,0.00,216.82,190719,,,D*70
$GPGGA,143333.750,4308.3119,N,07726.2640,W,2,08,2.57,152.7,M,-34.4,M,0000,0000*5C
$GPRMC,143334.000,A,4308.3119,N,07726.2640,W,0.00,244.72,190719,,,D*7A
$GPGGA,143334.250,4308.3119,N,07726.2640,W,2,08,2.58,152.7,M,-34.4,M,0000,0000*51
$GPRMC,143334.500,A,4308.3119,N,07726.2640,W,0.00,0.00,190719,,,D*78
$GPGGA,143334.750,4308.3119,N,07726.2640,W,2,08,2.58,152.7,M,-34.4,M,0000,0000*54
$GPRMC,143335.000,A,4308.3119,N,07726.2640,W,0.00,237.35,190719,,,D*7C
$GPGGA,143335.250,4308.3119,N,07726.2640,W,2,08,2.58,152.7,M,-34.4,M,0000,0000*50
$GPRMC,143335.500,A,4308.3119,N,07726.2640,W,0.00,268.76,190719,,,D*74
$GPGGA,143335.750,4308.3119,N,07726.2640,W,2,08,2.58,152.7,M,-34.4,M,0000,0000*55
$GPRMC,143336.000,A,4308.3119,N,07726.2640,W,0.00,205.52,190719,,,D*7F
$GPGGA,143336.250,4308.3119,N,07726.2640,W,2,08,2.58,152.7,M,-34.4,M,0000,0000*53
$GPRMC,143336.500,A,4308.3119,N,07726.2640,W,0.00,115.44,190719,,,D*7F
$GPGGA,143336.750,4308.3119,N,07726.2640,W,2,08,2.58,152.7,M,-34.4,M,0000,0000*56
$GPRMC,143337.000,A,4308.3119,N,07726.2640,W,0.02,56.86,190719,,,D*41
$GPGGA,143337.250,4308.3119,N,07726.2641,W,2,08,2.58,152.7,M,-34.4,M,0000,0000*53
$GPRMC,143337.500,A,4308.3120,N,07726.2641,W,0.01,21.68,190719,,,D*4C
$GPGGA,143337.750,4308.3120,N,07726.2641,W,2,08,2.58,152.7,M,-34.4,M,0000,0000*5C
$GPRMC,143338.000,A,4308.3120,N,07726.2641,W,0.00,18.88,190719,,,D*43
$GPGGA,143338.250,4308.3120,N,07726.2641,W,2,08,2.58,152.7,M,-34.4,M,0000,0000*56
$GPRMC,143338.500,A,4308.3120,N,07726.2641,W,0.01,78.81,190719,,,D*48
$GPGGA,143338.750,4308.3120,N,07726.2641,W,2,08,2.58,152.7,M,-34.4,M,0000,0000*53
$GPRMC,143339.000,A,4308.3120,N,07726.2641,W,0.01,59.37,190719,,,D*42
$GPGGA,143339.250,4308.3120,N,07726.2641,W,2,08,2.58,152.7,M,-34.4,M,0000,0000*57
$GPRMC,143339.500,A,4308.3120,N,07726.2641,W,0.00,165.42,190719,,,D*7A
$GPGGA,143339.750,4308.3120,N,07726.2641,W,2,08,2.58,152.7,M,-34.4,M,0000,0000*52
$GPRMC,143340.000,A,4308.3120,N,07726.2641,W,0.01,77.87,190719,,,D*4B
$GPGGA,143340.250,4308.3120,N,07726.2641,W,2,08,2.58,152.7,M,-34.4,M,0000,0000*59
$GPRMC,143340.500,A,4308.3120,N,07726.2641,W,0.00,125.49,190719,,,D*7B
$GPGGA,143340.750,4308.3120,N,07726.2641,W,2,08,2.58,152.7,M,-34.4,M,0000,0000*5C
$GPRMC,143341.000,A,4308.3120,N,07726.2641,W,0.01,186.68,190719,,,D*74
$GPGGA,143341.250,4308.3120,N,07726.2641,W,2,08,2.58,152.7,M,-34.4,M,0000,0000*58
$GPRMC,143341.500,A,4308.3120,N,07726.2641,W,0.01,189.26,190719,,,D*74
$GPGGA,143341.750,4308.3119,N,07726.2641,W,2,08,2.58,152.7,M,-34.4,M,0000,0000*57
$GPRMC,143342.000,A,4308.3119,N,07726.2642,W,0.01,43.20,190719,,,D*4A
$GPGGA,143342.250,4308.3119,N,07726.2642,W,2,08,2.58,152.8,M,-34.4,M,0000,0000*5D
$GPRMC,143342.500,A,4308.3119,N,07726.2642,W,0.00,42.28,190719,,,D*47
$GPGGA,143342.750,4308.3119,N,07726.2643,W,2,08,2.58,152.8,M,-34.4,M,0000,0000*59
$GPRMC,143343.000,A,4308.3119,N,07726.2643,W,0.01,56.98,190719,,,D*4D
$GPGGA,143343.250,4308.3118,N,07726.2643,W,2,08,2.59,152.8,M,-34.4,M,0000,0000*5D
$GPRMC,143343.500,A,4308.3118,N,07726.2643,W,0.01,148.91,190719,,,D*7E
$GPGGA,143343.750,4308.3118,N,07726.2644,W,2,08,2.59,152.8,M,-34.4,M,0000,0000*5F
$GPRMC,143344.000,A,4308.3118,N,07726.2644,W,0.00,315.80,190719,,,D*70
$GPGGA,143344.250,4308.3118,N,07726.2644,W,2,08,2.59,152.8,M,-34.4,M,0000,0000*5D
$GPRMC,143344.500,A,4308.3118,N,07726.2645,W,0.01,166.23,190719,,,D*7A
$GPGGA,143344.750,4308.3118,N,07726.2645,W,2,08,2.59,152.9,M,-34.4,M,0000,0000*58
$GPRMC,143345.000,A,4308.3117,N,07726.2645,W,0.00,244.12,190719,,,D*71
$GPGGA,143345.250,4308.3117,N,07726.2645,W,2,08,2.59,152.9,M,-34.4,M,0000,0000*53
$GPRMC,143345.500,A,4308.3117,N,07726.2646,W,0.01,62.54,190719,,,D*42
$GPGGA,143345.750,4308.3117,N,07726.2646,W,2,08,2.59,152.9,M,-34.4,M,0000,0000*55
$GPRMC,143346.000,A,4308.3117,N,07726.2646,W,0.00,0.00,190719,,,D*70
$GPGGA,143346.250,4308.3117,N,07726.2646,W,2,08,2.59,152.9,M,-34.4,M,0000,0000*53
$GPRMC,143346.500,A,4308.3116,N,07726.2647,W,0.01,167.07,190719,,,D*73
$GPGGA,143346.750,4308.3116,N,07726.2647,W,2,08,2.59,153.0,M,-34.4,M,0000,0000*5E
$GPRMC,143347.000,A,4308.3116,N,07726.2647,W,0.01,215.58,190719,,,D*7B
$GPGGA,143347.250,4308.3116,N,07726.2647,W,2,08,2.59,153.0,M,-34.4,M,0000,0000*5A
$GPRMC,143347.500,A,4308.3116,N,07726.2647,W,0.00,86.13,190719,,,D*48
$GPGGA,143347.750,4308.3116,N,07726.2648,W,2,08,2.59,153.1,M,-34.4,M,0000,0000*51
$GPRMC,143348.000,A,4308.3116,N,07726.2648,W,0.00,158.47,190719,,,D*7E
$GPGGA,143348.250,4308.3116,N,07726.2648,W,2,08,2.59,153.1,M,-34.4,M,0000,0000*5B
$GPRMC,143348.500,A,4308.3116,N,07726.2648,W,0.01,317.88,190719,,,D*70
$GPGGA,143348.750,4308.3116,N,07726.2649,W,2,08,2.59,153.2,M,-34.4,M,0000,0000*5C
$GPRMC,143349.000,A,4308.3116,N,07726.2649,W,0.01,139.45,190719,,,D*7A
$GPGGA,143349.250,4308.3116,N,07726.2649,W,2,08,2.59,153.2,M,-34.4,M,0000,0000*58
$GPRMC,143349.500,A,4308.3116,N,07726.2649,W,0.01,289.26,190719,,,D*72
$GPGGA,143349.750,4308.3116,N,07726.2650,W,2,08,2.59,153.3,M,-34.4,M,0000,0000*54
$GPRMC,143350.000,A,4308.3116,N,07726.2650,W,0.01,321.11,190719,,,D*70
$GPGGA,143350.250,4308.3116,N,07726.2650,W,2,08,2.59,153.3,M,-34.4,M,0000,0000*59
$GPRMC,143350.500,A,4308.3116,N,07726.2650,W,0.01,292.02,190719,,,D*7E
$GPGGA,143350.750,4308.3116,N,07726.2651,W,2,08,2.59,153.3,M,-34.4,M,0000,0000*5D
$GPRMC,143351.000,A,4308.3116,N,07726.2651,W,0.01,18.50,190719,,,D*4C
$GPGGA,143351.250,4308.3116,N,07726.2651,W,2,08,2.59,153.3,M,-34.4,M,0000,0000*59
$GPRMC,143351.500,A,4308.3116,N,07726.2651,W,0.01,12.32,190719,,,D*47
$GPGGA,143351.750,4308.3116,N,07726.2652,W,2,08,2.59,153.4,M,-34.4,M,0000,0000*58
$GPRMC,143352.000,A,4308.3116,N,07726.2652,W,0.01,275.62,190719,,,D*74
$GPGGA,143352.250,4308.3116,N,07726.2652,W,2,08,2.60,153.4,M,-34.4,M,0000,0000*54
$GPRMC,143352.500,A,4308.3117,N,07726.2652,W,0.00,167.34,190719,,,D*72
$GPGGA,143352.750,4308.3117,N,07726.2653,W,2,08,2.60,153.4,M,-34.4,M,0000,0000*51
$GPRMC,143353.000,A,4308.3117,N,07726.2653,W,0.01,241.33,190719,,,D*76
$GPGGA,143353.250,4308.3117,N,07726.2653,W,2,08,2.60,153.4,M,-34.4,M,0000,0000*55
