Vers 81
USE_SERIAL_FEEDBACK=true
DEVELOPMENT_MODE=false
USE_RMC_ONLY=false

$GPRMC,132603.000,A,4308.3016,N,07726.2632,W,0.02,114.98,160919,,,A*72
$GPGGA,132603.250,4308.3016,N,07726.2632,W,1,10,0.88,153.8,M,-34.4,M,,*56
$GPRMC,132603.500,A,4308.3016,N,07726.2632,W,0.01,103.17,160919,,,A*75
$GPGGA,132603.750,4308.3016,N,07726.2632,W,1,10,0.88,153.6,M,-34.4,M,,*5D
$GPRMC,132604.000,A,4308.3016,N,07726.2633,W,0.01,24.35,160919,,,A*42
$GPGGA,132604.250,4308.3016,N,07726.2633,W,1,10,0.88,153.3,M,-34.4,M,,*5B
$GPRMC,132604.500,A,4308.3017,N,07726.2633,W,0.02,327.94,160919,,,A*7E
$GPGGA,132604.750,4308.3017,N,07726.2633,W,1,10,0.88,153.0,M,-34.4,M,,*5C
$GPRMC,132605.000,A,4308.3017,N,07726.2633,W,0.03,306.56,160919,,,A*76
$GPGGA,132605.250,4308.3017,N,07726.2633,W,1,10,0.88,152.8,M,-34.4,M,,*51
$GPRMC,132605.500,A,4308.3017,N,07726.2633,W,0.03,312.32,160919,,,A*74
$GPGGA,132605.750,4308.3017,N,07726.2633,W,1,10,0.88,152.8,M,-34.4,M,,*54
$GPRMC,132606.000,A,4308.3017,N,07726.2633,W,0.02,320.48,160919,,,A*7F
$GPGGA,132606.250,4308.3017,N,07726.2633,W,1,10,0.88,152.7,M,-34.4,M,,*5D
$GPRMC,132606.500,A,4308.3017,N,07726.2633,W,0.02,320.99,160919,,,A*76
$GPGGA,132606.750,4308.3017,N,07726.2633,W,1,10,0.88,152.6,M,-34.4,M,,*59
$GPRMC,132607.000,A,4308.3017,N,07726.2633,W,0.03,314.96,160919,,,A*7B
$GPGGA,132607.250,4308.3017,N,07726.2633,W,1,10,0.88,152.6,M,-34.4,M,,*5D
$GPRMC,132607.500,A,4308.3017,N,07726.2633,W,0.08,306.66,160919,,,A*79
$GPGGA,132607.750,4308.3017,N,07726.2633,W,1,10,0.88,152.5,M,-34.4,M,,*5B
$GPRMC,132608.000,A,4308.3017,N,07726.2633,W,0.08,345.69,160919,,,A*7B
$GPGGA,132608.250,4308.3017,N,07726.2633,W,1,10,0.88,152.5,M,-34.4,M,,*51
$GPRMC,132608.500,A,4308.3017,N,07726.2633,W,0.08,338.97,160919,,,A*75
$GPGGA,132608.750,4308.3017,N,07726.2633,W,1,10,0.88,152.4,M,-34.4,M,,*55
$GPRMC,132609.000,A,4308.3017,N,07726.2633,W,0.05,355.81,160919,,,A*70
$GPGGA,132609.250,4308.3017,N,07726.2633,W,1,10,0.88,152.4,M,-34.4,M,,*51
$GPRMC,132609.500,A,4308.3017,N,07726.2633,W,0.03,346.31,160919,,,A*7A
$GPGGA,132609.750,4308.3017,N,07726.2633,W,1,10,0.88,152.3,M,-34.4,M,,*53
$GPRMC,132610.000,A,4308.3017,N,07726.2633,W,0.02,7.70,160919,,,A*75
$GPGGA,132610.250,4308.3017,N,07726.2633,W,1,10,0.88,152.3,M,-34.4,M,,*5E
$GPRMC,132610.500,A,4308.3017,N,07726.2633,W,0.02,0.79,160919,,,A*7E
$GPGGA,132610.750,4308.3017,N,07726.2633,W,1,10,0.88,152.3,M,-34.4,M,,*5B
$GPRMC,132611.000,A,4308.3017,N,07726.2633,W,0.02,25.18,160919,,,A*4A
$GPGGA,132611.250,4308.3017,N,07726.2633,W,1,10,0.88,152.3,M,-34.4,M,,*5F
$GPRMC,132611.500,A,4308.3017,N,07726.2633,W,0.01,86.40,160919,,,A*48
$GPGGA,132611.750,4308.3017,N,07726.2633,W,1,10,0.88,152.3,M,-34.4,M,,*5A
$GPRMC,132612.000,A,4308.3017,N,07726.2633,W,0.02,22.02,160919,,,A*45
$GPGGA,132612.250,4308.3017,N,07726.2633,W,1,10,0.88,152.2,M,-34.4,M,,*5D
$GPRMC,132612.500,A,4308.3017,N,07726.2633,W,0.01,4.80,160919,,,A*7D
$GPGGA,132612.750,4308.3017,N,07726.2633,W,1,10,0.88,152.2,M,-34.4,M,,*58
$GPRMC,132613.000,A,4308.3017,N,07726.2633,W,0.01,47.45,160919,,,A*47
$GPGGA,132613.250,4308.3017,N,07726.2633,W,1,10,0.88,152.2,M,-34.4,M,,*5C
$GPRMC,132613.500,A,4308.3017,N,07726.2632,W,0.01,347.32,160919,,,A*70
$GPGGA,132613.750,4308.3017,N,07726.2632,W,1,10,0.88,152.1,M,-34.4,M,,*5B
$GPRMC,132614.000,A,4308.3017,N,07726.2632,W,0.01,12.08,160919,,,A*48
$GPGGA,132614.250,4308.3017,N,07726.2631,W,1,09,0.95,152.0,M,-34.4,M,,*5F
$GPRMC,132614.500,A,4308.3017,N,07726.2631,W,0.01,43.44,160919,,,A*42
$GPGGA,132614.750,4308.3017,N,07726.2631,W,1,09,0.95,151.9,M,-34.4,M,,*50
$GPRMC,132615.000,A,4308.3017,N,07726.2631,W,0.01,49.88,160919,,,A*4C
$GPGGA,132615.250,4308.3017,N,07726.2631,W,1,09,0.95,151.9,M,-34.4,M,,*54
$GPRMC,132615.500,A,4308.3017,N,07726.2631,W,0.01,72.93,160919,,,A*4B
$GPGGA,132615.750,4308.3017,N,07726.2630,W,1,10,0.88,151.8,M,-34.4,M,,*55
$GPRMC,132616.000,A,4308.3016,N,07726.2631,W,0.01,5.61,160919,,,A*71
$GPGGA,132616.250,4308.3016,N,07726.2630,W,1,10,0.88,151.8,M,-34.4,M,,*52
$GPRMC,132616.500,A,4308.3017,N,07726.2630,W,0.02,20.89,160919,,,A*46
$GPGGA,132616.750,4308.3017,N,07726.2630,W,1,10,0.88,151.7,M,-34.4,M,,*59
$GPRMC,132617.000,A,4308.3016,N,07726.2630,W,0.03,223.82,160919,,,A*78
$GPGGA,132617.250,4308.3016,N,07726.2630,W,1,10,0.88,151.7,M,-34.4,M,,*5C
$GPRMC,132617.500,A,4308.3016,N,07726.2630,W,0.00,8.49,160919,,,A*72
$GPGGA,132617.750,4308.3016,N,07726.2630,W,1,09,0.95,151.6,M,-34.4,M,,*5C
$GPRMC,132618.000,A,4308.3016,N,07726.2630,W,0.00,0.00,160919,,,A*7D
$GPGGA,132618.250,4308.3016,N,07726.2630,W,1,09,0.95,151.6,M,-34.4,M,,*56
$GPRMC,132618.500,A,4308.3016,N,07726.2630,W,0.01,212.45,160919,,,A*79
$GPGGA,132618.750,4308.3016,N,07726.2629,W,1,09,0.95,151.6,M,-34.4,M,,*5B
$GPRMC,132619.000,A,4308.3016,N,07726.2629,W,0.00,15.04,160919,,,A*44
$GPGGA,132619.250,4308.3017,N,07726.2629,W,1,09,0.95,151.5,M,-34.4,M,,*5D
$GPRMC,132619.500,A,4308.3017,N,07726.2629,W,0.01,303.17,160919,,,A*77
$GPGGA,132619.750,4308.3017,N,07726.2629,W,1,09,0.95,151.5,M,-34.4,M,,*58
$GPRMC,132620.000,A,4308.3017,N,07726.2629,W,0.01,98.48,160919,,,A*43
$GPGGA,132620.250,4308.3017,N,07726.2629,W,1,09,0.95,151.6,M,-34.4,M,,*54
$GPRMC,132620.500,A,4308.3017,N,07726.2629,W,0.00,36.24,160919,,,A*49
$GPGGA,132620.750,4308.3017,N,07726.2629,W,1,09,0.95,151.5,M,-34.4,M,,*52
$GPRMC,132621.000,A,4308.3017,N,07726.2629,W,0.01,359.37,160919,,,A*74
$GPGGA,132621.250,4308.3017,N,07726.2629,W,1,09,0.95,151.5,M,-34.4,M,,*56
$GPRMC,132621.500,A,4308.3017,N,07726.2629,W,0.01,215.01,160919,,,A*7D
$GPGGA,132621.750,4308.3017,N,07726.2629,W,1,09,0.95,151.5,M,-34.4,M,,*53
$GPRMC,132622.000,A,4308.3017,N,07726.2629,W,0.01,192.32,160919,,,A*77
$GPGGA,132622.250,4308.3017,N,07726.2629,W,1,09,0.95,151.5,M,-34.4,M,,*55
$GPRMC,132622.500,A,4308.3017,N,07726.2629,W,0.01,75.24,160919,,,A*4D
$GPGGA,132622.750,4308.3017,N,07726.2629,W,1,09,0.95,151.5,M,-34.4,M,,*50
$GPRMC,132623.000,A,4308.3017,N,07726.2629,W,0.01,263.69,160919,,,A*75
$GPGGA,132623.250,4308.3017,N,07726.2629,W,1,09,0.95,151.5,M,-34.4,M,,*54
$GPRMC,132623.500,A,4308.3017,N,07726.2629,W,0.00,0.00,160919,,,A*79
$GPGGA,132623.750,4308.3017,N,07726.2629,W,1,09,0.95,151.6,M,-34.4,M,,*52
$GPRMC,132624.000,A,4308.3017,N,07726.2629,W,0.00,0.00,160919,,,A*7B
$GPGGA,132624.250,4308.3017,N,07726.2629,W,1,09,0.95,151.6,M,-34.4,M,,*50
$GPRMC,132624.500,A,4308.3017,N,07726.2629,W,0.00,0.00,160919,,,A*7E
$GPGGA,132624.750,4308.3017,N,07726.2629,W,1,09,0.95,151.6,M,-34.4,M,,*55
$GPRMC,132625.000,A,4308.3017,N,07726.2629,W,0.00,0.00,160919,,,A*7A
$GPGGA,132625.250,4308.3017,N,07726.2629,W,1,09,0.95,151.6,M,-34.4,M,,*51
$GPRMC,132625.500,A,4308.3017,N,07726.2629,W,0.00,324.20,160919,,,A*78
$GPGGA,132625.750,4308.3017,N,07726.2629,W,1,09,0.95,151.6,M,-34.4,M,,*54
$GPRMC,132626.000,A,4308.3017,N,07726.2629,W,0.00,234.19,160919,,,A*74
$GPGGA,132626.250,4308.3017,N,07726.2629,W,1,09,0.95,151.6,M,-34.4,M,,*52
$GPRMC,132626.500,A,4308.3017,N,07726.2629,W,0.00,0.00,160919,,,A*7C
$GPGGA,132626.750,4308.3017,N,07726.2629,W,1,09,0.95,151.6,M,-34.4,M,,*57
$GPRMC,132627.000,A,4308.3017,N,07726.2629,W,0.00,19.24,160919,,,A*46
$GPGGA,132627.250,4308.3017,N,07726.2629,W,1,09,0.95,151.6,M,-34.4,M,,*53
$GPRMC,132627.500,A,4308.3017,N,07726.2629,W,0.00,0.00,160919,,,A*7D
$GPGGA,132627.750,4308.3017,N,07726.2629,W,1,09,0.95,151.6,M,-34.4,M,,*56
$GPRMC,132628.000,A,4308.3017,N,07726.2629,W,0.00,0.00,160919,,,A*77
$GPGGA,132628.250,4308.3017,N,07726.2629,W,1,09,0.95,151.6,M,-34.4,M,,*5C
$GPRMC,132628.500,A,4308.3017,N,07726.2629,W,0.00,0.00,160919,,,A*72
$GPGGA,132628.750,4308.3017,N,07726.2629,W,1,09,0.95,151.6,M,-34.4,M,,*59
$GPRMC,132629.000,A,4308.3017,N,07726.2629,W,0.00,21.26,160919,,,A*41
$GPGGA,132629.250,4308.3017,N,07726.2629,W,1,09,0.95,151.6,M,-34.4,M,,*5D
$GPRMC,132629.500,A,4308.3017,N,07726.2629,W,0.00,303.53,160919,,,A*75
$GPGGA,132629.750,4308.3017,N,07726.2629,W,1,09,0.95,151.6,M,-34.4,M,,*58
$GPRMC,132630.000,A,4308.3017,N,07726.2629,W,0.02,218.76,160919,,,A*76
$GPGGA,132630.250,4308.3017,N,07726.2629,W,1,09,0.95,151.6,M,-34.4,M,,*55
$GPRMC,132630.500,A,4308.3017,N,07726.2629,W,0.00,282.91,160919,,,A*7B
$GPGGA,132630.750,4308.3017,N,07726.2629,W,1,09,0.95,151.6,M,-34.4,M,,*50
$GPRMC,132631.000,A,4308.3017,N,07726.2629,W,0.01,311.27,160919,,,A*78
$GPGGA,132631.250,4308.3017,N,07726.2629,W,1,09,0.95,151.6,M,-34.4,M,,*54
$GPRMC,132631.500,A,4308.3017,N,07726.2629,W,0.00,276.54,160919,,,A*78
$GPGGA,132631.750,4308.3017,N,07726.2629,W,1,09,0.95,151.6,M,-34.4,M,,*51
$GPRMC,132632.000,A,4308.3017,N,07726.2629,W,0.00,317.53,160919,,,A*7F
$GPGGA,132632.250,4308.3017,N,07726.2629,W,1,09,0.95,151.6,M,-34.4,M,,*57
$GPRMC,132632.500,A,4308.3017,N,07726.2629,W,0.01,128.84,160919,,,A*7F
$GPGGA,132632.750,4308.3017,N,07726.2629,W,1,09,0.95,151.6,M,-34.4,M,,*52
$GPRMC,132633.000,A,4308.3017,N,07726.2629,W,0.00,250.30,160919,,,A*79
$GPGGA,132633.250,4308.3017,N,07726.2629,W,1,09,0.95,151.6,M,-34.4,M,,*56
$GPRMC,132633.500,A,4308.3017,N,07726.2629,W,0.00,0.00,160919,,,A*78
$GPGGA,132633.750,4308.3017,N,07726.2629,W,1,09,0.95,151.6,M,-34.4,M,,*53
$GPRMC,132634.000,A,4308.3017,N,07726.2629,W,0.01,313.21,160919,,,A*79
$GPGGA,132634.250,4308.3017,N,07726.2629,W,1,09,0.95,151.6,M,-34.4,M,,*51
$GPRMC,132634.500,A,4308.3017,N,07726.2629,W,0.01,348.74,160919,,,A*72
$GPGGA,132634.750,4308.3017,N,07726.2629,W,1,09,0.95,151.6,M,-34.4,M,,*54
$GPRMC,132635.000,A,4308.3017,N,07726.2629,W,0.01,30.09,160919,,,A*40
$GPGGA,132635.250,4308.3017,N,07726.2629,W,1,09,0.95,151.6,M,-34.4,M,,*50
$GPRMC,132635.500,A,4308.3017,N,07726.2629,W,0.01,116.35,160919,,,A*7F
$GPGGA,132635.750,4308.3017,N,07726.2629,W,1,09,0.95,151.6,M,-34.4,M,,*55
$GPRMC,132636.000,A,4308.3017,N,07726.2629,W,0.01,1.33,160919,,,A*78
$GPGGA,132636.250,4308.3017,N,07726.2629,W,1,09,0.95,151.6,M,-34.4,M,,*53
$GPRMC,132636.500,A,4308.3017,N,07726.2629,W,0.00,307.32,160919,,,A*78
$GPGGA,132636.750,4308.3017,N,07726.2629,W,1,09,0.95,151.6,M,-34.4,M,,*56
$GPRMC,132637.000,A,4308.3017,N,07726.2629,W,0.01,73.27,160919,,,A*49
$GPGGA,132637.250,4308.3017,N,07726.2629,W,1,09,0.95,151.6,M,-34.4,M,,*52
$GPRMC,132637.500,A,4308.3017,N,07726.2629,W,0.01,6.33,160919,,,A*7B
$GPGGA,132637.750,4308.3017,N,07726.2629,W,1,09,0.95,151.6,M,-34.4,M,,*57
$GPRMC,132638.000,A,4308.3017,N,07726.2629,W,0.01,201.92,160919,,,A*7F
$GPGGA,132638.250,4308.3017,N,07726.2629,W,1,09,0.95,151.6,M,-34.4,M,,*5D
$GPRMC,132638.500,A,4308.3017,N,07726.2629,W,0.01,5.71,160919,,,A*71
$GPGGA,132638.750,4308.3017,N,07726.2629,W,1,09,0.95,151.6,M,-34.4,M,,*58
$GPRMC,132639.000,A,4308.3017,N,07726.2629,W,0.00,289.93,160919,,,A*7E
$GPGGA,132639.250,4308.3017,N,07726.2629,W,1,09,0.95,151.6,M,-34.4,M,,*5C
$GPRMC,132639.500,A,4308.3017,N,07726.2629,W,0.01,334.15,160919,,,A*73
$GPGGA,132639.750,4308.3017,N,07726.2629,W,1,09,0.95,151.6,M,-34.4,M,,*59
$GPRMC,132640.000,A,4308.3017,N,07726.2629,W,0.01,117.73,160919,,,A*7B
$GPGGA,132640.250,4308.3017,N,07726.2629,W,1,09,0.95,151.6,M,-34.4,M,,*52
$GPRMC,132640.500,A,4308.3017,N,07726.2629,W,0.00,323.27,160919,,,A*7B
$GPGGA,132640.750,4308.3017,N,07726.2629,W,1,09,0.95,151.6,M,-34.4,M,,*57
$GPRMC,132641.000,A,4308.3017,N,07726.2629,W,0.00,0.00,160919,,,A*78
$GPGGA,132641.250,4308.3017,N,07726.2629,W,1,09,0.95,151.6,M,-34.4,M,,*53
$GPRMC,132641.500,A,4308.3017,N,07726.2629,W,0.01,309.98,160919,,,A*77
$GPGGA,132641.750,4308.3017,N,07726.2629,W,1,09,0.95,151.6,M,-34.4,M,,*56
$GPRMC,132642.000,A,4308.3017,N,07726.2629,W,0.00,188.24,160919,,,A*7C
$GPGGA,132642.250,4308.3017,N,07726.2629,W,1,09,0.95,151.6,M,-34.4,M,,*50
$GPRMC,132642.500,A,4308.3017,N,07726.2629,W,0.01,26.25,160919,,,A*4C
$GPGGA,132642.750,4308.3017,N,07726.2629,W,1,08,1.05,151.6,M,-34.4,M,,*5C
$GPRMC,132643.000,A,4308.3017,N,07726.2629,W,0.01,188.30,160919,,,A*79
$GPGGA,132643.250,4308.3017,N,07726.2629,W,1,08,1.05,151.6,M,-34.4,M,,*58
$GPRMC,132643.500,A,4308.3017,N,07726.2629,W,0.01,164.30,160919,,,A*7E
$GPGGA,132643.750,4308.3017,N,07726.2629,W,1,08,1.05,151.6,M,-34.4,M,,*5D
$GPRMC,132644.000,A,4308.3017,N,07726.2629,W,0.02,151.14,160919,,,A*7F
$GPGGA,132644.250,4308.3017,N,07726.2629,W,1,08,1.05,151.6,M,-34.4,M,,*5F
$GPRMC,132644.500,A,4308.3017,N,07726.2629,W,0.00,64.89,160919,,,A*4B
$GPGGA,132644.750,4308.3017,N,07726.2629,W,1,08,1.05,151.6,M,-34.4,M,,*5A
$GPRMC,132645.000,A,4308.3017,N,07726.2629,W,0.01,302.33,160919,,,A*7C
$GPGGA,132645.250,4308.3017,N,07726.2629,W,1,09,0.95,151.6,M,-34.4,M,,*57
$GPRMC,132645.500,A,4308.3017,N,07726.2629,W,0.00,55.89,160919,,,A*48
$GPGGA,132645.750,4308.3017,N,07726.2629,W,1,09,0.95,151.6,M,-34.4,M,,*52
$GPRMC,132646.000,A,4308.3017,N,07726.2629,W,0.00,125.36,160919,,,A*7C
$GPGGA,132646.250,4308.3017,N,07726.2629,W,1,09,0.95,151.6,M,-34.4,M,,*54
$GPRMC,132646.500,A,4308.3017,N,07726.2629,W,0.01,181.26,160919,,,A*77
$GPGGA,132646.750,4308.3017,N,07726.2629,W,1,09,0.95,151.6,M,-34.4,M,,*51
$GPRMC,132647.000,A,4308.3017,N,07726.2629,W,0.01,157.44,160919,,,A*7C
$GPGGA,132647.250,4308.3017,N,07726.2629,W,1,09,0.95,151.6,M,-34.4,M,,*55
$GPRMC,132647.500,A,4308.3017,N,07726.2629,W,0.00,134.31,160919,,,A*7F
$GPGGA,132647.750,4308.3017,N,07726.2629,W,1,08,1.05,151.6,M,-34.4,M,,*59
$GPRMC,132648.000,A,4308.3017,N,07726.2629,W,0.01,200.96,160919,,,A*7D
$GPGGA,132648.250,4308.3017,N,07726.2629,W,1,08,1.05,151.6,M,-34.4,M,,*53
$GPRMC,132648.500,A,4308.3017,N,07726.2629,W,0.00,161.85,160919,,,A*7F
$GPGGA,132648.750,4308.3017,N,07726.2629,W,1,08,1.05,151.6,M,-34.4,M,,*56
$GPRMC,132649.000,A,4308.3017,N,07726.2629,W,0.01,181.09,160919,,,A*70
$GPGGA,132649.250,4308.3017,N,07726.2629,W,1,08,1.05,151.6,M,-34.4,M,,*52
$GPRMC,132649.500,A,4308.3017,N,07726.2629,W,0.02,212.37,160919,,,A*72
$GPGGA,132649.750,4308.3017,N,07726.2629,W,1,08,1.05,151.6,M,-34.4,M,,*57
$GPRMC,132650.000,A,4308.3017,N,07726.2629,W,0.00,72.72,160919,,,A*48
$GPGGA,132650.250,4308.3017,N,07726.2629,W,1,08,1.05,151.6,M,-34.4,M,,*5A
$GPRMC,132650.500,A,4308.3017,N,07726.2629,W,0.01,352.09,160919,,,A*71
$GPGGA,132650.750,4308.3017,N,07726.2629,W,1,08,1.05,151.6,M,-34.4,M,,*5F
$GPRMC,132651.000,A,4308.3017,N,07726.2629,W,0.01,333.40,160919,,,A*7F
$GPGGA,132651.250,4308.3017,N,07726.2629,W,1,08,1.05,151.6,M,-34.4,M,,*5B
$GPRMC,132651.500,A,4308.3017,N,07726.2629,W,0.01,352.76,160919,,,A*78
$GPGGA,132651.750,4308.3017,N,07726.2629,W,1,08,1.05,151.6,M,-34.4,M,,*5E
$GPRMC,132652.000,A,4308.3017,N,07726.2629,W,0.00,51.51,160919,,,A*4A
$GPGGA,132652.250,4308.3017,N,07726.2629,W,1,08,1.05,151.6,M,-34.4,M,,*58
$GPRMC,132652.500,A,4308.3017,N,07726.2629,W,0.01,240.42,160919,,,A*7E
$GPGGA,132652.750,4308.3017,N,07726.2629,W,1,09,0.95,151.6,M,-34.4,M,,*54
$GPRMC,132653.000,A,4308.3017,N,07726.2629,W,0.01,266.19,160919,,,A*70
$GPGGA,132653.250,4308.3017,N,07726.2629,W,1,09,0.95,151.6,M,-34.4,M,,*50
$GPRMC,132653.500,A,4308.3017,N,07726.2629,W,0.00,195.39,160919,,,A*79
$GPGGA,132653.750,4308.3017,N,07726.2629,W,1,09,0.95,151.6,M,-34.4,M,,*55
$GPRMC,132654.000,A,4308.3017,N,07726.2629,W,0.01,140.85,160919,,,A*75
$GPGGA,132654.250,4308.3017,N,07726.2629,W,1,09,0.95,151.6,M,-34.4,M,,*57
$GPRMC,132654.500,A,4308.3017,N,07726.2629,W,0.01,71.19,160919,,,A*46
$GPGGA,132654.750,4308.3017,N,07726.2629,W,1,09,0.95,151.6,M,-34.4,M,,*52
$GPRMC,132655.000,A,4308.3018,N,07726.2629,W,0.02,235.25,160919,,,A*73
$GPGGA,132655.250,4308.3018,N,07726.2629,W,1,09,0.95,151.6,M,-34.4,M,,*59
$GPRMC,132655.500,A,4308.3018,N,07726.2629,W,0.01,60.24,160919,,,A*46
$GPGGA,132655.750,4308.3018,N,07726.2629,W,1,09,0.95,151.6,M,-34.4,M,,*5C
$GPRMC,132656.000,A,4308.3018,N,07726.2629,W,0.01,7.72,160919,,,A*72
$GPGGA,132656.250,4308.3018,N,07726.2629,W,1,09,0.95,151.6,M,-34.4,M,,*5A
$GPRMC,132656.500,A,4308.3018,N,07726.2629,W,0.00,0.00,160919,,,A*74
$GPGGA,132656.750,4308.3018,N,07726.2629,W,1,09,0.95,151.6,M,-34.4,M,,*5F
$GPRMC,132657.000,A,4308.3018,N,07726.2629,W,0.00,130.28,160919,,,A*78
$GPGGA,132657.250,4308.3018,N,07726.2629,W,1,09,0.95,151.6,M,-34.4,M,,*5B
$GPRMC,132657.500,A,4308.3018,N,07726.2629,W,0.01,50.66,160919,,,A*41
$GPGGA,132657.750,4308.3018,N,07726.2629,W,1,09,0.95,151.6,M,-34.4,M,,*5E
$GPRMC,132658.000,A,4308.3018,N,07726.2629,W,0.02,292.48,160919,,,A*78
$GPGGA,132658.250,4308.3018,N,07726.2629,W,1,09,0.95,151.6,M,-34.4,M,,*54
$GPRMC,132658.500,A,4308.3018,N,07726.2629,W,0.00,171.27,160919,,,A*78
$GPGGA,132658.750,4308.3018,N,07726.2629,W,1,09,0.95,151.6,M,-34.4,M,,*51
$GPRMC,132659.000,A,4308.3018,N,07726.2629,W,0.00,84.17,160919,,,A*44
$GPGGA,132659.250,4308.3018,N,07726.2629,W,1,09,0.95,151.6,M,-34.4,M,,*55
$GPRMC,132659.500,A,4308.3018,N,07726.2629,W,0.03,123.29,160919,,,A*73
$GPGGA,132659.750,4308.3018,N,07726.2629,W,1,09,0.95,151.6,M,-34.4,M,,*50
$GPRMC,132700.000,A,4308.3018,N,07726.2629,W,0.01,26.03,160919,,,A*45
$GPGGA,132700.250,4308.3018,N,07726.2629,W,1,09,0.95,151.6,M,-34.4,M,,*58
$GPRMC,132700.500,A,4308.3018,N,07726.2629,W,0.01,226.11,160919,,,A*71
$GPGGA,132700.750,4308.3018,N,07726.2629,W,1,09,0.95,151.6,M,-34.4,M,,*5D
$GPRMC,132701.000,A,4308.3018,N,07726.2629,W,0.01,331.67,160919,,,A*73
$GPGGA,132701.250,4308.3018,N,07726.2629,W,1,09,0.95,151.6,M,-34.4,M,,*59
$GPRMC,132701.500,A,4308.3018,N,07726.2629,W,0.00,0.00,160919,,,A*77
$GPGGA,132701.750,4308.3018,N,07726.2629,W,1,09,0.95,151.6,M,-34.4,M,,*5C
$GPRMC,132702.000,A,4308.3018,N,07726.2629,W,0.01,161.87,160919,,,A*79
$GPGGA,132702.250,4308.3018,N,07726.2629,W,1,09,0.95,151.6,M,-34.4,M,,*5A
$GPRMC,132702.500,A,4308.3018,N,07726.2629,W,0.00,343.77,160919,,,A*70
$GPGGA,132702.750,4308.3018,N,07726.2629,W,1,09,0.95,151.6,M,-34.4,M,,*5F
$GPRMC,132703.000,A,4308.3018,N,07726.2629,W,0.01,103.47,160919,,,A*70
$GPGGA,132703.250,4308.3018,N,07726.2629,W,1,10,0.88,151.6,M,-34.4,M,,*5F
$GPRMC,132703.500,A,4308.3018,N,07726.2629,W,0.01,198.13,160919,,,A*76
$GPGGA,132703.750,4308.3018,N,07726.2629,W,1,10,0.88,151.6,M,-34.4,M,,*5A
$GPRMC,132704.000,A,4308.3018,N,07726.2629,W,0.01,128.09,160919,,,A*74
$GPGGA,132704.250,4308.3018,N,07726.2629,W,1,10,0.88,151.6,M,-34.4,M,,*58
$GPRMC,132704.500,A,4308.3018,N,07726.2629,W,0.02,218.29,160919,,,A*70
$GPGGA,132704.750,4308.3018,N,07726.2629,W,1,10,0.88,151.6,M,-34.4,M,,*5D
$GPRMC,132705.000,A,4308.3018,N,07726.2629,W,0.01,156.07,160919,,,A*72
$GPGGA,132705.250,4308.3018,N,07726.2629,W,1,10,0.88,151.6,M,-34.4,M,,*59
$GPRMC,132705.500,A,4308.3018,N,07726.2629,W,0.02,147.62,160919,,,A*77
$GPGGA,132705.750,4308.3018,N,07726.2629,W,1,10,0.88,151.6,M,-34.4,M,,*5C
$GPRMC,132706.000,A,4308.3018,N,07726.2629,W,0.01,77.01,160919,,,A*45
$GPGGA,132706.250,4308.3018,N,07726.2629,W,1,10,0.88,151.6,M,-34.4,M,,*5A
$GPRMC,132706.500,A,4308.3018,N,07726.2629,W,0.01,274.50,160919,,,A*75
$GPGGA,132706.750,4308.3018,N,07726.2629,W,1,10,0.88,151.6,M,-34.4,M,,*5F
$GPRMC,132707.000,A,4308.3018,N,07726.2629,W,0.01,34.49,160919,,,A*4F
$GPGGA,132707.250,4308.3018,N,07726.2629,W,1,10,0.88,151.6,M,-34.4,M,,*5B
$GPRMC,132707.500,A,4308.3018,N,07726.2629,W,0.01,73.37,160919,,,A*40
$GPGGA,132707.750,4308.3018,N,07726.2629,W,1,10,0.88,151.6,M,-34.4,M,,*5E
$GPRMC,132708.000,A,4308.3018,N,07726.2629,W,0.01,251.22,160919,,,A*7C
$GPGGA,132708.250,4308.3018,N,07726.2629,W,1,10,0.88,151.6,M,-34.4,M,,*54
$GPRMC,132708.500,A,4308.3018,N,07726.2629,W,0.00,34.84,160919,,,A*45
$GPGGA,132708.750,4308.3018,N,07726.2629,W,1,10,0.88,151.6,M,-34.4,M,,*51
$GPRMC,132709.000,A,4308.3018,N,07726.2629,W,0.01,202.92,160919,,,A*70
$GPGGA,132709.250,4308.3018,N,07726.2629,W,1,10,0.88,151.6,M,-34.4,M,,*55
$GPRMC,132709.500,A,4308.3018,N,07726.2629,W,0.00,151.22,160919,,,A*7A
$GPGGA,132709.750,4308.3018,N,07726.2629,W,1,10,0.88,151.6,M,-34.4,M,,*50
$GPRMC,132710.000,A,4308.3018,N,07726.2629,W,0.00,108.61,160919,,,A*7C
$GPGGA,132710.250,4308.3018,N,07726.2629,W,1,10,0.88,151.6,M,-34.4,M,,*5D
$GPRMC,132710.500,A,4308.3018,N,07726.2629,W,0.03,41.00,160919,,,A*41
$GPGGA,132710.750,4308.3018,N,07726.2629,W,1,10,0.88,151.6,M,-34.4,M,,*58
$GPRMC,132711.000,A,4308.3018,N,07726.2629,W,0.10,331.59,160919,,,A*7F
$GPGGA,132711.250,4308.3018,N,07726.2629,W,1,10,0.87,151.6,M,-34.4,M,,*53
$GPRMC,132711.500,A,4308.3018,N,07726.2629,W,0.38,343.21,160919,,,A*7A
$GPGGA,132711.750,4308.3018,N,07726.2629,W,1,10,0.87,151.6,M,-34.4,M,,*56
$GPRMC,132712.000,A,4308.3019,N,07726.2629,W,0.87,2.47,160919,,,A*7F
$GPGGA,132712.250,4308.3020,N,07726.2629,W,1,10,0.88,151.6,M,-34.4,M,,*54
$GPRMC,132712.500,A,4308.3021,N,07726.2627,W,2.23,30.61,160919,,,A*46
$GPGGA,132712.750,4308.3023,N,07726.2626,W,1,10,0.87,151.5,M,-34.4,M,,*51
$GPRMC,132713.000,A,4308.3026,N,07726.2624,W,3.41,24.76,160919,,,A*40
$GPGGA,132713.250,4308.3029,N,07726.2623,W,1,10,0.87,151.5,M,-34.4,M,,*5A
$GPRMC,132713.500,A,4308.3033,N,07726.2623,W,4.33,12.58,160919,,,A*4D
$GPGGA,132713.750,4308.3038,N,07726.2623,W,1,10,0.88,151.4,M,-34.4,M,,*51
$GPRMC,132714.000,A,4308.3046,N,07726.2625,W,6.66,359.99,160919,,,A*78
$GPGGA,132714.250,4308.3051,N,07726.2624,W,1,10,0.88,151.4,M,-34.4,M,,*5B
$GPRMC,132714.500,A,4308.3056,N,07726.2624,W,6.82,2.89,160919,,,A*7B
$GPGGA,132714.750,4308.3061,N,07726.2624,W,1,10,0.88,151.4,M,-34.4,M,,*5D
$GPRMC,132715.000,A,4308.3067,N,07726.2624,W,7.19,2.50,160919,,,A*7A
$GPGGA,132715.250,4308.3072,N,07726.2623,W,1,10,0.88,151.4,M,-34.4,M,,*5C
$GPRMC,132715.500,A,4308.3077,N,07726.2622,W,6.45,8.39,160919,,,A*75
$GPGGA,132715.750,4308.3081,N,07726.2620,W,1,10,0.88,151.3,M,-34.4,M,,*51
$GPRMC,132716.000,A,4308.3085,N,07726.2619,W,5.92,13.23,160919,,,A*4E
$GPGGA,132716.250,4308.3089,N,07726.2617,W,1,10,0.88,151.3,M,-34.4,M,,*5B
$GPRMC,132716.500,A,4308.3093,N,07726.2616,W,5.74,17.88,160919,,,A*4E
$GPGGA,132716.750,4308.3097,N,07726.2613,W,1,10,0.88,151.2,M,-34.4,M,,*54
$GPRMC,132717.000,A,4308.3100,N,07726.2610,W,5.28,30.43,160919,,,A*4C
$GPGGA,132717.250,4308.3103,N,07726.2607,W,1,10,0.88,151.2,M,-34.4,M,,*59
$GPRMC,132717.500,A,4308.3106,N,07726.2604,W,5.66,38.01,160919,,,A*4E
$GPGGA,132717.750,4308.3109,N,07726.2600,W,1,10,0.88,151.3,M,-34.4,M,,*50
$GPRMC,132718.000,A,4308.3110,N,07726.2596,W,4.76,52.22,160919,,,A*46
$GPGGA,132718.250,4308.3112,N,07726.2592,W,1,10,0.88,151.2,M,-34.4,M,,*59
$GPRMC,132718.500,A,4308.3113,N,07726.2589,W,4.05,65.81,160919,,,A*47
$GPGGA,132718.750,4308.3114,N,07726.2585,W,1,10,0.88,151.2,M,-34.4,M,,*5C
$GPRMC,132719.000,A,4308.3114,N,07726.2582,W,3.11,75.93,160919,,,A*4F
$GPGGA,132719.250,4308.3115,N,07726.2580,W,1,10,0.87,151.2,M,-34.4,M,,*53
$GPRMC,132719.500,A,4308.3116,N,07726.2579,W,2.12,80.28,160919,,,A*44
$GPGGA,132719.750,4308.3116,N,07726.2579,W,1,10,0.87,151.2,M,-34.4,M,,*53
$GPRMC,132720.000,A,4308.3117,N,07726.2579,W,0.88,54.26,160919,,,A*4C
$GPGGA,132720.250,4308.3118,N,07726.2580,W,1,10,0.87,151.2,M,-34.4,M,,*54
$GPRMC,132720.500,A,4308.3119,N,07726.2582,W,0.52,354.38,160919,,,A*78
$GPGGA,132720.750,4308.3119,N,07726.2584,W,1,10,0.88,151.2,M,-34.4,M,,*5B
$GPRMC,132721.000,A,4308.3120,N,07726.2588,W,1.16,292.18,160919,,,A*74
$GPGGA,132721.250,4308.3120,N,07726.2593,W,1,10,0.87,151.1,M,-34.4,M,,*5F
$GPRMC,132721.500,A,4308.3120,N,07726.2598,W,2.22,278.80,160919,,,A*71
$GPGGA,132721.750,4308.3121,N,07726.2603,W,1,10,0.87,151.1,M,-34.4,M,,*51
$GPRMC,132722.000,A,4308.3122,N,07726.2609,W,4.33,276.04,160919,,,A*7A
$GPGGA,132722.250,4308.3122,N,07726.2615,W,1,10,0.88,151.1,M,-34.4,M,,*5C
$GPRMC,132722.500,A,4308.3123,N,07726.2623,W,6.45,273.77,160919,,,A*74
$GPGGA,132722.750,4308.3124,N,07726.2633,W,1,10,0.88,151.1,M,-34.4,M,,*5B
$GPRMC,132723.000,A,4308.3125,N,07726.2644,W,9.30,276.19,160919,,,A*77
$GPGGA,132723.250,4308.3127,N,07726.2656,W,1,10,0.88,151.0,M,-34.4,M,,*5E
$GPRMC,132723.500,A,4308.3130,N,07726.2669,W,12.07,280.95,160919,,,A*4A
$GPGGA,132723.750,4308.3136,N,07726.2683,W,1,10,0.88,151.0,M,-34.4,M,,*53
$GPRMC,132724.000,A,4308.3140,N,07726.2698,W,13.52,284.30,160919,,,A*4B
$GPGGA,132724.250,4308.3144,N,07726.2712,W,1,10,0.88,151.0,M,-34.4,M,,*5D
$GPRMC,132724.500,A,4308.3149,N,07726.2727,W,14.71,287.75,160919,,,A*46
$GPGGA,132724.750,4308.3154,N,07726.2741,W,1,10,0.88,151.0,M,-34.4,M,,*5F
$GPRMC,132725.000,A,4308.3159,N,07726.2756,W,15.62,289.86,160919,,,A*44
$GPGGA,132725.250,4308.3164,N,07726.2771,W,1,10,0.88,151.0,M,-34.4,M,,*5B
$GPRMC,132725.500,A,4308.3169,N,07726.2788,W,16.78,291.92,160919,,,A*45
$GPGGA,132725.750,4308.3174,N,07726.2804,W,1,10,0.88,151.0,M,-34.4,M,,*52
$GPRMC,132726.000,A,4308.3179,N,07726.2820,W,17.50,292.31,160919,,,A*4E
$GPGGA,132726.250,4308.3185,N,07726.2837,W,1,10,0.88,151.0,M,-34.4,M,,*5A
$GPRMC,132726.500,A,4308.3190,N,07726.2854,W,18.27,292.58,160919,,,A*4F
$GPGGA,132726.750,4308.3196,N,07726.2873,W,1,10,0.88,151.0,M,-34.4,M,,*5D
$GPRMC,132727.000,A,4308.3202,N,07726.2890,W,19.11,292.76,160919,,,A*43
$GPGGA,132727.250,4308.3207,N,07726.2908,W,1,10,0.88,151.0,M,-34.4,M,,*5F
$GPRMC,132727.500,A,4308.3213,N,07726.2927,W,19.79,292.91,160919,,,A*4C
$GPGGA,132727.750,4308.3219,N,07726.2945,W,1,10,0.88,151.1,M,-34.4,M,,*5D
$GPRMC,132728.000,A,4308.3226,N,07726.2964,W,20.57,294.74,160919,,,A*4C
$GPGGA,132728.250,4308.3232,N,07726.2983,W,1,10,0.88,151.2,M,-34.4,M,,*57
$GPRMC,132728.500,A,4308.3239,N,07726.3001,W,21.03,296.21,160919,,,A*4E
$GPGGA,132728.750,4308.3246,N,07726.3020,W,1,10,0.88,151.3,M,-34.4,M,,*51
$GPRMC,132729.000,A,4308.3253,N,07726.3038,W,21.53,297.11,160919,,,A*4B
$GPGGA,132729.250,4308.3260,N,07726.3057,W,1,10,0.88,151.4,M,-34.4,M,,*56
$GPRMC,132729.500,A,4308.3268,N,07726.3076,W,21.79,298.13,160919,,,A*49
$GPGGA,132729.750,4308.3275,N,07726.3095,W,1,10,0.88,151.5,M,-34.4,M,,*58
$GPRMC,132730.000,A,4308.3282,N,07726.3115,W,22.12,298.36,160919,,,A*4D
$GPGGA,132730.250,4308.3290,N,07726.3134,W,1,09,0.96,151.5,M,-34.4,M,,*53
$GPRMC,132730.500,A,4308.3298,N,07726.3154,W,22.58,298.42,160919,,,A*4B
$GPGGA,132730.750,4308.3306,N,07726.3174,W,1,09,0.96,151.5,M,-34.4,M,,*5C
$GPRMC,132731.000,A,4308.3315,N,07726.3195,W,23.22,299.16,160919,,,A*4A
$GPGGA,132731.250,4308.3323,N,07726.3215,W,1,10,0.88,151.5,M,-34.4,M,,*5C
$GPRMC,132731.500,A,4308.3332,N,07726.3235,W,23.62,299.54,160919,,,A*41
$GPGGA,132731.750,4308.3341,N,07726.3256,W,1,10,0.88,151.4,M,-34.4,M,,*5B
$GPRMC,132732.000,A,4308.3351,N,07726.3277,W,24.57,300.32,160919,,,A*44
$GPGGA,132732.250,4308.3361,N,07726.3298,W,1,10,0.88,151.4,M,-34.4,M,,*5D
$GPRMC,132732.500,A,4308.3371,N,07726.3320,W,25.36,300.87,160919,,,A*48
$GPGGA,132732.750,4308.3382,N,07726.3342,W,1,10,0.88,151.4,M,-34.4,M,,*53
$GPRMC,132733.000,A,4308.3393,N,07726.3365,W,26.63,302.92,160919,,,A*44
$GPGGA,132733.250,4308.3403,N,07726.3386,W,1,09,0.95,151.6,M,-34.4,M,,*57
$GPRMC,132733.500,A,4308.3414,N,07726.3408,W,26.94,303.76,160919,,,A*46
$GPGGA,132733.750,4308.3425,N,07726.3429,W,1,10,0.88,151.7,M,-34.4,M,,*51
$GPRMC,132734.000,A,4308.3436,N,07726.3451,W,27.21,305.60,160919,,,A*46
$GPGGA,132734.250,4308.3448,N,07726.3472,W,1,10,0.88,151.7,M,-34.4,M,,*56
$GPRMC,132734.500,A,4308.3459,N,07726.3493,W,26.97,306.33,160919,,,A*4D
$GPGGA,132734.750,4308.3470,N,07726.3514,W,1,10,0.88,151.8,M,-34.4,M,,*56
$GPRMC,132735.000,A,4308.3482,N,07726.3534,W,26.91,307.69,160919,,,A*4B
$GPGGA,132735.250,4308.3494,N,07726.3554,W,1,10,0.88,151.9,M,-34.4,M,,*5D
$GPRMC,132735.500,A,4308.3506,N,07726.3573,W,25.90,310.54,160919,,,A*4A
$GPGGA,132735.750,4308.3518,N,07726.3591,W,1,10,0.88,151.9,M,-34.4,M,,*54
$GPRMC,132736.000,A,4308.3530,N,07726.3608,W,24.87,312.97,160919,,,A*4C
$GPGGA,132736.250,4308.3542,N,07726.3625,W,1,10,0.88,152.0,M,-34.4,M,,*5B
$GPRMC,132736.500,A,4308.3555,N,07726.3641,W,24.44,315.83,160919,,,A*4A
$GPGGA,132736.750,4308.3568,N,07726.3657,W,1,10,0.88,152.2,M,-34.4,M,,*51
$GPRMC,132737.000,A,4308.3582,N,07726.3672,W,24.84,318.96,160919,,,A*41
$GPGGA,132737.250,4308.3595,N,07726.3688,W,1,10,0.88,152.5,M,-34.4,M,,*52
$GPRMC,132737.500,A,4308.3609,N,07726.3702,W,25.05,320.99,160919,,,A*4E
$GPGGA,132737.750,4308.3624,N,07726.3714,W,1,10,0.88,152.6,M,-34.4,M,,*59
$GPRMC,132738.000,A,4308.3639,N,07726.3724,W,24.49,328.03,160919,,,A*41
$GPGGA,132738.250,4308.3654,N,07726.3734,W,1,10,0.88,152.5,M,-34.4,M,,*55
$GPRMC,132738.500,A,4308.3670,N,07726.3743,W,24.15,333.21,160919,,,A*4B
$GPGGA,132738.750,4308.3685,N,07726.3753,W,1,10,0.88,152.4,M,-34.4,M,,*5C
$GPRMC,132739.000,A,4308.3700,N,07726.3762,W,23.74,335.39,160919,,,A*45
$GPGGA,132739.250,4308.3715,N,07726.3770,W,1,10,0.87,152.3,M,-34.4,M,,*59
$GPRMC,132739.500,A,4308.3731,N,07726.3778,W,23.45,338.05,160919,,,A*49
$GPGGA,132739.750,4308.3747,N,07726.3784,W,1,10,0.88,151.7,M,-34.4,M,,*58
$GPRMC,132740.000,A,4308.3764,N,07726.3790,W,23.41,343.11,160919,,,A*49
$GPGGA,132740.250,4308.3781,N,07726.3795,W,1,10,0.87,151.2,M,-34.4,M,,*53
$GPRMC,132740.500,A,4308.3798,N,07726.3798,W,23.51,346.99,160919,,,A*43
$GPGGA,132740.750,4308.3815,N,07726.3798,W,1,10,0.88,150.7,M,-34.4,M,,*52
$GPRMC,132741.000,A,4308.3835,N,07726.3794,W,24.14,355.53,160919,,,A*41
$GPGGA,132741.250,4308.3853,N,07726.3793,W,1,10,0.88,150.4,M,-34.4,M,,*5C
$GPRMC,132741.500,A,4308.3872,N,07726.3790,W,24.77,0.39,160919,,,A*49
$GPGGA,132741.750,4308.3892,N,07726.3787,W,1,10,0.88,150.0,M,-34.4,M,,*55
$GPRMC,132742.000,A,4308.3912,N,07726.3784,W,26.00,4.55,160919,,,A*41
$GPGGA,132742.250,4308.3931,N,07726.3781,W,1,10,0.88,149.6,M,-34.4,M,,*53
$GPRMC,132742.500,A,4308.3951,N,07726.3777,W,26.92,7.22,160919,,,A*47
$GPGGA,132742.750,4308.3971,N,07726.3773,W,1,10,0.88,149.4,M,-34.4,M,,*5D
$GPRMC,132743.000,A,4308.3990,N,07726.3768,W,27.42,9.18,160919,,,A*4B
$GPGGA,132743.250,4308.4010,N,07726.3764,W,1,09,0.95,149.1,M,-34.4,M,,*57
$GPRMC,132743.500,A,4308.4030,N,07726.3759,W,27.65,10.03,160919,,,A*7F
$GPGGA,132743.750,4308.4050,N,07726.3754,W,1,09,0.95,149.0,M,-34.4,M,,*54
$GPRMC,132744.000,A,4308.4070,N,07726.3748,W,28.06,10.71,160919,,,A*76
$GPGGA,132744.250,4308.4090,N,07726.3743,W,1,09,0.95,148.9,M,-34.4,M,,*54
$GPRMC,132744.500,A,4308.4110,N,07726.3738,W,27.99,11.02,160919,,,A*7F
$GPGGA,132744.750,4308.4129,N,07726.3732,W,1,09,0.95,148.9,M,-34.4,M,,*54
$GPRMC,132745.000,A,4308.4149,N,07726.3727,W,27.88,11.04,160919,,,A*7F
$GPGGA,132745.250,4308.4169,N,07726.3722,W,1,09,0.95,149.0,M,-34.4,M,,*5D
$GPRMC,132745.500,A,4308.4188,N,07726.3717,W,27.48,10.65,160919,,,A*7E
$GPGGA,132745.750,4308.4207,N,07726.3713,W,1,09,0.95,149.2,M,-34.4,M,,*53
$GPRMC,132746.000,A,4308.4226,N,07726.3708,W,27.43,10.08,160919,,,A*71
$GPGGA,132746.250,4308.4245,N,07726.3703,W,1,09,0.95,149.2,M,-34.4,M,,*52
$GPRMC,132746.500,A,4308.4264,N,07726.3699,W,27.22,9.64,160919,,,A*4E
$GPGGA,132746.750,4308.4283,N,07726.3694,W,1,09,0.95,149.3,M,-34.4,M,,*53
$GPRMC,132747.000,A,4308.4301,N,07726.3690,W,25.93,9.57,160919,,,A*49
$GPGGA,132747.250,4308.4319,N,07726.3686,W,1,09,0.95,149.4,M,-34.4,M,,*51
$GPRMC,132747.500,A,4308.4337,N,07726.3681,W,25.36,9.49,160919,,,A*49
$GPGGA,132747.750,4308.4354,N,07726.3677,W,1,09,0.95,149.6,M,-34.4,M,,*51
$GPRMC,132748.000,A,4308.4372,N,07726.3673,W,24.58,9.18,160919,,,A*42
$GPGGA,132748.250,4308.4389,N,07726.3669,W,1,09,0.95,149.8,M,-34.4,M,,*5A
$GPRMC,132748.500,A,4308.4405,N,07726.3664,W,23.77,9.51,160919,,,A*41
$GPGGA,132748.750,4308.4421,N,07726.3660,W,1,09,0.95,149.9,M,-34.4,M,,*52
$GPRMC,132749.000,A,4308.4436,N,07726.3656,W,22.58,9.47,160919,,,A*4F
$GPGGA,132749.250,4308.4451,N,07726.3652,W,1,09,0.95,150.0,M,-34.4,M,,*51
$GPRMC,132749.500,A,4308.4464,N,07726.3648,W,20.38,10.76,160919,,,A*7C
$GPGGA,132749.750,4308.4477,N,07726.3644,W,1,09,0.95,150.0,M,-34.4,M,,*57
$GPRMC,132750.000,A,4308.4489,N,07726.3640,W,17.83,10.96,160919,,,A*70
$GPGGA,132750.250,4308.4501,N,07726.3637,W,1,09,0.95,150.0,M,-34.4,M,,*5E
$GPRMC,132750.500,A,4308.4510,N,07726.3633,W,15.08,11.80,160919,,,A*77
$GPGGA,132750.750,4308.4522,N,07726.3629,W,1,09,0.95,150.0,M,-34.4,M,,*55
$GPRMC,132751.000,A,4308.4531,N,07726.3626,W,12.13,12.37,160919,,,A*76
$GPGGA,132751.250,4308.4539,N,07726.3623,W,1,09,0.95,150.1,M,-34.4,M,,*50
$GPRMC,132751.500,A,4308.4545,N,07726.3620,W,8.63,16.94,160919,,,A*47
$GPGGA,132751.750,4308.4550,N,07726.3618,W,1,09,0.95,150.6,M,-34.4,M,,*55
$GPRMC,132752.000,A,4308.4554,N,07726.3617,W,5.47,21.67,160919,,,A*46
$GPGGA,132752.250,4308.4557,N,07726.3615,W,1,09,0.95,151.0,M,-34.4,M,,*5E
$GPRMC,132752.500,A,4308.4559,N,07726.3613,W,3.45,34.62,160919,,,A*4F
$GPGGA,132752.750,4308.4560,N,07726.3612,W,1,10,0.87,151.4,M,-34.4,M,,*57
$GPRMC,132753.000,A,4308.4561,N,07726.3611,W,2.35,34.62,160919,,,A*44
$GPGGA,132753.250,4308.4562,N,07726.3611,W,1,10,0.87,151.6,M,-34.4,M,,*50
$GPRMC,132753.500,A,4308.4563,N,07726.3610,W,2.56,34.62,160919,,,A*47
$GPGGA,132753.750,4308.4565,N,07726.3611,W,1,10,0.87,151.7,M,-34.4,M,,*53
$GPRMC,132754.000,A,4308.4568,N,07726.3611,W,4.26,358.18,160919,,,A*7A
$GPGGA,132754.250,4308.4571,N,07726.3612,W,1,10,0.88,151.9,M,-34.4,M,,*56
$GPRMC,132754.500,A,4308.4575,N,07726.3614,W,5.52,348.16,160919,,,A*7B
$GPGGA,132754.750,4308.4579,N,07726.3616,W,1,10,0.88,152.2,M,-34.4,M,,*57
$GPRMC,132755.000,A,4308.4583,N,07726.3620,W,6.54,333.27,160919,,,A*7A
$GPGGA,132755.250,4308.4587,N,07726.3626,W,1,10,0.87,152.2,M,-34.4,M,,*5E
$GPRMC,132755.500,A,4308.4592,N,07726.3633,W,8.43,313.72,160919,,,A*77
$GPGGA,132755.750,4308.4597,N,07726.3643,W,1,10,0.88,152.3,M,-34.4,M,,*57
$GPRMC,132756.000,A,4308.4603,N,07726.3653,W,11.75,302.79,160919,,,A*4A
$GPGGA,132756.250,4308.4607,N,07726.3664,W,1,10,0.88,152.4,M,-34.4,M,,*59
$GPRMC,132756.500,A,4308.4611,N,07726.3676,W,13.01,296.73,160919,,,A*4C
$GPGGA,132756.750,4308.4614,N,07726.3692,W,1,10,0.88,152.4,M,-34.4,M,,*57
$GPRMC,132757.000,A,4308.4616,N,07726.3709,W,16.25,283.63,160919,,,A*40
$GPGGA,132757.250,4308.4618,N,07726.3726,W,1,10,0.88,152.5,M,-34.4,M,,*50
$GPRMC,132757.500,A,4308.4621,N,07726.3744,W,17.70,280.53,160919,,,A*49
$GPGGA,132757.750,4308.4622,N,07726.3761,W,1,10,0.88,152.5,M,-34.4,M,,*5F
$GPRMC,132758.000,A,4308.4624,N,07726.3779,W,18.40,278.75,160919,,,A*47
$GPGGA,132758.250,4308.4626,N,07726.3798,W,1,10,0.88,152.5,M,-34.4,M,,*57
$GPRMC,132758.500,A,4308.4627,N,07726.3816,W,19.00,276.32,160919,,,A*4F
$GPGGA,132758.750,4308.4628,N,07726.3835,W,1,10,0.88,152.4,M,-34.4,M,,*55
$GPRMC,132759.000,A,4308.4629,N,07726.3854,W,19.68,274.77,160919,,,A*4E
$GPGGA,132759.250,4308.4630,N,07726.3873,W,1,10,0.88,152.2,M,-34.4,M,,*5C
$GPRMC,132759.500,A,4308.4631,N,07726.3891,W,19.42,274.54,160919,,,A*42
$GPGGA,132759.750,4308.4633,N,07726.3910,W,1,10,0.88,152.1,M,-34.4,M,,*5D
$GPRMC,132800.000,A,4308.4634,N,07726.3928,W,19.18,274.86,160919,,,A*42
$GPGGA,132800.250,4308.4636,N,07726.3946,W,1,10,0.88,152.0,M,-34.4,M,,*5C
$GPRMC,132800.500,A,4308.4637,N,07726.3965,W,18.91,275.31,160919,,,A*40
$GPGGA,132800.750,4308.4639,N,07726.3983,W,1,10,0.88,152.0,M,-34.4,M,,*5F
$GPRMC,132801.000,A,4308.4640,N,07726.4000,W,18.60,275.95,160919,,,A*49
$GPGGA,132801.250,4308.4641,N,07726.4018,W,1,10,0.88,151.9,M,-34.4,M,,*52
$GPRMC,132801.500,A,4308.4643,N,07726.4036,W,18.45,276.49,160919,,,A*4F
$GPGGA,132801.750,4308.4644,N,07726.4053,W,1,10,0.88,151.9,M,-34.4,M,,*5D
$GPRMC,132802.000,A,4308.4646,N,07726.4071,W,18.23,277.01,160919,,,A*42
$GPGGA,132802.250,4308.4648,N,07726.4088,W,1,10,0.88,151.8,M,-34.4,M,,*50
$GPRMC,132802.500,A,4308.4649,N,07726.4105,W,17.85,277.53,160919,,,A*4E
$GPGGA,132802.750,4308.4650,N,07726.4121,W,1,10,0.88,151.8,M,-34.4,M,,*5E
$GPRMC,132803.000,A,4308.4651,N,07726.4136,W,16.58,277.55,160919,,,A*44
$GPGGA,132803.250,4308.4651,N,07726.4153,W,1,10,0.88,151.8,M,-34.4,M,,*5E
$GPRMC,132803.500,A,4308.4651,N,07726.4169,W,15.63,278.34,160919,,,A*48
$GPGGA,132803.750,4308.4653,N,07726.4184,W,1,10,0.88,151.9,M,-34.4,M,,*52
$GPRMC,132804.000,A,4308.4654,N,07726.4198,W,14.22,280.09,160919,,,A*4C
$GPGGA,132804.250,4308.4656,N,07726.4210,W,1,09,0.95,151.9,M,-34.4,M,,*5F
$GPRMC,132804.500,A,4308.4658,N,07726.4221,W,12.78,283.08,160919,,,A*4F
$GPGGA,132804.750,4308.4660,N,07726.4231,W,1,09,0.94,151.9,M,-34.4,M,,*5D
$GPRMC,132805.000,A,4308.4661,N,07726.4241,W,11.11,284.74,160919,,,A*47
$GPGGA,132805.250,4308.4663,N,07726.4250,W,1,10,0.88,151.8,M,-34.4,M,,*59
$GPRMC,132805.500,A,4308.4664,N,07726.4258,W,9.61,288.73,160919,,,A*7A
$GPGGA,132805.750,4308.4666,N,07726.4265,W,1,10,0.88,151.8,M,-34.4,M,,*5F
$GPRMC,132806.000,A,4308.4667,N,07726.4272,W,8.38,290.59,160919,,,A*7B
$GPGGA,132806.250,4308.4668,N,07726.4279,W,1,10,0.88,151.8,M,-34.4,M,,*5A
$GPRMC,132806.500,A,4308.4669,N,07726.4286,W,7.90,288.52,160919,,,A*74
$GPGGA,132806.750,4308.4669,N,07726.4293,W,1,10,0.88,152.0,M,-34.4,M,,*51
$GPRMC,132807.000,A,4308.4670,N,07726.4300,W,8.07,283.36,160919,,,A*7F
$GPGGA,132807.250,4308.4670,N,07726.4308,W,1,10,0.88,152.1,M,-34.4,M,,*5F
$GPRMC,132807.500,A,4308.4671,N,07726.4317,W,9.15,278.55,160919,,,A*7E
$GPGGA,132807.750,4308.4672,N,07726.4327,W,1,10,0.88,152.2,M,-34.4,M,,*56
$GPRMC,132808.000,A,4308.4672,N,07726.4337,W,11.01,275.68,160919,,,A*4A
$GPGGA,132808.250,4308.4672,N,07726.4348,W,1,10,0.88,152.3,M,-34.4,M,,*54
$GPRMC,132808.500,A,4308.4672,N,07726.4361,W,12.81,273.22,160919,,,A*4F
$GPGGA,132808.750,4308.4672,N,07726.4375,W,1,10,0.88,152.2,M,-34.4,M,,*5E
$GPRMC,132809.000,A,4308.4673,N,07726.4390,W,14.96,271.96,160919,,,A*49
$GPGGA,132809.250,4308.4674,N,07726.4405,W,1,10,0.88,152.3,M,-34.4,M,,*5D
$GPRMC,132809.500,A,4308.4677,N,07726.4422,W,16.52,275.68,160919,,,A*49
$GPGGA,132809.750,4308.4679,N,07726.4439,W,1,09,0.95,152.5,M,-34.4,M,,*58
$GPRMC,132810.000,A,4308.4680,N,07726.4457,W,18.02,276.07,160919,,,A*4F
$GPGGA,132810.250,4308.4682,N,07726.4475,W,1,09,0.95,152.6,M,-34.4,M,,*5A
$GPRMC,132810.500,A,4308.4683,N,07726.4494,W,19.15,276.04,160919,,,A*42
$GPGGA,132810.750,4308.4684,N,07726.4513,W,1,09,0.94,152.8,M,-34.4,M,,*57
$GPRMC,132811.000,A,4308.4686,N,07726.4533,W,20.49,276.43,160919,,,A*4F
$GPGGA,132811.250,4308.4688,N,07726.4553,W,1,09,0.94,153.1,M,-34.4,M,,*53
$GPRMC,132811.500,A,4308.4690,N,07726.4574,W,21.64,276.41,160919,,,A*42
$GPGGA,132811.750,4308.4692,N,07726.4596,W,1,09,0.95,153.3,M,-34.4,M,,*57
$GPRMC,132812.000,A,4308.4695,N,07726.4619,W,22.81,276.26,160919,,,A*40
$GPGGA,132812.250,4308.4697,N,07726.4641,W,1,09,0.95,153.5,M,-34.4,M,,*5B
$GPRMC,132812.500,A,4308.4698,N,07726.4664,W,23.71,276.05,160919,,,A*4D
$GPGGA,132812.750,4308.4701,N,07726.4688,W,1,09,0.94,153.8,M,-34.4,M,,*59
$GPRMC,132813.000,A,4308.4703,N,07726.4712,W,24.52,276.86,160919,,,A*47
$GPGGA,132813.250,4308.4705,N,07726.4736,W,1,09,0.94,153.9,M,-34.4,M,,*5C
$GPRMC,132813.500,A,4308.4708,N,07726.4760,W,25.01,277.24,160919,,,A*42
$GPGGA,132813.750,4308.4710,N,07726.4785,W,1,09,0.94,154.3,M,-34.4,M,,*58
$GPRMC,132814.000,A,4308.4713,N,07726.4811,W,26.35,277.56,160919,,,A*42
$GPGGA,132814.250,4308.4715,N,07726.4836,W,1,09,0.94,154.6,M,-34.4,M,,*5D
$GPRMC,132814.500,A,4308.4718,N,07726.4862,W,27.16,277.57,160919,,,A*49
$GPGGA,132814.750,4308.4721,N,07726.4888,W,1,09,0.94,154.9,M,-34.4,M,,*55
$GPRMC,132815.000,A,4308.4723,N,07726.4914,W,27.97,277.02,160919,,,A*4C
$GPGGA,132815.250,4308.4725,N,07726.4940,W,1,09,0.94,155.2,M,-34.4,M,,*5A
$GPRMC,132815.500,A,4308.4726,N,07726.4967,W,28.37,275.93,160919,,,A*47
$GPGGA,132815.750,4308.4728,N,07726.4994,W,1,09,0.94,155.8,M,-34.4,M,,*51
$GPRMC,132816.000,A,4308.4729,N,07726.5021,W,29.07,274.71,160919,,,A*4B
$GPGGA,132816.250,4308.4730,N,07726.5048,W,1,09,0.94,156.2,M,-34.4,M,,*5E
$GPRMC,132816.500,A,4308.4732,N,07726.5076,W,29.49,274.20,160919,,,A*48
$GPGGA,132816.750,4308.4734,N,07726.5104,W,1,09,0.95,156.3,M,-34.4,M,,*56
$GPRMC,132817.000,A,4308.4736,N,07726.5133,W,30.30,273.57,160919,,,A*49
$GPGGA,132817.250,4308.4738,N,07726.5162,W,1,09,0.93,156.4,M,-34.4,M,,*5F
$GPRMC,132817.500,A,4308.4740,N,07726.5191,W,30.78,273.25,160919,,,A*4C
$GPGGA,132817.750,4308.4741,N,07726.5220,W,1,09,0.94,156.5,M,-34.4,M,,*57
$GPRMC,132818.000,A,4308.4743,N,07726.5250,W,31.25,273.09,160919,,,A*4C
$GPGGA,132818.250,4308.4745,N,07726.5280,W,1,09,0.94,156.7,M,-34.4,M,,*51
$GPRMC,132818.500,A,4308.4746,N,07726.5310,W,31.61,272.79,160919,,,A*4F
$GPGGA,132818.750,4308.4747,N,07726.5341,W,1,09,0.94,156.9,M,-34.4,M,,*54
$GPRMC,132819.000,A,4308.4748,N,07726.5371,W,31.84,272.42,160919,,,A*41
$GPGGA,132819.250,4308.4749,N,07726.5402,W,1,09,0.94,157.0,M,-34.4,M,,*56
$GPRMC,132819.500,A,4308.4750,N,07726.5433,W,32.57,272.33,160919,,,A*47
$GPGGA,132819.750,4308.4751,N,07726.5465,W,1,09,0.94,157.1,M,-34.4,M,,*5A
$GPRMC,132820.000,A,4308.4752,N,07726.5497,W,33.51,272.61,160919,,,A*44
$GPGGA,132820.250,4308.4753,N,07726.5529,W,1,09,0.94,157.1,M,-34.4,M,,*5E
$GPRMC,132820.500,A,4308.4753,N,07726.5562,W,34.19,272.32,160919,,,A*46
$GPGGA,132820.750,4308.4754,N,07726.5595,W,1,09,0.94,157.2,M,-34.4,M,,*58
$GPRMC,132821.000,A,4308.4755,N,07726.5628,W,34.83,272.22,160919,,,A*4B
$GPGGA,132821.250,4308.4756,N,07726.5662,W,1,09,0.94,157.4,M,-34.4,M,,*53
$GPRMC,132821.500,A,4308.4757,N,07726.5695,W,35.15,272.11,160919,,,A*44
$GPGGA,132821.750,4308.4758,N,07726.5729,W,1,09,0.94,157.5,M,-34.4,M,,*57
$GPRMC,132822.000,A,4308.4759,N,07726.5763,W,35.40,272.43,160919,,,A*43
$GPGGA,132822.250,4308.4761,N,07726.5797,W,1,08,1.00,157.7,M,-34.4,M,,*51
$GPRMC,132822.500,A,4308.4762,N,07726.5831,W,35.47,272.78,160919,,,A*49
$GPGGA,132822.750,4308.4764,N,07726.5864,W,1,09,0.94,157.9,M,-34.4,M,,*51
$GPRMC,132823.000,A,4308.4765,N,07726.5898,W,35.54,272.60,160919,,,A*42
$GPGGA,132823.250,4308.4767,N,07726.5932,W,1,08,1.00,158.1,M,-34.4,M,,*5E
$GPRMC,132823.500,A,4308.4769,N,07726.5966,W,35.87,272.10,160919,,,A*42
$GPGGA,132823.750,4308.4770,N,07726.6001,W,1,09,0.94,158.3,M,-34.4,M,,*58
$GPRMC,132824.000,A,4308.4771,N,07726.6035,W,36.15,271.96,160919,,,A*40
$GPGGA,132824.250,4308.4772,N,07726.6070,W,1,09,0.94,158.5,M,-34.4,M,,*58
$GPRMC,132824.500,A,4308.4773,N,07726.6105,W,36.30,271.78,160919,,,A*42
$GPGGA,132824.750,4308.4774,N,07726.6140,W,1,09,0.94,158.5,M,-34.4,M,,*59
$GPRMC,132825.000,A,4308.4775,N,07726.6175,W,36.74,271.29,160919,,,A*43
$GPGGA,132825.250,4308.4776,N,07726.6211,W,1,09,0.94,158.5,M,-34.4,M,,*58
$GPRMC,132825.500,A,4308.4777,N,07726.6246,W,36.88,270.37,160919,,,A*4A
$GPGGA,132825.750,4308.4778,N,07726.6283,W,1,09,0.94,158.1,M,-34.4,M,,*5C
$GPRMC,132826.000,A,4308.4780,N,07726.6319,W,37.21,269.91,160919,,,A*49
$GPGGA,132826.250,4308.4780,N,07726.6355,W,1,08,1.00,157.8,M,-34.4,M,,*5C
$GPRMC,132826.500,A,4308.4780,N,07726.6391,W,37.56,269.06,160919,,,A*42
$GPGGA,132826.750,4308.4780,N,07726.6427,W,1,09,0.94,157.8,M,-34.4,M,,*56
$GPRMC,132827.000,A,4308.4779,N,07726.6464,W,37.65,268.59,160919,,,A*46
$GPGGA,132827.250,4308.4778,N,07726.6500,W,1,09,0.94,157.9,M,-34.4,M,,*50
$GPRMC,132827.500,A,4308.4777,N,07726.6536,W,37.86,268.47,160919,,,A*49
$GPGGA,132827.750,4308.4776,N,07726.6573,W,1,09,0.94,158.1,M,-34.4,M,,*58
$GPRMC,132828.000,A,4308.4775,N,07726.6609,W,38.28,267.93,160919,,,A*43
$GPGGA,132828.250,4308.4774,N,07726.6646,W,1,09,0.94,158.3,M,-34.4,M,,*57
$GPRMC,132828.500,A,4308.4772,N,07726.6683,W,38.40,267.37,160919,,,A*43
$GPGGA,132828.750,4308.4770,N,07726.6720,W,1,09,0.94,158.5,M,-34.4,M,,*51
$GPRMC,132829.000,A,4308.4768,N,07726.6757,W,38.62,266.72,160919,,,A*44
$GPGGA,132829.250,4308.4767,N,07726.6794,W,1,09,0.94,158.6,M,-34.4,M,,*5F
$GPRMC,132829.500,A,4308.4765,N,07726.6830,W,38.67,266.43,160919,,,A*45
$GPGGA,132829.750,4308.4763,N,07726.6867,W,1,09,0.94,158.8,M,-34.4,M,,*53
$GPRMC,132830.000,A,4308.4760,N,07726.6903,W,38.64,265.86,160919,,,A*45
$GPGGA,132830.250,4308.4758,N,07726.6940,W,1,09,0.94,158.9,M,-34.4,M,,*53
$GPRMC,132830.500,A,4308.4756,N,07726.6976,W,38.35,265.77,160919,,,A*4D
$GPGGA,132830.750,4308.4754,N,07726.7013,W,1,09,0.94,159.1,M,-34.4,M,,*5D
$GPRMC,132831.000,A,4308.4752,N,07726.7049,W,38.38,265.96,160919,,,A*4B
$GPGGA,132831.250,4308.4750,N,07726.7086,W,1,09,0.94,159.2,M,-34.4,M,,*52
$GPRMC,132831.500,A,4308.4748,N,07726.7123,W,38.43,266.08,160919,,,A*40
$GPGGA,132831.750,4308.4747,N,07726.7160,W,1,09,0.94,159.3,M,-34.4,M,,*59
$GPRMC,132832.000,A,4308.4744,N,07726.7197,W,38.41,265.90,160919,,,A*45
$GPGGA,132832.250,4308.4742,N,07726.7234,W,1,09,0.94,159.6,M,-34.4,M,,*5D
$GPRMC,132832.500,A,4308.4740,N,07726.7270,W,38.40,265.54,160919,,,A*47
$GPGGA,132832.750,4308.4737,N,07726.7306,W,1,10,0.88,159.9,M,-34.4,M,,*50
$GPRMC,132833.000,A,4308.4734,N,07726.7343,W,38.14,264.55,160919,,,A*40
$GPGGA,132833.250,4308.4731,N,07726.7379,W,1,10,0.88,160.0,M,-34.4,M,,*59
$GPRMC,132833.500,A,4308.4728,N,07726.7416,W,38.02,264.32,160919,,,A*49
$GPGGA,132833.750,4308.4726,N,07726.7452,W,1,10,0.88,160.2,M,-34.4,M,,*56
$GPRMC,132834.000,A,4308.4723,N,07726.7489,W,38.22,264.34,160919,,,A*42
$GPGGA,132834.250,4308.4720,N,07726.7525,W,1,10,0.88,160.4,M,-34.4,M,,*55
$GPRMC,132834.500,A,4308.4718,N,07726.7561,W,37.99,264.62,160919,,,A*44
$GPGGA,132834.750,4308.4716,N,07726.7597,W,1,10,0.88,160.6,M,-34.4,M,,*5E
$GPRMC,132835.000,A,4308.4714,N,07726.7633,W,37.79,265.52,160919,,,A*44
$GPGGA,132835.250,4308.4712,N,07726.7669,W,1,09,0.92,160.7,M,-34.4,M,,*5E
$GPRMC,132835.500,A,4308.4710,N,07726.7705,W,37.81,265.80,160919,,,A*49
$GPGGA,132835.750,4308.4709,N,07726.7741,W,1,10,0.88,160.6,M,-34.4,M,,*58
$GPRMC,132836.000,A,4308.4708,N,07726.7777,W,37.49,266.14,160919,,,A*49
$GPGGA,132836.250,4308.4706,N,07726.7813,W,1,09,0.92,160.5,M,-34.4,M,,*59
$GPRMC,132836.500,A,4308.4704,N,07726.7848,W,37.42,265.84,160919,,,A*42
$GPGGA,132836.750,4308.4702,N,07726.7884,W,1,09,0.92,160.5,M,-34.4,M,,*56
$GPRMC,132837.000,A,4308.4701,N,07726.7919,W,36.95,265.56,160919,,,A*42
$GPGGA,132837.250,4308.4700,N,07726.7955,W,1,09,0.92,160.0,M,-34.4,M,,*58
$GPRMC,132837.500,A,4308.4698,N,07726.7990,W,37.03,265.56,160919,,,A*49
$GPGGA,132837.750,4308.4697,N,07726.8026,W,1,10,0.88,159.5,M,-34.4,M,,*5C
$GPRMC,132838.000,A,4308.4696,N,07726.8061,W,37.11,265.99,160919,,,A*45
$GPGGA,132838.250,4308.4695,N,07726.8097,W,1,10,0.88,159.0,M,-34.4,M,,*5B
$GPRMC,132838.500,A,4308.4693,N,07726.8133,W,37.57,265.96,160919,,,A*4E
$GPGGA,132838.750,4308.4692,N,07726.8170,W,1,10,0.88,158.6,M,-34.4,M,,*56
$GPRMC,132839.000,A,4308.4689,N,07726.8206,W,38.02,265.12,160919,,,A*47
$GPGGA,132839.250,4308.4687,N,07726.8243,W,1,10,0.88,158.3,M,-34.4,M,,*50
$GPRMC,132839.500,A,4308.4684,N,07726.8279,W,38.02,264.60,160919,,,A*43
$GPGGA,132839.750,4308.4682,N,07726.8315,W,1,10,0.88,157.8,M,-34.4,M,,*56
$GPRMC,132840.000,A,4308.4680,N,07726.8352,W,38.08,264.48,160919,,,A*44
$GPGGA,132840.250,4308.4678,N,07726.8389,W,1,10,0.88,157.4,M,-34.4,M,,*51
$GPRMC,132840.500,A,4308.4676,N,07726.8425,W,38.11,264.46,160919,,,A*49
$GPGGA,132840.750,4308.4675,N,07726.8462,W,1,10,0.88,157.0,M,-34.4,M,,*5F
$GPRMC,132841.000,A,4308.4673,N,07726.8499,W,38.15,264.85,160919,,,A*44
$GPGGA,132841.250,4308.4670,N,07726.8536,W,1,10,0.88,156.8,M,-34.4,M,,*57
$GPRMC,132841.500,A,4308.4668,N,07726.8573,W,38.38,264.90,160919,,,A*45
$GPGGA,132841.750,4308.4666,N,07726.8610,W,1,10,0.88,156.8,M,-34.4,M,,*52
$GPRMC,132842.000,A,4308.4663,N,07726.8646,W,38.51,264.79,160919,,,A*45
$GPGGA,132842.250,4308.4661,N,07726.8684,W,1,10,0.88,156.6,M,-34.4,M,,*50
$GPRMC,132842.500,A,4308.4659,N,07726.8721,W,38.96,264.83,160919,,,A*47
$GPGGA,132842.750,4308.4656,N,07726.8758,W,1,10,0.88,156.3,M,-34.4,M,,*54
$GPRMC,132843.000,A,4308.4654,N,07726.8796,W,39.07,264.96,160919,,,A*4F
$GPGGA,132843.250,4308.4651,N,07726.8833,W,1,10,0.88,156.1,M,-34.4,M,,*57
$GPRMC,132843.500,A,4308.4649,N,07726.8870,W,39.12,265.15,160919,,,A*4F
$GPGGA,132843.750,4308.4647,N,07726.8908,W,1,10,0.88,155.7,M,-34.4,M,,*59
$GPRMC,132844.000,A,4308.4645,N,07726.8946,W,39.81,265.44,160919,,,A*4B
$GPGGA,132844.250,4308.4643,N,07726.8984,W,1,10,0.88,155.5,M,-34.4,M,,*59
$GPRMC,132844.500,A,4308.4641,N,07726.9022,W,40.11,265.88,160919,,,A*47
$GPGGA,132844.750,4308.4640,N,07726.9061,W,1,10,0.88,155.2,M,-34.4,M,,*5B
$GPRMC,132845.000,A,4308.4638,N,07726.9099,W,40.29,266.27,160919,,,A*40
$GPGGA,132845.250,4308.4637,N,07726.9137,W,1,10,0.88,154.9,M,-34.4,M,,*57
$GPRMC,132845.500,A,4308.4636,N,07726.9175,W,40.24,266.60,160919,,,A*46
$GPGGA,132845.750,4308.4634,N,07726.9213,W,1,10,0.88,154.6,M,-34.4,M,,*5B
$GPRMC,132846.000,A,4308.4632,N,07726.9251,W,40.24,266.26,160919,,,A*43
$GPGGA,132846.250,4308.4630,N,07726.9290,W,1,10,0.88,154.4,M,-34.4,M,,*50
$GPRMC,132846.500,A,4308.4628,N,07726.9329,W,40.47,265.88,160919,,,A*41
$GPGGA,132846.750,4308.4625,N,07726.9367,W,1,10,0.88,154.2,M,-34.4,M,,*5E
$GPRMC,132847.000,A,4308.4623,N,07726.9406,W,40.51,265.94,160919,,,A*4E
$GPGGA,132847.250,4308.4621,N,07726.9444,W,1,10,0.88,154.1,M,-34.4,M,,*5B
$GPRMC,132847.500,A,4308.4619,N,07726.9483,W,40.77,266.15,160919,,,A*41
$GPGGA,132847.750,4308.4617,N,07726.9522,W,1,10,0.88,154.0,M,-34.4,M,,*5B
$GPRMC,132848.000,A,4308.4615,N,07726.9561,W,40.86,265.91,160919,,,A*4B
$GPGGA,132848.250,4308.4613,N,07726.9600,W,1,10,0.88,153.8,M,-34.4,M,,*59
$GPRMC,132848.500,A,4308.4610,N,07726.9639,W,41.10,265.77,160919,,,A*43
$GPGGA,132848.750,4308.4608,N,07726.9678,W,1,10,0.88,153.5,M,-34.4,M,,*54
$GPRMC,132849.000,A,4308.4606,N,07726.9717,W,41.12,265.79,160919,,,A*41
$GPGGA,132849.250,4308.4604,N,07726.9757,W,1,10,0.88,153.2,M,-34.4,M,,*57
$GPRMC,132849.500,A,4308.4602,N,07726.9796,W,41.36,265.77,160919,,,A*41
$GPGGA,132849.750,4308.4600,N,07726.9835,W,1,10,0.88,153.1,M,-34.4,M,,*5E
$GPRMC,132850.000,A,4308.4597,N,07726.9875,W,41.54,265.51,160919,,,A*41
$GPGGA,132850.250,4308.4595,N,07726.9915,W,1,10,0.88,153.0,M,-34.4,M,,*5E
$GPRMC,132850.500,A,4308.4593,N,07726.9954,W,41.66,265.50,160919,,,A*42
$GPGGA,132850.750,4308.4590,N,07726.9994,W,1,10,0.88,152.9,M,-34.4,M,,*5F
$GPRMC,132851.000,A,4308.4588,N,07727.0033,W,41.63,265.74,160919,,,A*4F
$GPGGA,132851.250,4308.4586,N,07727.0073,W,1,10,0.88,152.8,M,-34.4,M,,*55
$GPRMC,132851.500,A,4308.4583,N,07727.0113,W,41.68,265.69,160919,,,A*45
$GPGGA,132851.750,4308.4581,N,07727.0152,W,1,10,0.88,152.7,M,-34.4,M,,*5A
$GPRMC,132852.000,A,4308.4578,N,07727.0192,W,41.91,265.60,160919,,,A*41
$GPGGA,132852.250,4308.4576,N,07727.0232,W,1,10,0.88,152.6,M,-34.4,M,,*50
$GPRMC,132852.500,A,4308.4574,N,07727.0272,W,41.94,265.55,160919,,,A*46
$GPGGA,132852.750,4308.4572,N,07727.0312,W,1,10,0.88,152.5,M,-34.4,M,,*51
$GPRMC,132853.000,A,4308.4570,N,07727.0351,W,41.74,266.45,160919,,,A*4A
$GPGGA,132853.250,4308.4569,N,07727.0391,W,1,10,0.88,152.6,M,-34.4,M,,*57
$GPRMC,132853.500,A,4308.4568,N,07727.0431,W,41.68,267.37,160919,,,A*4E
$GPGGA,132853.750,4308.4567,N,07727.0471,W,1,10,0.88,152.5,M,-34.4,M,,*56
$GPRMC,132854.000,A,4308.4566,N,07727.0510,W,41.56,268.32,160919,,,A*47
$GPGGA,132854.250,4308.4565,N,07727.0549,W,1,10,0.88,152.3,M,-34.4,M,,*5A
$GPRMC,132854.500,A,4308.4565,N,07727.0588,W,41.50,268.82,160919,,,A*4D
$GPGGA,132854.750,4308.4564,N,07727.0627,W,1,10,0.88,152.0,M,-34.4,M,,*56
$GPRMC,132855.000,A,4308.4564,N,07727.0666,W,41.37,269.69,160919,,,A*4E
$GPGGA,132855.250,4308.4564,N,07727.0704,W,1,10,0.88,151.7,M,-34.4,M,,*56
$GPRMC,132855.500,A,4308.4565,N,07727.0743,W,40.59,270.52,160919,,,A*45
$GPGGA,132855.750,4308.4566,N,07727.0782,W,1,10,0.88,151.4,M,-34.4,M,,*5C
$GPRMC,132856.000,A,4308.4567,N,07727.0821,W,40.58,272.08,160919,,,A*46
$GPGGA,132856.250,4308.4569,N,07727.0860,W,1,10,0.88,151.4,M,-34.4,M,,*56
$GPRMC,132856.500,A,4308.4570,N,07727.0899,W,40.70,273.12,160919,,,A*46
$GPGGA,132856.750,4308.4573,N,07727.0939,W,1,10,0.88,151.3,M,-34.4,M,,*52
$GPRMC,132857.000,A,4308.4575,N,07727.0978,W,41.05,274.47,160919,,,A*4D
$GPGGA,132857.250,4308.4578,N,07727.1017,W,1,10,0.88,151.2,M,-34.4,M,,*58
$GPRMC,132857.500,A,4308.4581,N,07727.1056,W,41.04,275.51,160919,,,A*40
$GPGGA,132857.750,4308.4585,N,07727.1095,W,1,10,0.88,151.0,M,-34.4,M,,*57
$GPRMC,132858.000,A,4308.4588,N,07727.1133,W,40.78,276.22,160919,,,A*4C
$GPGGA,132858.250,4308.4591,N,07727.1172,W,1,10,0.88,150.8,M,-34.4,M,,*59
$GPRMC,132858.500,A,4308.4595,N,07727.1210,W,40.74,276.96,160919,,,A*44
$GPGGA,132858.750,4308.4599,N,07727.1248,W,1,09,0.92,150.7,M,-34.4,M,,*52
$GPRMC,132859.000,A,4308.4603,N,07727.1287,W,40.58,278.22,160919,,,A*4D
$GPGGA,132859.250,4308.4608,N,07727.1325,W,1,10,0.88,150.8,M,-34.4,M,,*5B
$GPRMC,132859.500,A,4308.4612,N,07727.1364,W,40.52,278.85,160919,,,A*43
$GPGGA,132859.750,4308.4617,N,07727.1402,W,1,10,0.88,151.0,M,-34.4,M,,*5B
$GPRMC,132900.000,A,4308.4622,N,07727.1439,W,40.09,279.83,160919,,,A*4E
$GPGGA,132900.250,4308.4627,N,07727.1476,W,1,10,0.88,151.2,M,-34.4,M,,*51
$GPRMC,132900.500,A,4308.4632,N,07727.1514,W,40.04,279.83,160919,,,A*49
$GPGGA,132900.750,4308.4637,N,07727.1551,W,1,10,0.88,151.1,M,-34.4,M,,*52
$GPRMC,132901.000,A,4308.4642,N,07727.1588,W,40.10,279.89,160919,,,A*40
$GPGGA,132901.250,4308.4647,N,07727.1625,W,1,10,0.87,151.2,M,-34.4,M,,*5D
$GPRMC,132901.500,A,4308.4652,N,07727.1662,W,40.07,279.97,160919,,,A*4A
$GPGGA,132901.750,4308.4657,N,07727.1699,W,1,10,0.88,151.3,M,-34.4,M,,*50
$GPRMC,132902.000,A,4308.4662,N,07727.1736,W,39.87,280.24,160919,,,A*47
$GPGGA,132902.250,4308.4667,N,07727.1774,W,1,09,0.92,151.3,M,-34.4,M,,*54
$GPRMC,132902.500,A,4308.4671,N,07727.1812,W,39.86,279.40,160919,,,A*4C
$GPGGA,132902.750,4308.4675,N,07727.1849,W,1,10,0.88,151.4,M,-34.4,M,,*57
$GPRMC,132903.000,A,4308.4679,N,07727.1886,W,39.81,278.75,160919,,,A*4D
$GPGGA,132903.250,4308.4684,N,07727.1923,W,1,10,0.88,151.5,M,-34.4,M,,*51
$GPRMC,132903.500,A,4308.4689,N,07727.1960,W,39.82,278.84,160919,,,A*43
$GPGGA,132903.750,4308.4693,N,07727.1998,W,1,10,0.88,151.6,M,-34.4,M,,*51
$GPRMC,132904.000,A,4308.4698,N,07727.2035,W,39.82,279.01,160919,,,A*47
$GPGGA,132904.250,4308.4703,N,07727.2072,W,1,09,0.94,151.6,M,-34.4,M,,*50
$GPRMC,132904.500,A,4308.4708,N,07727.2110,W,39.86,279.19,160919,,,A*41
$GPGGA,132904.750,4308.4713,N,07727.2147,W,1,10,0.88,151.6,M,-34.4,M,,*56
$GPRMC,132905.000,A,4308.4717,N,07727.2185,W,40.08,279.12,160919,,,A*44
$GPGGA,132905.250,4308.4722,N,07727.2222,W,1,10,0.88,151.6,M,-34.4,M,,*50
$GPRMC,132905.500,A,4308.4727,N,07727.2260,W,40.10,279.12,160919,,,A*43
$GPGGA,132905.750,4308.4731,N,07727.2297,W,1,08,1.00,151.6,M,-34.4,M,,*51
$GPRMC,132906.000,A,4308.4736,N,07727.2335,W,40.08,279.02,160919,,,A*4C
$GPGGA,132906.250,4308.4741,N,07727.2373,W,1,10,0.88,151.7,M,-34.4,M,,*52
$GPRMC,132906.500,A,4308.4746,N,07727.2410,W,40.34,279.20,160919,,,A*41
$GPGGA,132906.750,4308.4751,N,07727.2448,W,1,10,0.88,151.5,M,-34.4,M,,*5B
$GPRMC,132907.000,A,4308.4756,N,07727.2485,W,40.43,279.40,160919,,,A*4E
$GPGGA,132907.250,4308.4762,N,07727.2523,W,1,10,0.88,151.3,M,-34.4,M,,*55
$GPRMC,132907.500,A,4308.4767,N,07727.2561,W,40.47,279.34,160919,,,A*45
$GPGGA,132907.750,4308.4772,N,07727.2598,W,1,10,0.88,151.1,M,-34.4,M,,*53
$GPRMC,132908.000,A,4308.4777,N,07727.2637,W,40.52,279.22,160919,,,A*4D
$GPGGA,132908.250,4308.4783,N,07727.2675,W,1,10,0.88,150.9,M,-34.4,M,,*5E
$GPRMC,132908.500,A,4308.4788,N,07727.2713,W,40.61,279.10,160919,,,A*4E
$GPGGA,132908.750,4308.4793,N,07727.2752,W,1,10,0.88,150.7,M,-34.4,M,,*50
$GPRMC,132909.000,A,4308.4798,N,07727.2790,W,40.69,279.13,160919,,,A*4B
$GPGGA,132909.250,4308.4803,N,07727.2829,W,1,10,0.88,150.6,M,-34.4,M,,*50
$GPRMC,132909.500,A,4308.4808,N,07727.2867,W,40.46,279.70,160919,,,A*47
$GPGGA,132909.750,4308.4814,N,07727.2905,W,1,10,0.88,150.6,M,-34.4,M,,*5C
$GPRMC,132910.000,A,4308.4819,N,07727.2942,W,40.15,280.34,160919,,,A*4C
$GPGGA,132910.250,4308.4824,N,07727.2980,W,1,10,0.88,150.7,M,-34.4,M,,*5E
$GPRMC,132910.500,A,4308.4829,N,07727.3017,W,40.04,280.26,160919,,,A*41
$GPGGA,132910.750,4308.4835,N,07727.3054,W,1,10,0.88,150.7,M,-34.4,M,,*5A
$GPRMC,132911.000,A,4308.4842,N,07727.3092,W,40.30,281.30,160919,,,A*44
$GPGGA,132911.250,4308.4848,N,07727.3129,W,1,10,0.88,150.7,M,-34.4,M,,*5F
$GPRMC,132911.500,A,4308.4853,N,07727.3166,W,40.28,281.02,160919,,,A*43
$GPGGA,132911.750,4308.4860,N,07727.3204,W,1,10,0.88,150.2,M,-34.4,M,,*59
$GPRMC,132912.000,A,4308.4866,N,07727.3241,W,40.21,280.68,160919,,,A*41
$GPGGA,132912.250,4308.4872,N,07727.3279,W,1,10,0.88,149.8,M,-34.4,M,,*54
$GPRMC,132912.500,A,4308.4878,N,07727.3316,W,40.19,280.41,160919,,,A*48
$GPGGA,132912.750,4308.4883,N,07727.3353,W,1,10,0.88,149.1,M,-34.4,M,,*5F
$GPRMC,132913.000,A,4308.4889,N,07727.3391,W,40.11,279.67,160919,,,A*47
$GPGGA,132913.250,4308.4894,N,07727.3428,W,1,10,0.88,148.6,M,-34.4,M,,*50
$GPRMC,132913.500,A,4308.4899,N,07727.3465,W,39.90,279.41,160919,,,A*4C
$GPGGA,132913.750,4308.4903,N,07727.3502,W,1,10,0.88,148.3,M,-34.4,M,,*56
$GPRMC,132914.000,A,4308.4908,N,07727.3539,W,39.61,279.32,160919,,,A*45
$GPGGA,132914.250,4308.4912,N,07727.3576,W,1,10,0.88,148.2,M,-34.4,M,,*56
$GPRMC,132914.500,A,4308.4917,N,07727.3613,W,39.36,279.05,160919,,,A*43
$GPGGA,132914.750,4308.4922,N,07727.3650,W,1,10,0.88,148.2,M,-34.4,M,,*57
$GPRMC,132915.000,A,4308.4926,N,07727.3687,W,39.04,278.86,160919,,,A*43
$GPGGA,132915.250,4308.4930,N,07727.3723,W,1,10,0.88,148.3,M,-34.4,M,,*54
$GPRMC,132915.500,A,4308.4935,N,07727.3759,W,38.58,278.65,160919,,,A*43
$GPGGA,132915.750,4308.4939,N,07727.3795,W,1,10,0.88,148.4,M,-34.4,M,,*52
$GPRMC,132916.000,A,4308.4943,N,07727.3831,W,38.49,278.74,160919,,,A*45
$GPGGA,132916.250,4308.4947,N,07727.3867,W,1,10,0.88,148.5,M,-34.4,M,,*5E
$GPRMC,132916.500,A,4308.4952,N,07727.3903,W,38.46,279.39,160919,,,A*47
$GPGGA,132916.750,4308.4957,N,07727.3939,W,1,10,0.88,148.4,M,-34.4,M,,*51
$GPRMC,132917.000,A,4308.4962,N,07727.3975,W,38.47,279.59,160919,,,A*46
$GPGGA,132917.250,4308.4966,N,07727.4010,W,1,10,0.88,148.4,M,-34.4,M,,*52
$GPRMC,132917.500,A,4308.4971,N,07727.4046,W,38.55,279.64,160919,,,A*42
$GPGGA,132917.750,4308.4976,N,07727.4083,W,1,10,0.88,148.4,M,-34.4,M,,*5C
$GPRMC,132918.000,A,4308.4980,N,07727.4119,W,38.61,279.67,160919,,,A*49
$GPGGA,132918.250,4308.4985,N,07727.4155,W,1,10,0.88,148.5,M,-34.4,M,,*51
$GPRMC,132918.500,A,4308.4990,N,07727.4190,W,38.14,279.79,160919,,,A*41
$GPGGA,132918.750,4308.4994,N,07727.4225,W,1,09,0.94,148.7,M,-34.4,M,,*57
$GPRMC,132919.000,A,4308.4998,N,07727.4261,W,37.87,279.64,160919,,,A*49
$GPGGA,132919.250,4308.5003,N,07727.4296,W,1,10,0.88,149.0,M,-34.4,M,,*5E
$GPRMC,132919.500,A,4308.5007,N,07727.4331,W,37.84,279.90,160919,,,A*4E
$GPGGA,132919.750,4308.5012,N,07727.4366,W,1,10,0.88,149.2,M,-34.4,M,,*57
$GPRMC,132920.000,A,4308.5016,N,07727.4402,W,37.85,279.32,160919,,,A*4F
$GPGGA,132920.250,4308.5020,N,07727.4437,W,1,09,0.92,149.3,M,-34.4,M,,*58
$GPRMC,132920.500,A,4308.5025,N,07727.4472,W,38.13,279.17,160919,,,A*4A
$GPGGA,132920.750,4308.5028,N,07727.4508,W,1,10,0.88,149.4,M,-34.4,M,,*5C
$GPRMC,132921.000,A,4308.5032,N,07727.4544,W,38.44,278.49,160919,,,A*44
$GPGGA,132921.250,4308.5036,N,07727.4580,W,1,10,0.88,149.5,M,-34.4,M,,*56
$GPRMC,132921.500,A,4308.5040,N,07727.4616,W,38.49,278.33,160919,,,A*40
$GPGGA,132921.750,4308.5044,N,07727.4652,W,1,10,0.88,149.7,M,-34.4,M,,*58
$GPRMC,132922.000,A,4308.5048,N,07727.4688,W,38.91,278.60,160919,,,A*4A
$GPGGA,132922.250,4308.5053,N,07727.4725,W,1,10,0.88,149.9,M,-34.4,M,,*57
$GPRMC,132922.500,A,4308.5057,N,07727.4762,W,39.27,279.15,160919,,,A*4B
$GPGGA,132922.750,4308.5062,N,07727.4799,W,1,10,0.88,150.0,M,-34.4,M,,*56
$GPRMC,132923.000,A,4308.5066,N,07727.4835,W,39.30,279.29,160919,,,A*49
$GPGGA,132923.250,4308.5071,N,07727.4872,W,1,10,0.88,149.9,M,-34.4,M,,*5B
$GPRMC,132923.500,A,4308.5075,N,07727.4908,W,39.43,278.75,160919,,,A*4D
$GPGGA,132923.750,4308.5079,N,07727.4945,W,1,10,0.88,149.8,M,-34.4,M,,*52
$GPRMC,132924.000,A,4308.5083,N,07727.4982,W,39.57,278.57,160919,,,A*41
$GPGGA,132924.250,4308.5088,N,07727.5019,W,1,09,0.92,149.8,M,-34.4,M,,*5C
$GPRMC,132924.500,A,4308.5092,N,07727.5057,W,39.81,278.60,160919,,,A*4B
$GPGGA,132924.750,4308.5096,N,07727.5094,W,1,10,0.88,149.8,M,-34.4,M,,*50
$GPRMC,132925.000,A,4308.5100,N,07727.5131,W,39.93,278.72,160919,,,A*44
$GPGGA,132925.250,4308.5104,N,07727.5169,W,1,10,0.88,149.9,M,-34.4,M,,*5C
$GPRMC,132925.500,A,4308.5108,N,07727.5207,W,40.13,278.84,160919,,,A*40
$GPGGA,132925.750,4308.5112,N,07727.5245,W,1,10,0.88,150.2,M,-34.4,M,,*50
$GPRMC,132926.000,A,4308.5116,N,07727.5282,W,40.42,279.20,160919,,,A*4F
$GPGGA,132926.250,4308.5120,N,07727.5320,W,1,09,0.94,150.3,M,-34.4,M,,*51
$GPRMC,132926.500,A,4308.5124,N,07727.5358,W,40.23,279.08,160919,,,A*40
$GPGGA,132926.750,4308.5128,N,07727.5396,W,1,10,0.88,150.6,M,-34.4,M,,*51
$GPRMC,132927.000,A,4308.5132,N,07727.5434,W,40.36,279.21,160919,,,A*41
$GPGGA,132927.250,4308.5136,N,07727.5471,W,1,10,0.87,150.9,M,-34.4,M,,*54
$GPRMC,132927.500,A,4308.5140,N,07727.5509,W,40.47,279.27,160919,,,A*4E
$GPGGA,132927.750,4308.5145,N,07727.5547,W,1,10,0.88,151.3,M,-34.4,M,,*55
$GPRMC,132928.000,A,4308.5149,N,07727.5586,W,40.96,279.01,160919,,,A*42
$GPGGA,132928.250,4308.5153,N,07727.5624,W,1,10,0.88,151.6,M,-34.4,M,,*5B
$GPRMC,132928.500,A,4308.5157,N,07727.5662,W,40.94,278.67,160919,,,A*42
$GPGGA,132928.750,4308.5161,N,07727.5701,W,1,10,0.88,152.0,M,-34.4,M,,*5C
$GPRMC,132929.000,A,4308.5165,N,07727.5740,W,41.02,278.38,160919,,,A*42
