Vers 81
USE_SERIAL_FEEDBACK=true
DEVELOPMENT_MODE=false
USE_RMC_ONLY=false

$GPRMC,133657.250,A,4308.3034,N,07726.2643,W,0.03,92.25,251019,,,A*43
$GPGGA,133657.500,4308.3033,N,07726.2644,W,1,05,1.25,161.1,M,-34.4,M,,*58
$GPRMC,133657.750,A,4308.3033,N,07726.2644,W,0.01,122.01,251019,,,A*78
$GPGGA,133658.000,4308.3033,N,07726.2645,W,1,05,1.25,161.0,M,-34.4,M,,*52
$GPRMC,133658.250,A,4308.3033,N,07726.2646,W,0.04,350.45,251019,,,A*72
$GPGGA,133658.500,4308.3033,N,07726.2646,W,1,05,1.41,161.1,M,-34.4,M,,*57
$GPRMC,133658.750,A,4308.3033,N,07726.2647,W,0.04,328.33,251019,,,A*78
$GPGGA,133659.000,4308.3033,N,07726.2647,W,1,05,1.25,161.3,M,-34.4,M,,*52
$GPRMC,133659.250,A,4308.3033,N,07726.2647,W,0.03,239.86,251019,,,A*74
$GPGGA,133659.500,4308.3033,N,07726.2647,W,1,05,1.25,161.4,M,-34.4,M,,*50
$GPRMC,133659.750,A,4308.3033,N,07726.2647,W,0.00,0.00,251019,,,A*74
$GPGGA,133700.000,4308.3033,N,07726.2647,W,1,05,1.41,161.7,M,-34.4,M,,*59
$GPRMC,133700.250,A,4308.3033,N,07726.2646,W,0.03,312.15,251019,,,A*7A
$GPGGA,133700.500,4308.3033,N,07726.2646,W,1,05,1.25,161.8,M,-34.4,M,,*50
$GPRMC,133700.750,A,4308.3033,N,07726.2646,W,0.02,163.75,251019,,,A*7C
$GPGGA,133701.000,4308.3033,N,07726.2646,W,1,05,1.25,162.0,M,-34.4,M,,*5F
$GPRMC,133701.250,A,4308.3033,N,07726.2646,W,0.01,146.05,251019,,,A*7B
$GPGGA,133701.500,4308.3033,N,07726.2646,W,1,05,1.25,161.9,M,-34.4,M,,*50
$GPRMC,133701.750,A,4308.3033,N,07726.2646,W,0.02,172.12,251019,,,A*7C
$GPGGA,133702.000,4308.3032,N,07726.2646,W,1,05,1.25,161.8,M,-34.4,M,,*56
$GPRMC,133702.250,A,4308.3032,N,07726.2646,W,0.02,58.84,251019,,,A*4D
$GPGGA,133702.500,4308.3032,N,07726.2646,W,1,07,1.16,161.7,M,-34.4,M,,*5E
$GPRMC,133702.750,A,4308.3032,N,07726.2646,W,0.02,161.70,251019,,,A*78
$GPGGA,133703.000,4308.3032,N,07726.2646,W,1,07,1.16,161.6,M,-34.4,M,,*5B
$GPRMC,133703.250,A,4308.3032,N,07726.2646,W,0.02,309.26,251019,,,A*73
$GPGGA,133703.500,4308.3032,N,07726.2646,W,1,07,1.16,161.6,M,-34.4,M,,*5E
$GPRMC,133703.750,A,4308.3033,N,07726.2646,W,0.02,162.13,251019,,,A*7E
$GPGGA,133704.000,4308.3033,N,07726.2646,W,1,07,1.16,161.9,M,-34.4,M,,*52
$GPRMC,133704.250,A,4308.3033,N,07726.2646,W,0.00,108.13,251019,,,A*72
$GPGGA,133704.500,4308.3034,N,07726.2646,W,1,07,1.16,162.4,M,-34.4,M,,*5E
$GPRMC,133704.750,A,4308.3034,N,07726.2646,W,0.05,5.60,251019,,,A*7D
$GPGGA,133705.000,4308.3034,N,07726.2646,W,1,07,1.22,162.6,M,-34.4,M,,*5F
$GPRMC,133705.250,A,4308.3034,N,07726.2646,W,0.02,68.80,251019,,,A*4B
$GPGGA,133705.500,4308.3035,N,07726.2646,W,1,07,1.16,163.0,M,-34.4,M,,*5B
$GPRMC,133705.750,A,4308.3035,N,07726.2646,W,0.04,98.78,251019,,,A*41
$GPGGA,133706.000,4308.3036,N,07726.2646,W,1,07,1.16,163.6,M,-34.4,M,,*58
$GPRMC,133706.250,A,4308.3037,N,07726.2646,W,0.03,359.74,251019,,,A*70
$GPGGA,133706.500,4308.3037,N,07726.2645,W,1,07,1.22,164.3,M,-34.4,M,,*5A
$GPRMC,133706.750,A,4308.3038,N,07726.2645,W,0.01,222.04,251019,,,A*71
$GPGGA,133707.000,4308.3039,N,07726.2645,W,1,07,1.16,164.9,M,-34.4,M,,*5D
$GPRMC,133707.250,A,4308.3039,N,07726.2645,W,0.05,281.17,251019,,,A*7B
$GPGGA,133707.500,4308.3040,N,07726.2645,W,1,07,1.16,165.4,M,-34.4,M,,*5A
$GPRMC,133707.750,A,4308.3040,N,07726.2645,W,0.10,311.08,251019,,,A*72
$GPGGA,133708.000,4308.3041,N,07726.2645,W,1,07,1.16,165.9,M,-34.4,M,,*5C
$GPRMC,133708.250,A,4308.3041,N,07726.2645,W,0.17,299.58,251019,,,A*7A
$GPGGA,133708.500,4308.3042,N,07726.2645,W,1,07,1.16,166.4,M,-34.4,M,,*54
$GPRMC,133708.750,A,4308.3042,N,07726.2644,W,0.13,308.33,251019,,,A*7D
$GPGGA,133709.000,4308.3042,N,07726.2644,W,1,07,1.16,166.8,M,-34.4,M,,*5D
$GPRMC,133709.250,A,4308.3043,N,07726.2643,W,0.01,70.58,251019,,,A*4D
$GPGGA,133709.500,4308.3043,N,07726.2643,W,1,07,1.16,167.1,M,-34.4,M,,*56
$GPRMC,133709.750,A,4308.3043,N,07726.2643,W,0.00,185.04,251019,,,A*7B
$GPGGA,133710.000,4308.3043,N,07726.2643,W,1,07,1.16,167.5,M,-34.4,M,,*5F
$GPRMC,133710.250,A,4308.3044,N,07726.2643,W,0.06,321.49,251019,,,A*72
$GPGGA,133710.500,4308.3044,N,07726.2643,W,1,07,1.16,167.9,M,-34.4,M,,*51
$GPRMC,133710.750,A,4308.3044,N,07726.2643,W,0.04,312.61,251019,,,A*7F
$GPGGA,133711.000,4308.3044,N,07726.2643,W,1,07,1.16,168.1,M,-34.4,M,,*52
$GPRMC,133711.250,A,4308.3044,N,07726.2643,W,0.03,13.13,251019,,,A*4B
$GPGGA,133711.500,4308.3044,N,07726.2643,W,1,07,1.22,168.3,M,-34.4,M,,*52
$GPRMC,133711.750,A,4308.3044,N,07726.2643,W,0.01,87.10,251019,,,A*42
$GPGGA,133712.000,4308.3044,N,07726.2643,W,1,07,1.16,168.6,M,-34.4,M,,*56
$GPRMC,133712.250,A,4308.3044,N,07726.2642,W,0.06,146.11,251019,,,A*7F
$GPGGA,133712.500,4308.3044,N,07726.2642,W,1,07,1.16,168.7,M,-34.4,M,,*53
$GPRMC,133712.750,A,4308.3044,N,07726.2642,W,0.03,85.34,251019,,,A*46
$GPGGA,133713.000,4308.3044,N,07726.2642,W,1,07,1.16,168.9,M,-34.4,M,,*59
$GPRMC,133713.250,A,4308.3044,N,07726.2642,W,0.05,87.06,251019,,,A*47
$GPGGA,133713.500,4308.3044,N,07726.2642,W,1,07,1.16,169.0,M,-34.4,M,,*54
$GPRMC,133713.750,A,4308.3044,N,07726.2642,W,0.03,72.82,251019,,,A*42
$GPGGA,133714.000,4308.3044,N,07726.2642,W,1,07,1.16,169.2,M,-34.4,M,,*54
$GPRMC,133714.250,A,4308.3044,N,07726.2642,W,0.05,214.53,251019,,,A*78
$GPGGA,133714.500,4308.3044,N,07726.2642,W,1,07,1.16,169.3,M,-34.4,M,,*50
$GPRMC,133714.750,A,4308.3044,N,07726.2642,W,0.02,207.48,251019,,,A*72
$GPGGA,133715.000,4308.3044,N,07726.2642,W,1,07,1.16,169.4,M,-34.4,M,,*53
$GPRMC,133715.250,A,4308.3043,N,07726.2642,W,0.00,171.38,251019,,,A*76
$GPGGA,133715.500,4308.3043,N,07726.2642,W,1,07,1.16,169.5,M,-34.4,M,,*50
$GPRMC,133715.750,A,4308.3043,N,07726.2642,W,0.04,68.75,251019,,,A*47
$GPGGA,133716.000,4308.3043,N,07726.2642,W,1,07,1.16,169.6,M,-34.4,M,,*55
$GPRMC,133716.250,A,4308.3043,N,07726.2642,W,0.02,164.58,251019,,,A*75
$GPGGA,133716.500,4308.3043,N,07726.2642,W,1,07,1.16,169.7,M,-34.4,M,,*51
$GPRMC,133716.750,A,4308.3043,N,07726.2642,W,0.01,291.20,251019,,,A*75
$GPGGA,133717.000,4308.3043,N,07726.2642,W,1,07,1.16,169.8,M,-34.4,M,,*5A
$GPRMC,133717.250,A,4308.3043,N,07726.2642,W,0.04,63.18,251019,,,A*40
$GPGGA,133717.500,4308.3043,N,07726.2643,W,1,07,1.16,170.0,M,-34.4,M,,*5E
$GPRMC,133717.750,A,4308.3043,N,07726.2643,W,0.01,168.32,251019,,,A*73
$GPGGA,133718.000,4308.3043,N,07726.2643,W,1,07,1.16,170.1,M,-34.4,M,,*55
$GPRMC,133718.250,A,4308.3043,N,07726.2643,W,0.02,74.86,251019,,,A*49
$GPGGA,133718.500,4308.3043,N,07726.2643,W,1,07,1.16,170.3,M,-34.4,M,,*52
$GPRMC,133718.750,A,4308.3043,N,07726.2644,W,0.02,158.75,251019,,,A*78
$GPGGA,133719.000,4308.3043,N,07726.2644,W,1,07,1.16,170.5,M,-34.4,M,,*57
$GPRMC,133719.250,A,4308.3043,N,07726.2644,W,0.01,151.96,251019,,,A*7B
$GPGGA,133719.500,4308.3043,N,07726.2644,W,1,07,1.16,170.6,M,-34.4,M,,*51
$GPRMC,133719.750,A,4308.3043,N,07726.2644,W,0.05,28.55,251019,,,A*4A
$GPGGA,133720.000,4308.3043,N,07726.2645,W,1,07,1.16,170.8,M,-34.4,M,,*51
$GPRMC,133720.250,A,4308.3043,N,07726.2645,W,0.02,233.42,251019,,,A*7D
$GPGGA,133720.500,4308.3043,N,07726.2645,W,1,07,1.16,170.9,M,-34.4,M,,*55
$GPRMC,133720.750,A,4308.3043,N,07726.2646,W,0.02,79.53,251019,,,A*47
$GPGGA,133721.000,4308.3043,N,07726.2646,W,1,07,1.16,171.0,M,-34.4,M,,*5A
$GPRMC,133721.250,A,4308.3043,N,07726.2646,W,0.02,301.07,251019,,,A*7E
$GPGGA,133721.500,4308.3043,N,07726.2646,W,1,07,1.16,171.0,M,-34.4,M,,*5F
$GPRMC,133721.750,A,4308.3043,N,07726.2647,W,0.02,179.25,251019,,,A*77
$GPGGA,133722.000,4308.3043,N,07726.2647,W,1,07,1.16,171.1,M,-34.4,M,,*59
$GPRMC,133722.250,A,4308.3043,N,07726.2647,W,0.02,140.61,251019,,,A*7B
$GPGGA,133722.500,4308.3043,N,07726.2647,W,1,07,1.16,171.1,M,-34.4,M,,*5C
$GPRMC,133722.750,A,4308.3043,N,07726.2647,W,0.02,310.44,251019,,,A*7E
$GPGGA,133723.000,4308.3042,N,07726.2648,W,1,07,1.16,171.1,M,-34.4,M,,*56
$GPRMC,133723.250,A,4308.3042,N,07726.2648,W,0.03,115.19,251019,,,A*7A
$GPGGA,133723.500,4308.3042,N,07726.2648,W,1,07,1.16,171.1,M,-34.4,M,,*53
$GPRMC,133723.750,A,4308.3042,N,07726.2648,W,0.01,343.56,251019,,,A*77
$GPGGA,133724.000,4308.3042,N,07726.2648,W,1,07,1.16,171.0,M,-34.4,M,,*50
$GPRMC,133724.250,A,4308.3042,N,07726.2648,W,0.02,64.19,251019,,,A*4B
$GPGGA,133724.500,4308.3042,N,07726.2648,W,1,07,1.16,171.0,M,-34.4,M,,*55
$GPRMC,133724.750,A,4308.3042,N,07726.2648,W,0.04,325.14,251019,,,A*73
$GPGGA,133725.000,4308.3042,N,07726.2649,W,1,07,1.16,170.9,M,-34.4,M,,*58
$GPRMC,133725.250,A,4308.3042,N,07726.2649,W,0.02,232.20,251019,,,A*70
$GPGGA,133725.500,4308.3041,N,07726.2649,W,1,07,1.16,170.8,M,-34.4,M,,*5F
$GPRMC,133725.750,A,4308.3041,N,07726.2649,W,0.02,71.91,251019,,,A*49
$GPGGA,133726.000,4308.3041,N,07726.2649,W,1,07,1.16,170.7,M,-34.4,M,,*56
$GPRMC,133726.250,A,4308.3041,N,07726.2649,W,0.00,91.44,251019,,,A*4B
$GPGGA,133726.500,4308.3041,N,07726.2649,W,1,07,1.16,170.6,M,-34.4,M,,*52
$GPRMC,133726.750,A,4308.3041,N,07726.2650,W,0.02,133.46,251019,,,A*7F
$GPGGA,133727.000,4308.3041,N,07726.2650,W,1,07,1.16,170.4,M,-34.4,M,,*5C
$GPRMC,133727.250,A,4308.3041,N,07726.2650,W,0.03,236.03,251019,,,A*7D
$GPGGA,133727.500,4308.3040,N,07726.2650,W,1,07,1.16,170.2,M,-34.4,M,,*5E
$GPRMC,133727.750,A,4308.3040,N,07726.2650,W,0.01,43.71,251019,,,A*4E
$GPGGA,133728.000,4308.3040,N,07726.2650,W,1,07,1.16,170.0,M,-34.4,M,,*56
$GPRMC,133728.250,A,4308.3040,N,07726.2650,W,0.03,60.55,251019,,,A*41
$GPGGA,133728.500,4308.3040,N,07726.2650,W,1,07,1.16,169.8,M,-34.4,M,,*53
$GPRMC,133728.750,A,4308.3040,N,07726.2650,W,0.01,29.03,251019,,,A*48
$GPGGA,133729.000,4308.3040,N,07726.2651,W,1,07,1.16,169.6,M,-34.4,M,,*58
$GPRMC,133729.250,A,4308.3040,N,07726.2651,W,0.01,195.56,251019,,,A*7B
$GPGGA,133729.500,4308.3040,N,07726.2651,W,1,07,1.16,169.4,M,-34.4,M,,*5F
$GPRMC,133729.750,A,4308.3040,N,07726.2651,W,0.02,122.46,251019,,,A*70
$GPGGA,133730.000,4308.3040,N,07726.2651,W,1,07,1.16,169.4,M,-34.4,M,,*52
$GPRMC,133730.250,A,4308.3040,N,07726.2651,W,0.02,175.71,251019,,,A*7B
$GPGGA,133730.500,4308.3040,N,07726.2651,W,1,07,1.16,169.4,M,-34.4,M,,*57
$GPRMC,133730.750,A,4308.3040,N,07726.2651,W,0.03,226.32,251019,,,A*7D
$GPGGA,133731.000,4308.3040,N,07726.2651,W,1,07,1.16,169.4,M,-34.4,M,,*53
$GPRMC,133731.250,A,4308.3040,N,07726.2651,W,0.01,174.82,251019,,,A*74
$GPGGA,133731.500,4308.3040,N,07726.2651,W,1,07,1.16,169.4,M,-34.4,M,,*56
$GPRMC,133731.750,A,4308.3040,N,07726.2651,W,0.02,133.59,251019,,,A*77
$GPGGA,133732.000,4308.3039,N,07726.2651,W,1,07,1.16,169.4,M,-34.4,M,,*5E
$GPRMC,133732.250,A,4308.3039,N,07726.2651,W,0.04,9.51,251019,,,A*79
$GPGGA,133732.500,4308.3039,N,07726.2651,W,1,07,1.21,169.4,M,-34.4,M,,*5F
$GPRMC,133732.750,A,4308.3039,N,07726.2651,W,0.01,107.40,251019,,,A*76
$GPGGA,133733.000,4308.3039,N,07726.2651,W,1,07,1.16,169.4,M,-34.4,M,,*5F
$GPRMC,133733.250,A,4308.3039,N,07726.2651,W,0.01,103.85,251019,,,A*7F
$GPGGA,133733.500,4308.3039,N,07726.2651,W,1,07,1.16,169.4,M,-34.4,M,,*5A
$GPRMC,133733.750,A,4308.3039,N,07726.2651,W,0.02,228.73,251019,,,A*7A
$GPGGA,133734.000,4308.3039,N,07726.2651,W,1,07,1.16,169.4,M,-34.4,M,,*58
$GPRMC,133734.250,A,4308.3039,N,07726.2651,W,0.02,68.42,251019,,,A*4C
$GPGGA,133734.500,4308.3039,N,07726.2651,W,1,07,1.16,169.4,M,-34.4,M,,*5D
$GPRMC,133734.750,A,4308.3039,N,07726.2651,W,0.03,42.75,251019,,,A*44
$GPGGA,133735.000,4308.3039,N,07726.2651,W,1,07,1.16,169.4,M,-34.4,M,,*59
$GPRMC,133735.250,A,4308.3039,N,07726.2651,W,0.02,17.63,251019,,,A*46
$GPGGA,133735.500,4308.3039,N,07726.2651,W,1,07,1.16,169.4,M,-34.4,M,,*5C
$GPRMC,133735.750,A,4308.3039,N,07726.2651,W,0.01,94.65,251019,,,A*4D
$GPGGA,133736.000,4308.3039,N,07726.2651,W,1,07,1.16,169.3,M,-34.4,M,,*5D
$GPRMC,133736.250,A,4308.3039,N,07726.2651,W,0.02,197.73,251019,,,A*7D
$GPGGA,133736.500,4308.3039,N,07726.2651,W,1,07,1.16,169.3,M,-34.4,M,,*58
$GPRMC,133736.750,A,4308.3039,N,07726.2651,W,0.01,91.39,251019,,,A*42
$GPGGA,133737.000,4308.3039,N,07726.2651,W,1,07,1.16,169.3,M,-34.4,M,,*5C
$GPRMC,133737.250,A,4308.3039,N,07726.2651,W,0.03,104.90,251019,,,A*7A
$GPGGA,133737.500,4308.3039,N,07726.2651,W,1,07,1.16,169.3,M,-34.4,M,,*59
$GPRMC,133737.750,A,4308.3039,N,07726.2651,W,0.00,70.00,251019,,,A*47
$GPGGA,133738.000,4308.3039,N,07726.2651,W,1,07,1.16,169.3,M,-34.4,M,,*53
$GPRMC,133738.250,A,4308.3039,N,07726.2651,W,0.00,351.96,251019,,,A*72
$GPGGA,133738.500,4308.3039,N,07726.2651,W,1,07,1.21,169.3,M,-34.4,M,,*52
$GPRMC,133738.750,A,4308.3039,N,07726.2651,W,0.01,115.22,251019,,,A*7B
$GPGGA,133739.000,4308.3039,N,07726.2651,W,1,07,1.21,169.3,M,-34.4,M,,*56
$GPRMC,133739.250,A,4308.3039,N,07726.2651,W,0.01,306.49,251019,,,A*72
$GPGGA,133739.500,4308.3039,N,07726.2651,W,1,07,1.21,169.3,M,-34.4,M,,*53
$GPRMC,133739.750,A,4308.3039,N,07726.2651,W,0.00,92.17,251019,,,A*43
$GPGGA,133740.000,4308.3039,N,07726.2651,W,1,07,1.21,169.3,M,-34.4,M,,*58
$GPRMC,133740.250,A,4308.3039,N,07726.2651,W,0.01,201.63,251019,,,A*72
$GPGGA,133740.500,4308.3039,N,07726.2651,W,1,07,1.21,169.3,M,-34.4,M,,*5D
$GPRMC,133740.750,A,4308.3039,N,07726.2651,W,0.00,202.29,251019,,,A*7B
$GPGGA,133741.000,4308.3039,N,07726.2651,W,1,07,1.21,169.3,M,-34.4,M,,*59
$GPRMC,133741.250,A,4308.3039,N,07726.2651,W,0.01,222.22,251019,,,A*77
$GPGGA,133741.500,4308.3039,N,07726.2651,W,1,07,1.21,169.3,M,-34.4,M,,*5C
$GPRMC,133741.750,A,4308.3039,N,07726.2651,W,0.00,143.49,251019,,,A*7A
$GPGGA,133742.000,4308.3039,N,07726.2651,W,1,07,1.21,169.3,M,-34.4,M,,*5A
$GPRMC,133742.250,A,4308.3039,N,07726.2651,W,0.00,125.61,251019,,,A*76
$GPGGA,133742.500,4308.3039,N,07726.2651,W,1,07,1.21,169.3,M,-34.4,M,,*5F
$GPRMC,133742.750,A,4308.3039,N,07726.2651,W,0.01,74.09,251019,,,A*49
$GPGGA,133743.000,4308.3039,N,07726.2651,W,1,07,1.21,169.3,M,-34.4,M,,*5B
$GPRMC,133743.250,A,4308.3039,N,07726.2651,W,0.00,0.00,251019,,,A*76
$GPGGA,133743.500,4308.3039,N,07726.2651,W,1,07,1.21,169.3,M,-34.4,M,,*5E
$GPRMC,133743.750,A,4308.3039,N,07726.2651,W,0.01,354.40,251019,,,A*74
$GPGGA,133744.000,4308.3039,N,07726.2651,W,1,07,1.21,169.3,M,-34.4,M,,*5C
$GPRMC,133744.250,A,4308.3039,N,07726.2651,W,0.02,179.88,251019,,,A*7C
$GPGGA,133744.500,4308.3039,N,07726.2651,W,1,07,1.21,169.3,M,-34.4,M,,*59
$GPRMC,133744.750,A,4308.3039,N,07726.2651,W,0.00,10.90,251019,,,A*4C
$GPGGA,133745.000,4308.3039,N,07726.2651,W,1,07,1.21,169.3,M,-34.4,M,,*5D
$GPRMC,133745.250,A,4308.3039,N,07726.2651,W,0.00,82.85,251019,,,A*47
$GPGGA,133745.500,4308.3039,N,07726.2651,W,1,07,1.21,169.3,M,-34.4,M,,*58
$GPRMC,133745.750,A,4308.3039,N,07726.2651,W,0.00,0.00,251019,,,A*75
$GPGGA,133746.000,4308.3039,N,07726.2651,W,1,07,1.21,169.2,M,-34.4,M,,*5F
$GPRMC,133746.250,A,4308.3039,N,07726.2651,W,0.00,264.25,251019,,,A*74
$GPGGA,133746.500,4308.3039,N,07726.2651,W,1,07,1.21,169.2,M,-34.4,M,,*5A
$GPRMC,133746.750,A,4308.3039,N,07726.2651,W,0.00,35.13,251019,,,A*42
$GPGGA,133747.000,4308.3039,N,07726.2651,W,1,07,1.21,169.2,M,-34.4,M,,*5E
$GPRMC,133747.250,A,4308.3039,N,07726.2651,W,0.00,22.45,251019,,,A*43
$GPGGA,133747.500,4308.3039,N,07726.2651,W,1,07,1.21,169.2,M,-34.4,M,,*5B
$GPRMC,133747.750,A,4308.3039,N,07726.2651,W,0.00,263.03,251019,,,A*73
$GPGGA,133748.000,4308.3039,N,07726.2651,W,1,07,1.21,169.2,M,-34.4,M,,*51
$GPRMC,133748.250,A,4308.3039,N,07726.2651,W,0.00,220.50,251019,,,A*78
$GPGGA,133748.500,4308.3039,N,07726.2651,W,1,07,1.21,169.2,M,-34.4,M,,*54
$GPRMC,133748.750,A,4308.3039,N,07726.2651,W,0.00,128.15,251019,,,A*77
$GPGGA,133749.000,4308.3039,N,07726.2651,W,1,07,1.21,169.2,M,-34.4,M,,*50
$GPRMC,133749.250,A,4308.3039,N,07726.2651,W,0.00,326.57,251019,,,A*79
$GPGGA,133749.500,4308.3039,N,07726.2651,W,1,07,1.21,169.2,M,-34.4,M,,*55
$GPRMC,133749.750,A,4308.3039,N,07726.2651,W,0.00,126.02,251019,,,A*7E
$GPGGA,133750.000,4308.3039,N,07726.2651,W,1,07,1.21,169.2,M,-34.4,M,,*58
$GPRMC,133750.250,A,4308.3039,N,07726.2651,W,0.00,0.00,251019,,,A*74
$GPGGA,133750.500,4308.3039,N,07726.2651,W,1,07,1.21,169.2,M,-34.4,M,,*5D
$GPRMC,133750.750,A,4308.3039,N,07726.2651,W,0.00,0.00,251019,,,A*71
$GPGGA,133751.000,4308.3039,N,07726.2651,W,1,07,1.21,169.2,M,-34.4,M,,*59
$GPRMC,133751.250,A,4308.3039,N,07726.2651,W,0.00,356.21,251019,,,A*76
$GPGGA,133751.500,4308.3039,N,07726.2651,W,1,07,1.21,169.2,M,-34.4,M,,*5C
$GPRMC,133751.750,A,4308.3039,N,07726.2651,W,0.00,212.62,251019,,,A*75
$GPGGA,133752.000,4308.3039,N,07726.2651,W,1,07,1.21,169.2,M,-34.4,M,,*5A
$GPRMC,133752.250,A,4308.3039,N,07726.2651,W,0.01,285.05,251019,,,A*7D
$GPGGA,133752.500,4308.3039,N,07726.2651,W,1,07,1.21,169.2,M,-34.4,M,,*5F
$GPRMC,133752.750,A,4308.3039,N,07726.2651,W,0.01,152.38,251019,,,A*7F
$GPGGA,133753.000,4308.3039,N,07726.2651,W,1,07,1.21,169.2,M,-34.4,M,,*5B
$GPRMC,133753.250,A,4308.3039,N,07726.2651,W,0.00,73.92,251019,,,A*48
$GPGGA,133753.500,4308.3039,N,07726.2651,W,1,07,1.21,169.2,M,-34.4,M,,*5E
$GPRMC,133753.750,A,4308.3039,N,07726.2651,W,0.01,67.81,251019,,,A*4B
$GPGGA,133754.000,4308.3039,N,07726.2651,W,1,07,1.21,169.2,M,-34.4,M,,*5C
$GPRMC,133754.250,A,4308.3039,N,07726.2651,W,0.00,281.51,251019,,,A*7F
$GPGGA,133754.500,4308.3039,N,07726.2651,W,1,07,1.21,169.2,M,-34.4,M,,*59
$GPRMC,133754.750,A,4308.3039,N,07726.2651,W,0.00,58.67,251019,,,A*49
$GPGGA,133755.000,4308.3039,N,07726.2651,W,1,07,1.21,169.2,M,-34.4,M,,*5D
$GPRMC,133755.250,A,4308.3039,N,07726.2651,W,0.01,25.91,251019,,,A*4F
$GPGGA,133755.500,4308.3039,N,07726.2651,W,1,07,1.21,169.2,M,-34.4,M,,*58
$GPRMC,133755.750,A,4308.3039,N,07726.2651,W,0.00,185.66,251019,,,A*78
$GPGGA,133756.000,4308.3039,N,07726.2651,W,1,07,1.21,169.2,M,-34.4,M,,*5E
$GPRMC,133756.250,A,4308.3039,N,07726.2651,W,0.01,168.06,251019,,,A*7A
$GPGGA,133756.500,4308.3039,N,07726.2651,W,1,07,1.21,169.2,M,-34.4,M,,*5B
$GPRMC,133756.750,A,4308.3039,N,07726.2651,W,0.01,31.28,251019,,,A*4E
$GPGGA,133757.000,4308.3039,N,07726.2651,W,1,07,1.21,169.2,M,-34.4,M,,*5F
$GPRMC,133757.250,A,4308.3039,N,07726.2651,W,0.00,217.74,251019,,,A*74
$GPGGA,133757.500,4308.3039,N,07726.2651,W,1,07,1.21,169.2,M,-34.4,M,,*5A
$GPRMC,133757.750,A,4308.3039,N,07726.2651,W,0.00,256.10,251019,,,A*76
$GPGGA,133758.000,4308.3039,N,07726.2651,W,1,07,1.21,169.2,M,-34.4,M,,*50
$GPRMC,133758.250,A,4308.3039,N,07726.2651,W,0.00,156.10,251019,,,A*7F
$GPGGA,133758.500,4308.3039,N,07726.2651,W,1,07,1.21,169.2,M,-34.4,M,,*55
$GPRMC,133758.750,A,4308.3039,N,07726.2651,W,0.00,106.82,251019,,,A*74
$GPGGA,133759.000,4308.3039,N,07726.2651,W,1,07,1.21,169.2,M,-34.4,M,,*51
$GPRMC,133759.250,A,4308.3039,N,07726.2651,W,0.01,150.87,251019,,,A*77
$GPGGA,133759.500,4308.3039,N,07726.2651,W,1,07,1.21,169.2,M,-34.4,M,,*54
$GPRMC,133759.750,A,4308.3039,N,07726.2651,W,0.00,251.41,251019,,,A*7B
$GPGGA,133800.000,4308.3039,N,07726.2651,W,1,07,1.21,169.2,M,-34.4,M,,*52
$GPRMC,133800.250,A,4308.3039,N,07726.2651,W,0.00,53.69,251019,,,A*47
$GPGGA,133800.500,4308.3039,N,07726.2651,W,1,07,1.21,169.2,M,-34.4,M,,*57
$GPRMC,133800.750,A,4308.3039,N,07726.2651,W,0.01,56.42,251019,,,A*4F
$GPGGA,133801.000,4308.3039,N,07726.2651,W,1,07,1.21,169.2,M,-34.4,M,,*53
$GPRMC,133801.250,A,4308.3039,N,07726.2651,W,0.01,98.69,251019,,,A*40
$GPGGA,133801.500,4308.3039,N,07726.2651,W,1,07,1.21,169.2,M,-34.4,M,,*56
$GPRMC,133801.750,A,4308.3039,N,07726.2651,W,0.01,227.42,251019,,,A*7A
$GPGGA,133802.000,4308.3039,N,07726.2651,W,1,07,1.21,169.2,M,-34.4,M,,*50
$GPRMC,133802.250,A,4308.3039,N,07726.2651,W,0.00,104.69,251019,,,A*76
$GPGGA,133802.500,4308.3039,N,07726.2651,W,1,07,1.21,169.2,M,-34.4,M,,*55
$GPRMC,133802.750,A,4308.3039,N,07726.2651,W,0.01,68.32,251019,,,A*47
$GPGGA,133803.000,4308.3039,N,07726.2651,W,1,07,1.21,169.2,M,-34.4,M,,*51
$GPRMC,133803.250,A,4308.3039,N,07726.2651,W,0.00,0.00,251019,,,A*7D
$GPGGA,133803.500,4308.3039,N,07726.2650,W,1,07,1.21,169.2,M,-34.4,M,,*55
$GPRMC,133803.750,A,4308.3039,N,07726.2650,W,0.00,238.51,251019,,,A*74
$GPGGA,133804.000,4308.3039,N,07726.2650,W,1,07,1.21,169.2,M,-34.4,M,,*57
$GPRMC,133804.250,A,4308.3039,N,07726.2650,W,0.00,29.40,251019,,,A*44
$GPGGA,133804.500,4308.3039,N,07726.2650,W,1,07,1.21,169.2,M,-34.4,M,,*52
$GPRMC,133804.750,A,4308.3039,N,07726.2650,W,0.01,201.25,251019,,,A*7B
$GPGGA,133805.000,4308.3039,N,07726.2650,W,1,07,1.21,169.2,M,-34.4,M,,*56
$GPRMC,133805.250,A,4308.3039,N,07726.2650,W,0.01,271.36,251019,,,A*7A
$GPGGA,133805.500,4308.3039,N,07726.2650,W,1,07,1.21,169.2,M,-34.4,M,,*53
$GPRMC,133805.750,A,4308.3039,N,07726.2650,W,0.00,200.75,251019,,,A*7F
$GPGGA,133806.000,4308.3039,N,07726.2650,W,1,07,1.21,169.2,M,-34.4,M,,*55
$GPRMC,133806.250,A,4308.3039,N,07726.2650,W,0.01,37.95,251019,,,A*40
$GPGGA,133806.500,4308.3039,N,07726.2650,W,1,07,1.21,169.2,M,-34.4,M,,*50
$GPRMC,133806.750,A,4308.3039,N,07726.2650,W,0.00,220.83,251019,,,A*77
$GPGGA,133807.000,4308.3039,N,07726.2650,W,1,07,1.21,169.2,M,-34.4,M,,*54
$GPRMC,133807.250,A,4308.3039,N,07726.2650,W,0.00,201.76,251019,,,A*7A
$GPGGA,133807.500,4308.3039,N,07726.2650,W,1,07,1.21,169.2,M,-34.4,M,,*51
$GPRMC,133807.750,A,4308.3039,N,07726.2650,W,0.01,258.68,251019,,,A*7D
$GPGGA,133808.000,4308.3039,N,07726.2650,W,1,07,1.21,169.2,M,-34.4,M,,*5B
$GPRMC,133808.250,A,4308.3039,N,07726.2650,W,0.00,262.57,251019,,,A*73
$GPGGA,133808.500,4308.3039,N,07726.2650,W,1,07,1.21,169.2,M,-34.4,M,,*5E
$GPRMC,133808.750,A,4308.3039,N,07726.2650,W,0.00,0.00,251019,,,A*72
$GPGGA,133809.000,4308.3039,N,07726.2650,W,1,07,1.21,169.2,M,-34.4,M,,*5A
$GPRMC,133809.250,A,4308.3039,N,07726.2650,W,0.00,0.00,251019,,,A*76
$GPGGA,133809.500,4308.3039,N,07726.2650,W,1,07,1.21,169.2,M,-34.4,M,,*5F
$GPRMC,133809.750,A,4308.3039,N,07726.2650,W,0.00,0.00,251019,,,A*73
$GPGGA,133810.000,4308.3039,N,07726.2650,W,1,07,1.21,169.2,M,-34.4,M,,*52
$GPRMC,133810.250,A,4308.3039,N,07726.2650,W,0.00,242.63,251019,,,A*7F
$GPGGA,133810.500,4308.3039,N,07726.2650,W,1,07,1.21,169.2,M,-34.4,M,,*57
$GPRMC,133810.750,A,4308.3039,N,07726.2650,W,0.00,84.24,251019,,,A*41
$GPGGA,133811.000,4308.3039,N,07726.2650,W,1,07,1.21,169.2,M,-34.4,M,,*53
$GPRMC,133811.250,A,4308.3039,N,07726.2650,W,0.00,92.97,251019,,,A*4A
$GPGGA,133811.500,4308.3039,N,07726.2650,W,1,07,1.21,169.2,M,-34.4,M,,*56
$GPRMC,133811.750,A,4308.3039,N,07726.2650,W,0.00,218.20,251019,,,A*73
$GPGGA,133812.000,4308.3039,N,07726.2650,W,1,07,1.21,169.2,M,-34.4,M,,*50
$GPRMC,133812.250,A,4308.3039,N,07726.2650,W,0.00,0.00,251019,,,A*7C
$GPGGA,133812.500,4308.3039,N,07726.2650,W,1,07,1.21,169.2,M,-34.4,M,,*55
$GPRMC,133812.750,A,4308.3039,N,07726.2650,W,0.00,9.45,251019,,,A*71
$GPGGA,133813.000,4308.3039,N,07726.2650,W,1,07,1.21,169.2,M,-34.4,M,,*51
$GPRMC,133813.250,A,4308.3039,N,07726.2650,W,0.01,25.11,251019,,,A*4B
$GPGGA,133813.500,4308.3039,N,07726.2650,W,1,07,1.21,169.2,M,-34.4,M,,*54
$GPRMC,133813.750,A,4308.3039,N,07726.2650,W,0.01,20.70,251019,,,A*4C
$GPGGA,133814.000,4308.3039,N,07726.2650,W,1,07,1.21,169.2,M,-34.4,M,,*56
$GPRMC,133814.250,A,4308.3039,N,07726.2650,W,0.14,44.98,251019,,,A*4E
$GPGGA,133814.500,4308.3039,N,07726.2650,W,1,07,1.16,169.2,M,-34.4,M,,*57
$GPRMC,133814.750,A,4308.3039,N,07726.2650,W,0.41,49.28,251019,,,A*4D
$GPGGA,133815.000,4308.3040,N,07726.2650,W,1,07,1.16,169.2,M,-34.4,M,,*5D
$GPRMC,133815.250,A,4308.3040,N,07726.2649,W,0.73,31.95,251019,,,A*47
$GPGGA,133815.500,4308.3041,N,07726.2649,W,1,07,1.21,169.1,M,-34.4,M,,*56
$GPRMC,133815.750,A,4308.3042,N,07726.2648,W,0.35,21.38,251019,,,A*45
$GPGGA,133816.000,4308.3043,N,07726.2648,W,1,07,1.16,169.1,M,-34.4,M,,*57
$GPRMC,133816.250,A,4308.3047,N,07726.2647,W,4.18,9.29,251019,,,A*78
$GPGGA,133816.500,4308.3050,N,07726.2647,W,1,07,1.21,168.9,M,-34.4,M,,*52
$GPRMC,133816.750,A,4308.3054,N,07726.2647,W,5.26,1.36,251019,,,A*75
$GPGGA,133817.000,4308.3058,N,07726.2648,W,1,07,1.21,168.8,M,-34.4,M,,*50
$GPRMC,133817.250,A,4308.3063,N,07726.2648,W,5.90,358.61,251019,,,A*7A
$GPGGA,133817.500,4308.3067,N,07726.2648,W,1,07,1.21,168.7,M,-34.4,M,,*56
$GPRMC,133817.750,A,4308.3071,N,07726.2648,W,6.08,358.23,251019,,,A*78
$GPGGA,133818.000,4308.3075,N,07726.2648,W,1,07,1.21,168.7,M,-34.4,M,,*5F
$GPRMC,133818.250,A,4308.3080,N,07726.2648,W,6.35,359.95,251019,,,A*7E
$GPGGA,133818.500,4308.3085,N,07726.2647,W,1,07,1.21,168.6,M,-34.4,M,,*5B
$GPRMC,133818.750,A,4308.3089,N,07726.2647,W,6.46,1.75,251019,,,A*79
$GPGGA,133819.000,4308.3093,N,07726.2646,W,1,07,1.21,168.5,M,-34.4,M,,*5A
$GPRMC,133819.250,A,4308.3096,N,07726.2646,W,5.40,2.45,251019,,,A*77
$GPGGA,133819.500,4308.3099,N,07726.2645,W,1,07,1.21,168.5,M,-34.4,M,,*56
$GPRMC,133819.750,A,4308.3101,N,07726.2644,W,4.19,0.88,251019,,,A*71
$GPGGA,133820.000,4308.3103,N,07726.2643,W,1,07,1.21,168.4,M,-34.4,M,,*5C
$GPRMC,133820.250,A,4308.3105,N,07726.2643,W,2.97,357.72,251019,,,A*79
$GPGGA,133820.500,4308.3106,N,07726.2642,W,1,07,1.21,168.4,M,-34.4,M,,*5D
$GPRMC,133820.750,A,4308.3107,N,07726.2643,W,2.08,349.34,251019,,,A*75
$GPGGA,133821.000,4308.3108,N,07726.2642,W,1,07,1.21,168.4,M,-34.4,M,,*57
$GPRMC,133821.250,A,4308.3109,N,07726.2642,W,1.89,356.74,251019,,,A*7E
$GPGGA,133821.500,4308.3111,N,07726.2642,W,1,07,1.21,168.3,M,-34.4,M,,*5D
$GPRMC,133821.750,A,4308.3113,N,07726.2641,W,2.34,8.05,251019,,,A*78
$GPGGA,133822.000,4308.3115,N,07726.2640,W,1,07,1.21,168.3,M,-34.4,M,,*5D
$GPRMC,133822.250,A,4308.3117,N,07726.2639,W,2.61,15.70,251019,,,A*4B
$GPGGA,133822.500,4308.3118,N,07726.2638,W,1,07,1.16,168.2,M,-34.4,M,,*5F
$GPRMC,133822.750,A,4308.3121,N,07726.2637,W,2.80,18.94,251019,,,A*4D
$GPGGA,133823.000,4308.3122,N,07726.2636,W,1,07,1.16,168.1,M,-34.4,M,,*5F
$GPRMC,133823.250,A,4308.3124,N,07726.2635,W,2.90,27.02,251019,,,A*4C
$GPGGA,133823.500,4308.3126,N,07726.2633,W,1,07,1.16,168.1,M,-34.4,M,,*5B
$GPRMC,133823.750,A,4308.3128,N,07726.2631,W,3.13,38.86,251019,,,A*49
$GPGGA,133824.000,4308.3129,N,07726.2629,W,1,07,1.16,168.0,M,-34.4,M,,*5C
$GPRMC,133824.250,A,4308.3130,N,07726.2626,W,2.94,52.39,251019,,,A*42
$GPGGA,133824.500,4308.3131,N,07726.2624,W,1,07,1.16,167.9,M,-34.4,M,,*5B
$GPRMC,133824.750,A,4308.3132,N,07726.2622,W,2.53,51.21,251019,,,A*40
$GPGGA,133825.000,4308.3134,N,07726.2621,W,1,07,1.16,167.7,M,-34.4,M,,*51
$GPRMC,133825.250,A,4308.3134,N,07726.2620,W,1.79,60.27,251019,,,A*4F
$GPGGA,133825.500,4308.3134,N,07726.2619,W,1,07,1.16,167.6,M,-34.4,M,,*5E
$GPRMC,133825.750,A,4308.3135,N,07726.2619,W,0.81,39.02,251019,,,A*4C
$GPGGA,133826.000,4308.3135,N,07726.2620,W,1,07,1.16,167.5,M,-34.4,M,,*50
$GPRMC,133826.250,A,4308.3135,N,07726.2622,W,0.34,302.96,251019,,,A*7A
$GPGGA,133826.500,4308.3134,N,07726.2624,W,1,07,1.16,167.4,M,-34.4,M,,*51
$GPRMC,133826.750,A,4308.3133,N,07726.2626,W,1.04,250.62,251019,,,A*72
$GPGGA,133827.000,4308.3134,N,07726.2632,W,1,07,1.16,167.3,M,-34.4,M,,*55
$GPRMC,133827.250,A,4308.3134,N,07726.2636,W,2.82,264.14,251019,,,A*7B
$GPGGA,133827.500,4308.3134,N,07726.2640,W,1,07,1.16,167.2,M,-34.4,M,,*54
$GPRMC,133827.750,A,4308.3135,N,07726.2645,W,4.53,268.00,251019,,,A*78
$GPGGA,133828.000,4308.3136,N,07726.2652,W,1,07,1.21,167.1,M,-34.4,M,,*58
$GPRMC,133828.250,A,4308.3136,N,07726.2659,W,6.80,274.19,251019,,,A*75
$GPGGA,133828.500,4308.3137,N,07726.2667,W,1,07,1.21,167.0,M,-34.4,M,,*5B
$GPRMC,133828.750,A,4308.3138,N,07726.2675,W,7.79,278.68,251019,,,A*7D
$GPGGA,133829.000,4308.3139,N,07726.2683,W,1,07,1.21,166.9,M,-34.4,M,,*53
$GPRMC,133829.250,A,4308.3140,N,07726.2692,W,9.15,276.89,251019,,,A*7A
$GPGGA,133829.500,4308.3141,N,07726.2702,W,1,07,1.21,166.8,M,-34.4,M,,*50
$GPRMC,133829.750,A,4308.3143,N,07726.2712,W,10.45,277.65,251019,,,A*4B
$GPGGA,133830.000,4308.3145,N,07726.2724,W,1,07,1.21,166.7,M,-34.4,M,,*52
$GPRMC,133830.250,A,4308.3147,N,07726.2736,W,12.03,282.00,251019,,,A*4D
$GPGGA,133830.500,4308.3150,N,07726.2749,W,1,07,1.21,166.5,M,-34.4,M,,*5A
$GPRMC,133830.750,A,4308.3153,N,07726.2762,W,13.36,284.17,251019,,,A*4B
$GPGGA,133831.000,4308.3156,N,07726.2776,W,1,07,1.21,166.4,M,-34.4,M,,*55
$GPRMC,133831.250,A,4308.3159,N,07726.2789,W,14.45,285.81,251019,,,A*4D
$GPGGA,133831.500,4308.3162,N,07726.2803,W,1,07,1.21,166.3,M,-34.4,M,,*5D
$GPRMC,133831.750,A,4308.3165,N,07726.2818,W,15.33,286.53,251019,,,A*4C
$GPGGA,133832.000,4308.3168,N,07726.2833,W,1,07,1.21,166.3,M,-34.4,M,,*52
$GPRMC,133832.250,A,4308.3172,N,07726.2848,W,16.67,287.05,251019,,,A*49
$GPGGA,133832.500,4308.3176,N,07726.2864,W,1,07,1.21,166.2,M,-34.4,M,,*5B
$GPRMC,133832.750,A,4308.3181,N,07726.2880,W,17.51,289.08,251019,,,A*43
$GPGGA,133833.000,4308.3185,N,07726.2896,W,1,07,1.21,166.2,M,-34.4,M,,*5E
$GPRMC,133833.250,A,4308.3190,N,07726.2913,W,18.13,291.14,251019,,,A*41
$GPGGA,133833.500,4308.3195,N,07726.2929,W,1,07,1.21,166.2,M,-34.4,M,,*5F
$GPRMC,133833.750,A,4308.3200,N,07726.2946,W,18.60,292.88,251019,,,A*4C
$GPGGA,133834.000,4308.3206,N,07726.2963,W,1,07,1.16,166.1,M,-34.4,M,,*5D
$GPRMC,133834.250,A,4308.3212,N,07726.2980,W,19.66,295.50,251019,,,A*42
$GPGGA,133834.500,4308.3219,N,07726.2998,W,1,07,1.21,166.1,M,-34.4,M,,*56
$GPRMC,133834.750,A,4308.3226,N,07726.3015,W,20.46,297.81,251019,,,A*42
$GPGGA,133835.000,4308.3234,N,07726.3033,W,1,07,1.21,166.1,M,-34.4,M,,*54
$GPRMC,133835.250,A,4308.3242,N,07726.3051,W,21.30,300.14,251019,,,A*47
$GPGGA,133835.500,4308.3250,N,07726.3069,W,1,07,1.21,166.1,M,-34.4,M,,*5C
$GPRMC,133835.750,A,4308.3259,N,07726.3087,W,22.15,301.87,251019,,,A*4C
$GPGGA,133836.000,4308.3268,N,07726.3105,W,1,07,1.21,166.1,M,-34.4,M,,*5A
$GPRMC,133836.250,A,4308.3278,N,07726.3124,W,22.99,303.20,251019,,,A*4A
$GPGGA,133836.500,4308.3287,N,07726.3142,W,1,07,1.21,166.1,M,-34.4,M,,*5D
$GPRMC,133836.750,A,4308.3297,N,07726.3161,W,23.73,303.38,251019,,,A*43
$GPGGA,133837.000,4308.3307,N,07726.3181,W,1,07,1.21,166.1,M,-34.4,M,,*5F
$GPRMC,133837.250,A,4308.3317,N,07726.3201,W,24.56,303.66,251019,,,A*40
$GPGGA,133837.500,4308.3327,N,07726.3221,W,1,07,1.21,166.1,M,-34.4,M,,*51
$GPRMC,133837.750,A,4308.3337,N,07726.3241,W,24.97,303.47,251019,,,A*4D
$GPGGA,133838.000,4308.3347,N,07726.3261,W,1,07,1.21,166.0,M,-34.4,M,,*58
$GPRMC,133838.250,A,4308.3357,N,07726.3282,W,25.53,303.58,251019,,,A*49
$GPGGA,133838.500,4308.3368,N,07726.3303,W,1,07,1.21,165.9,M,-34.4,M,,*5F
$GPRMC,133838.750,A,4308.3379,N,07726.3323,W,25.93,303.87,251019,,,A*44
$GPGGA,133839.000,4308.3390,N,07726.3344,W,1,07,1.21,165.9,M,-34.4,M,,*5F
$GPRMC,133839.250,A,4308.3400,N,07726.3366,W,26.52,304.13,251019,,,A*4C
$GPGGA,133839.500,4308.3411,N,07726.3387,W,1,07,1.21,165.9,M,-34.4,M,,*5B
$GPRMC,133839.750,A,4308.3422,N,07726.3408,W,26.46,304.13,251019,,,A*43
$GPGGA,133840.000,4308.3433,N,07726.3429,W,1,07,1.21,165.9,M,-34.4,M,,*53
$GPRMC,133840.250,A,4308.3444,N,07726.3450,W,26.25,304.60,251019,,,A*44
$GPGGA,133840.500,4308.3455,N,07726.3471,W,1,07,1.21,165.9,M,-34.4,M,,*5B
$GPRMC,133840.750,A,4308.3467,N,07726.3491,W,26.24,305.43,251019,,,A*4C
$GPGGA,133841.000,4308.3478,N,07726.3512,W,1,07,1.21,165.9,M,-34.4,M,,*54
$GPRMC,133841.250,A,4308.3489,N,07726.3532,W,26.04,306.69,251019,,,A*49
$GPGGA,133841.500,4308.3501,N,07726.3552,W,1,07,1.21,165.9,M,-34.4,M,,*5A
$GPRMC,133841.750,A,4308.3512,N,07726.3572,W,26.00,309.03,251019,,,A*4C
$GPGGA,133842.000,4308.3524,N,07726.3591,W,1,07,1.21,165.9,M,-34.4,M,,*54
$GPRMC,133842.250,A,4308.3537,N,07726.3609,W,25.98,312.06,251019,,,A*4F
$GPGGA,133842.500,4308.3550,N,07726.3627,W,1,07,1.21,166.2,M,-34.4,M,,*54
$GPRMC,133842.750,A,4308.3563,N,07726.3644,W,26.00,315.69,251019,,,A*4E
$GPGGA,133843.000,4308.3577,N,07726.3660,W,1,07,1.21,166.2,M,-34.4,M,,*56
$GPRMC,133843.250,A,4308.3591,N,07726.3676,W,25.78,320.02,251019,,,A*41
$GPGGA,133843.500,4308.3605,N,07726.3692,W,1,07,1.21,166.2,M,-34.4,M,,*58
$GPRMC,133843.750,A,4308.3620,N,07726.3707,W,25.54,322.83,251019,,,A*4F
$GPGGA,133844.000,4308.3634,N,07726.3721,W,1,07,1.21,166.4,M,-34.4,M,,*57
$GPRMC,133844.250,A,4308.3649,N,07726.3734,W,25.25,326.45,251019,,,A*4A
$GPGGA,133844.500,4308.3664,N,07726.3746,W,1,07,1.21,166.7,M,-34.4,M,,*55
$GPRMC,133844.750,A,4308.3680,N,07726.3757,W,25.16,331.43,251019,,,A*4F
$GPGGA,133845.000,4308.3696,N,07726.3767,W,1,07,1.21,167.0,M,-34.4,M,,*59
$GPRMC,133845.250,A,4308.3712,N,07726.3775,W,25.06,337.03,251019,,,A*42
$GPGGA,133845.500,4308.3728,N,07726.3783,W,1,07,1.21,167.1,M,-34.4,M,,*53
$GPRMC,133845.750,A,4308.3745,N,07726.3790,W,25.57,341.47,251019,,,A*4B
$GPGGA,133846.000,4308.3763,N,07726.3797,W,1,07,1.21,167.2,M,-34.4,M,,*5C
$GPRMC,133846.250,A,4308.3780,N,07726.3804,W,25.82,344.62,251019,,,A*4C
$GPGGA,133846.500,4308.3797,N,07726.3808,W,1,07,1.21,167.3,M,-34.4,M,,*5A
$GPRMC,133846.750,A,4308.3816,N,07726.3811,W,26.57,350.71,251019,,,A*41
$GPGGA,133847.000,4308.3834,N,07726.3812,W,1,07,1.21,167.4,M,-34.4,M,,*54
$GPRMC,133847.250,A,4308.3853,N,07726.3813,W,26.87,355.86,251019,,,A*46
$GPGGA,133847.500,4308.3870,N,07726.3812,W,1,07,1.21,167.4,M,-34.4,M,,*51
$GPRMC,133847.750,A,4308.3888,N,07726.3811,W,26.57,0.44,251019,,,A*47
$GPGGA,133848.000,4308.3907,N,07726.3809,W,1,07,1.21,167.5,M,-34.4,M,,*51
$GPRMC,133848.250,A,4308.3926,N,07726.3807,W,26.62,4.63,251019,,,A*48
$GPGGA,133848.500,4308.3945,N,07726.3804,W,1,07,1.21,167.6,M,-34.4,M,,*5C
$GPRMC,133848.750,A,4308.3964,N,07726.3802,W,26.66,5.99,251019,,,A*4E
$GPGGA,133849.000,4308.3982,N,07726.3799,W,1,07,1.21,167.9,M,-34.4,M,,*57
$GPRMC,133849.250,A,4308.4001,N,07726.3796,W,26.79,7.22,251019,,,A*49
$GPGGA,133849.500,4308.4019,N,07726.3793,W,1,07,1.21,168.2,M,-34.4,M,,*50
$GPRMC,133849.750,A,4308.4037,N,07726.3789,W,26.76,8.27,251019,,,A*42
$GPGGA,133850.000,4308.4056,N,07726.3784,W,1,07,1.21,168.6,M,-34.4,M,,*54
$GPRMC,133850.250,A,4308.4076,N,07726.3780,W,27.46,9.26,251019,,,A*41
$GPGGA,133850.500,4308.4095,N,07726.3776,W,1,07,1.21,169.0,M,-34.4,M,,*54
$GPRMC,133850.750,A,4308.4114,N,07726.3772,W,27.38,8.92,251019,,,A*4B
$GPGGA,133851.000,4308.4134,N,07726.3768,W,1,07,1.20,169.3,M,-34.4,M,,*57
$GPRMC,133851.250,A,4308.4153,N,07726.3764,W,27.27,8.96,251019,,,A*41
$GPGGA,133851.500,4308.4172,N,07726.3760,W,1,07,1.21,169.5,M,-34.4,M,,*5F
$GPRMC,133851.750,A,4308.4191,N,07726.3755,W,26.93,9.61,251019,,,A*4F
$GPGGA,133852.000,4308.4210,N,07726.3751,W,1,07,1.21,169.8,M,-34.4,M,,*51
$GPRMC,133852.250,A,4308.4228,N,07726.3746,W,26.61,9.75,251019,,,A*42
$GPGGA,133852.500,4308.4247,N,07726.3742,W,1,07,1.21,169.8,M,-34.4,M,,*54
$GPRMC,133852.750,A,4308.4265,N,07726.3737,W,26.20,9.92,251019,,,A*44
$GPGGA,133853.000,4308.4283,N,07726.3733,W,1,07,1.20,169.8,M,-34.4,M,,*5F
$GPRMC,133853.250,A,4308.4301,N,07726.3729,W,25.57,9.39,251019,,,A*4E
$GPGGA,133853.500,4308.4319,N,07726.3725,W,1,07,1.21,170.0,M,-34.4,M,,*5E
$GPRMC,133853.750,A,4308.4337,N,07726.3721,W,25.09,9.03,251019,,,A*44
$GPGGA,133854.000,4308.4355,N,07726.3716,W,1,07,1.21,170.0,M,-34.4,M,,*54
$GPRMC,133854.250,A,4308.4372,N,07726.3712,W,24.28,9.67,251019,,,A*47
$GPGGA,133854.500,4308.4389,N,07726.3707,W,1,07,1.21,170.0,M,-34.4,M,,*50
$GPRMC,133854.750,A,4308.4405,N,07726.3703,W,23.44,10.24,251019,,,A*77
$GPGGA,133855.000,4308.4421,N,07726.3699,W,1,07,1.21,170.1,M,-34.4,M,,*56
$GPRMC,133855.250,A,4308.4436,N,07726.3694,W,21.96,10.76,251019,,,A*76
$GPGGA,133855.500,4308.4451,N,07726.3690,W,1,07,1.20,170.2,M,-34.4,M,,*5F
$GPRMC,133855.750,A,4308.4465,N,07726.3686,W,20.44,10.12,251019,,,A*7A
$GPGGA,133856.000,4308.4478,N,07726.3682,W,1,07,1.20,170.3,M,-34.4,M,,*50
$GPRMC,133856.250,A,4308.4490,N,07726.3678,W,18.34,10.27,251019,,,A*7D
$GPGGA,133856.500,4308.4502,N,07726.3674,W,1,07,1.20,170.2,M,-34.4,M,,*51
$GPRMC,133856.750,A,4308.4513,N,07726.3671,W,16.22,8.21,251019,,,A*4D
$GPGGA,133857.000,4308.4523,N,07726.3668,W,1,07,1.20,170.2,M,-34.4,M,,*5B
$GPRMC,133857.250,A,4308.4531,N,07726.3665,W,13.31,6.49,251019,,,A*4B
$GPGGA,133857.500,4308.4538,N,07726.3662,W,1,07,1.20,170.1,M,-34.4,M,,*5D
$GPRMC,133857.750,A,4308.4545,N,07726.3660,W,10.23,3.96,251019,,,A*4F
$GPGGA,133858.000,4308.4550,N,07726.3658,W,1,07,1.20,169.9,M,-34.4,M,,*50
$GPRMC,133858.250,A,4308.4553,N,07726.3654,W,6.99,7.90,251019,,,A*71
$GPGGA,133858.500,4308.4556,N,07726.3652,W,1,07,1.20,169.7,M,-34.4,M,,*57
$GPRMC,133858.750,A,4308.4559,N,07726.3650,W,5.46,9.75,251019,,,A*7E
$GPGGA,133859.000,4308.4562,N,07726.3649,W,1,07,1.20,169.6,M,-34.4,M,,*5F
$GPRMC,133859.250,A,4308.4565,N,07726.3648,W,4.88,7.06,251019,,,A*75
$GPGGA,133859.500,4308.4569,N,07726.3646,W,1,07,1.20,169.4,M,-34.4,M,,*5C
$GPRMC,133859.750,A,4308.4573,N,07726.3646,W,5.18,359.64,251019,,,A*7D
$GPGGA,133900.000,4308.4577,N,07726.3645,W,1,07,1.20,169.1,M,-34.4,M,,*5D
$GPRMC,133900.250,A,4308.4581,N,07726.3644,W,6.28,356.05,251019,,,A*72
$GPGGA,133900.500,4308.4586,N,07726.3645,W,1,07,1.20,168.9,M,-34.4,M,,*5F
$GPRMC,133900.750,A,4308.4591,N,07726.3645,W,7.00,348.55,251019,,,A*76
$GPGGA,133901.000,4308.4596,N,07726.3647,W,1,07,1.20,168.8,M,-34.4,M,,*59
$GPRMC,133901.250,A,4308.4601,N,07726.3651,W,8.26,332.16,251019,,,A*7C
$GPGGA,133901.500,4308.4606,N,07726.3655,W,1,07,1.21,168.8,M,-34.4,M,,*54
$GPRMC,133901.750,A,4308.4610,N,07726.3660,W,9.16,321.16,251019,,,A*7B
$GPGGA,133902.000,4308.4614,N,07726.3666,W,1,07,1.20,168.6,M,-34.4,M,,*5E
$GPRMC,133902.250,A,4308.4617,N,07726.3674,W,9.62,305.97,251019,,,A*73
$GPGGA,133902.500,4308.4621,N,07726.3682,W,1,07,1.20,168.3,M,-34.4,M,,*52
$GPRMC,133902.750,A,4308.4624,N,07726.3691,W,10.87,296.40,251019,,,A*4F
$GPGGA,133903.000,4308.4627,N,07726.3702,W,1,07,1.20,168.2,M,-34.4,M,,*58
$GPRMC,133903.250,A,4308.4630,N,07726.3713,W,12.11,288.86,251019,,,A*4D
$GPGGA,133903.500,4308.4632,N,07726.3726,W,1,07,1.20,168.0,M,-34.4,M,,*5D
$GPRMC,133903.750,A,4308.4634,N,07726.3739,W,14.11,282.15,251019,,,A*42
$GPGGA,133904.000,4308.4635,N,07726.3754,W,1,07,1.20,167.6,M,-34.4,M,,*54
$GPRMC,133904.250,A,4308.4636,N,07726.3769,W,15.54,277.09,251019,,,A*40
$GPGGA,133904.500,4308.4637,N,07726.3784,W,1,07,1.20,167.0,M,-34.4,M,,*58
$GPRMC,133904.750,A,4308.4638,N,07726.3800,W,16.60,275.58,251019,,,A*49
$GPGGA,133905.000,4308.4639,N,07726.3817,W,1,07,1.20,166.6,M,-34.4,M,,*50
$GPRMC,133905.250,A,4308.4641,N,07726.3834,W,17.37,275.72,251019,,,A*4F
$GPGGA,133905.500,4308.4642,N,07726.3850,W,1,07,1.20,166.1,M,-34.4,M,,*5D
$GPRMC,133905.750,A,4308.4643,N,07726.3867,W,17.62,276.02,251019,,,A*4A
$GPGGA,133906.000,4308.4644,N,07726.3884,W,1,06,1.29,165.8,M,-34.4,M,,*56
$GPRMC,133906.250,A,4308.4645,N,07726.3901,W,17.54,276.36,251019,,,A*49
$GPGGA,133906.500,4308.4647,N,07726.3918,W,1,07,1.21,165.3,M,-34.4,M,,*56
$GPRMC,133906.750,A,4308.4648,N,07726.3934,W,17.42,276.56,251019,,,A*46
$GPGGA,133907.000,4308.4650,N,07726.3951,W,1,07,1.20,164.9,M,-34.4,M,,*53
$GPRMC,133907.250,A,4308.4652,N,07726.3967,W,17.20,277.18,251019,,,A*40
$GPGGA,133907.500,4308.4654,N,07726.3983,W,1,07,1.20,164.6,M,-34.4,M,,*52
$GPRMC,133907.750,A,4308.4655,N,07726.4000,W,17.06,277.59,251019,,,A*4C
$GPGGA,133908.000,4308.4657,N,07726.4016,W,1,07,1.20,164.4,M,-34.4,M,,*5B
$GPRMC,133908.250,A,4308.4659,N,07726.4032,W,16.95,278.15,251019,,,A*47
$GPGGA,133908.500,4308.4660,N,07726.4047,W,1,07,1.20,164.1,M,-34.4,M,,*5B
$GPRMC,133908.750,A,4308.4662,N,07726.4063,W,16.82,277.46,251019,,,A*41
$GPGGA,133909.000,4308.4663,N,07726.4078,W,1,07,1.20,163.9,M,-34.4,M,,*5F
$GPRMC,133909.250,A,4308.4664,N,07726.4094,W,16.48,276.85,251019,,,A*43
$GPGGA,133909.500,4308.4666,N,07726.4110,W,1,07,1.20,163.7,M,-34.4,M,,*5E
$GPRMC,133909.750,A,4308.4668,N,07726.4125,W,16.28,277.17,251019,,,A*4D
$GPGGA,133910.000,4308.4669,N,07726.4141,W,1,07,1.20,163.7,M,-34.4,M,,*58
$GPRMC,133910.250,A,4308.4671,N,07726.4156,W,16.05,277.28,251019,,,A*4F
$GPGGA,133910.500,4308.4673,N,07726.4171,W,1,07,1.20,163.6,M,-34.4,M,,*54
$GPRMC,133910.750,A,4308.4675,N,07726.4186,W,15.73,278.27,251019,,,A*41
$GPGGA,133911.000,4308.4676,N,07726.4200,W,1,07,1.21,163.5,M,-34.4,M,,*52
$GPRMC,133911.250,A,4308.4678,N,07726.4215,W,15.03,278.60,251019,,,A*45
$GPGGA,133911.500,4308.4680,N,07726.4228,W,1,07,1.20,163.3,M,-34.4,M,,*53
$GPRMC,133911.750,A,4308.4682,N,07726.4241,W,13.94,279.42,251019,,,A*4D
$GPGGA,133912.000,4308.4684,N,07726.4253,W,1,07,1.20,163.1,M,-34.4,M,,*5F
$GPRMC,133912.250,A,4308.4685,N,07726.4264,W,12.25,279.49,251019,,,A*4B
$GPGGA,133912.500,4308.4686,N,07726.4275,W,1,07,1.20,162.9,M,-34.4,M,,*55
$GPRMC,133912.750,A,4308.4688,N,07726.4285,W,11.09,279.58,251019,,,A*41
$GPGGA,133913.000,4308.4689,N,07726.4294,W,1,07,1.20,162.7,M,-34.4,M,,*5F
$GPRMC,133913.250,A,4308.4690,N,07726.4303,W,9.82,280.10,251019,,,A*73
$GPGGA,133913.500,4308.4691,N,07726.4311,W,1,07,1.20,162.5,M,-34.4,M,,*5D
$GPRMC,133913.750,A,4308.4692,N,07726.4319,W,8.79,281.43,251019,,,A*7D
$GPGGA,133914.000,4308.4692,N,07726.4326,W,1,07,1.20,162.4,M,-34.4,M,,*59
$GPRMC,133914.250,A,4308.4693,N,07726.4332,W,6.91,284.32,251019,,,A*7C
$GPGGA,133914.500,4308.4694,N,07726.4337,W,1,07,1.20,162.4,M,-34.4,M,,*5A
$GPRMC,133914.750,A,4308.4694,N,07726.4341,W,5.62,285.71,251019,,,A*73
$GPGGA,133915.000,4308.4695,N,07726.4345,W,1,07,1.20,162.2,M,-34.4,M,,*5C
$GPRMC,133915.250,A,4308.4696,N,07726.4348,W,4.53,290.93,251019,,,A*77
$GPGGA,133915.500,4308.4697,N,07726.4351,W,1,07,1.20,162.0,M,-34.4,M,,*5C
$GPRMC,133915.750,A,4308.4697,N,07726.4354,W,3.59,293.77,251019,,,A*7A
$GPGGA,133916.000,4308.4698,N,07726.4356,W,1,07,1.16,161.9,M,-34.4,M,,*5D
$GPRMC,133916.250,A,4308.4698,N,07726.4358,W,2.49,298.77,251019,,,A*74
$GPGGA,133916.500,4308.4699,N,07726.4359,W,1,07,1.16,161.8,M,-34.4,M,,*57
$GPRMC,133916.750,A,4308.4699,N,07726.4360,W,1.75,298.77,251019,,,A*77
$GPGGA,133917.000,4308.4699,N,07726.4360,W,1,07,1.16,161.7,M,-34.4,M,,*56
$GPRMC,133917.250,A,4308.4700,N,07726.4361,W,1.23,298.77,251019,,,A*70
$GPGGA,133917.500,4308.4700,N,07726.4361,W,1,07,1.16,161.6,M,-34.4,M,,*52
$GPRMC,133917.750,A,4308.4700,N,07726.4362,W,1.14,298.77,251019,,,A*72
$GPGGA,133918.000,4308.4700,N,07726.4362,W,1,07,1.16,161.4,M,-34.4,M,,*59
$GPRMC,133918.250,A,4308.4700,N,07726.4363,W,0.95,298.77,251019,,,A*71
$GPGGA,133918.500,4308.4700,N,07726.4363,W,1,07,1.16,161.3,M,-34.4,M,,*5A
$GPRMC,133918.750,A,4308.4700,N,07726.4363,W,0.84,298.77,251019,,,A*74
$GPGGA,133919.000,4308.4700,N,07726.4363,W,1,07,1.16,161.2,M,-34.4,M,,*5F
$GPRMC,133919.250,A,4308.4700,N,07726.4364,W,0.76,298.77,251019,,,A*7A
$GPGGA,133919.500,4308.4699,N,07726.4364,W,1,07,1.16,161.1,M,-34.4,M,,*5F
$GPRMC,133919.750,A,4308.4699,N,07726.4365,W,0.71,298.77,251019,,,A*78
$GPGGA,133920.000,4308.4699,N,07726.4365,W,1,07,1.16,161.1,M,-34.4,M,,*51
$GPRMC,133920.250,A,4308.4699,N,07726.4366,W,0.71,298.77,251019,,,A*74
$GPGGA,133920.500,4308.4699,N,07726.4366,W,1,07,1.16,161.0,M,-34.4,M,,*56
$GPRMC,133920.750,A,4308.4700,N,07726.4367,W,0.68,298.77,251019,,,A*79
$GPGGA,133921.000,4308.4700,N,07726.4367,W,1,07,1.16,161.0,M,-34.4,M,,*52
$GPRMC,133921.250,A,4308.4700,N,07726.4368,W,0.60,288.66,251019,,,A*7B
$GPGGA,133921.500,4308.4700,N,07726.4368,W,1,07,1.16,160.9,M,-34.4,M,,*50
$GPRMC,133921.750,A,4308.4700,N,07726.4369,W,0.53,284.13,251019,,,A*71
$GPGGA,133922.000,4308.4700,N,07726.4369,W,1,07,1.16,160.9,M,-34.4,M,,*57
$GPRMC,133922.250,A,4308.4700,N,07726.4370,W,0.48,283.31,251019,,,A*72
$GPGGA,133922.500,4308.4700,N,07726.4370,W,1,07,1.20,160.8,M,-34.4,M,,*5E
$GPRMC,133922.750,A,4308.4700,N,07726.4371,W,0.43,281.77,251019,,,A*7D
$GPGGA,133923.000,4308.4700,N,07726.4371,W,1,07,1.20,160.8,M,-34.4,M,,*5B
$GPRMC,133923.250,A,4308.4700,N,07726.4371,W,0.41,279.64,251019,,,A*7E
$GPGGA,133923.500,4308.4700,N,07726.4372,W,1,07,1.20,160.7,M,-34.4,M,,*52
$GPRMC,133923.750,A,4308.4700,N,07726.4372,W,0.39,277.10,251019,,,A*7A
$GPGGA,133924.000,4308.4700,N,07726.4372,W,1,07,1.20,160.7,M,-34.4,M,,*50
$GPRMC,133924.250,A,4308.4700,N,07726.4373,W,0.38,274.11,251019,,,A*7A
$GPGGA,133924.500,4308.4700,N,07726.4373,W,1,07,1.20,160.6,M,-34.4,M,,*55
$GPRMC,133924.750,A,4308.4700,N,07726.4373,W,0.38,270.67,251019,,,A*7A
$GPGGA,133925.000,4308.4699,N,07726.4374,W,1,07,1.20,160.6,M,-34.4,M,,*57
$GPRMC,133925.250,A,4308.4699,N,07726.4374,W,0.38,267.21,251019,,,A*7C
$GPGGA,133925.500,4308.4699,N,07726.4374,W,1,07,1.20,160.5,M,-34.4,M,,*51
$GPRMC,133925.750,A,4308.4699,N,07726.4375,W,0.36,264.09,251019,,,A*7F
$GPGGA,133926.000,4308.4699,N,07726.4375,W,1,07,1.20,160.5,M,-34.4,M,,*56
$GPRMC,133926.250,A,4308.4699,N,07726.4375,W,0.00,264.09,251019,,,A*7C
$GPGGA,133926.500,4308.4699,N,07726.4375,W,1,07,1.20,160.5,M,-34.4,M,,*53
$GPRMC,133926.750,A,4308.4699,N,07726.4375,W,0.00,264.09,251019,,,A*79
$GPGGA,133927.000,4308.4699,N,07726.4375,W,1,07,1.20,160.5,M,-34.4,M,,*57
$GPRMC,133927.250,A,4308.4699,N,07726.4375,W,0.00,264.09,251019,,,A*7D
$GPGGA,133927.500,4308.4699,N,07726.4375,W,1,07,1.20,160.5,M,-34.4,M,,*52
$GPRMC,133927.750,A,4308.4699,N,07726.4375,W,0.03,263.29,251019,,,A*7E
$GPGGA,133928.000,4308.4699,N,07726.4375,W,1,07,1.20,160.5,M,-34.4,M,,*58
$GPRMC,133928.250,A,4308.4699,N,07726.4375,W,0.05,261.81,251019,,,A*72
$GPGGA,133928.500,4308.4699,N,07726.4375,W,1,07,1.20,160.5,M,-34.4,M,,*5D
$GPRMC,133928.750,A,4308.4699,N,07726.4375,W,0.04,260.33,251019,,,A*7E
$GPGGA,133929.000,4308.4699,N,07726.4375,W,1,07,1.20,160.5,M,-34.4,M,,*59
$GPRMC,133929.250,A,4308.4699,N,07726.4375,W,0.06,259.54,251019,,,A*73
$GPGGA,133929.500,4308.4698,N,07726.4375,W,1,07,1.20,160.5,M,-34.4,M,,*5D
$GPRMC,133929.750,A,4308.4698,N,07726.4375,W,0.08,259.54,251019,,,A*79
$GPGGA,133930.000,4308.4698,N,07726.4375,W,1,07,1.20,160.5,M,-34.4,M,,*50
$GPRMC,133930.250,A,4308.4698,N,07726.4375,W,0.12,259.54,251019,,,A*7F
$GPGGA,133930.500,4308.4698,N,07726.4375,W,1,07,1.20,160.5,M,-34.4,M,,*55
$GPRMC,133930.750,A,4308.4698,N,07726.4375,W,0.20,259.54,251019,,,A*7B
$GPGGA,133931.000,4308.4698,N,07726.4375,W,1,07,1.20,160.5,M,-34.4,M,,*51
$GPRMC,133931.250,A,4308.4698,N,07726.4376,W,0.31,259.54,251019,,,A*7C
$GPGGA,133931.500,4308.4698,N,07726.4376,W,1,07,1.20,160.5,M,-34.4,M,,*57
$GPRMC,133931.750,A,4308.4698,N,07726.4376,W,0.38,257.70,251019,,,A*78
$GPGGA,133932.000,4308.4698,N,07726.4377,W,1,07,1.20,160.5,M,-34.4,M,,*50
$GPRMC,133932.250,A,4308.4698,N,07726.4377,W,0.43,260.69,251019,,,A*7F
$GPGGA,133932.500,4308.4698,N,07726.4378,W,1,07,1.20,160.5,M,-34.4,M,,*5A
$GPRMC,133932.750,A,4308.4698,N,07726.4378,W,0.44,262.66,251019,,,A*7F
$GPGGA,133933.000,4308.4698,N,07726.4378,W,1,07,1.20,160.4,M,-34.4,M,,*5F
$GPRMC,133933.250,A,4308.4698,N,07726.4379,W,0.43,263.19,251019,,,A*74
$GPGGA,133933.500,4308.4698,N,07726.4379,W,1,07,1.20,160.4,M,-34.4,M,,*5B
$GPRMC,133933.750,A,4308.4698,N,07726.4380,W,0.41,262.37,251019,,,A*78
$GPGGA,133934.000,4308.4698,N,07726.4380,W,1,07,1.20,160.4,M,-34.4,M,,*5F
$GPRMC,133934.250,A,4308.4698,N,07726.4380,W,0.38,260.46,251019,,,A*70
$GPGGA,133934.500,4308.4698,N,07726.4381,W,1,07,1.20,160.4,M,-34.4,M,,*5B
$GPRMC,133934.750,A,4308.4698,N,07726.4381,W,0.36,258.32,251019,,,A*72
$GPGGA,133935.000,4308.4697,N,07726.4381,W,1,07,1.20,160.4,M,-34.4,M,,*50
$GPRMC,133935.250,A,4308.4697,N,07726.4381,W,0.00,258.32,251019,,,A*7C
$GPGGA,133935.500,4308.4697,N,07726.4381,W,1,07,1.20,160.4,M,-34.4,M,,*55
$GPRMC,133935.750,A,4308.4697,N,07726.4381,W,0.02,258.22,251019,,,A*7A
$GPGGA,133936.000,4308.4697,N,07726.4381,W,1,07,1.20,160.4,M,-34.4,M,,*53
$GPRMC,133936.250,A,4308.4697,N,07726.4381,W,0.03,257.57,251019,,,A*70
$GPGGA,133936.500,4308.4697,N,07726.4381,W,1,07,1.20,160.4,M,-34.4,M,,*56
$GPRMC,133936.750,A,4308.4697,N,07726.4381,W,0.04,256.61,251019,,,A*76
$GPGGA,133937.000,4308.4697,N,07726.4381,W,1,07,1.20,160.4,M,-34.4,M,,*52
$GPRMC,133937.250,A,4308.4697,N,07726.4381,W,0.06,256.07,251019,,,A*70
$GPGGA,133937.500,4308.4697,N,07726.4382,W,1,07,1.20,160.4,M,-34.4,M,,*54
$GPRMC,133937.750,A,4308.4697,N,07726.4382,W,0.07,256.07,251019,,,A*77
$GPGGA,133938.000,4308.4697,N,07726.4382,W,1,07,1.20,160.4,M,-34.4,M,,*5E
$GPRMC,133938.250,A,4308.4697,N,07726.4382,W,0.07,256.07,251019,,,A*7D
$GPGGA,133938.500,4308.4697,N,07726.4382,W,1,07,1.20,160.4,M,-34.4,M,,*5B
$GPRMC,133938.750,A,4308.4697,N,07726.4382,W,0.07,256.07,251019,,,A*78
$GPGGA,133939.000,4308.4697,N,07726.4382,W,1,07,1.20,160.4,M,-34.4,M,,*5F
$GPRMC,133939.250,A,4308.4697,N,07726.4382,W,0.09,256.07,251019,,,A*72
$GPGGA,133939.500,4308.4697,N,07726.4382,W,1,07,1.20,160.4,M,-34.4,M,,*5A
$GPRMC,133939.750,A,4308.4697,N,07726.4382,W,0.11,256.07,251019,,,A*7E
$GPGGA,133940.000,4308.4697,N,07726.4382,W,1,07,1.20,160.4,M,-34.4,M,,*51
$GPRMC,133940.250,A,4308.4697,N,07726.4382,W,0.13,256.07,251019,,,A*77
$GPGGA,133940.500,4308.4697,N,07726.4382,W,1,07,1.20,160.4,M,-34.4,M,,*54
$GPRMC,133940.750,A,4308.4696,N,07726.4382,W,0.14,256.07,251019,,,A*74
$GPGGA,133941.000,4308.4696,N,07726.4382,W,1,07,1.20,160.4,M,-34.4,M,,*51
$GPRMC,133941.250,A,4308.4696,N,07726.4383,W,0.15,256.07,251019,,,A*70
$GPGGA,133941.500,4308.4696,N,07726.4383,W,1,07,1.20,160.4,M,-34.4,M,,*55
$GPRMC,133941.750,A,4308.4696,N,07726.4383,W,0.16,256.07,251019,,,A*76
$GPGGA,133942.000,4308.4696,N,07726.4383,W,1,07,1.20,160.4,M,-34.4,M,,*53
$GPRMC,133942.250,A,4308.4696,N,07726.4383,W,0.17,256.07,251019,,,A*71
$GPGGA,133942.500,4308.4696,N,07726.4383,W,1,07,1.20,160.4,M,-34.4,M,,*56
$GPRMC,133942.750,A,4308.4696,N,07726.4383,W,0.18,256.07,251019,,,A*7B
$GPGGA,133943.000,4308.4695,N,07726.4383,W,1,07,1.20,160.3,M,-34.4,M,,*56
$GPRMC,133943.250,A,4308.4695,N,07726.4383,W,0.17,256.07,251019,,,A*73
$GPGGA,133943.500,4308.4695,N,07726.4383,W,1,07,1.20,160.3,M,-34.4,M,,*53
$GPRMC,133943.750,A,4308.4695,N,07726.4383,W,0.18,256.07,251019,,,A*79
$GPGGA,133944.000,4308.4695,N,07726.4383,W,1,07,1.20,160.3,M,-34.4,M,,*51
$GPRMC,133944.250,A,4308.4695,N,07726.4384,W,0.20,256.07,251019,,,A*77
$GPGGA,133944.500,4308.4695,N,07726.4384,W,1,07,1.20,160.3,M,-34.4,M,,*53
$GPRMC,133944.750,A,4308.4695,N,07726.4384,W,0.21,256.07,251019,,,A*73
$GPGGA,133945.000,4308.4695,N,07726.4384,W,1,07,1.20,160.3,M,-34.4,M,,*57
$GPRMC,133945.250,A,4308.4694,N,07726.4384,W,0.21,256.07,251019,,,A*76
$GPGGA,133945.500,4308.4694,N,07726.4384,W,1,07,1.20,160.3,M,-34.4,M,,*53
$GPRMC,133945.750,A,4308.4694,N,07726.4384,W,0.22,256.07,251019,,,A*70
$GPGGA,133946.000,4308.4694,N,07726.4384,W,1,07,1.20,160.3,M,-34.4,M,,*55
$GPRMC,133946.250,A,4308.4694,N,07726.4385,W,0.23,221.62,251019,,,A*75
$GPGGA,133946.500,4308.4694,N,07726.4385,W,1,07,1.20,160.3,M,-34.4,M,,*51
$GPRMC,133946.750,A,4308.4694,N,07726.4385,W,0.25,221.61,251019,,,A*75
$GPGGA,133947.000,4308.4694,N,07726.4385,W,1,07,1.20,160.3,M,-34.4,M,,*55
$GPRMC,133947.250,A,4308.4693,N,07726.4385,W,0.25,221.07,251019,,,A*76
$GPGGA,133947.500,4308.4693,N,07726.4385,W,1,07,1.20,160.2,M,-34.4,M,,*56
$GPRMC,133947.750,A,4308.4693,N,07726.4385,W,0.24,220.44,251019,,,A*74
$GPGGA,133948.000,4308.4693,N,07726.4386,W,1,07,1.20,160.2,M,-34.4,M,,*5F
$GPRMC,133948.250,A,4308.4693,N,07726.4386,W,0.20,220.15,251019,,,A*7D
$GPGGA,133948.500,4308.4693,N,07726.4386,W,1,07,1.20,160.2,M,-34.4,M,,*5A
$GPRMC,133948.750,A,4308.4693,N,07726.4386,W,0.15,219.71,251019,,,A*76
$GPGGA,133949.000,4308.4693,N,07726.4386,W,1,07,1.20,160.2,M,-34.4,M,,*5E
$GPRMC,133949.250,A,4308.4693,N,07726.4386,W,0.14,219.63,251019,,,A*70
$GPGGA,133949.500,4308.4692,N,07726.4386,W,1,07,1.20,160.2,M,-34.4,M,,*5A
$GPRMC,133949.750,A,4308.4692,N,07726.4386,W,0.13,220.83,251019,,,A*77
$GPGGA,133950.000,4308.4692,N,07726.4386,W,1,07,1.20,160.2,M,-34.4,M,,*57
$GPRMC,133950.250,A,4308.4692,N,07726.4386,W,0.18,224.74,251019,,,A*7D
$GPGGA,133950.500,4308.4692,N,07726.4387,W,1,07,1.20,160.1,M,-34.4,M,,*50
$GPRMC,133950.750,A,4308.4692,N,07726.4387,W,0.28,232.58,251019,,,A*73
$GPGGA,133951.000,4308.4692,N,07726.4387,W,1,07,1.20,160.1,M,-34.4,M,,*54
$GPRMC,133951.250,A,4308.4692,N,07726.4387,W,0.38,241.20,251019,,,A*7D
$GPGGA,133951.500,4308.4692,N,07726.4388,W,1,07,1.20,160.1,M,-34.4,M,,*5E
$GPRMC,133951.750,A,4308.4692,N,07726.4388,W,0.51,249.23,251019,,,A*73
$GPGGA,133952.000,4308.4692,N,07726.4389,W,1,07,1.16,160.1,M,-34.4,M,,*5C
$GPRMC,133952.250,A,4308.4692,N,07726.4389,W,0.90,266.43,251019,,,A*72
$GPGGA,133952.500,4308.4692,N,07726.4390,W,1,07,1.16,160.1,M,-34.4,M,,*51
$GPRMC,133952.750,A,4308.4692,N,07726.4391,W,1.38,263.05,251019,,,A*7A
$GPGGA,133953.000,4308.4692,N,07726.4393,W,1,07,1.16,160.1,M,-34.4,M,,*56
$GPRMC,133953.250,A,4308.4691,N,07726.4396,W,3.72,250.83,251019,,,A*78
$GPGGA,133953.500,4308.4690,N,07726.4400,W,1,07,1.16,160.0,M,-34.4,M,,*5D
$GPRMC,133953.750,A,4308.4689,N,07726.4405,W,4.73,252.88,251019,,,A*76
$GPGGA,133954.000,4308.4688,N,07726.4410,W,1,07,1.20,159.9,M,-34.4,M,,*51
$GPRMC,133954.250,A,4308.4688,N,07726.4417,W,6.08,256.24,251019,,,A*7A
$GPGGA,133954.500,4308.4687,N,07726.4424,W,1,07,1.20,159.9,M,-34.4,M,,*5C
$GPRMC,133954.750,A,4308.4686,N,07726.4433,W,7.67,256.41,251019,,,A*7C
$GPGGA,133955.000,4308.4685,N,07726.4442,W,1,07,1.20,159.9,M,-34.4,M,,*5A
$GPRMC,133955.250,A,4308.4690,N,07726.4461,W,11.80,265.89,251019,,,A*42
$GPGGA,133955.500,4308.4688,N,07726.4474,W,1,07,1.20,159.7,M,-34.4,M,,*59
$GPRMC,133955.750,A,4308.4693,N,07726.4495,W,15.35,270.14,251019,,,A*45
$GPGGA,133956.000,4308.4697,N,07726.4514,W,1,07,1.20,159.6,M,-34.4,M,,*57
$GPRMC,133956.250,A,4308.4698,N,07726.4533,W,18.86,272.51,251019,,,A*43
$GPGGA,133956.500,4308.4699,N,07726.4553,W,1,07,1.20,159.5,M,-34.4,M,,*5C
$GPRMC,133956.750,A,4308.4700,N,07726.4574,W,21.38,271.99,251019,,,A*4D
$GPGGA,133957.000,4308.4702,N,07726.4597,W,1,07,1.20,159.4,M,-34.4,M,,*52
$GPRMC,133957.250,A,4308.4702,N,07726.4620,W,24.06,271.95,251019,,,A*4D
$GPGGA,133957.500,4308.4704,N,07726.4645,W,1,07,1.20,159.3,M,-34.4,M,,*5A
$GPRMC,133957.750,A,4308.4705,N,07726.4671,W,25.95,272.27,251019,,,A*4A
$GPGGA,133958.000,4308.4706,N,07726.4697,W,1,07,1.20,159.3,M,-34.4,M,,*5D
$GPRMC,133958.250,A,4308.4708,N,07726.4725,W,28.67,274.20,251019,,,A*4C
$GPGGA,133958.500,4308.4710,N,07726.4754,W,1,07,1.20,159.4,M,-34.4,M,,*56
$GPRMC,133958.750,A,4308.4712,N,07726.4784,W,30.23,274.13,251019,,,A*40
$GPGGA,133959.000,4308.4715,N,07726.4815,W,1,07,1.20,159.4,M,-34.4,M,,*5D
$GPRMC,133959.250,A,4308.4717,N,07726.4846,W,31.44,275.69,251019,,,A*4C
$GPGGA,133959.500,4308.4720,N,07726.4877,W,1,07,1.20,159.4,M,-34.4,M,,*5A
$GPRMC,133959.750,A,4308.4722,N,07726.4909,W,32.65,275.76,251019,,,A*4B
$GPGGA,134000.000,4308.4725,N,07726.4942,W,1,07,1.20,159.4,M,-34.4,M,,*5F
$GPRMC,134000.250,A,4308.4727,N,07726.4974,W,33.21,275.43,251019,,,A*44
$GPGGA,134000.500,4308.4730,N,07726.5008,W,1,07,1.20,159.2,M,-34.4,M,,*5E
$GPRMC,134000.750,A,4308.4732,N,07726.5041,W,33.80,275.76,251019,,,A*46
$GPGGA,134001.000,4308.4735,N,07726.5076,W,1,07,1.20,159.1,M,-34.4,M,,*55
$GPRMC,134001.250,A,4308.4737,N,07726.5110,W,35.23,275.62,251019,,,A*48
$GPGGA,134001.500,4308.4740,N,07726.5145,W,1,07,1.20,158.9,M,-34.4,M,,*5A
$GPRMC,134001.750,A,4308.4742,N,07726.5181,W,36.25,275.44,251019,,,A*46
$GPGGA,134002.000,4308.4744,N,07726.5216,W,1,07,1.20,158.7,M,-34.4,M,,*53
$GPRMC,134002.250,A,4308.4747,N,07726.5252,W,37.00,274.72,251019,,,A*4A
$GPGGA,134002.500,4308.4749,N,07726.5289,W,1,07,1.20,158.5,M,-34.4,M,,*5F
$GPRMC,134002.750,A,4308.4750,N,07726.5325,W,37.40,274.42,251019,,,A*4F
$GPGGA,134003.000,4308.4752,N,07726.5361,W,1,07,1.20,158.3,M,-34.4,M,,*50
$GPRMC,134003.250,A,4308.4753,N,07726.5398,W,37.88,273.64,251019,,,A*49
$GPGGA,134003.500,4308.4755,N,07726.5435,W,1,07,1.20,158.4,M,-34.4,M,,*53
$GPRMC,134003.750,A,4308.4756,N,07726.5472,W,38.61,273.12,251019,,,A*43
$GPGGA,134004.000,4308.4758,N,07726.5509,W,1,07,1.20,158.5,M,-34.4,M,,*53
$GPRMC,134004.250,A,4308.4760,N,07726.5547,W,39.32,273.73,251019,,,A*43
$GPGGA,134004.500,4308.4761,N,07726.5585,W,1,07,1.20,158.5,M,-34.4,M,,*58
$GPRMC,134004.750,A,4308.4764,N,07726.5623,W,39.60,273.58,251019,,,A*4D
$GPGGA,134005.000,4308.4765,N,07726.5661,W,1,07,1.20,158.6,M,-34.4,M,,*52
$GPRMC,134005.250,A,4308.4767,N,07726.5699,W,39.99,273.48,251019,,,A*4C
$GPGGA,134005.500,4308.4769,N,07726.5738,W,1,07,1.20,158.7,M,-34.4,M,,*57
$GPRMC,134005.750,A,4308.4771,N,07726.5777,W,40.20,273.57,251019,,,A*4D
$GPGGA,134006.000,4308.4773,N,07726.5815,W,1,07,1.20,158.8,M,-34.4,M,,*55
$GPRMC,134006.250,A,4308.4775,N,07726.5854,W,40.32,273.58,251019,,,A*4D
$GPGGA,134006.500,4308.4776,N,07726.5892,W,1,07,1.20,158.9,M,-34.4,M,,*5B
$GPRMC,134006.750,A,4308.4778,N,07726.5930,W,40.28,273.07,251019,,,A*47
$GPGGA,134007.000,4308.4779,N,07726.5967,W,1,07,1.20,159.0,M,-34.4,M,,*53
$GPRMC,134007.250,A,4308.4780,N,07726.6004,W,38.23,271.42,251019,,,A*4E
$GPGGA,134007.500,4308.4781,N,07726.6040,W,1,07,1.20,159.2,M,-34.4,M,,*5C
$GPRMC,134007.750,A,4308.4782,N,07726.6077,W,37.66,271.58,251019,,,A*48
$GPGGA,134008.000,4308.4782,N,07726.6113,W,1,07,1.20,159.3,M,-34.4,M,,*53
$GPRMC,134008.250,A,4308.4783,N,07726.6149,W,37.66,271.64,251019,,,A*40
$GPGGA,134008.500,4308.4784,N,07726.6185,W,1,07,1.20,159.3,M,-34.4,M,,*5F
$GPRMC,134008.750,A,4308.4785,N,07726.6221,W,37.78,271.27,251019,,,A*46
$GPGGA,134009.000,4308.4787,N,07726.6258,W,1,07,1.20,159.2,M,-34.4,M,,*5A
$GPRMC,134009.250,A,4308.4787,N,07726.6295,W,38.01,270.42,251019,,,A*4C
$GPGGA,134009.500,4308.4788,N,07726.6331,W,1,07,1.20,159.2,M,-34.4,M,,*5E
$GPRMC,134009.750,A,4308.4788,N,07726.6368,W,38.22,269.75,251019,,,A*48
$GPGGA,134010.000,4308.4789,N,07726.6405,W,1,07,1.20,159.0,M,-34.4,M,,*50
$GPRMC,134010.250,A,4308.4789,N,07726.6442,W,38.50,268.84,251019,,,A*41
$GPGGA,134010.500,4308.4788,N,07726.6479,W,1,07,1.20,158.9,M,-34.4,M,,*57
$GPRMC,134010.750,A,4308.4788,N,07726.6516,W,38.63,268.15,251019,,,A*4D
$GPGGA,134011.000,4308.4787,N,07726.6553,W,1,07,1.20,158.8,M,-34.4,M,,*54
$GPRMC,134011.250,A,4308.4786,N,07726.6590,W,38.87,267.36,251019,,,A*4D
$GPGGA,134011.500,4308.4785,N,07726.6627,W,1,07,1.20,158.8,M,-34.4,M,,*53
$GPRMC,134011.750,A,4308.4784,N,07726.6664,W,38.99,266.77,251019,,,A*49
$GPGGA,134012.000,4308.4783,N,07726.6701,W,1,07,1.20,159.0,M,-34.4,M,,*5F
$GPRMC,134012.250,A,4308.4781,N,07726.6738,W,39.28,266.16,251019,,,A*4E
$GPGGA,134012.500,4308.4779,N,07726.6775,W,1,07,1.20,159.2,M,-34.4,M,,*5E
$GPRMC,134012.750,A,4308.4777,N,07726.6812,W,39.41,265.61,251019,,,A*49
$GPGGA,134013.000,4308.4774,N,07726.6850,W,1,07,1.20,159.3,M,-34.4,M,,*5E
$GPRMC,134013.250,A,4308.4772,N,07726.6887,W,39.47,265.20,251019,,,A*47
$GPGGA,134013.500,4308.4770,N,07726.6924,W,1,07,1.20,159.6,M,-34.4,M,,*58
$GPRMC,134013.750,A,4308.4767,N,07726.6961,W,39.58,265.45,251019,,,A*42
$GPGGA,134014.000,4308.4766,N,07726.6999,W,1,07,1.20,159.8,M,-34.4,M,,*55
$GPRMC,134014.250,A,4308.4764,N,07726.7037,W,39.88,266.01,251019,,,A*46
$GPGGA,134014.500,4308.4762,N,07726.7075,W,1,07,1.20,160.1,M,-34.4,M,,*5D
$GPRMC,134014.750,A,4308.4760,N,07726.7112,W,39.78,265.99,251019,,,A*4C
$GPGGA,134015.000,4308.4757,N,07726.7150,W,1,07,1.20,160.4,M,-34.4,M,,*5C
$GPRMC,134015.250,A,4308.4755,N,07726.7188,W,39.87,266.30,251019,,,A*4D
$GPGGA,134015.500,4308.4753,N,07726.7226,W,1,07,1.20,160.8,M,-34.4,M,,*53
$GPRMC,134015.750,A,4308.4751,N,07726.7264,W,40.23,266.16,251019,,,A*49
$GPGGA,134016.000,4308.4749,N,07726.7302,W,1,07,1.20,161.1,M,-34.4,M,,*51
$GPRMC,134016.250,A,4308.4747,N,07726.7339,W,39.90,265.76,251019,,,A*42
$GPGGA,134016.500,4308.4745,N,07726.7376,W,1,07,1.20,161.5,M,-34.4,M,,*5F
$GPRMC,134016.750,A,4308.4742,N,07726.7414,W,39.72,265.64,251019,,,A*45
$GPGGA,134017.000,4308.4740,N,07726.7451,W,1,07,1.20,161.9,M,-34.4,M,,*50
$GPRMC,134017.250,A,4308.4739,N,07726.7489,W,39.89,266.01,251019,,,A*4D
$GPGGA,134017.500,4308.4737,N,07726.7527,W,1,07,1.20,162.1,M,-34.4,M,,*5E
$GPRMC,134017.750,A,4308.4736,N,07726.7565,W,39.84,266.87,251019,,,A*47
$GPGGA,134018.000,4308.4735,N,07726.7603,W,1,07,1.20,162.4,M,-34.4,M,,*56
$GPRMC,134018.250,A,4308.4733,N,07726.7641,W,40.02,267.06,251019,,,A*45
$GPGGA,134018.500,4308.4732,N,07726.7679,W,1,07,1.20,162.7,M,-34.4,M,,*5A
$GPRMC,134018.750,A,4308.4730,N,07726.7717,W,40.07,266.38,251019,,,A*48
$GPGGA,134019.000,4308.4728,N,07726.7755,W,1,07,1.20,162.8,M,-34.4,M,,*55
$GPRMC,134019.250,A,4308.4726,N,07726.7793,W,39.86,266.49,251019,,,A*46
$GPGGA,134019.500,4308.4725,N,07726.7831,W,1,07,1.20,162.9,M,-34.4,M,,*51
$GPRMC,134019.750,A,4308.4723,N,07726.7869,W,39.66,266.19,251019,,,A*47
$GPGGA,134020.000,4308.4722,N,07726.7907,W,1,07,1.20,163.0,M,-34.4,M,,*55
$GPRMC,134020.250,A,4308.4722,N,07726.7946,W,39.45,266.30,251019,,,A*4F
$GPGGA,134020.500,4308.4720,N,07726.7985,W,1,07,1.20,163.1,M,-34.4,M,,*59
$GPRMC,134020.750,A,4308.4719,N,07726.8023,W,39.76,266.04,251019,,,A*40
$GPGGA,134021.000,4308.4716,N,07726.8061,W,1,07,1.20,163.0,M,-34.4,M,,*55
$GPRMC,134021.250,A,4308.4714,N,07726.8100,W,40.20,265.34,251019,,,A*44
$GPGGA,134021.500,4308.4712,N,07726.8139,W,1,07,1.20,163.0,M,-34.4,M,,*58
$GPRMC,134021.750,A,4308.4709,N,07726.8177,W,40.60,264.77,251019,,,A*4F
$GPGGA,134022.000,4308.4707,N,07726.8216,W,1,07,1.20,163.0,M,-34.4,M,,*54
$GPRMC,134022.250,A,4308.4705,N,07726.8255,W,40.61,265.46,251019,,,A*44
$GPGGA,134022.500,4308.4703,N,07726.8295,W,1,07,1.20,163.0,M,-34.4,M,,*5E
$GPRMC,134022.750,A,4308.4701,N,07726.8334,W,40.84,265.33,251019,,,A*4A
$GPGGA,134023.000,4308.4699,N,07726.8373,W,1,07,1.20,162.9,M,-34.4,M,,*59
$GPRMC,134023.250,A,4308.4696,N,07726.8412,W,41.28,265.14,251019,,,A*40
$GPGGA,134023.500,4308.4693,N,07726.8452,W,1,07,1.20,162.7,M,-34.4,M,,*5C
