Vers 81
USE_SERIAL_FEEDBACK=true
DEVELOPMENT_MODE=false
USE_RMC_ONLY=false

$GPGGA,133144.250,4308.3904,N,07726.3753,W,1,04,1.94,169.0,M,-3
$GPGGA,133144.750,4308.3938,N,07726.3749,W,1,04,1.94,168.8,M,-34.4,M,,*5E
$GPRMC,133145.000,A,4308.3954,N,07726.3746,W,23.20,6.60,211019,,,A*42
$GPGGA,133145.250,4308.3970,N,07726.3743,W,1,04,1.94,168.8,M,-34.4,M,,*5C
$GPRMC,133145.500,A,4308.3986,N,07726.3740,W,22.99,8.38,211019,,,A*4E
$GPGGA,133145.750,4308.4002,N,07726.3737,W,1,04,1.94,168.7,M,-34.4,M,,*5E
$GPRMC,133146.000,A,4308.4018,N,07726.3734,W,22.96,9.06,211019,,,A*41
$GPGGA,133146.250,4308.4034,N,07726.3731,W,1,04,1.94,168.6,M,-34.4,M,,*5A
$GPRMC,133146.500,A,4308.4051,N,07726.3727,W,23.00,9.47,211019,,,A*40
$GPGGA,133146.750,4308.4067,N,07726.3723,W,1,04,1.94,168.4,M,-34.4,M,,*58
$GPRMC,133147.000,A,4308.4084,N,07726.3720,W,23.42,8.55,211019,,,A*4F
$GPGGA,133147.250,4308.4100,N,07726.3717,W,1,04,1.94,168.4,M,-34.4,M,,*5B
$GPRMC,133147.500,A,4308.4116,N,07726.3713,W,23.49,8.60,211019,,,A*4D
$GPGGA,133147.750,4308.4132,N,07726.3710,W,1,04,1.94,168.3,M,-34.4,M,,*5F
$GPRMC,133148.000,A,4308.4148,N,07726.3706,W,23.43,8.72,211019,,,A*41
$GPGGA,133148.250,4308.4165,N,07726.3702,W,1,04,1.94,168.2,M,-34.4,M,,*55
$GPRMC,133148.500,A,4308.4181,N,07726.3698,W,23.81,8.92,211019,,,A*47
$GPGGA,133148.750,4308.4198,N,07726.3695,W,1,04,1.94,168.2,M,-34.4,M,,*5D
$GPRMC,133149.000,A,4308.4214,N,07726.3691,W,23.50,9.45,211019,,,A*42
$GPGGA,133149.250,4308.4229,N,07726.3688,W,1,04,1.95,168.3,M,-34.4,M,,*5C
$GPRMC,133149.500,A,4308.4245,N,07726.3684,W,22.87,9.76,211019,,,A*4C
$GPGGA,133149.750,4308.4260,N,07726.3680,W,1,04,1.94,168.2,M,-34.4,M,,*5C
$GPRMC,133150.000,A,4308.4276,N,07726.3676,W,22.20,9.65,211019,,,A*43
$GPGGA,133150.250,4308.4291,N,07726.3673,W,1,05,1.44,168.3,M,-34.4,M,,*5E
$GPRMC,133150.500,A,4308.4306,N,07726.3669,W,21.82,9.68,211019,,,A*48
$GPGGA,133150.750,4308.4320,N,07726.3665,W,1,05,1.44,168.3,M,-34.4,M,,*57
$GPRMC,133151.000,A,4308.4335,N,07726.3661,W,21.26,9.79,211019,,,A*4A
$GPGGA,133151.250,4308.4350,N,07726.3658,W,1,05,1.44,168.4,M,-34.4,M,,*5D
$GPRMC,133151.500,A,4308.4364,N,07726.3655,W,20.58,9.46,211019,,,A*48
$GPGGA,133151.750,4308.4378,N,07726.3651,W,1,05,1.44,168.5,M,-34.4,M,,*5A
$GPRMC,133152.000,A,4308.4392,N,07726.3648,W,19.97,9.40,211019,,,A*44
$GPGGA,133152.250,4308.4406,N,07726.3645,W,1,05,1.44,168.6,M,-34.4,M,,*54
$GPRMC,133152.500,A,4308.4419,N,07726.3642,W,18.85,9.52,211019,,,A*4E
$GPGGA,133152.750,4308.4432,N,07726.3639,W,1,05,1.44,168.6,M,-34.4,M,,*5D
$GPRMC,133153.000,A,4308.4444,N,07726.3636,W,16.95,9.92,211019,,,A*42
$GPGGA,133153.250,4308.4456,N,07726.3633,W,1,05,1.44,168.6,M,-34.4,M,,*51
$GPRMC,133153.500,A,4308.4466,N,07726.3630,W,14.62,11.14,211019,,,A*7C
$GPGGA,133153.750,4308.4476,N,07726.3627,W,1,05,1.44,168.7,M,-34.4,M,,*52
$GPRMC,133154.000,A,4308.4485,N,07726.3624,W,12.50,10.33,211019,,,A*75
$GPGGA,133154.250,4308.4493,N,07726.3622,W,1,05,1.44,168.6,M,-34.4,M,,*5F
$GPRMC,133154.500,A,4308.4500,N,07726.3620,W,10.71,10.13,211019,,,A*7B
$GPGGA,133154.750,4308.4506,N,07726.3619,W,1,05,1.44,168.7,M,-34.4,M,,*5E
$GPRMC,133155.000,A,4308.4512,N,07726.3617,W,8.37,11.11,211019,,,A*40
$GPGGA,133155.250,4308.4516,N,07726.3615,W,1,05,1.44,168.7,M,-34.4,M,,*57
$GPRMC,133155.500,A,4308.4520,N,07726.3614,W,6.31,10.94,211019,,,A*43
$GPGGA,133155.750,4308.4523,N,07726.3613,W,1,05,1.44,168.8,M,-34.4,M,,*5D
$GPRMC,133156.000,A,4308.4526,N,07726.3612,W,4.74,9.35,211019,,,A*75
$GPGGA,133156.250,4308.4529,N,07726.3611,W,1,06,1.31,168.9,M,-34.4,M,,*53
$GPRMC,133156.500,A,4308.4532,N,07726.3610,W,4.38,9.97,211019,,,A*77
$GPGGA,133156.750,4308.4535,N,07726.3610,W,1,06,1.31,168.9,M,-34.4,M,,*5A
$GPRMC,133157.000,A,4308.4538,N,07726.3609,W,4.99,4.36,211019,,,A*7C
$GPGGA,133157.250,4308.4542,N,07726.3609,W,1,06,1.31,169.0,M,-34.4,M,,*5E
$GPRMC,133157.500,A,4308.4546,N,07726.3609,W,6.30,354.87,211019,,,A*7D
$GPGGA,133157.750,4308.4551,N,07726.3610,W,1,06,1.31,169.0,M,-34.4,M,,*51
$GPRMC,133158.000,A,4308.4555,N,07726.3610,W,7.11,353.33,211019,,,A*77
$GPGGA,133158.250,4308.4560,N,07726.3613,W,1,06,1.31,169.2,M,-34.4,M,,*58
$GPRMC,133158.500,A,4308.4565,N,07726.3617,W,8.33,334.00,211019,,,A*78
$GPGGA,133158.750,4308.4571,N,07726.3621,W,1,06,1.31,169.3,M,-34.4,M,,*5D
$GPRMC,133159.000,A,4308.4575,N,07726.3627,W,8.94,322.92,211019,,,A*7F
$GPGGA,133159.250,4308.4579,N,07726.3634,W,1,05,1.62,169.4,M,-34.4,M,,*57
$GPRMC,133159.500,A,4308.4583,N,07726.3642,W,9.98,307.01,211019,,,A*70
$GPGGA,133159.750,4308.4587,N,07726.3651,W,1,06,1.25,169.5,M,-34.4,M,,*51
$GPRMC,133200.000,A,4308.4591,N,07726.3661,W,10.87,300.65,211019,,,A*4B
$GPGGA,133200.250,4308.4593,N,07726.3673,W,1,06,1.25,169.7,M,-34.4,M,,*5C
$GPRMC,133200.500,A,4308.4595,N,07726.3685,W,12.24,288.25,211019,,,A*4E
$GPGGA,133200.750,4308.4597,N,07726.3699,W,1,06,1.25,169.7,M,-34.4,M,,*59
$GPRMC,133201.000,A,4308.4600,N,07726.3714,W,14.60,283.86,211019,,,A*48
$GPGGA,133201.250,4308.4602,N,07726.3730,W,1,06,1.25,169.8,M,-34.4,M,,*5F
$GPRMC,133201.500,A,4308.4604,N,07726.3746,W,16.28,281.99,211019,,,A*4C
$GPGGA,133201.750,4308.4606,N,07726.3765,W,1,06,1.25,169.8,M,-34.4,M,,*5E
$GPRMC,133202.000,A,4308.4608,N,07726.3783,W,18.38,279.61,211019,,,A*40
$GPGGA,133202.250,4308.4610,N,07726.3802,W,1,06,1.25,169.9,M,-34.4,M,,*50
$GPRMC,133202.500,A,4308.4612,N,07726.3821,W,20.04,278.59,211019,,,A*47
$GPGGA,133202.750,4308.4613,N,07726.3842,W,1,06,1.25,169.9,M,-34.4,M,,*52
$GPRMC,133203.000,A,4308.4616,N,07726.3863,W,22.00,277.83,211019,,,A*4F
$GPGGA,133203.250,4308.4618,N,07726.3885,W,1,06,1.25,170.0,M,-34.4,M,,*57
$GPRMC,133203.500,A,4308.4620,N,07726.3909,W,24.75,276.16,211019,,,A*4B
$GPGGA,133203.750,4308.4623,N,07726.3935,W,1,06,1.25,170.0,M,-34.4,M,,*50
$GPRMC,133204.000,A,4308.4625,N,07726.3961,W,27.70,276.49,211019,,,A*4E
$GPGGA,133204.250,4308.4628,N,07726.3989,W,1,06,1.25,170.2,M,-34.4,M,,*5C
$GPRMC,133204.500,A,4308.4631,N,07726.4018,W,30.51,277.01,211019,,,A*46
$GPGGA,133204.750,4308.4633,N,07726.4049,W,1,06,1.25,170.2,M,-34.4,M,,*51
$GPRMC,133205.000,A,4308.4636,N,07726.4080,W,32.73,276.84,211019,,,A*4A
$GPGGA,133205.250,4308.4639,N,07726.4114,W,1,06,1.25,170.4,M,-34.4,M,,*50
$GPRMC,133205.500,A,4308.4641,N,07726.4148,W,35.41,275.77,211019,,,A*43
$GPGGA,133205.750,4308.4643,N,07726.4182,W,1,06,1.25,170.6,M,-34.4,M,,*55
$GPRMC,133206.000,A,4308.4646,N,07726.4216,W,36.44,275.48,211019,,,A*40
$GPGGA,133206.250,4308.4648,N,07726.4252,W,1,06,1.25,170.7,M,-34.4,M,,*57
$GPRMC,133206.500,A,4308.4650,N,07726.4288,W,37.98,274.72,211019,,,A*4D
$GPGGA,133206.750,4308.4652,N,07726.4325,W,1,06,1.25,170.9,M,-34.4,M,,*56
$GPRMC,133207.000,A,4308.4655,N,07726.4362,W,38.85,275.12,211019,,,A*4D
$GPGGA,133207.250,4308.4658,N,07726.4399,W,1,06,1.25,171.1,M,-34.4,M,,*56
$GPRMC,133207.500,A,4308.4660,N,07726.4436,W,38.91,275.55,211019,,,A*4E
$GPGGA,133207.750,4308.4663,N,07726.4473,W,1,06,1.25,171.4,M,-34.4,M,,*5D
$GPRMC,133208.000,A,4308.4666,N,07726.4510,W,39.07,275.76,211019,,,A*48
$GPGGA,133208.250,4308.4669,N,07726.4546,W,1,06,1.25,171.6,M,-34.4,M,,*58
$GPRMC,133208.500,A,4308.4671,N,07726.4582,W,37.78,275.81,211019,,,A*4E
$GPGGA,133208.750,4308.4674,N,07726.4618,W,1,06,1.25,171.8,M,-34.4,M,,*57
$GPRMC,133209.000,A,4308.4677,N,07726.4654,W,37.42,276.08,211019,,,A*4F
$GPGGA,133209.250,4308.4680,N,07726.4690,W,1,06,1.25,171.9,M,-34.4,M,,*59
$GPRMC,133209.500,A,4308.4684,N,07726.4725,W,36.81,276.48,211019,,,A*4B
$GPGGA,133209.750,4308.4687,N,07726.4760,W,1,06,1.25,172.1,M,-34.4,M,,*5E
$GPRMC,133210.000,A,4308.4690,N,07726.4795,W,36.33,276.87,211019,,,A*42
$GPGGA,133210.250,4308.4693,N,07726.4830,W,1,06,1.25,172.2,M,-34.4,M,,*5F
$GPRMC,133210.500,A,4308.4696,N,07726.4864,W,36.08,276.99,211019,,,A*47
$GPGGA,133210.750,4308.4699,N,07726.4898,W,1,06,1.25,172.3,M,-34.4,M,,*53
$GPRMC,133211.000,A,4308.4702,N,07726.4931,W,34.87,277.29,211019,,,A*41
$GPGGA,133211.250,4308.4704,N,07726.4965,W,1,06,1.25,172.5,M,-34.4,M,,*57
$GPRMC,133211.500,A,4308.4707,N,07726.4998,W,34.24,277.26,211019,,,A*44
$GPGGA,133211.750,4308.4709,N,07726.5030,W,1,06,1.25,172.6,M,-34.4,M,,*54
$GPRMC,133212.000,A,4308.4710,N,07726.5061,W,33.15,275.56,211019,,,A*4A
$GPGGA,133212.250,4308.4712,N,07726.5093,W,1,06,1.25,172.7,M,-34.4,M,,*50
$GPRMC,133212.500,A,4308.4713,N,07726.5125,W,32.91,275.31,211019,,,A*41
$GPGGA,133212.750,4308.4715,N,07726.5156,W,1,06,1.25,172.9,M,-34.4,M,,*54
$GPRMC,133213.000,A,4308.4717,N,07726.5188,W,32.93,275.22,211019,,,A*46
$GPGGA,133213.250,4308.4719,N,07726.5219,W,1,06,1.25,173.0,M,-34.4,M,,*5C
$GPRMC,133213.500,A,4308.4721,N,07726.5251,W,32.88,275.20,211019,,,A*49
$GPGGA,133213.750,4308.4723,N,07726.5282,W,1,06,1.25,173.1,M,-34.4,M,,*53
$GPRMC,133214.000,A,4308.4725,N,07726.5313,W,32.49,275.17,211019,,,A*41
$GPGGA,133214.250,4308.4726,N,07726.5344,W,1,06,1.25,173.2,M,-34.4,M,,*5C
$GPRMC,133214.500,A,4308.4728,N,07726.5374,W,32.42,274.04,211019,,,A*40
$GPGGA,133214.750,4308.4729,N,07726.5403,W,1,06,1.25,173.3,M,-34.4,M,,*53
$GPRMC,133215.000,A,4308.4730,N,07726.5433,W,31.13,273.00,211019,,,A*4D
$GPGGA,133215.250,4308.4731,N,07726.5463,W,1,06,1.25,173.4,M,-34.4,M,,*5F
$GPRMC,133215.500,A,4308.4732,N,07726.5492,W,30.91,272.16,211019,,,A*4C
$GPGGA,133215.750,4308.4733,N,07726.5522,W,1,06,1.25,173.5,M,-34.4,M,,*5D
$GPRMC,133216.000,A,4308.4734,N,07726.5551,W,30.49,271.83,211019,,,A*48
$GPGGA,133216.250,4308.4734,N,07726.5580,W,1,06,1.25,173.5,M,-34.4,M,,*54
$GPRMC,133216.500,A,4308.4735,N,07726.5610,W,30.43,271.38,211019,,,A*40
$GPGGA,133216.750,4308.4736,N,07726.5639,W,1,06,1.25,173.5,M,-34.4,M,,*52
$GPRMC,133217.000,A,4308.4737,N,07726.5668,W,30.69,271.23,211019,,,A*4B
$GPGGA,133217.250,4308.4738,N,07726.5698,W,1,06,1.25,173.5,M,-34.4,M,,*53
$GPRMC,133217.500,A,4308.4739,N,07726.5727,W,31.01,270.85,211019,,,A*48
$GPGGA,133217.750,4308.4740,N,07726.5757,W,1,06,1.25,173.5,M,-34.4,M,,*5B
$GPRMC,133218.000,A,4308.4741,N,07726.5786,W,31.07,271.13,211019,,,A*4E
$GPGGA,133218.250,4308.4742,N,07726.5816,W,1,06,1.25,173.5,M,-34.4,M,,*59
$GPRMC,133218.500,A,4308.4743,N,07726.5845,W,31.32,271.33,211019,,,A*4D
$GPGGA,133218.750,4308.4745,N,07726.5875,W,1,06,1.31,173.6,M,-34.4,M,,*58
$GPRMC,133219.000,A,4308.4746,N,07726.5905,W,31.33,271.80,211019,,,A*40
$GPGGA,133219.250,4308.4748,N,07726.5935,W,1,06,1.25,173.6,M,-34.4,M,,*51
$GPRMC,133219.500,A,4308.4749,N,07726.5965,W,31.28,272.35,211019,,,A*4B
$GPGGA,133219.750,4308.4751,N,07726.5994,W,1,06,1.25,173.7,M,-34.4,M,,*56
$GPRMC,133220.000,A,4308.4752,N,07726.6024,W,31.27,272.47,211019,,,A*4B
$GPGGA,133220.250,4308.4754,N,07726.6054,W,1,06,1.25,173.7,M,-34.4,M,,*5A
$GPRMC,133220.500,A,4308.4755,N,07726.6084,W,31.27,272.12,211019,,,A*43
$GPGGA,133220.750,4308.4756,N,07726.6114,W,1,06,1.31,173.8,M,-34.4,M,,*52
$GPRMC,133221.000,A,4308.4757,N,07726.6144,W,31.25,271.93,211019,,,A*40
$GPGGA,133221.250,4308.4759,N,07726.6174,W,1,06,1.25,173.8,M,-34.4,M,,*5A
$GPRMC,133221.500,A,4308.4760,N,07726.6204,W,31.20,271.72,211019,,,A*4C
$GPGGA,133221.750,4308.4761,N,07726.6234,W,1,06,1.31,173.7,M,-34.4,M,,*59
$GPRMC,133222.000,A,4308.4762,N,07726.6264,W,31.16,271.37,211019,,,A*4A
$GPGGA,133222.250,4308.4762,N,07726.6294,W,1,06,1.25,173.6,M,-34.4,M,,*52
$GPRMC,133222.500,A,4308.4763,N,07726.6323,W,30.57,270.91,211019,,,A*45
$GPGGA,133222.750,4308.4763,N,07726.6352,W,1,06,1.26,173.5,M,-34.4,M,,*5D
$GPRMC,133223.000,A,4308.4763,N,07726.6380,W,30.32,270.57,211019,,,A*41
$GPGGA,133223.250,4308.4763,N,07726.6409,W,1,06,1.25,173.5,M,-34.4,M,,*53
$GPRMC,133223.500,A,4308.4763,N,07726.6437,W,29.95,270.07,211019,,,A*4F
$GPGGA,133223.750,4308.4763,N,07726.6466,W,1,06,1.25,173.4,M,-34.4,M,,*5E
$GPRMC,133224.000,A,4308.4763,N,07726.6495,W,29.95,269.11,211019,,,A*4A
$GPGGA,133224.250,4308.4762,N,07726.6523,W,1,06,1.25,173.4,M,-34.4,M,,*5D
$GPRMC,133224.500,A,4308.4761,N,07726.6552,W,30.04,267.55,211019,,,A*49
$GPGGA,133224.750,4308.4761,N,07726.6580,W,1,06,1.25,173.4,M,-34.4,M,,*52
$GPRMC,133225.000,A,4308.4760,N,07726.6609,W,30.09,267.44,211019,,,A*4C
$GPGGA,133225.250,4308.4759,N,07726.6637,W,1,06,1.25,173.4,M,-34.4,M,,*52
$GPRMC,133225.500,A,4308.4758,N,07726.6665,W,30.03,266.84,211019,,,A*4F
$GPGGA,133225.750,4308.4757,N,07726.6694,W,1,06,1.25,173.4,M,-34.4,M,,*50
$GPRMC,133226.000,A,4308.4756,N,07726.6722,W,29.98,266.55,211019,,,A*43
$GPGGA,133226.250,4308.4755,N,07726.6750,W,1,06,1.25,173.5,M,-34.4,M,,*5C
$GPRMC,133226.500,A,4308.4753,N,07726.6778,W,29.80,266.15,211019,,,A*41
$GPGGA,133226.750,4308.4752,N,07726.6806,W,1,06,1.25,173.5,M,-34.4,M,,*52
$GPRMC,133227.000,A,4308.4750,N,07726.6834,W,29.87,266.12,211019,,,A*41
$GPGGA,133227.250,4308.4749,N,07726.6862,W,1,06,1.25,173.6,M,-34.4,M,,*5D
$GPRMC,133227.500,A,4308.4748,N,07726.6891,W,29.76,266.24,211019,,,A*49
$GPGGA,133227.750,4308.4746,N,07726.6919,W,1,06,1.25,173.7,M,-34.4,M,,*5B
$GPRMC,133228.000,A,4308.4745,N,07726.6946,W,29.70,266.34,211019,,,A*42
$GPGGA,133228.250,4308.4744,N,07726.6974,W,1,06,1.25,173.9,M,-34.4,M,,*56
$GPRMC,133228.500,A,4308.4742,N,07726.7002,W,29.62,266.33,211019,,,A*4C
$GPGGA,133228.750,4308.4741,N,07726.7030,W,1,06,1.25,174.0,M,-34.4,M,,*50
$GPRMC,133229.000,A,4308.4739,N,07726.7058,W,29.56,266.27,211019,,,A*49
$GPGGA,133229.250,4308.4738,N,07726.7086,W,1,06,1.26,174.1,M,-34.4,M,,*55
$GPRMC,133229.500,A,4308.4736,N,07726.7113,W,29.49,266.22,211019,,,A*46
$GPGGA,133229.750,4308.4735,N,07726.7141,W,1,06,1.25,174.2,M,-34.4,M,,*57
$GPRMC,133230.000,A,4308.4733,N,07726.7169,W,29.38,266.19,211019,,,A*4D
$GPGGA,133230.250,4308.4731,N,07726.7196,W,1,06,1.25,174.4,M,-34.4,M,,*52
$GPRMC,133230.500,A,4308.4730,N,07726.7224,W,29.26,266.63,211019,,,A*43
$GPGGA,133230.750,4308.4729,N,07726.7252,W,1,06,1.25,174.6,M,-34.4,M,,*57
$GPRMC,133231.000,A,4308.4728,N,07726.7279,W,29.24,267.05,211019,,,A*45
$GPGGA,133231.250,4308.4726,N,07726.7307,W,1,06,1.25,174.8,M,-34.4,M,,*53
$GPRMC,133231.500,A,4308.4725,N,07726.7335,W,29.18,266.90,211019,,,A*46
$GPGGA,133231.750,4308.4724,N,07726.7362,W,1,06,1.32,175.0,M,-34.4,M,,*58
$GPRMC,133232.000,A,4308.4723,N,07726.7390,W,29.16,266.57,211019,,,A*4C
$GPGGA,133232.250,4308.4721,N,07726.7418,W,1,06,1.32,175.1,M,-34.4,M,,*50
$GPRMC,133232.500,A,4308.4720,N,07726.7445,W,28.95,265.84,211019,,,A*42
$GPGGA,133232.750,4308.4718,N,07726.7473,W,1,06,1.31,175.3,M,-34.4,M,,*53
$GPRMC,133233.000,A,4308.4716,N,07726.7500,W,28.92,265.79,211019,,,A*46
$GPGGA,133233.250,4308.4715,N,07726.7527,W,1,06,1.25,175.5,M,-34.4,M,,*59
$GPRMC,133233.500,A,4308.4713,N,07726.7554,W,28.79,265.16,211019,,,A*4B
$GPGGA,133233.750,4308.4711,N,07726.7582,W,1,06,1.31,175.6,M,-34.4,M,,*51
$GPRMC,133234.000,A,4308.4710,N,07726.7608,W,28.53,264.91,211019,,,A*46
$GPGGA,133234.250,4308.4708,N,07726.7636,W,1,06,1.26,175.8,M,-34.4,M,,*5F
$GPRMC,133234.500,A,4308.4706,N,07726.7663,W,28.65,265.28,211019,,,A*4F
$GPGGA,133234.750,4308.4705,N,07726.7690,W,1,06,1.26,176.0,M,-34.4,M,,*50
$GPRMC,133235.000,A,4308.4704,N,07726.7718,W,28.79,265.75,211019,,,A*41
$GPGGA,133235.250,4308.4702,N,07726.7745,W,1,06,1.26,176.2,M,-34.4,M,,*58
$GPRMC,133235.500,A,4308.4700,N,07726.7772,W,28.86,265.13,211019,,,A*4C
$GPGGA,133235.750,4308.4698,N,07726.7799,W,1,06,1.26,176.4,M,-34.4,M,,*58
$GPRMC,133236.000,A,4308.4696,N,07726.7827,W,28.92,264.80,211019,,,A*45
$GPGGA,133236.250,4308.4694,N,07726.7854,W,1,06,1.25,176.6,M,-34.4,M,,*5D
$GPRMC,133236.500,A,4308.4692,N,07726.7881,W,28.73,264.31,211019,,,A*4D
$GPGGA,133236.750,4308.4689,N,07726.7908,W,1,06,1.32,176.8,M,-34.4,M,,*54
$GPRMC,133237.000,A,4308.4687,N,07726.7935,W,29.03,264.04,211019,,,A*43
$GPGGA,133237.250,4308.4685,N,07726.7963,W,1,06,1.25,177.0,M,-34.4,M,,*5E
$GPRMC,133237.500,A,4308.4683,N,07726.7991,W,29.53,263.76,211019,,,A*4B
$GPGGA,133237.750,4308.4681,N,07726.8019,W,1,06,1.25,177.2,M,-34.4,M,,*56
$GPRMC,133238.000,A,4308.4679,N,07726.8047,W,29.80,263.75,211019,,,A*44
$GPGGA,133238.250,4308.4677,N,07726.8076,W,1,06,1.25,177.3,M,-34.4,M,,*5D
$GPRMC,133238.500,A,4308.4675,N,07726.8104,W,30.40,263.33,211019,,,A*4D
$GPGGA,133238.750,4308.4672,N,07726.8133,W,1,06,1.25,177.5,M,-34.4,M,,*5B
$GPRMC,133239.000,A,4308.4670,N,07726.8162,W,30.70,263.01,211019,,,A*4E
$GPGGA,133239.250,4308.4667,N,07726.8191,W,1,06,1.26,177.7,M,-34.4,M,,*52
$GPRMC,133239.500,A,4308.4665,N,07726.8220,W,30.96,263.30,211019,,,A*40
$GPGGA,133239.750,4308.4662,N,07726.8250,W,1,06,1.26,177.8,M,-34.4,M,,*53
$GPRMC,133240.000,A,4308.4660,N,07726.8279,W,31.05,263.77,211019,,,A*4A
$GPGGA,133240.250,4308.4659,N,07726.8309,W,1,06,1.25,178.0,M,-34.4,M,,*59
$GPRMC,133240.500,A,4308.4658,N,07726.8340,W,31.33,265.63,211019,,,A*49
$GPGGA,133240.750,4308.4656,N,07726.8369,W,1,06,1.32,178.0,M,-34.4,M,,*53
$GPRMC,133241.000,A,4308.4654,N,07726.8399,W,31.48,265.77,211019,,,A*4C
$GPGGA,133241.250,4308.4653,N,07726.8429,W,1,06,1.25,178.1,M,-34.4,M,,*56
$GPRMC,133241.500,A,4308.4651,N,07726.8459,W,31.55,265.53,211019,,,A*4D
$GPGGA,133241.750,4308.4649,N,07726.8490,W,1,06,1.32,178.2,M,-34.4,M,,*5F
$GPRMC,133242.000,A,4308.4648,N,07726.8520,W,31.64,265.33,211019,,,A*48
$GPGGA,133242.250,4308.4646,N,07726.8550,W,1,06,1.25,178.2,M,-34.4,M,,*5D
$GPRMC,133242.500,A,4308.4645,N,07726.8581,W,31.84,264.91,211019,,,A*4C
$GPGGA,133242.750,4308.4643,N,07726.8611,W,1,06,1.32,178.3,M,-34.4,M,,*5C
$GPRMC,133243.000,A,4308.4641,N,07726.8642,W,31.95,264.36,211019,,,A*4D
$GPGGA,133243.250,4308.4639,N,07726.8673,W,1,06,1.25,178.4,M,-34.4,M,,*50
$GPRMC,133243.500,A,4308.4637,N,07726.8704,W,32.19,264.43,211019,,,A*4F
$GPGGA,133243.750,4308.4636,N,07726.8736,W,1,06,1.32,178.5,M,-34.4,M,,*5D
$GPRMC,133244.000,A,4308.4634,N,07726.8767,W,33.20,264.61,211019,,,A*40
$GPGGA,133244.250,4308.4632,N,07726.8799,W,1,06,1.25,178.6,M,-34.4,M,,*5B
$GPRMC,133244.500,A,4308.4630,N,07726.8831,W,33.48,264.53,211019,,,A*42
$GPGGA,133244.750,4308.4628,N,07726.8864,W,1,06,1.26,178.7,M,-34.4,M,,*5A
$GPRMC,133245.000,A,4308.4627,N,07726.8896,W,33.60,264.78,211019,,,A*4E
$GPGGA,133245.250,4308.4625,N,07726.8928,W,1,06,1.26,178.9,M,-34.4,M,,*54
$GPRMC,133245.500,A,4308.4623,N,07726.8960,W,33.66,264.81,211019,,,A*47
$GPGGA,133245.750,4308.4622,N,07726.8993,W,1,06,1.26,179.0,M,-34.4,M,,*5E
$GPRMC,133246.000,A,4308.4620,N,07726.9025,W,33.94,264.10,211019,,,A*4E
$GPGGA,133246.250,4308.4618,N,07726.9058,W,1,06,1.25,179.2,M,-34.4,M,,*5F
$GPRMC,133246.500,A,4308.4615,N,07726.9091,W,34.28,263.62,211019,,,A*40
$GPGGA,133246.750,4308.4613,N,07726.9124,W,1,06,1.26,179.3,M,-34.4,M,,*59
$GPRMC,133247.000,A,4308.4611,N,07726.9156,W,34.32,263.97,211019,,,A*4B
$GPGGA,133247.250,4308.4609,N,07726.9189,W,1,06,1.25,179.4,M,-34.4,M,,*55
$GPRMC,133247.500,A,4308.4606,N,07726.9222,W,34.74,264.37,211019,,,D*42
$GPGGA,133247.750,4308.4604,N,07726.9255,W,2,06,1.31,179.6,M,-34.4,M,0000,0000*5B
$GPRMC,133248.000,A,4308.4602,N,07726.9288,W,35.04,264.66,211019,,,D*4E
$GPGGA,133248.250,4308.4600,N,07726.9322,W,2,06,1.25,179.8,M,-34.4,M,0000,0000*5F
$GPRMC,133248.500,A,4308.4598,N,07726.9355,W,35.30,264.93,211019,,,D*47
$GPGGA,133248.750,4308.4596,N,07726.9388,W,2,06,1.26,179.9,M,-34.4,M,0000,0000*54
$GPRMC,133249.000,A,4308.4593,N,07726.9422,W,35.44,263.98,211019,,,D*40
$GPGGA,133249.250,4308.4591,N,07726.9455,W,2,06,1.26,180.0,M,-34.4,M,0000,0000*5F
$GPRMC,133249.500,A,4308.4589,N,07726.9489,W,35.69,264.40,211019,,,D*42
$GPGGA,133249.750,4308.4586,N,07726.9523,W,2,06,1.32,180.1,M,-34.4,M,0000,0000*58
$GPRMC,133250.000,A,4308.4584,N,07726.9557,W,35.77,264.49,211019,,,D*46
$GPGGA,133250.250,4308.4581,N,07726.9591,W,2,06,1.26,180.1,M,-34.4,M,0000,0000*5E
$GPRMC,133250.500,A,4308.4579,N,07726.9625,W,35.80,264.14,211019,,,D*47
$GPGGA,133250.750,4308.4577,N,07726.9659,W,2,06,1.26,180.2,M,-34.4,M,0000,0000*56
$GPRMC,133251.000,A,4308.4575,N,07726.9693,W,35.86,264.28,211019,,,D*4B
$GPGGA,133251.250,4308.4572,N,07726.9727,W,2,06,1.26,180.2,M,-34.4,M,0000,0000*5F
$GPRMC,133251.500,A,4308.4571,N,07726.9762,W,36.14,264.43,211019,,,D*40
$GPGGA,133251.750,4308.4568,N,07726.9796,W,2,06,1.32,180.2,M,-34.4,M,0000,0000*5E
$GPRMC,133252.000,A,4308.4566,N,07726.9831,W,36.54,265.00,211019,,,D*4B
$GPGGA,133252.250,4308.4563,N,07726.9865,W,2,06,1.26,180.1,M,-34.4,M,0000,0000*56
$GPRMC,133252.500,A,4308.4561,N,07726.9900,W,36.58,264.11,211019,,,D*47
$GPGGA,133252.750,4308.4558,N,07726.9934,W,2,06,1.25,180.1,M,-34.4,M,0000,0000*5D
$GPRMC,133253.000,A,4308.4556,N,07726.9969,W,36.55,263.70,211019,,,D*45
$GPGGA,133253.250,4308.4555,N,07727.0006,W,2,06,1.32,180.0,M,-34.4,M,0000,0000*53
$GPRMC,133253.500,A,4308.4554,N,07727.0042,W,37.54,265.41,211019,,,D*4E
$GPGGA,133253.750,4308.4552,N,07727.0078,W,2,06,1.32,179.9,M,-34.4,M,0000,0000*57
$GPRMC,133254.000,A,4308.4551,N,07727.0114,W,37.80,266.11,211019,,,D*44
$GPGGA,133254.250,4308.4549,N,07727.0150,W,2,06,1.32,179.8,M,-34.4,M,0000,0000*55
$GPRMC,133254.500,A,4308.4547,N,07727.0185,W,37.91,265.60,211019,,,D*4B
$GPGGA,133254.750,4308.4545,N,07727.0221,W,2,06,1.32,179.9,M,-34.4,M,0000,0000*58
$GPRMC,133255.000,A,4308.4542,N,07727.0256,W,37.45,265.29,211019,,,D*43
$GPGGA,133255.250,4308.4540,N,07727.0292,W,2,06,1.26,179.9,M,-34.4,M,0000,0000*54
$GPRMC,133255.500,A,4308.4539,N,07727.0328,W,37.81,266.06,211019,,,D*44
$GPGGA,133255.750,4308.4538,N,07727.0364,W,2,06,1.32,179.8,M,-34.4,M,0000,0000*52
$GPRMC,133256.000,A,4308.4536,N,07727.0400,W,37.87,266.54,211019,,,D*41
$GPGGA,133256.250,4308.4535,N,07727.0436,W,2,06,1.25,179.8,M,-34.4,M,0000,0000*5F
$GPRMC,133256.500,A,4308.4534,N,07727.0472,W,37.83,267.33,211019,,,D*47
$GPGGA,133256.750,4308.4533,N,07727.0508,W,2,06,1.32,179.7,M,-34.4,M,0000,0000*59
$GPRMC,133257.000,A,4308.4532,N,07727.0544,W,37.78,268.31,211019,,,D*48
$GPGGA,133257.250,4308.4532,N,07727.0580,W,2,06,1.32,179.6,M,-34.4,M,0000,0000*5D
$GPRMC,133257.500,A,4308.4531,N,07727.0615,W,37.97,269.54,211019,,,D*4A
$GPGGA,133257.750,4308.4531,N,07727.0651,W,2,06,1.25,179.7,M,-34.4,M,0000,0000*53
$GPRMC,133258.000,A,4308.4532,N,07727.0687,W,37.66,270.39,211019,,,D*45
$GPGGA,133258.250,4308.4533,N,07727.0723,W,2,06,1.26,179.7,M,-34.4,M,0000,0000*5C
$GPRMC,133258.500,A,4308.4534,N,07727.0759,W,37.59,271.61,211019,,,D*44
$GPGGA,133258.750,4308.4535,N,07727.0794,W,2,06,1.26,179.7,M,-34.4,M,0000,0000*53
$GPRMC,133259.000,A,4308.4537,N,07727.0830,W,37.47,272.22,211019,,,D*48
$GPGGA,133259.250,4308.4539,N,07727.0865,W,2,06,1.26,179.7,M,-34.4,M,0000,0000*5A
$GPRMC,133259.500,A,4308.4540,N,07727.0901,W,37.58,272.38,211019,,,D*4B
$GPGGA,133259.750,4308.4542,N,07727.0937,W,2,06,1.26,179.8,M,-34.4,M,0000,0000*5A
$GPRMC,133300.000,A,4308.4544,N,07727.0973,W,37.63,273.48,211019,,,D*4C
$GPGGA,133300.250,4308.4547,N,07727.1009,W,2,06,1.26,179.9,M,-34.4,M,0000,0000*53
$GPRMC,133300.500,A,4308.4550,N,07727.1044,W,37.59,274.75,211019,,,D*40
$GPGGA,133300.750,4308.4553,N,07727.1080,W,2,06,1.26,179.9,M,-34.4,M,0000,0000*52
$GPRMC,133301.000,A,4308.4557,N,07727.1116,W,37.52,276.12,211019,,,D*4D
$GPGGA,133301.250,4308.4560,N,07727.1152,W,2,06,1.26,180.0,M,-34.4,M,0000,0000*57
$GPRMC,133301.500,A,4308.4564,N,07727.1188,W,37.44,276.63,211019,,,D*4E
$GPGGA,133301.750,4308.4568,N,07727.1224,W,2,06,1.32,180.0,M,-34.4,M,0000,0000*5D
$GPRMC,133302.000,A,4308.4571,N,07727.1260,W,37.44,277.18,211019,,,D*44
$GPGGA,133302.250,4308.4575,N,07727.1296,W,2,06,1.26,180.1,M,-34.4,M,0000,0000*5A
$GPRMC,133302.500,A,4308.4579,N,07727.1332,W,37.45,277.64,211019,,,D*45
$GPGGA,133302.750,4308.4583,N,07727.1368,W,2,06,1.32,180.1,M,-34.4,M,0000,0000*53
$GPRMC,133303.000,A,4308.4587,N,07727.1403,W,37.44,277.59,211019,,,D*4A
$GPGGA,133303.250,4308.4591,N,07727.1439,W,2,06,1.32,180.3,M,-34.4,M,0000,0000*55
$GPRMC,133303.500,A,4308.4596,N,07727.1474,W,37.28,277.81,211019,,,D*40
$GPGGA,133303.750,4308.4601,N,07727.1510,W,2,06,1.32,180.3,M,-34.4,M,0000,0000*50
$GPRMC,133304.000,A,4308.4605,N,07727.1545,W,37.28,278.15,211019,,,D*4A
$GPGGA,133304.250,4308.4609,N,07727.1580,W,2,06,1.26,180.5,M,-34.4,M,0000,0000*50
$GPRMC,133304.500,A,4308.4614,N,07727.1616,W,37.06,278.48,211019,,,D*4E
$GPGGA,133304.750,4308.4620,N,07727.1651,W,2,06,1.32,180.5,M,-34.4,M,0000,0000*54
$GPRMC,133305.000,A,4308.4624,N,07727.1686,W,36.99,279.30,211019,,,D*49
$GPGGA,133305.250,4308.4629,N,07727.1721,W,2,06,1.32,180.6,M,-34.4,M,0000,0000*5C
$GPRMC,133305.500,A,4308.4634,N,07727.1756,W,36.79,278.68,211019,,,D*43
$GPGGA,133305.750,4308.4639,N,07727.1791,W,2,06,1.32,180.3,M,-34.4,M,0000,0000*56
$GPRMC,133306.000,A,4308.4643,N,07727.1826,W,36.92,278.75,211019,,,D*44
$GPGGA,133306.250,4308.4648,N,07727.1861,W,2,06,1.32,180.3,M,-34.4,M,0000,0000*56
$GPRMC,133306.500,A,4308.4653,N,07727.1895,W,36.66,279.26,211019,,,D*44
$GPGGA,133306.750,4308.4657,N,07727.1929,W,2,06,1.32,180.4,M,-34.4,M,0000,0000*57
$GPRMC,133307.000,A,4308.4662,N,07727.1963,W,36.65,279.49,211019,,,D*40
$GPGGA,133307.250,4308.4667,N,07727.1997,W,2,06,1.26,180.5,M,-34.4,M,0000,0000*51
$GPRMC,133307.500,A,4308.4672,N,07727.2031,W,36.56,279.90,211019,,,D*4D
$GPGGA,133307.750,4308.4675,N,07727.2064,W,2,06,1.32,180.6,M,-34.4,M,0000,0000*57
$GPRMC,133308.000,A,4308.4679,N,07727.2096,W,35.32,278.89,211019,,,D*49
$GPGGA,133308.250,4308.4683,N,07727.2129,W,2,06,1.32,180.6,M,-34.4,M,0000,0000*5C
$GPRMC,133308.500,A,4308.4687,N,07727.2162,W,35.36,279.21,211019,,,D*40
$GPGGA,133308.750,4308.4691,N,07727.2194,W,2,06,1.32,180.7,M,-34.4,M,0000,0000*5D
$GPRMC,133309.000,A,4308.4696,N,07727.2227,W,35.63,279.29,211019,,,D*4E
$GPGGA,133309.250,4308.4700,N,07727.2260,W,2,06,1.26,180.8,M,-34.4,M,0000,0000*52
$GPRMC,133309.500,A,4308.4704,N,07727.2294,W,35.70,278.96,211019,,,D*4E
$GPGGA,133309.750,4308.4708,N,07727.2327,W,2,06,1.26,180.9,M,-34.4,M,0000,0000*5C
$GPRMC,133310.000,A,4308.4712,N,07727.2361,W,35.88,278.75,211019,,,D*45
$GPGGA,133310.250,4308.4715,N,07727.2394,W,2,06,1.32,181.0,M,-34.4,M,0000,0000*58
$GPRMC,133310.500,A,4308.4719,N,07727.2427,W,35.67,278.99,211019,,,D*4D
$GPGGA,133310.750,4308.4723,N,07727.2460,W,2,06,1.32,181.2,M,-34.4,M,0000,0000*56
$GPRMC,133311.000,A,4308.4727,N,07727.2494,W,35.44,278.63,211019,,,D*48
$GPGGA,133311.250,4308.4731,N,07727.2527,W,2,06,1.32,181.2,M,-34.4,M,0000,0000*53
$GPRMC,133311.500,A,4308.4735,N,07727.2560,W,35.18,278.61,211019,,,D*4F
$GPGGA,133311.750,4308.4739,N,07727.2593,W,2,06,1.32,181.3,M,-34.4,M,0000,0000*50
$GPRMC,133312.000,A,4308.4743,N,07727.2626,W,35.29,278.67,211019,,,D*4D
$GPGGA,133312.250,4308.4747,N,07727.2659,W,2,06,1.32,181.3,M,-34.4,M,0000,0000*5A
$GPRMC,133312.500,A,4308.4752,N,07727.2693,W,35.39,278.95,211019,,,D*4A
$GPGGA,133312.750,4308.4756,N,07727.2726,W,2,06,1.32,181.4,M,-34.4,M,0000,0000*51
$GPRMC,133313.000,A,4308.4760,N,07727.2759,W,35.47,279.42,211019,,,D*4A
$GPGGA,133313.250,4308.4765,N,07727.2792,W,2,06,1.26,181.4,M,-34.4,M,0000,0000*5F
$GPRMC,133313.500,A,4308.4769,N,07727.2825,W,35.53,279.57,211019,,,D*43
$GPGGA,133313.750,4308.4774,N,07727.2858,W,2,06,1.32,181.5,M,-34.4,M,0000,0000*57
$GPRMC,133314.000,A,4308.4778,N,07727.2891,W,35.15,279.50,211019,,,D*4B
$GPGGA,133314.250,4308.4782,N,07727.2924,W,2,06,1.32,181.5,M,-34.4,M,0000,0000*56
$GPRMC,133314.500,A,4308.4787,N,07727.2956,W,34.76,279.51,211019,,,D*41
$GPGGA,133314.750,4308.4790,N,07727.2988,W,2,06,1.32,181.6,M,-34.4,M,0000,0000*55
$GPRMC,133315.000,A,4308.4794,N,07727.3021,W,34.71,278.20,211019,,,D*4F
$GPGGA,133315.250,4308.4798,N,07727.3053,W,2,06,1.32,181.6,M,-34.4,M,0000,0000*57
$GPRMC,133315.500,A,4308.4802,N,07727.3086,W,34.69,278.53,211019,,,D*4A
$GPGGA,133315.750,4308.4806,N,07727.3120,W,2,06,1.32,181.5,M,-34.4,M,0000,0000*5C
$GPRMC,133316.000,A,4308.4809,N,07727.3152,W,35.13,277.71,211019,,,D*4C
$GPGGA,133316.250,4308.4812,N,07727.3185,W,2,06,1.26,181.6,M,-34.4,M,0000,0000*56
$GPRMC,133316.500,A,4308.4816,N,07727.3218,W,35.23,277.91,211019,,,D*47
$GPGGA,133316.750,4308.4820,N,07727.3251,W,2,06,1.32,181.6,M,-34.4,M,0000,0000*5D
$GPRMC,133317.000,A,4308.4824,N,07727.3284,W,35.20,278.15,211019,,,D*47
$GPGGA,133317.250,4308.4827,N,07727.3317,W,2,06,1.32,181.6,M,-34.4,M,0000,0000*5D
$GPRMC,133317.500,A,4308.4831,N,07727.3350,W,35.03,278.11,211019,,,D*4B
$GPGGA,133317.750,4308.4835,N,07727.3383,W,2,06,1.32,181.5,M,-34.4,M,0000,0000*55
$GPRMC,133318.000,A,4308.4838,N,07727.3416,W,34.96,277.89,211019,,,D*4E
$GPGGA,133318.250,4308.4842,N,07727.3448,W,2,06,1.32,181.4,M,-34.4,M,0000,0000*5E
$GPRMC,133318.500,A,4308.4846,N,07727.3481,W,34.68,278.57,211019,,,D*41
$GPGGA,133318.750,4308.4850,N,07727.3513,W,2,06,1.32,181.3,M,-34.4,M,0000,0000*50
$GPRMC,133319.000,A,4308.4854,N,07727.3545,W,34.13,278.47,211019,,,D*42
$GPGGA,133319.250,4308.4857,N,07727.3578,W,2,06,1.32,181.1,M,-34.4,M,0000,0000*5C
$GPRMC,133319.500,A,4308.4861,N,07727.3610,W,34.45,278.72,211019,,,D*47
$GPGGA,133319.750,4308.4865,N,07727.3642,W,2,06,1.32,180.9,M,-34.4,M,0000,0000*5B
$GPRMC,133320.000,A,4308.4869,N,07727.3675,W,34.50,278.63,211019,,,D*47
$GPGGA,133320.250,4308.4873,N,07727.3707,W,2,06,1.26,180.8,M,-34.4,M,0000,0000*57
$GPRMC,133320.500,A,4308.4877,N,07727.3739,W,34.41,279.18,211019,,,D*49
$GPGGA,133320.750,4308.4881,N,07727.3771,W,2,06,1.32,180.6,M,-34.4,M,0000,0000*55
$GPRMC,133321.000,A,4308.4885,N,07727.3803,W,34.13,279.40,211019,,,D*4C
$GPGGA,133321.250,4308.4889,N,07727.3835,W,2,06,1.26,180.4,M,-34.4,M,0000,0000*51
$GPRMC,133321.500,A,4308.4892,N,07727.3866,W,33.74,279.06,211019,,,D*48
$GPGGA,133321.750,4308.4896,N,07727.3898,W,2,06,1.32,180.2,M,-34.4,M,0000,0000*5E
$GPRMC,133322.000,A,4308.4900,N,07727.3930,W,33.76,278.43,211019,,,D*44
$GPGGA,133322.250,4308.4904,N,07727.3961,W,2,06,1.26,179.9,M,-34.4,M,0000,0000*5D
$GPRMC,133322.500,A,4308.4908,N,07727.3993,W,33.83,277.59,211019,,,D*4E
$GPGGA,133322.750,4308.4913,N,07727.4025,W,2,06,1.32,179.7,M,-34.4,M,0000,0000*5B
$GPRMC,133323.000,A,4308.4916,N,07727.4058,W,34.06,277.43,211019,,,D*4D
$GPGGA,133323.250,4308.4921,N,07727.4090,W,2,06,1.26,179.5,M,-34.4,M,0000,0000*57
$GPRMC,133323.500,A,4308.4925,N,07727.4123,W,34.17,277.87,211019,,,D*4D
$GPGGA,133323.750,4308.4929,N,07727.4156,W,2,06,1.32,179.3,M,-34.4,M,0000,0000*52
$GPRMC,133324.000,A,4308.4934,N,07727.4189,W,34.55,277.75,211019,,,D*44
$GPGGA,133324.250,4308.4938,N,07727.4222,W,2,06,1.26,179.1,M,-34.4,M,0000,0000*57
$GPRMC,133324.500,A,4308.4942,N,07727.4256,W,35.04,277.60,211019,,,D*40
$GPGGA,133324.750,4308.4947,N,07727.4289,W,2,06,1.26,179.0,M,-34.4,M,0000,0000*5A
$GPRMC,133325.000,A,4308.4951,N,07727.4322,W,35.16,278.19,211019,,,D*46
$GPGGA,133325.250,4308.4955,N,07727.4354,W,2,06,1.26,178.9,M,-34.4,M,0000,0000*54
$GPRMC,133325.500,A,4308.4961,N,07727.4388,W,35.19,278.77,211019,,,D*47
$GPGGA,133325.750,4308.4965,N,07727.4420,W,2,06,1.26,178.9,M,-34.4,M,0000,0000*56
$GPRMC,133326.000,A,4308.4969,N,07727.4452,W,34.23,278.75,211019,,,D*43
$GPGGA,133326.250,4308.4974,N,07727.4485,W,2,06,1.26,179.0,M,-34.4,M,0000,0000*57
$GPRMC,133326.500,A,4308.4978,N,07727.4518,W,34.32,277.19,211019,,,D*4C
$GPGGA,133326.750,4308.4981,N,07727.4550,W,2,06,1.26,179.0,M,-34.4,M,0000,0000*51
$GPRMC,133327.000,A,4308.4985,N,07727.4581,W,33.99,277.74,211019,,,D*47
$GPGGA,133327.250,4308.4988,N,07727.4613,W,2,06,1.26,179.2,M,-34.4,M,0000,0000*5A
$GPRMC,133327.500,A,4308.4993,N,07727.4646,W,33.82,278.22,211019,,,D*4B
$GPGGA,133327.750,4308.4997,N,07727.4678,W,2,06,1.26,179.0,M,-34.4,M,0000,0000*5E
$GPRMC,133328.000,A,4308.5001,N,07727.4711,W,33.98,278.81,211019,,,D*43
$GPGGA,133328.250,4308.5005,N,07727.4743,W,2,06,1.26,179.0,M,-34.4,M,0000,0000*5E
$GPRMC,133328.500,A,4308.5010,N,07727.4776,W,34.86,279.79,211019,,,D*49
$GPGGA,133328.750,4308.5015,N,07727.4809,W,2,06,1.26,179.0,M,-34.4,M,0000,0000*5B
$GPRMC,133329.000,A,4308.5019,N,07727.4841,W,34.99,279.60,211019,,,D*49
$GPGGA,133329.250,4308.5023,N,07727.4874,W,2,06,1.26,178.9,M,-34.4,M,0000,0000*58
$GPRMC,133329.500,A,4308.5028,N,07727.4907,W,34.86,279.30,211019,,,D*46
$GPGGA,133329.750,4308.5032,N,07727.4939,W,2,06,1.26,178.9,M,-34.4,M,0000,0000*55
$GPRMC,133330.000,A,4308.5036,N,07727.4971,W,34.40,279.34,211019,,,D*4B
$GPGGA,133330.250,4308.5040,N,07727.5003,W,2,06,1.26,179.0,M,-34.4,M,0000,0000*54
$GPRMC,133330.500,A,4308.5044,N,07727.5035,W,34.58,279.99,211019,,,D*4D
$GPGGA,133330.750,4308.5049,N,07727.5068,W,2,06,1.26,178.9,M,-34.4,M,0000,0000*5D
$GPRMC,133331.000,A,4308.5054,N,07727.5100,W,34.76,280.26,211019,,,D*41
$GPGGA,133331.250,4308.5058,N,07727.5133,W,2,06,1.26,178.9,M,-34.4,M,0000,0000*56
$GPRMC,133331.500,A,4308.5063,N,07727.5165,W,34.85,280.30,211019,,,D*48
$GPGGA,133331.750,4308.5067,N,07727.5198,W,2,06,1.26,178.8,M,-34.4,M,0000,0000*5F
$GPRMC,133332.000,A,4308.5072,N,07727.5230,W,34.61,280.15,211019,,,D*40
$GPGGA,133332.250,4308.5075,N,07727.5261,W,2,06,1.26,178.8,M,-34.4,M,0000,0000*5F
$GPRMC,133332.500,A,4308.5079,N,07727.5293,W,34.52,279.61,211019,,,D*42
$GPGGA,133332.750,4308.5084,N,07727.5325,W,2,06,1.32,178.7,M,-34.4,M,0000,0000*5F
$GPRMC,133333.000,A,4308.5088,N,07727.5357,W,34.34,279.24,211019,,,D*40
$GPGGA,133333.250,4308.5092,N,07727.5389,W,2,06,1.26,178.6,M,-34.4,M,0000,0000*5E
$GPRMC,133333.500,A,4308.5096,N,07727.5421,W,33.79,279.08,211019,,,D*4C
$GPGGA,133333.750,4308.5100,N,07727.5452,W,2,06,1.32,178.6,M,-34.4,M,0000,0000*55
$GPRMC,133334.000,A,4308.5104,N,07727.5484,W,33.56,279.22,211019,,,D*4E
$GPGGA,133334.250,4308.5108,N,07727.5515,W,2,06,1.26,178.6,M,-34.4,M,0000,0000*58
$GPRMC,133334.500,A,4308.5112,N,07727.5547,W,33.77,278.62,211019,,,D*44
$GPGGA,133334.750,4308.5116,N,07727.5579,W,2,06,1.32,178.6,M,-34.4,M,0000,0000*5D
$GPRMC,133335.000,A,4308.5120,N,07727.5612,W,33.71,279.09,211019,,,D*48
$GPGGA,133335.250,4308.5124,N,07727.5644,W,2,06,1.26,178.6,M,-34.4,M,0000,0000*50
$GPRMC,133335.500,A,4308.5128,N,07727.5676,W,33.99,279.30,211019,,,D*4B
$GPGGA,133335.750,4308.5132,N,07727.5707,W,2,06,1.26,178.7,M,-34.4,M,0000,0000*55
$GPRMC,133336.000,A,4308.5136,N,07727.5739,W,33.89,279.89,211019,,,D*4B
$GPGGA,133336.250,4308.5140,N,07727.5770,W,2,06,1.26,178.7,M,-34.4,M,0000,0000*56
$GPRMC,133336.500,A,4308.5144,N,07727.5802,W,33.79,279.83,211019,,,D*49
$GPGGA,133336.750,4308.5148,N,07727.5833,W,2,06,1.26,178.7,M,-34.4,M,0000,0000*53
$GPRMC,133337.000,A,4308.5151,N,07727.5864,W,33.56,279.16,211019,,,D*48
$GPGGA,133337.250,4308.5154,N,07727.5894,W,2,06,1.32,178.7,M,-34.4,M,0000,0000*52
$GPRMC,133337.500,A,4308.5158,N,07727.5925,W,33.36,279.00,211019,,,D*41
$GPGGA,133337.750,4308.5161,N,07727.5956,W,2,06,1.26,178.6,M,-34.4,M,0000,0000*5A
$GPRMC,133338.000,A,4308.5165,N,07727.5987,W,33.01,278.47,211019,,,D*4B
$GPGGA,133338.250,4308.5168,N,07727.6018,W,2,06,1.26,178.6,M,-34.4,M,0000,0000*59
$GPRMC,133338.500,A,4308.5171,N,07727.6048,W,32.99,278.13,211019,,,D*43
$GPGGA,133338.750,4308.5174,N,07727.6080,W,2,06,1.32,178.5,M,-34.4,M,0000,0000*56
$GPRMC,133339.000,A,4308.5177,N,07727.6111,W,33.11,277.86,211019,,,D*4E
$GPGGA,133339.250,4308.5181,N,07727.6142,W,2,06,1.26,178.4,M,-34.4,M,0000,0000*53
$GPRMC,133339.500,A,4308.5184,N,07727.6173,W,32.63,277.98,211019,,,D*48
$GPGGA,133339.750,4308.5187,N,07727.6204,W,2,06,1.26,178.3,M,-34.4,M,0000,0000*56
$GPRMC,133340.000,A,4308.5190,N,07727.6235,W,32.78,277.72,211019,,,D*49
$GPGGA,133340.250,4308.5193,N,07727.6266,W,2,06,1.26,178.3,M,-34.4,M,0000,0000*5C
$GPRMC,133340.500,A,4308.5196,N,07727.6297,W,33.00,277.37,211019,,,D*4D
$GPGGA,133340.750,4308.5199,N,07727.6328,W,2,06,1.26,178.3,M,-34.4,M,0000,0000*58
$GPRMC,133341.000,A,4308.5202,N,07727.6360,W,33.13,276.66,211019,,,D*49
$GPGGA,133341.250,4308.5204,N,07727.6392,W,2,06,1.26,178.3,M,-34.4,M,0000,0000*5A
$GPRMC,133341.500,A,4308.5206,N,07727.6424,W,33.63,275.06,211019,,,D*4D
$GPGGA,133341.750,4308.5208,N,07727.6457,W,2,06,1.32,178.2,M,-34.4,M,0000,0000*59
$GPRMC,133342.000,A,4308.5210,N,07727.6489,W,33.71,274.91,211019,,,D*47
$GPGGA,133342.250,4308.5212,N,07727.6522,W,2,06,1.26,178.2,M,-34.4,M,0000,0000*52
$GPRMC,133342.500,A,4308.5214,N,07727.6555,W,33.92,274.75,211019,,,D*41
$GPGGA,133342.750,4308.5216,N,07727.6588,W,2,06,1.32,178.1,M,-34.4,M,0000,0000*55
$GPRMC,133343.000,A,4308.5218,N,07727.6621,W,34.17,275.06,211019,,,D*46
$GPGGA,133343.250,4308.5221,N,07727.6654,W,2,06,1.26,178.1,M,-34.4,M,0000,0000*52
$GPRMC,133343.500,A,4308.5223,N,07727.6686,W,34.15,274.92,211019,,,D*48
$GPGGA,133343.750,4308.5225,N,07727.6719,W,2,06,1.26,178.0,M,-34.4,M,0000,0000*5A
$GPRMC,133344.000,A,4308.5227,N,07727.6752,W,34.03,274.51,211019,,,D*4E
$GPGGA,133344.250,4308.5230,N,07727.6784,W,2,06,1.26,177.9,M,-34.4,M,0000,0000*5E
$GPRMC,133344.500,A,4308.5231,N,07727.6816,W,33.52,273.43,211019,,,D*44
$GPGGA,133344.750,4308.5233,N,07727.6848,W,2,06,1.26,177.8,M,-34.4,M,0000,0000*56
$GPRMC,133345.000,A,4308.5235,N,07727.6880,W,33.20,273.32,211019,,,D*48
$GPGGA,133345.250,4308.5236,N,07727.6912,W,2,06,1.26,177.8,M,-34.4,M,0000,0000*59
$GPRMC,133345.500,A,4308.5238,N,07727.6943,W,32.89,273.83,211019,,,D*46
$GPGGA,133345.750,4308.5240,N,07727.6974,W,2,06,1.32,177.8,M,-34.4,M,0000,0000*58
$GPRMC,133346.000,A,4308.5242,N,07727.7006,W,32.49,273.51,211019,,,D*47
$GPGGA,133346.250,4308.5244,N,07727.7037,W,2,06,1.26,177.7,M,-34.4,M,0000,0000*5F
$GPRMC,133346.500,A,4308.5245,N,07727.7067,W,31.77,273.53,211019,,,D*4E
$GPGGA,133346.750,4308.5247,N,07727.7098,W,2,06,1.32,177.7,M,-34.4,M,0000,0000*59
$GPRMC,133347.000,A,4308.5249,N,07727.7128,W,31.30,273.80,211019,,,D*41
$GPGGA,133347.250,4308.5250,N,07727.7158,W,2,06,1.26,177.7,M,-34.4,M,0000,0000*53
$GPRMC,133347.500,A,4308.5252,N,07727.7187,W,30.84,274.19,211019,,,D*42
$GPGGA,133347.750,4308.5253,N,07727.7216,W,2,06,1.26,177.7,M,-34.4,M,0000,0000*5C
$GPRMC,133348.000,A,4308.5255,N,07727.7245,W,30.55,273.74,211019,,,D*42
$GPGGA,133348.250,4308.5257,N,07727.7274,W,2,06,1.26,177.7,M,-34.4,M,0000,0000*56
$GPRMC,133348.500,A,4308.5259,N,07727.7303,W,30.41,273.94,211019,,,D*43
$GPGGA,133348.750,4308.5260,N,07727.7331,W,2,06,1.32,177.7,M,-34.4,M,0000,0000*52
$GPRMC,133349.000,A,4308.5262,N,07727.7360,W,30.35,274.27,211019,,,D*46
$GPGGA,133349.250,4308.5263,N,07727.7388,W,2,06,1.26,177.7,M,-34.4,M,0000,0000*52
$GPRMC,133349.500,A,4308.5265,N,07727.7416,W,29.83,273.69,211019,,,D*4A
$GPGGA,133349.750,4308.5266,N,07727.7444,W,2,06,1.26,177.8,M,-34.4,M,0000,0000*5A
$GPRMC,133350.000,A,4308.5268,N,07727.7472,W,29.72,273.41,211019,,,D*4C
$GPGGA,133350.250,4308.5269,N,07727.7499,W,2,06,1.26,177.8,M,-34.4,M,0000,0000*58
$GPRMC,133350.500,A,4308.5271,N,07727.7526,W,29.10,273.74,211019,,,D*43
$GPGGA,133350.750,4308.5272,N,07727.7554,W,2,06,1.32,177.8,M,-34.4,M,0000,0000*52
$GPRMC,133351.000,A,4308.5274,N,07727.7581,W,28.87,273.47,211019,,,D*40
$GPGGA,133351.250,4308.5276,N,07727.7609,W,2,06,1.26,177.8,M,-34.4,M,0000,0000*5C
$GPRMC,133351.500,A,4308.5277,N,07727.7636,W,28.41,273.31,211019,,,D*42
$GPGGA,133351.750,4308.5279,N,07727.7663,W,2,06,1.26,177.8,M,-34.4,M,0000,0000*5A
$GPRMC,133352.000,A,4308.5279,N,07727.7689,W,28.33,272.85,211019,,,D*45
$GPGGA,133352.250,4308.5281,N,07727.7715,W,2,06,1.26,177.8,M,-34.4,M,0000,0000*5B
$GPRMC,133352.500,A,4308.5282,N,07727.7741,W,28.06,273.64,211019,,,D*49
$GPGGA,133352.750,4308.5284,N,07727.7766,W,2,05,1.63,177.9,M,-34.4,M,0000,0000*5C
$GPRMC,133353.000,A,4308.5286,N,07727.7792,W,26.15,274.14,211019,,,D*4B
$GPGGA,133353.250,4308.5287,N,07727.7815,W,2,06,1.26,178.0,M,-34.4,M,0000,0000*54
$GPRMC,133353.500,A,4308.5287,N,07727.7838,W,24.54,273.09,211019,,,D*4C
$GPGGA,133353.750,4308.5287,N,07727.7858,W,2,06,1.32,178.1,M,-34.4,M,0000,0000*5C
$GPRMC,133354.000,A,4308.5288,N,07727.7878,W,22.34,272.40,211019,,,D*49
$GPGGA,133354.250,4308.5289,N,07727.7898,W,2,06,1.26,178.2,M,-34.4,M,0000,0000*5A
$GPRMC,133354.500,A,4308.5290,N,07727.7917,W,20.55,274.95,211019,,,D*46
$GPGGA,133354.750,4308.5292,N,07727.7936,W,2,06,1.32,178.3,M,-34.4,M,0000,0000*54
$GPRMC,133355.000,A,4308.5293,N,07727.7955,W,19.78,276.17,211019,,,D*4A
$GPGGA,133355.250,4308.5295,N,07727.7972,W,2,05,1.63,178.4,M,-34.4,M,0000,0000*57
$GPRMC,133355.500,A,4308.5297,N,07727.7989,W,18.14,277.55,211019,,,D*46
$GPGGA,133355.750,4308.5298,N,07727.8004,W,2,05,1.63,178.6,M,-34.4,M,0000,0000*5A
$GPRMC,133356.000,A,4308.5300,N,07727.8020,W,16.85,278.81,211019,,,D*4A
$GPGGA,133356.250,4308.5302,N,07727.8034,W,2,05,1.63,178.7,M,-34.4,M,0000,0000*5C
$GPRMC,133356.500,A,4308.5304,N,07727.8047,W,14.73,281.79,211019,,,D*40
$GPGGA,133356.750,4308.5304,N,07727.8058,W,2,05,1.63,178.8,M,-34.4,M,0000,0000*5A
$GPRMC,133357.000,A,4308.5306,N,07727.8069,W,12.79,282.10,211019,,,D*4A
$GPGGA,133357.250,4308.5307,N,07727.8079,W,2,06,1.26,178.9,M,-34.4,M,0000,0000*5D
$GPRMC,133357.500,A,4308.5308,N,07727.8087,W,10.39,283.74,211019,,,D*44
$GPGGA,133357.750,4308.5309,N,07727.8093,W,2,06,1.26,178.8,M,-34.4,M,0000,0000*53
$GPRMC,133358.000,A,4308.5310,N,07727.8100,W,8.47,285.93,211019,,,D*76
$GPGGA,133358.250,4308.5311,N,07727.8105,W,2,06,1.26,178.9,M,-34.4,M,0000,0000*5F
$GPRMC,133358.500,A,4308.5312,N,07727.8109,W,6.23,289.61,211019,,,D*75
$GPGGA,133358.750,4308.5313,N,07727.8112,W,2,06,1.26,178.9,M,-34.4,M,0000,0000*5E
$GPRMC,133359.000,A,4308.5313,N,07727.8115,W,4.65,280.14,211019,,,D*76
$GPGGA,133359.250,4308.5313,N,07727.8117,W,2,06,1.32,178.9,M,-34.4,M,0000,0000*5A
$GPRMC,133359.500,A,4308.5313,N,07727.8120,W,4.46,260.51,211019,,,D*7B
$GPGGA,133359.750,4308.5314,N,07727.8125,W,2,06,1.32,178.9,M,-34.4,M,0000,0000*59
$GPRMC,133400.000,A,4308.5317,N,07727.8130,W,5.56,263.22,211019,,,D*77
$GPGGA,133400.250,4308.5322,N,07727.8137,W,2,06,1.32,178.7,M,-34.4,M,0000,0000*5F
$GPRMC,133400.500,A,4308.5325,N,07727.8144,W,7.06,270.98,211019,,,D*74
$GPGGA,133400.750,4308.5329,N,07727.8153,W,2,06,1.32,178.7,M,-34.4,M,0000,0000*53
$GPRMC,133401.000,A,4308.5329,N,07727.8162,W,8.81,267.15,211019,,,D*7B
$GPGGA,133401.250,4308.5328,N,07727.8171,W,2,06,1.26,178.6,M,-34.4,M,0000,0000*52
$GPRMC,133401.500,A,4308.5328,N,07727.8180,W,10.17,263.68,211019,,,D*4B
$GPGGA,133401.750,4308.5327,N,07727.8190,W,2,06,1.32,178.7,M,-34.4,M,0000,0000*53
$GPRMC,133402.000,A,4308.5326,N,07727.8201,W,10.91,264.76,211019,,,D*4F
$GPGGA,133402.250,4308.5326,N,07727.8212,W,2,06,1.26,178.7,M,-34.4,M,0000,0000*58
$GPRMC,133402.500,A,4308.5326,N,07727.8224,W,11.88,265.25,211019,,,D*43
$GPGGA,133402.750,4308.5328,N,07727.8237,W,2,06,1.26,178.8,M,-34.4,M,0000,0000*5B
$GPRMC,133403.000,A,4308.5328,N,07727.8250,W,13.14,267.46,211019,,,D*4A
$GPGGA,133403.250,4308.5329,N,07727.8264,W,2,06,1.32,178.7,M,-34.4,M,0000,0000*52
$GPRMC,133403.500,A,4308.5329,N,07727.8279,W,14.92,267.51,211019,,,D*4A
$GPGGA,133403.750,4308.5329,N,07727.8294,W,2,06,1.32,178.8,M,-34.4,M,0000,0000*57
$GPRMC,133404.000,A,4308.5329,N,07727.8310,W,15.79,268.54,211019,,,D*48
$GPGGA,133404.250,4308.5329,N,07727.8326,W,2,06,1.26,178.8,M,-34.4,M,0000,0000*58
$GPRMC,133404.500,A,4308.5329,N,07727.8342,W,16.78,269.54,211019,,,D*49
$GPGGA,133404.750,4308.5329,N,07727.8359,W,2,06,1.26,178.7,M,-34.4,M,0000,0000*5A
$GPRMC,133405.000,A,4308.5329,N,07727.8376,W,17.70,271.17,211019,,,D*4D
$GPGGA,133405.250,4308.5329,N,07727.8394,W,2,06,1.26,178.7,M,-34.4,M,0000,0000*5F
$GPRMC,133405.500,A,4308.5329,N,07727.8411,W,18.39,271.89,211019,,,D*4B
$GPGGA,133405.750,4308.5329,N,07727.8429,W,2,06,1.32,178.7,M,-34.4,M,0000,0000*5E
$GPRMC,133406.000,A,4308.5329,N,07727.8447,W,19.08,272.97,211019,,,D*41
$GPGGA,133406.250,4308.5329,N,07727.8465,W,2,06,1.26,178.8,M,-34.4,M,0000,0000*5A
$GPRMC,133406.500,A,4308.5330,N,07727.8484,W,19.77,272.12,211019,,,D*46
$GPGGA,133406.750,4308.5330,N,07727.8503,W,2,06,1.32,178.8,M,-34.4,M,0000,0000*53
$GPRMC,133407.000,A,4308.5330,N,07727.8522,W,19.98,271.13,211019,,,D*4C
$GPGGA,133407.250,4308.5331,N,07727.8543,W,2,06,1.26,178.8,M,-34.4,M,0000,0000*57
$GPRMC,133407.500,A,4308.5332,N,07727.8563,W,20.84,269.65,211019,,,D*41
$GPGGA,133407.750,4308.5333,N,07727.8585,W,2,06,1.32,178.7,M,-34.4,M,0000,0000*50
$GPRMC,133408.000,A,4308.5334,N,07727.8607,W,21.87,270.09,211019,,,D*4C
$GPGGA,133408.250,4308.5334,N,07727.8629,W,2,06,1.26,178.5,M,-34.4,M,0000,0000*5F
$GPRMC,133408.500,A,4308.5335,N,07727.8651,W,23.16,269.77,211019,,,D*40
$GPGGA,133408.750,4308.5335,N,07727.8675,W,2,06,1.32,178.3,M,-34.4,M,0000,0000*51
$GPRMC,133409.000,A,4308.5335,N,07727.8698,W,23.74,269.25,211019,,,D*42
$GPGGA,133409.250,4308.5335,N,07727.8722,W,2,06,1.26,178.1,M,-34.4,M,0000,0000*51
$GPRMC,133409.500,A,4308.5335,N,07727.8745,W,24.59,269.63,211019,,,D*4C
$GPGGA,133409.750,4308.5335,N,07727.8770,W,2,06,1.32,178.0,M,-34.4,M,0000,0000*57
$GPRMC,133410.000,A,4308.5335,N,07727.8794,W,25.24,269.98,211019,,,D*42
$GPGGA,133410.250,4308.5336,N,07727.8819,W,2,06,1.26,177.9,M,-34.4,M,0000,0000*5A
$GPRMC,133410.500,A,4308.5336,N,07727.8845,W,26.48,270.86,211019,,,D*49
$GPGGA,133410.750,4308.5337,N,07727.8872,W,2,06,1.26,177.7,M,-34.4,M,0000,0000*5D
$GPRMC,133411.000,A,4308.5338,N,07727.8898,W,27.05,271.00,211019,,,D*44
$GPGGA,133411.250,4308.5339,N,07727.8924,W,2,06,1.26,177.6,M,-34.4,M,0000,0000*54
$GPRMC,133411.500,A,4308.5339,N,07727.8951,W,27.55,270.86,211019,,,D*4E
$GPGGA,133411.750,4308.5339,N,07727.8977,W,2,06,1.26,177.4,M,-34.4,M,0000,0000*55
$GPRMC,133412.000,A,4308.5339,N,07727.9003,W,27.80,270.54,211019,,,D*40
$GPGGA,133412.250,4308.5339,N,07727.9030,W,2,06,1.26,177.2,M,-34.4,M,0000,0000*5E
$GPRMC,133412.500,A,4308.5339,N,07727.9057,W,28.08,269.78,211019,,,D*4D
$GPGGA,133412.750,4308.5338,N,07727.9085,W,2,06,1.26,177.1,M,-34.4,M,0000,0000*57
$GPRMC,133413.000,A,4308.5338,N,07727.9113,W,29.86,269.63,211019,,,D*44
$GPGGA,133413.250,4308.5339,N,07727.9143,W,2,06,1.26,176.9,M,-34.4,M,0000,0000*50
$GPRMC,133413.500,A,4308.5339,N,07727.9172,W,30.71,269.23,211019,,,D*43
$GPGGA,133413.750,4308.5338,N,07727.9200,W,2,06,1.26,176.8,M,-34.4,M,0000,0000*51
$GPRMC,133414.000,A,4308.5337,N,07727.9229,W,30.49,268.06,211019,,,D*4F
$GPGGA,133414.250,4308.5337,N,07727.9258,W,2,06,1.26,176.7,M,-34.4,M,0000,0000*5E
$GPRMC,133414.500,A,4308.5337,N,07727.9287,W,30.74,268.08,211019,,,D*4E
$GPGGA,133414.750,4308.5336,N,07727.9316,W,2,06,1.26,176.6,M,-34.4,M,0000,0000*50
$GPRMC,133415.000,A,4308.5336,N,07727.9345,W,30.74,268.87,211019,,,D*43
$GPGGA,133415.250,4308.5337,N,07727.9373,W,2,06,1.26,176.5,M,-34.4,M,0000,0000*55
$GPRMC,133415.500,A,4308.5337,N,07727.9402,W,30.44,270.40,211019,,,D*42
$GPGGA,133415.750,4308.5338,N,07727.9431,W,2,06,1.26,176.5,M,-34.4,M,0000,0000*5E
$GPRMC,133416.000,A,4308.5338,N,07727.9460,W,30.36,270.65,211019,,,D*4D
$GPGGA,133416.250,4308.5339,N,07727.9489,W,2,06,1.26,176.4,M,-34.4,M,0000,0000*5B
$GPRMC,133416.500,A,4308.5339,N,07727.9518,W,30.39,270.44,211019,,,D*4B
$GPGGA,133416.750,4308.5340,N,07727.9547,W,2,06,1.26,176.3,M,-34.4,M,0000,0000*54
$GPRMC,133417.000,A,4308.5341,N,07727.9577,W,30.47,271.29,211019,,,D*4A
$GPGGA,133417.250,4308.5341,N,07727.9606,W,2,06,1.26,176.2,M,-34.4,M,0000,0000*56
$GPRMC,133417.500,A,4308.5341,N,07727.9636,W,30.52,271.51,211019,,,D*42
$GPGGA,133417.750,4308.5341,N,07727.9665,W,2,06,1.26,176.1,M,-34.4,M,0000,0000*55
$GPRMC,133418.000,A,4308.5341,N,07727.9695,W,30.47,271.18,211019,,,D*48
$GPGGA,133418.250,4308.5341,N,07727.9724,W,2,06,1.26,176.0,M,-34.4,M,0000,0000*5A
$GPRMC,133418.500,A,4308.5342,N,07727.9755,W,30.53,271.98,211019,,,D*4E
$GPGGA,133418.750,4308.5342,N,07727.9785,W,2,06,1.26,175.8,M,-34.4,M,0000,0000*5C
$GPRMC,133419.000,A,4308.5343,N,07727.9815,W,31.54,272.44,211019,,,D*44
$GPGGA,133419.250,4308.5344,N,07727.9845,W,2,06,1.26,175.6,M,-34.4,M,0000,0000*53
$GPRMC,133419.500,A,4308.5345,N,07727.9875,W,32.05,272.56,211019,,,D*45
$GPGGA,133419.750,4308.5346,N,07727.9906,W,2,06,1.26,175.3,M,-34.4,M,0000,0000*57
$GPRMC,133420.000,A,4308.5348,N,07727.9937,W,32.36,272.49,211019,,,D*4E
$GPGGA,133420.250,4308.5348,N,07727.9968,W,2,06,1.26,175.1,M,-34.4,M,0000,0000*5C
$GPRMC,133420.500,A,4308.5349,N,07727.9999,W,32.86,271.92,211019,,,D*40
$GPGGA,133420.750,4308.5350,N,07728.0031,W,2,06,1.26,174.8,M,-34.4,M,0000,0000*5B
$GPRMC,133421.000,A,4308.5351,N,07728.0063,W,33.11,271.44,211019,,,D*43
$GPGGA,133421.250,4308.5351,N,07728.0095,W,2,06,1.26,174.6,M,-34.4,M,0000,0000*5E
$GPRMC,133421.500,A,4308.5352,N,07728.0128,W,33.97,271.06,211019,,,D*43
$GPGGA,133421.750,4308.5353,N,07728.0161,W,2,06,1.32,174.2,M,-34.4,M,0000,0000*52
$GPRMC,133422.000,A,4308.5353,N,07728.0194,W,34.89,270.28,211019,,,D*46
$GPGGA,133422.250,4308.5354,N,07728.0228,W,2,06,1.26,173.9,M,-34.4,M,0000,0000*54
$GPRMC,133422.500,A,4308.5354,N,07728.0262,W,35.84,269.16,211019,,,D*47
$GPGGA,133422.750,4308.5354,N,07728.0295,W,2,06,1.26,173.5,M,-34.4,M,0000,0000*5B
$GPRMC,133423.000,A,4308.5353,N,07728.0330,W,36.11,268.69,211019,,,D*44
$GPGGA,133423.250,4308.5353,N,07728.0364,W,2,06,1.26,173.2,M,-34.4,M,0000,0000*50
$GPRMC,133423.500,A,4308.5354,N,07728.0399,W,36.54,268.56,211019,,,D*48
$GPGGA,133423.750,4308.5354,N,07728.0434,W,2,06,1.32,172.9,M,-34.4,M,0000,0000*5F
$GPRMC,133424.000,A,4308.5354,N,07728.0469,W,36.87,268.50,211019,,,D*4A
$GPGGA,133424.250,4308.5355,N,07728.0504,W,2,06,1.26,172.5,M,-34.4,M,0000,0000*57
$GPRMC,133424.500,A,4308.5355,N,07728.0539,W,36.98,268.18,211019,,,D*48
$GPGGA,133424.750,4308.5356,N,07728.0574,W,2,06,1.26,172.2,M,-34.4,M,0000,0000*51
$GPRMC,133425.000,A,4308.5355,N,07728.0610,W,37.07,267.93,211019,,,D*4F
$GPGGA,133425.250,4308.5355,N,07728.0645,W,2,06,1.26,171.9,M,-34.4,M,0000,0000*5F
$GPRMC,133425.500,A,4308.5355,N,07728.0680,W,37.46,267.49,211019,,,D*41
$GPGGA,133425.750,4308.5354,N,07728.0715,W,2,06,1.26,171.7,M,-34.4,M,0000,0000*51
$GPRMC,133426.000,A,4308.5353,N,07728.0751,W,37.73,266.79,211019,,,D*48
$GPGGA,133426.250,4308.5353,N,07728.0786,W,2,06,1.26,171.4,M,-34.4,M,0000,0000*59
$GPRMC,133426.500,A,4308.5353,N,07728.0822,W,37.83,266.41,211019,,,D*42
$GPGGA,133426.750,4308.5353,N,07728.0858,W,2,06,1.26,171.1,M,-34.4,M,0000,0000*55
$GPRMC,133427.000,A,4308.5352,N,07728.0894,W,37.91,266.76,211019,,,D*4D
$GPGGA,133427.250,4308.5352,N,07728.0930,W,2,06,1.26,170.8,M,-34.4,M,0000,0000*57
$GPRMC,133427.500,A,4308.5352,N,07728.0966,W,37.96,266.83,211019,,,D*49
$GPGGA,133427.750,4308.5352,N,07728.1002,W,2,06,1.26,170.6,M,-34.4,M,0000,0000*55
$GPRMC,133428.000,A,4308.5352,N,07728.1038,W,37.94,267.22,211019,,,D*48
$GPGGA,133428.250,4308.5353,N,07728.1074,W,2,06,1.26,170.4,M,-34.4,M,0000,0000*5D
$GPRMC,133428.500,A,4308.5353,N,07728.1110,W,37.97,267.46,211019,,,D*46
$GPGGA,133428.750,4308.5353,N,07728.1146,W,2,06,1.32,170.2,M,-34.4,M,0000,0000*5B
$GPRMC,133429.000,A,4308.5353,N,07728.1182,W,38.02,267.69,211019,,,D*47
$GPGGA,133429.250,4308.5354,N,07728.1218,W,2,06,1.26,170.0,M,-34.4,M,0000,0000*57
$GPRMC,133429.500,A,4308.5355,N,07728.1255,W,38.04,268.08,211019,,,D*43
$GPGGA,133429.750,4308.5357,N,07728.1291,W,2,06,1.26,169.7,M,-34.4,M,0000,0000*5F
$GPRMC,133430.000,A,4308.5357,N,07728.1327,W,38.03,268.79,211019,,,D*49
$GPGGA,133430.250,4308.5359,N,07728.1363,W,2,06,1.26,169.4,M,-34.4,M,0000,0000*53
$GPRMC,133430.500,A,4308.5360,N,07728.1399,W,37.58,270.66,211019,,,D*4B
$GPGGA,133430.750,4308.5361,N,07728.1435,W,2,06,1.26,169.2,M,-34.4,M,0000,0000*5F
$GPRMC,133431.000,A,4308.5362,N,07728.1471,W,37.30,271.47,211019,,,D*40
$GPGGA,133431.250,4308.5363,N,07728.1506,W,2,06,1.26,169.1,M,-34.4,M,0000,0000*5B
$GPRMC,133431.500,A,4308.5364,N,07728.1541,W,37.11,271.72,211019,,,D*44
$GPGGA,133431.750,4308.5365,N,07728.1576,W,2,06,1.26,168.9,M,-34.4,M,0000,0000*56
$GPRMC,133432.000,A,4308.5366,N,07728.1611,W,36.96,271.72,211019,,,D*48
$GPGGA,133432.250,4308.5368,N,07728.1646,W,2,06,1.26,168.7,M,-34.4,M,0000,0000*53
$GPRMC,133432.500,A,4308.5370,N,07728.1682,W,36.65,271.93,211019,,,D*43
$GPGGA,133432.750,4308.5372,N,07728.1716,W,2,06,1.26,168.4,M,-34.4,M,0000,0000*5A
$GPRMC,133433.000,A,4308.5374,N,07728.1751,W,36.65,271.53,211019,,,D*40
$GPGGA,133433.250,4308.5377,N,07728.1786,W,2,06,1.26,168.1,M,-34.4,M,0000,0000*57
$GPRMC,133433.500,A,4308.5378,N,07728.1821,W,36.66,270.25,211019,,,D*42
$GPGGA,133433.750,4308.5379,N,07728.1856,W,2,06,1.26,167.8,M,-34.4,M,0000,0000*58
$GPRMC,133434.000,A,4308.5379,N,07728.1891,W,36.93,269.68,211019,,,D*41
$GPGGA,133434.250,4308.5380,N,07728.1926,W,2,06,1.26,167.6,M,-34.4,M,0000,0000*54
$GPRMC,133434.500,A,4308.5379,N,07728.1960,W,36.97,267.71,211019,,,D*49
$GPGGA,133434.750,4308.5379,N,07728.1994,W,2,06,1.26,167.3,M,-34.4,M,0000,0000*5B
$GPRMC,133435.000,A,4308.5378,N,07728.2029,W,36.85,267.67,211019,,,D*4F
$GPGGA,133435.250,4308.5378,N,07728.2064,W,2,06,1.26,167.1,M,-34.4,M,0000,0000*59
$GPRMC,133435.500,A,4308.5378,N,07728.2100,W,37.60,268.08,211019,,,D*4C
$GPGGA,133435.750,4308.5380,N,07728.2135,W,2,06,1.26,166.8,M,-34.4,M,0000,0000*56
$GPRMC,133436.000,A,4308.5380,N,07728.2171,W,37.69,268.66,211019,,,D*4A
$GPGGA,133436.250,4308.5381,N,07728.2207,W,2,06,1.26,166.7,M,-34.4,M,0000,0000*5C
$GPRMC,133436.500,A,4308.5381,N,07728.2243,W,37.63,268.78,211019,,,D*49
$GPGGA,133436.750,4308.5382,N,07728.2278,W,2,06,1.26,166.5,M,-34.4,M,0000,0000*50
$GPRMC,133437.000,A,4308.5383,N,07728.2314,W,37.63,269.23,211019,,,D*43
$GPGGA,133437.250,4308.5384,N,07728.2350,W,2,06,1.26,166.5,M,-34.4,M,0000,0000*59
$GPRMC,133437.500,A,4308.5385,N,07728.2385,W,37.58,269.67,211019,,,D*40
$GPGGA,133437.750,4308.5387,N,07728.2421,W,2,06,1.33,166.3,M,-34.4,M,0000,0000*5C
$GPRMC,133438.000,A,4308.5388,N,07728.2457,W,37.52,270.16,211019,,,D*4B
$GPGGA,133438.250,4308.5389,N,07728.2493,W,2,06,1.26,166.3,M,-34.4,M,0000,0000*55
$GPRMC,133438.500,A,4308.5390,N,07728.2528,W,37.23,270.87,211019,,,D*40
$GPGGA,133438.750,4308.5391,N,07728.2564,W,2,06,1.26,166.2,M,-34.4,M,0000,0000*51
$GPRMC,133439.000,A,4308.5392,N,07728.2599,W,37.01,271.22,211019,,,D*42
$GPGGA,133439.250,4308.5392,N,07728.2635,W,2,06,1.26,166.1,M,-34.4,M,0000,0000*52
$GPRMC,133439.500,A,4308.5393,N,07728.2671,W,36.92,272.19,211019,,,D*43
$GPGGA,133439.750,4308.5394,N,07728.2706,W,2,06,1.26,166.0,M,-34.4,M,0000,0000*51
$GPRMC,133440.000,A,4308.5395,N,07728.2741,W,36.73,272.47,211019,,,D*48
$GPGGA,133440.250,4308.5397,N,07728.2776,W,2,06,1.26,165.9,M,-34.4,M,0000,0000*54
$GPRMC,133440.500,A,4308.5398,N,07728.2811,W,36.41,272.47,211019,,,D*4B
$GPGGA,133440.750,4308.5399,N,07728.2846,W,2,06,1.33,165.7,M,-34.4,M,0000,0000*59
$GPRMC,133441.000,A,4308.5400,N,07728.2881,W,36.01,271.80,211019,,,D*4C
$GPGGA,133441.250,4308.5400,N,07728.2915,W,2,06,1.26,165.6,M,-34.4,M,0000,0000*58
$GPRMC,133441.500,A,4308.5400,N,07728.2950,W,35.76,271.55,211019,,,D*4F
$GPGGA,133441.750,4308.5401,N,07728.2984,W,2,06,1.26,165.4,M,-34.4,M,0000,0000*56
$GPRMC,133442.000,A,4308.5403,N,07728.3018,W,35.56,271.84,211019,,,D*40
$GPGGA,133442.250,4308.5405,N,07728.3051,W,2,06,1.26,165.2,M,-34.4,M,0000,0000*52
$GPRMC,133442.500,A,4308.5406,N,07728.3085,W,35.19,272.16,211019,,,D*47
$GPGGA,133442.750,4308.5408,N,07728.3118,W,2,06,1.26,165.1,M,-34.4,M,0000,0000*55
$GPRMC,133443.000,A,4308.5409,N,07728.3151,W,34.63,271.54,211019,,,D*4D
$GPGGA,133443.250,4308.5410,N,07728.3184,W,2,06,1.26,164.9,M,-34.4,M,0000,0000*54
$GPRMC,133443.500,A,4308.5410,N,07728.3216,W,34.04,271.43,211019,,,D*47
$GPGGA,133443.750,4308.5411,N,07728.3249,W,2,06,1.33,164.8,M,-34.4,M,0000,0000*57
$GPRMC,133444.000,A,4308.5412,N,07728.3281,W,33.78,271.85,211019,,,D*4F
$GPGGA,133444.250,4308.5413,N,07728.3313,W,2,06,1.26,164.7,M,-34.4,M,0000,0000*52
$GPRMC,133444.500,A,4308.5414,N,07728.3345,W,33.60,271.65,211019,,,D*42
$GPGGA,133444.750,4308.5415,N,07728.3376,W,2,06,1.26,164.5,M,-34.4,M,0000,0000*50
$GPRMC,133445.000,A,4308.5416,N,07728.3408,W,33.15,271.57,211019,,,D*49
$GPGGA,133445.250,4308.5417,N,07728.3439,W,2,06,1.26,164.4,M,-34.4,M,0000,0000*5B
$GPRMC,133445.500,A,4308.5418,N,07728.3471,W,33.19,271.95,211019,,,D*4E
$GPGGA,133445.750,4308.5419,N,07728.3502,W,2,06,1.33,164.2,M,-34.4,M,0000,0000*5B
$GPRMC,133446.000,A,4308.5420,N,07728.3534,W,33.23,272.30,211019,,,D*46
$GPGGA,133446.250,4308.5422,N,07728.3565,W,2,06,1.26,164.2,M,-34.4,M,0000,0000*50
$GPRMC,133446.500,A,4308.5423,N,07728.3597,W,33.45,271.59,211019,,,D*45
$GPGGA,133446.750,4308.5424,N,07728.3629,W,2,06,1.33,164.2,M,-34.4,M,0000,0000*5C
$GPRMC,133447.000,A,4308.5425,N,07728.3661,W,34.14,271.87,211019,,,D*4D
$GPGGA,133447.250,4308.5426,N,07728.3694,W,2,06,1.26,164.1,M,-34.4,M,0000,0000*5B
$GPRMC,133447.500,A,4308.5427,N,07728.3727,W,34.40,271.58,211019,,,D*4A
$GPGGA,133447.750,4308.5428,N,07728.3760,W,2,06,1.33,164.1,M,-34.4,M,0000,0000*5E
$GPRMC,133448.000,A,4308.5429,N,07728.3793,W,34.66,271.61,211019,,,D*4F
$GPGGA,133448.250,4308.5431,N,07728.3826,W,2,06,1.26,164.0,M,-34.4,M,0000,0000*54
$GPRMC,133448.500,A,4308.5432,N,07728.3860,W,35.38,271.67,211019,,,D*4F
$GPGGA,133448.750,4308.5433,N,07728.3894,W,2,06,1.33,163.9,M,-34.4,M,0000,0000*50
$GPRMC,133449.000,A,4308.5434,N,07728.3929,W,35.61,271.86,211019,,,D*42
$GPGGA,133449.250,4308.5436,N,07728.3963,W,2,06,1.26,163.8,M,-34.4,M,0000,0000*5D
$GPRMC,133449.500,A,4308.5437,N,07728.3998,W,36.23,271.92,211019,,,D*4E
$GPGGA,133449.750,4308.5438,N,07728.4032,W,2,06,1.26,163.6,M,-34.4,M,0000,0000*52
$GPRMC,133450.000,A,4308.5439,N,07728.4066,W,36.04,271.78,211019,,,D*43
$GPGGA,133450.250,4308.5440,N,07728.4100,W,2,06,1.26,163.5,M,-34.4,M,0000,0000*53
$GPRMC,133450.500,A,4308.5441,N,07728.4134,W,36.06,271.58,211019,,,D*4F
$GPGGA,133450.750,4308.5442,N,07728.4167,W,2,06,1.26,163.4,M,-34.4,M,0000,0000*54
$GPRMC,133451.000,A,4308.5443,N,07728.4201,W,35.85,271.86,211019,,,D*47
$GPGGA,133451.250,4308.5444,N,07728.4234,W,2,06,1.26,163.2,M,-34.4,M,0000,0000*55
$GPRMC,133451.500,A,4308.5445,N,07728.4266,W,35.67,271.82,211019,,,D*4D
$GPGGA,133451.750,4308.5446,N,07728.4299,W,2,06,1.26,163.0,M,-34.4,M,0000,0000*57
$GPRMC,133452.000,A,4308.5447,N,07728.4331,W,34.37,271.54,211019,,,D*45
$GPGGA,133452.250,4308.5448,N,07728.4364,W,2,06,1.26,162.8,M,-34.4,M,0000,0000*55
$GPRMC,133452.500,A,4308.5448,N,07728.4396,W,34.34,271.51,211019,,,D*44
$GPGGA,133452.750,4308.5448,N,07728.4429,W,2,06,1.26,162.6,M,-34.4,M,0000,0000*50
$GPRMC,133453.000,A,4308.5448,N,07728.4461,W,34.28,271.21,211019,,,D*45
$GPGGA,133453.250,4308.5449,N,07728.4494,W,2,06,1.26,162.4,M,-34.4,M,0000,0000*51
$GPRMC,133453.500,A,4308.5449,N,07728.4526,W,34.06,271.03,211019,,,D*4F
$GPGGA,133453.750,4308.5450,N,07728.4558,W,2,06,1.26,162.2,M,-34.4,M,0000,0000*5B
$GPRMC,133454.000,A,4308.5450,N,07728.4590,W,34.15,270.61,211019,,,D*4F
$GPGGA,133454.250,4308.5451,N,07728.4623,W,2,06,1.26,162.0,M,-34.4,M,0000,0000*55
$GPRMC,133454.500,A,4308.5451,N,07728.4655,W,34.05,270.68,211019,,,D*49
$GPGGA,133454.750,4308.5451,N,07728.4687,W,2,06,1.26,161.9,M,-34.4,M,0000,0000*54
$GPRMC,133455.000,A,4308.5451,N,07728.4719,W,33.86,270.78,211019,,,D*49
$GPGGA,133455.250,4308.5452,N,07728.4751,W,2,06,1.26,161.8,M,-34.4,M,0000,0000*58
$GPRMC,133455.500,A,4308.5451,N,07728.4782,W,32.91,270.33,211019,,,D*46
$GPGGA,133455.750,4308.5452,N,07728.4812,W,2,06,1.26,161.6,M,-34.4,M,0000,0000*5B
$GPRMC,133456.000,A,4308.5452,N,07728.4843,W,31.74,270.05,211019,,,D*4C
$GPGGA,133456.250,4308.5453,N,07728.4871,W,2,06,1.26,161.5,M,-34.4,M,0000,0000*5A
$GPRMC,133456.500,A,4308.5453,N,07728.4899,W,29.45,270.04,211019,,,D*45
$GPGGA,133456.750,4308.5454,N,07728.4927,W,2,06,1.33,161.4,M,-34.4,M,0000,0000*5F
$GPRMC,133457.000,A,4308.5455,N,07728.4953,W,27.64,270.99,211019,,,D*49
$GPGGA,133457.250,4308.5454,N,07728.4977,W,2,06,1.26,161.3,M,-34.4,M,0000,0000*5D
$GPRMC,133457.500,A,4308.5455,N,07728.5000,W,24.66,271.34,211019,,,D*45
$GPGGA,133457.750,4308.5455,N,07728.5022,W,2,06,1.33,161.2,M,-34.4,M,0000,0000*54
$GPRMC,133458.000,A,4308.5456,N,07728.5044,W,22.74,272.48,211019,,,D*41
$GPGGA,133458.250,4308.5456,N,07728.5063,W,2,06,1.26,161.1,M,-34.4,M,0000,0000*5F
$GPRMC,133458.500,A,4308.5457,N,07728.5080,W,19.18,273.85,211019,,,D*4F
$GPGGA,133458.750,4308.5458,N,07728.5096,W,2,06,1.33,161.0,M,-34.4,M,0000,0000*5B
$GPRMC,133459.000,A,4308.5458,N,07728.5111,W,16.47,273.54,211019,,,D*44
$GPGGA,133459.250,4308.5458,N,07728.5124,W,2,06,1.26,160.9,M,-34.4,M,0000,0000*5B
$GPRMC,133459.500,A,4308.5459,N,07728.5136,W,13.08,272.49,211019,,,D*46
$GPGGA,133459.750,4308.5459,N,07728.5148,W,2,06,1.33,160.9,M,-34.4,M,0000,0000*51
$GPRMC,133500.000,A,4308.5460,N,07728.5159,W,11.98,274.83,211019,,,D*46
$GPGGA,133500.250,4308.5459,N,07728.5169,W,2,06,1.26,160.8,M,-34.4,M,0000,0000*5F
$GPRMC,133500.500,A,4308.5458,N,07728.5179,W,10.21,276.07,211019,,,D*47
$GPGGA,133500.750,4308.5458,N,07728.5187,W,2,06,1.33,160.8,M,-34.4,M,0000,0000*5F
$GPRMC,133501.000,A,4308.5458,N,07728.5195,W,9.18,276.96,211019,,,D*7B
$GPGGA,133501.250,4308.5458,N,07728.5202,W,2,06,1.33,160.8,M,-34.4,M,0000,0000*55
$GPRMC,133501.500,A,4308.5458,N,07728.5209,W,7.57,277.57,211019,,,D*71
$GPGGA,133501.750,4308.5459,N,07728.5215,W,2,06,1.33,160.7,M,-34.4,M,0000,0000*58
$GPRMC,133502.000,A,4308.5460,N,07728.5221,W,6.49,279.95,211019,,,D*78
$GPGGA,133502.250,4308.5461,N,07728.5226,W,2,06,1.26,160.6,M,-34.4,M,0000,0000*50
