Vers 57
USE_SERIAL_FEEDBACK=false
DEVELOPMENT_MODE=false
USE_RMC_ONLY=false

$GPRMC,133106.800,A,4308.3006,N,07726.2645,W,0.01,290.28,120419,,,D*73
$GPGGA,133107.000,4308.3006,N,07726.2645,W,2,08,1.23,161.0,M,-34.4,M,0000,0000*51
lng=-77.437744, lat=43.138347, altitude=161.00, speed=0.01, satellites=8, angle=290.2800, fixquality=2
$GPRMC,133107.200,A,4308.3006,N,07726.2645,W,0.01,290.28,120419,,,D*78
$GPGGA,133107.400,4308.3006,N,07726.2645,W,2,08,1.23,161.0,M,-34.4,M,0000,0000*55
lng=-77.437744, lat=43.138347, altitude=161.00, speed=0.01, satellites=8, angle=290.2800, fixquality=2
$GPRMC,133107.600,A,4308.3006,N,07726.2645,W,0.01,290.28,120419,,,D*7C
$GPGGA,133107.800,4308.3006,N,07726.2645,W,2,08,1.23,161.0,M,-34.4,M,0000,0000*59
lng=-77.437744, lat=43.138347, altitude=161.00, speed=0.01, satellites=8, angle=290.2800, fixquality=2
$GPRMC,133108.000,A,4308.3006,N,07726.2645,W,0.01,290.28,120419,,,D*75
$GPGGA,133108.200,4308.3006,N,07726.2645,W,2,08,1.23,161.0,M,-34.4,M,0000,0000*5C
lng=-77.437744, lat=43.138347, altitude=161.00, speed=0.01, satellites=8, angle=290.2800, fixquality=2
$GPRMC,133108.400,A,4308.3006,N,07726.2645,W,0.01,290.28,120419,,,D*71
$GPGGA,133108.600,4308.3006,N,07726.2645,W,2,08,1.23,160.9,M,-34.4,M,0000,0000*50
lng=-77.437744, lat=43.138347, altitude=161.00, speed=0.01, satellites=8, angle=290.2800, fixquality=2
$GPRMC,133108.800,A,4308.3006,N,07726.2645,W,0.01,290.28,120419,,,D*7D
$GPGGA,133109.000,4308.3006,N,07726.2644,W,2,08,1.23,160.9,M,-34.4,M,0000,0000*56
lng=-77.437744, lat=43.138347, altitude=160.90, speed=0.01, satellites=8, angle=290.2800, fixquality=2
$GPRMC,133109.200,A,4308.3006,N,07726.2644,W,0.01,290.28,120419,,,D*77
$GPGGA,133109.400,4308.3006,N,07726.2644,W,2,08,1.23,160.9,M,-34.4,M,0000,0000*52
lng=-77.437736, lat=43.138347, altitude=160.90, speed=0.01, satellites=8, angle=290.2800, fixquality=2
$GPRMC,133109.600,A,4308.3006,N,07726.2644,W,0.01,290.28,120419,,,D*73
$GPGGA,133109.800,4308.3006,N,07726.2644,W,2,08,1.23,160.9,M,-34.4,M,0000,0000*5E
lng=-77.437736, lat=43.138347, altitude=160.90, speed=0.01, satellites=8, angle=290.2800, fixquality=2
$GPRMC,133110.000,A,4308.3006,N,07726.2644,W,0.01,290.28,120419,,,D*7D
$GPGGA,133110.200,4308.3006,N,07726.2644,W,2,08,1.23,160.9,M,-34.4,M,0000,0000*5C
lng=-77.437736, lat=43.138347, altitude=160.90, speed=0.01, satellites=8, angle=290.2800, fixquality=2
$GPRMC,133110.400,A,4308.3006,N,07726.2644,W,0.01,290.28,120419,,,D*79
$GPGGA,133110.600,4308.3006,N,07726.2644,W,2,08,1.23,160.9,M,-34.4,M,0000,0000*58
lng=-77.437736, lat=43.138347, altitude=160.90, speed=0.01, satellites=8, angle=290.2800, fixquality=2
$GPRMC,133110.800,A,4308.3006,N,07726.2644,W,0.01,290.28,120419,,,D*75
$GPGGA,133111.000,4308.3006,N,07726.2644,W,2,08,1.23,160.9,M,-34.4,M,0000,0000*5F
lng=-77.437736, lat=43.138347, altitude=160.90, speed=0.01, satellites=8, angle=290.2800, fixquality=2
$GPRMC,133111.200,A,4308.3006,N,07726.2644,W,0.01,290.28,120419,,,D*7E
$GPGGA,133111.400,4308.3006,N,07726.2644,W,2,08,1.23,160.9,M,-34.4,M,0000,0000*5B
lng=-77.437736, lat=43.138347, altitude=160.90, speed=0.01, satellites=8, angle=290.2800, fixquality=2
$GPRMC,133111.600,A,4308.3006,N,07726.2644,W,0.01,290.28,120419,,,D*7A
$GPGGA,133111.800,4308.3006,N,07726.2644,W,2,08,1.23,160.9,M,-34.4,M,0000,0000*57
lng=-77.437736, lat=43.138347, altitude=160.90, speed=0.01, satellites=8, angle=290.2800, fixquality=2
$GPRMC,133112.000,A,4308.3006,N,07726.2644,W,0.01,290.28,120419,,,D*7F
$GPGGA,133112.200,4308.3006,N,07726.2644,W,2,08,1.23,160.9,M,-34.4,M,0000,0000*5E
lng=-77.437736, lat=43.138347, altitude=160.90, speed=0.01, satellites=8, angle=290.2800, fixquality=2
$GPRMC,133112.400,A,4308.3006,N,07726.2644,W,0.01,290.28,120419,,,D*7B
$GPGGA,133112.600,4308.3006,N,07726.2644,W,2,08,1.23,160.9,M,-34.4,M,0000,0000*5A
lng=-77.437736, lat=43.138347, altitude=160.90, speed=0.01, satellites=8, angle=290.2800, fixquality=2
$GPRMC,133112.800,A,4308.3006,N,07726.2644,W,0.01,290.28,120419,,,D*77
$GPGGA,133113.000,4308.3006,N,07726.2644,W,2,08,1.23,160.9,M,-34.4,M,0000,0000*5D
lng=-77.437736, lat=43.138347, altitude=160.90, speed=0.01, satellites=8, angle=290.2800, fixquality=2
$GPRMC,133113.200,A,4308.3006,N,07726.2644,W,0.01,290.28,120419,,,D*7C
$GPGGA,133113.400,4308.3006,N,07726.2644,W,2,08,1.23,160.9,M,-34.4,M,0000,0000*59
lng=-77.437736, lat=43.138347, altitude=160.90, speed=0.01, satellites=8, angle=290.2800, fixquality=2
$GPRMC,133113.600,A,4308.3006,N,07726.2644,W,0.01,290.28,120419,,,D*78
$GPGGA,133113.800,4308.3006,N,07726.2644,W,2,08,1.23,160.9,M,-34.4,M,0000,0000*55
lng=-77.437736, lat=43.138347, altitude=160.90, speed=0.01, satellites=8, angle=290.2800, fixquality=2
$GPRMC,133114.000,A,4308.3006,N,07726.2644,W,0.01,290.28,120419,,,D*79
$GPGGA,133114.200,4308.3006,N,07726.2644,W,2,08,1.23,160.9,M,-34.4,M,0000,0000*58
lng=-77.437736, lat=43.138347, altitude=160.90, speed=0.01, satellites=8, angle=290.2800, fixquality=2
$GPRMC,133114.400,A,4308.3006,N,07726.2644,W,0.01,290.28,120419,,,D*7D
$GPGGA,133114.600,4308.3006,N,07726.2644,W,2,08,1.23,160.9,M,-34.4,M,0000,0000*5C
lng=-77.437736, lat=43.138347, altitude=160.90, speed=0.01, satellites=8, angle=290.2800, fixquality=2
$GPRMC,133114.800,A,4308.3006,N,07726.2644,W,0.01,290.28,120419,,,D*71
$GPGGA,133115.000,4308.3006,N,07726.2644,W,2,08,1.23,160.9,M,-34.4,M,0000,0000*5B
lng=-77.437736, lat=43.138347, altitude=160.90, speed=0.01, satellites=8, angle=290.2800, fixquality=2
$GPRMC,133115.200,A,4308.3006,N,07726.2644,W,0.01,290.28,120419,,,D*7A
$GPGGA,133115.400,4308.3006,N,07726.2644,W,2,08,1.23,160.9,M,-34.4,M,0000,0000*5F
lng=-77.437736, lat=43.138347, altitude=160.90, speed=0.01, satellites=8, angle=290.2800, fixquality=2
$GPRMC,133115.600,A,4308.3006,N,07726.2644,W,0.01,290.28,120419,,,D*7E
$GPGGA,133115.800,4308.3006,N,07726.2644,W,2,08,1.23,160.9,M,-34.4,M,0000,0000*53
lng=-77.437736, lat=43.138347, altitude=160.90, speed=0.01, satellites=8, angle=290.2800, fixquality=2
$GPRMC,133116.000,A,4308.3006,N,07726.2644,W,0.00,290.28,120419,,,D*7A
$GPGGA,133116.200,4308.3006,N,07726.2644,W,2,08,1.23,160.9,M,-34.4,M,0000,0000*5A
lng=-77.437736, lat=43.138347, altitude=160.90, speed=0.00, satellites=8, angle=290.2800, fixquality=2
$GPRMC,133116.400,A,4308.3006,N,07726.2644,W,0.01,290.28,120419,,,D*7F
$GPGGA,133116.600,4308.3006,N,07726.2644,W,2,08,1.23,160.9,M,-34.4,M,0000,0000*5E
lng=-77.437736, lat=43.138347, altitude=160.90, speed=0.01, satellites=8, angle=290.2800, fixquality=2
$GPRMC,133116.800,A,4308.3006,N,07726.2644,W,0.01,290.28,120419,,,D*73
$GPGGA,133117.000,4308.3006,N,07726.2644,W,2,08,1.23,160.9,M,-34.4,M,0000,0000*59
lng=-77.437736, lat=43.138347, altitude=160.90, speed=0.01, satellites=8, angle=290.2800, fixquality=2
$GPRMC,133117.200,A,4308.3006,N,07726.2644,W,0.01,290.28,120419,,,D*78
$GPGGA,133117.400,4308.3006,N,07726.2644,W,2,08,1.23,160.9,M,-34.4,M,0000,0000*5D
lng=-77.437736, lat=43.138347, altitude=160.90, speed=0.01, satellites=8, angle=290.2800, fixquality=2
$GPRMC,133117.600,A,4308.3006,N,07726.2644,W,0.01,290.28,120419,,,D*7C
$GPGGA,133117.800,4308.3006,N,07726.2644,W,2,08,1.23,160.9,M,-34.4,M,0000,0000*51
lng=-77.437736, lat=43.138347, altitude=160.90, speed=0.01, satellites=8, angle=290.2800, fixquality=2
$GPRMC,133118.000,A,4308.3006,N,07726.2644,W,0.01,290.28,120419,,,D*75
$GPGGA,133118.200,4308.3006,N,07726.2644,W,2,08,1.23,160.9,M,-34.4,M,0000,0000*54
lng=-77.437736, lat=43.138347, altitude=160.90, speed=0.01, satellites=8, angle=290.2800, fixquality=2
$GPRMC,133118.400,A,4308.3006,N,07726.2644,W,0.01,290.28,120419,,,D*71
$GPGGA,133118.600,4308.3006,N,07726.2644,W,2,08,1.23,160.9,M,-34.4,M,0000,0000*50
lng=-77.437736, lat=43.138347, altitude=160.90, speed=0.01, satellites=8, angle=290.2800, fixquality=2
$GPRMC,133118.800,A,4308.3006,N,07726.2644,W,0.01,290.28,120419,,,D*7D
$GPGGA,133119.000,4308.3006,N,07726.2644,W,2,08,1.23,160.9,M,-34.4,M,0000,0000*57
lng=-77.437736, lat=43.138347, altitude=160.90, speed=0.01, satellites=8, angle=290.2800, fixquality=2
$GPRMC,133119.200,A,4308.3006,N,07726.2644,W,0.01,290.28,120419,,,D*76
$GPGGA,133119.400,4308.3006,N,07726.2643,W,2,08,1.23,160.9,M,-34.4,M,0000,0000*54
lng=-77.437736, lat=43.138347, altitude=160.90, speed=0.01, satellites=8, angle=290.2800, fixquality=2
$GPRMC,133119.600,A,4308.3006,N,07726.2643,W,0.01,290.28,120419,,,D*75
$GPGGA,133119.800,4308.3006,N,07726.2643,W,2,08,1.23,160.9,M,-34.4,M,0000,0000*58
lng=-77.437736, lat=43.138347, altitude=160.90, speed=0.01, satellites=8, angle=290.2800, fixquality=2
$GPRMC,133120.000,A,4308.3006,N,07726.2643,W,0.01,290.28,120419,,,D*79
$GPGGA,133120.200,4308.3006,N,07726.2643,W,2,08,1.23,160.9,M,-34.4,M,0000,0000*58
lng=-77.437736, lat=43.138347, altitude=160.90, speed=0.01, satellites=8, angle=290.2800, fixquality=2
$GPRMC,133120.400,A,4308.3006,N,07726.2643,W,0.01,290.28,120419,,,D*7D
$GPGGA,133120.600,4308.3006,N,07726.2643,W,2,08,1.23,160.9,M,-34.4,M,0000,0000*5C
lng=-77.437736, lat=43.138347, altitude=160.90, speed=0.01, satellites=8, angle=290.2800, fixquality=2
$GPRMC,133120.800,A,4308.3006,N,07726.2643,W,0.01,290.28,120419,,,D*71
$GPGGA,133121.000,4308.3006,N,07726.2643,W,2,08,1.23,160.9,M,-34.4,M,0000,0000*5B
lng=-77.437736, lat=43.138347, altitude=160.90, speed=0.01, satellites=8, angle=290.2800, fixquality=2
$GPRMC,133121.200,A,4308.3006,N,07726.2643,W,0.00,290.28,120419,,,D*7B
$GPGGA,133121.400,4308.3006,N,07726.2643,W,2,08,1.23,160.9,M,-34.4,M,0000,0000*5F
lng=-77.437736, lat=43.138347, altitude=160.90, speed=0.00, satellites=8, angle=290.2800, fixquality=2
$GPRMC,133121.600,A,4308.3006,N,07726.2643,W,0.00,290.28,120419,,,D*7F
$GPGGA,133121.800,4308.3006,N,07726.2643,W,2,08,1.23,160.9,M,-34.4,M,0000,0000*53
lng=-77.437736, lat=43.138347, altitude=160.90, speed=0.00, satellites=8, angle=290.2800, fixquality=2
$GPRMC,133122.000,A,4308.3006,N,07726.2643,W,0.01,290.28,120419,,,D*7B
$GPGGA,133122.200,4308.3006,N,07726.2643,W,2,08,1.23,160.9,M,-34.4,M,0000,0000*5A
lng=-77.437736, lat=43.138347, altitude=160.90, speed=0.01, satellites=8, angle=290.2800, fixquality=2
$GPRMC,133122.400,A,4308.3006,N,07726.2643,W,0.01,290.28,120419,,,D*7F
$GPGGA,133122.600,4308.3006,N,07726.2643,W,2,08,1.23,160.9,M,-34.4,M,0000,0000*5E
lng=-77.437736, lat=43.138347, altitude=160.90, speed=0.01, satellites=8, angle=290.2800, fixquality=2
$GPRMC,133122.800,A,4308.3006,N,07726.2643,W,0.01,290.28,120419,,,D*73
$GPGGA,133123.000,4308.3006,N,07726.2643,W,2,08,1.23,160.9,M,-34.4,M,0000,0000*59
lng=-77.437736, lat=43.138347, altitude=160.90, speed=0.01, satellites=8, angle=290.2800, fixquality=2
$GPRMC,133123.200,A,4308.3006,N,07726.2643,W,0.01,290.28,120419,,,D*78
$GPGGA,133123.400,4308.3006,N,07726.2643,W,2,08,1.23,160.9,M,-34.4,M,0000,0000*5D
lng=-77.437736, lat=43.138347, altitude=160.90, speed=0.01, satellites=8, angle=290.2800, fixquality=2
$GPRMC,133123.600,A,4308.3006,N,07726.2643,W,0.01,290.28,120419,,,D*7C
$GPGGA,133123.800,4308.3006,N,07726.2643,W,2,08,1.23,160.9,M,-34.4,M,0000,0000*51
lng=-77.437736, lat=43.138347, altitude=160.90, speed=0.01, satellites=8, angle=290.2800, fixquality=2
$GPRMC,133124.000,A,4308.3006,N,07726.2643,W,0.01,290.28,120419,,,D*7D
$GPGGA,133124.200,4308.3006,N,07726.2643,W,2,08,1.23,160.9,M,-34.4,M,0000,0000*5C
lng=-77.437736, lat=43.138347, altitude=160.90, speed=0.01, satellites=8, angle=290.2800, fixquality=2
$GPRMC,133124.400,A,4308.3006,N,07726.2643,W,0.01,290.28,120419,,,D*79
$GPGGA,133124.600,4308.3006,N,07726.2643,W,2,08,1.23,160.9,M,-34.4,M,0000,0000*58
lng=-77.437736, lat=43.138347, altitude=160.90, speed=0.01, satellites=8, angle=290.2800, fixquality=2
$GPRMC,133124.800,A,4308.3006,N,07726.2643,W,0.01,290.28,120419,,,D*75
$GPGGA,133125.000,4308.3006,N,07726.2643,W,2,08,1.23,160.9,M,-34.4,M,0000,0000*5F
lng=-77.437736, lat=43.138347, altitude=160.90, speed=0.01, satellites=8, angle=290.2800, fixquality=2
$GPRMC,133125.200,A,4308.3006,N,07726.2643,W,0.01,290.28,120419,,,D*7E
$GPGGA,133125.400,4308.3006,N,07726.2643,W,2,08,1.23,160.9,M,-34.4,M,0000,0000*5B
lng=-77.437736, lat=43.138347, altitude=160.90, speed=0.01, satellites=8, angle=290.2800, fixquality=2
$GPRMC,133125.600,A,4308.3006,N,07726.2643,W,0.01,290.28,120419,,,D*7A
$GPGGA,133125.800,4308.3006,N,07726.2643,W,2,08,1.23,160.9,M,-34.4,M,0000,0000*57
lng=-77.437736, lat=43.138347, altitude=160.90, speed=0.01, satellites=8, angle=290.2800, fixquality=2
$GPRMC,133126.000,A,4308.3006,N,07726.2643,W,0.01,290.28,120419,,,D*7F
$GPGGA,133126.200,4308.3006,N,07726.2643,W,2,08,1.23,160.9,M,-34.4,M,0000,0000*5E
lng=-77.437736, lat=43.138347, altitude=160.90, speed=0.01, satellites=8, angle=290.2800, fixquality=2
$GPRMC,133126.400,A,4308.3006,N,07726.2643,W,0.01,290.28,120419,,,D*7B
$GPGGA,133126.600,4308.3006,N,07726.2643,W,2,08,1.23,160.9,M,-34.4,M,0000,0000*5A
lng=-77.437736, lat=43.138347, altitude=160.90, speed=0.01, satellites=8, angle=290.2800, fixquality=2
$GPRMC,133126.800,A,4308.3006,N,07726.2643,W,0.01,290.28,120419,,,D*77
$GPGGA,133127.000,4308.3006,N,07726.2643,W,2,08,1.23,160.9,M,-34.4,M,0000,0000*5D
lng=-77.437736, lat=43.138347, altitude=160.90, speed=0.01, satellites=8, angle=290.2800, fixquality=2
$GPRMC,133127.200,A,4308.3006,N,07726.2643,W,0.00,290.28,120419,,,D*7D
$GPGGA,133127.400,4308.3006,N,07726.2643,W,2,08,1.23,160.9,M,-34.4,M,0000,0000*59
lng=-77.437736, lat=43.138347, altitude=160.90, speed=0.00, satellites=8, angle=290.2800, fixquality=2
$GPRMC,133127.600,A,4308.3006,N,07726.2643,W,0.01,290.28,120419,,,D*78
$GPGGA,133127.800,4308.3006,N,07726.2643,W,2,08,1.23,160.9,M,-34.4,M,0000,0000*55
lng=-77.437736, lat=43.138347, altitude=160.90, speed=0.01, satellites=8, angle=290.2800, fixquality=2
$GPRMC,133128.000,A,4308.3006,N,07726.2643,W,0.01,290.28,120419,,,D*71
$GPGGA,133128.200,4308.3006,N,07726.2643,W,2,08,1.23,160.9,M,-34.4,M,0000,0000*50
lng=-77.437736, lat=43.138347, altitude=160.90, speed=0.01, satellites=8, angle=290.2800, fixquality=2
$GPRMC,133128.400,A,4308.3006,N,07726.2643,W,0.01,290.28,120419,,,D*75
$GPGGA,133128.600,4308.3007,N,07726.2643,W,2,08,1.23,160.9,M,-34.4,M,0000,0000*55
lng=-77.437736, lat=43.138347, altitude=160.90, speed=0.01, satellites=8, angle=290.2800, fixquality=2
$GPRMC,133128.800,A,4308.3007,N,07726.2643,W,0.01,290.28,120419,,,D*78
$GPGGA,133129.000,4308.3007,N,07726.2643,W,2,08,1.23,160.9,M,-34.4,M,0000,0000*52
lng=-77.437736, lat=43.138347, altitude=160.90, speed=0.01, satellites=8, angle=290.2800, fixquality=2
$GPRMC,133129.200,A,4308.3007,N,07726.2643,W,0.01,290.28,120419,,,D*73
$GPGGA,133129.400,4308.3007,N,07726.2643,W,2,08,1.23,160.9,M,-34.4,M,0000,0000*56
lng=-77.437736, lat=43.138347, altitude=160.90, speed=0.01, satellites=8, angle=290.2800, fixquality=2
$GPRMC,133129.600,A,4308.3007,N,07726.2643,W,0.01,290.28,120419,,,D*77
$GPGGA,133129.800,4308.3007,N,07726.2643,W,2,08,1.23,160.9,M,-34.4,M,0000,0000*5A
lng=-77.437736, lat=43.138347, altitude=160.90, speed=0.01, satellites=8, angle=290.2800, fixquality=2
$GPRMC,133130.000,A,4308.3007,N,07726.2643,W,0.00,290.28,120419,,,D*78
$GPGGA,133130.200,4308.3007,N,07726.2643,W,2,08,1.23,160.9,M,-34.4,M,0000,0000*58
lng=-77.437736, lat=43.138347, altitude=160.90, speed=0.00, satellites=8, angle=290.2800, fixquality=2
$GPRMC,133130.400,A,4308.3007,N,07726.2643,W,0.00,290.28,120419,,,D*7C
$GPGGA,133130.600,4308.3007,N,07726.2643,W,2,08,1.23,160.9,M,-34.4,M,0000,0000*5C
lng=-77.437736, lat=43.138347, altitude=160.90, speed=0.00, satellites=8, angle=290.2800, fixquality=2
$GPRMC,133130.800,A,4308.3007,N,07726.2643,W,0.01,290.28,120419,,,D*71
$GPGGA,133131.000,4308.3007,N,07726.2643,W,2,08,1.23,160.9,M,-34.4,M,0000,0000*5B
lng=-77.437736, lat=43.138347, altitude=160.90, speed=0.01, satellites=8, angle=290.2800, fixquality=2
$GPRMC,133131.200,A,4308.3007,N,07726.2643,W,0.01,290.28,120419,,,D*7A
$GPGGA,133131.400,4308.3007,N,07726.2643,W,2,08,1.23,160.9,M,-34.4,M,0000,0000*5F
lng=-77.437736, lat=43.138347, altitude=160.90, speed=0.01, satellites=8, angle=290.2800, fixquality=2
$GPRMC,133131.600,A,4308.3007,N,07726.2643,W,0.01,290.28,120419,,,D*7E
$GPGGA,133131.800,4308.3007,N,07726.2643,W,2,08,1.23,160.9,M,-34.4,M,0000,0000*53
lng=-77.437736, lat=43.138347, altitude=160.90, speed=0.01, satellites=8, angle=290.2800, fixquality=2
$GPRMC,133132.000,A,4308.3007,N,07726.2643,W,0.01,290.28,120419,,,D*7B
$GPGGA,133132.200,4308.3007,N,07726.2643,W,2,08,1.23,160.9,M,-34.4,M,0000,0000*5A
lng=-77.437736, lat=43.138347, altitude=160.90, speed=0.01, satellites=8, angle=290.2800, fixquality=2
$GPRMC,133132.400,A,4308.3007,N,07726.2643,W,0.01,290.28,120419,,,D*7F
$GPGGA,133132.600,4308.3007,N,07726.2643,W,2,08,1.23,160.9,M,-34.4,M,0000,0000*5E
lng=-77.437736, lat=43.138347, altitude=160.90, speed=0.01, satellites=8, angle=290.2800, fixquality=2
$GPRMC,133132.800,A,4308.3007,N,07726.2643,W,0.01,290.28,120419,,,D*73
$GPGGA,133133.000,4308.3007,N,07726.2643,W,2,08,1.23,160.9,M,-34.4,M,0000,0000*59
lng=-77.437736, lat=43.138347, altitude=160.90, speed=0.01, satellites=8, angle=290.2800, fixquality=2
$GPRMC,133133.200,A,4308.3007,N,07726.2643,W,0.01,290.28,120419,,,D*78
$GPGGA,133133.400,4308.3007,N,07726.2643,W,2,08,1.23,160.9,M,-34.4,M,0000,0000*5D
lng=-77.437736, lat=43.138347, altitude=160.90, speed=0.01, satellites=8, angle=290.2800, fixquality=2
$GPRMC,133133.600,A,4308.3007,N,07726.2643,W,0.01,290.28,120419,,,D*7C
$GPGGA,133133.800,4308.3007,N,07726.2643,W,2,08,1.23,160.9,M,-34.4,M,0000,0000*51
lng=-77.437736, lat=43.138347, altitude=160.90, speed=0.01, satellites=8, angle=290.2800, fixquality=2
$GPRMC,133134.000,A,4308.3007,N,07726.2643,W,0.03,290.28,120419,,,D*7F
$GPGGA,133134.200,4308.3007,N,07726.2643,W,2,08,1.23,160.9,M,-34.4,M,0000,0000*5C
lng=-77.437736, lat=43.138347, altitude=160.90, speed=0.03, satellites=8, angle=290.2800, fixquality=2
$GPRMC,133134.400,A,4308.3007,N,07726.2643,W,0.02,290.28,120419,,,D*7A
$GPGGA,133134.600,4308.3007,N,07726.2643,W,2,08,1.23,160.9,M,-34.4,M,0000,0000*58
lng=-77.437736, lat=43.138347, altitude=160.90, speed=0.02, satellites=8, angle=290.2800, fixquality=2
$GPRMC,133134.800,A,4308.3007,N,07726.2643,W,0.02,290.28,120419,,,D*76
$GPGGA,133135.000,4308.3007,N,07726.2643,W,2,08,1.23,160.9,M,-34.4,M,0000,0000*5F
lng=-77.437736, lat=43.138347, altitude=160.90, speed=0.02, satellites=8, angle=290.2800, fixquality=2
$GPRMC,133135.200,A,4308.3007,N,07726.2643,W,0.01,290.28,120419,,,D*7E
$GPGGA,133135.400,4308.3007,N,07726.2643,W,2,08,1.23,160.8,M,-34.4,M,0000,0000*5A
lng=-77.437736, lat=43.138347, altitude=160.90, speed=0.01, satellites=8, angle=290.2800, fixquality=2
$GPRMC,133135.600,A,4308.3007,N,07726.2643,W,0.02,290.28,120419,,,D*79
$GPGGA,133135.800,4308.3007,N,07726.2643,W,2,08,1.23,160.8,M,-34.4,M,0000,0000*56
lng=-77.437736, lat=43.138347, altitude=160.80, speed=0.02, satellites=8, angle=290.2800, fixquality=2
$GPRMC,133136.000,A,4308.3007,N,07726.2643,W,0.03,290.28,120419,,,D*7D
$GPGGA,133136.200,4308.3007,N,07726.2643,W,2,08,1.23,160.8,M,-34.4,M,0000,0000*5F
lng=-77.437736, lat=43.138347, altitude=160.80, speed=0.03, satellites=8, angle=290.2800, fixquality=2
$GPRMC,133136.400,A,4308.3007,N,07726.2643,W,0.03,290.28,120419,,,D*79
$GPGGA,133136.600,4308.3007,N,07726.2643,W,2,08,1.23,160.8,M,-34.4,M,0000,0000*5B
lng=-77.437736, lat=43.138347, altitude=160.80, speed=0.03, satellites=8, angle=290.2800, fixquality=2
$GPRMC,133136.800,A,4308.3007,N,07726.2643,W,0.04,290.28,120419,,,D*72
$GPGGA,133137.000,4308.3007,N,07726.2643,W,2,08,1.23,160.8,M,-34.4,M,0000,0000*5C
lng=-77.437736, lat=43.138347, altitude=160.80, speed=0.04, satellites=8, angle=290.2800, fixquality=2
$GPRMC,133137.200,A,4308.3007,N,07726.2643,W,0.07,290.28,120419,,,D*7A
$GPGGA,133137.400,4308.3007,N,07726.2643,W,2,08,1.23,160.8,M,-34.4,M,0000,0000*58
lng=-77.437736, lat=43.138347, altitude=160.80, speed=0.07, satellites=8, angle=290.2800, fixquality=2
$GPRMC,133137.600,A,4308.3007,N,07726.2643,W,0.03,290.28,120419,,,D*7A
$GPGGA,133137.800,4308.3007,N,07726.2643,W,2,08,1.23,160.8,M,-34.4,M,0000,0000*54
lng=-77.437736, lat=43.138347, altitude=160.80, speed=0.03, satellites=8, angle=290.2800, fixquality=2
$GPRMC,133138.000,A,4308.3007,N,07726.2643,W,0.02,290.28,120419,,,D*72
$GPGGA,133138.200,4308.3007,N,07726.2643,W,2,08,1.23,160.8,M,-34.4,M,0000,0000*51
lng=-77.437736, lat=43.138347, altitude=160.80, speed=0.02, satellites=8, angle=290.2800, fixquality=2
$GPRMC,133138.400,A,4308.3007,N,07726.2643,W,0.03,290.28,120419,,,D*77
$GPGGA,133138.600,4308.3007,N,07726.2643,W,2,08,1.23,160.8,M,-34.4,M,0000,0000*55
lng=-77.437736, lat=43.138347, altitude=160.80, speed=0.03, satellites=8, angle=290.2800, fixquality=2
$GPRMC,133138.800,A,4308.3007,N,07726.2643,W,0.03,290.28,120419,,,D*7B
$GPGGA,133139.000,4308.3007,N,07726.2643,W,2,08,1.23,160.8,M,-34.4,M,0000,0000*52
lng=-77.437736, lat=43.138347, altitude=160.80, speed=0.03, satellites=8, angle=290.2800, fixquality=2
$GPRMC,133139.200,A,4308.3007,N,07726.2643,W,0.02,290.28,120419,,,D*71
$GPGGA,133139.400,4308.3007,N,07726.2643,W,2,08,1.23,160.8,M,-34.4,M,0000,0000*56
lng=-77.437736, lat=43.138347, altitude=160.80, speed=0.02, satellites=8, angle=290.2800, fixquality=2
$GPRMC,133139.600,A,4308.3007,N,07726.2643,W,0.03,290.28,120419,,,D*74
$GPGGA,133139.800,4308.3007,N,07726.2643,W,2,08,1.23,160.8,M,-34.4,M,0000,0000*5A
lng=-77.437736, lat=43.138347, altitude=160.80, speed=0.03, satellites=8, angle=290.2800, fixquality=2
$GPRMC,133140.000,A,4308.3007,N,07726.2643,W,0.09,290.28,120419,,,D*76
$GPGGA,133140.200,4308.3007,N,07726.2643,W,2,08,1.23,160.8,M,-34.4,M,0000,0000*5E
lng=-77.437736, lat=43.138347, altitude=160.80, speed=0.09, satellites=8, angle=290.2800, fixquality=2
$GPRMC,133140.400,A,4308.3007,N,07726.2643,W,0.07,290.28,120419,,,D*7C
$GPGGA,133140.600,4308.3007,N,07726.2643,W,2,08,1.23,160.8,M,-34.4,M,0000,0000*5A
lng=-77.437736, lat=43.138347, altitude=160.80, speed=0.07, satellites=8, angle=290.2800, fixquality=2
$GPRMC,133140.800,A,4308.3007,N,07726.2643,W,0.03,290.28,120419,,,D*74
$GPGGA,133141.000,4308.3007,N,07726.2643,W,2,08,1.23,160.8,M,-34.4,M,0000,0000*5D
lng=-77.437736, lat=43.138347, altitude=160.80, speed=0.03, satellites=8, angle=290.2800, fixquality=2
$GPRMC,133141.200,A,4308.3007,N,07726.2643,W,0.02,290.28,120419,,,D*7E
$GPGGA,133141.400,4308.3007,N,07726.2643,W,2,08,1.23,160.8,M,-34.4,M,0000,0000*59
lng=-77.437736, lat=43.138347, altitude=160.80, speed=0.02, satellites=8, angle=290.2800, fixquality=2
$GPRMC,133141.600,A,4308.3007,N,07726.2643,W,0.04,290.28,120419,,,D*7C
$GPGGA,133141.800,4308.3007,N,07726.2643,W,2,08,1.23,160.8,M,-34.4,M,0000,0000*55
lng=-77.437736, lat=43.138347, altitude=160.80, speed=0.04, satellites=8, angle=290.2800, fixquality=2
$GPRMC,133142.000,A,4308.3007,N,07726.2643,W,0.05,290.28,120419,,,D*78
$GPGGA,133142.200,4308.3007,N,07726.2643,W,2,08,1.23,160.8,M,-34.4,M,0000,0000*5C
lng=-77.437736, lat=43.138347, altitude=160.80, speed=0.05, satellites=8, angle=290.2800, fixquality=2
$GPRMC,133142.400,A,4308.3007,N,07726.2643,W,0.05,290.28,120419,,,D*7C
$GPGGA,133142.600,4308.3008,N,07726.2643,W,2,08,1.23,160.8,M,-34.4,M,0000,0000*57
lng=-77.437736, lat=43.138347, altitude=160.80, speed=0.05, satellites=8, angle=290.2800, fixquality=2
$GPRMC,133142.800,A,4308.3008,N,07726.2643,W,0.13,290.28,120419,,,D*78
$GPGGA,133143.000,4308.3008,N,07726.2643,W,2,08,1.23,160.8,M,-34.4,M,0000,0000*50
lng=-77.437736, lat=43.138347, altitude=160.80, speed=0.13, satellites=8, angle=290.2800, fixquality=2
$GPRMC,133143.200,A,4308.3008,N,07726.2643,W,0.20,290.28,120419,,,D*73
$GPGGA,133143.400,4308.3008,N,07726.2643,W,2,08,1.09,160.7,M,-34.4,M,0000,0000*53
lng=-77.437736, lat=43.138347, altitude=160.80, speed=0.20, satellites=8, angle=290.2800, fixquality=2
$GPRMC,133143.600,A,4308.3008,N,07726.2643,W,0.41,290.28,120419,,,D*70
$GPGGA,133143.800,4308.3008,N,07726.2643,W,2,08,1.23,160.7,M,-34.4,M,0000,0000*57
lng=-77.437736, lat=43.138347, altitude=160.70, speed=0.41, satellites=8, angle=290.2800, fixquality=2
$GPRMC,133144.000,A,4308.3011,N,07726.2641,W,0.80,5.84,120419,,,D*7E
$GPGGA,133144.200,4308.3012,N,07726.2641,W,2,08,1.23,160.5,M,-34.4,M,0000,0000*51
lng=-77.437736, lat=43.138355, altitude=160.70, speed=0.80, satellites=8, angle=5.8400, fixquality=2
$GPRMC,133144.400,A,4308.3014,N,07726.2641,W,0.90,1.52,120419,,,D*71
$GPGGA,133144.600,4308.3016,N,07726.2641,W,2,08,1.23,160.2,M,-34.4,M,0000,0000*56
lng=-77.437736, lat=43.138355, altitude=160.50, speed=0.90, satellites=8, angle=1.5200, fixquality=2
$GPRMC,133144.800,A,4308.3019,N,07726.2640,W,2.43,4.32,120419,,,D*7E
$GPGGA,133145.000,4308.3021,N,07726.2639,W,2,08,1.23,159.9,M,-34.4,M,0000,0000*5B
lng=-77.437736, lat=43.138362, altitude=160.20, speed=2.43, satellites=8, angle=4.3200, fixquality=2
$GPRMC,133145.200,A,4308.3027,N,07726.2635,W,2.85,4.09,120419,,,D*78
$GPGGA,133145.400,4308.3033,N,07726.2632,W,2,08,1.23,159.7,M,-34.4,M,0000,0000*59
lng=-77.437728, lat=43.138378, altitude=159.90, speed=2.85, satellites=8, angle=4.0900, fixquality=2
$GPRMC,133145.600,A,4308.3039,N,07726.2630,W,3.13,6.11,120419,,,D*73
$GPGGA,133145.800,4308.3045,N,07726.2629,W,2,08,1.23,159.4,M,-34.4,M,0000,0000*5D
lng=-77.437721, lat=43.138393, altitude=159.70, speed=3.13, satellites=8, angle=6.1100, fixquality=2
$GPRMC,133146.000,A,4308.3049,N,07726.2627,W,3.40,5.02,120419,,,D*70
$GPGGA,133146.200,4308.3054,N,07726.2626,W,2,08,1.23,159.2,M,-34.4,M,0000,0000*5D
lng=-77.437713, lat=43.138412, altitude=159.40, speed=3.40, satellites=8, angle=5.0200, fixquality=2
$GPRMC,133146.400,A,4308.3059,N,07726.2624,W,3.38,6.15,120419,,,D*7C
$GPGGA,133146.600,4308.3063,N,07726.2623,W,2,08,1.23,159.1,M,-34.4,M,0000,0000*5B
lng=-77.437705, lat=43.138427, altitude=159.20, speed=3.38, satellites=8, angle=6.1500, fixquality=2
$GPRMC,133146.800,A,4308.3067,N,07726.2621,W,3.64,6.44,120419,,,D*75
$GPGGA,133147.000,4308.3071,N,07726.2620,W,2,08,1.23,158.9,M,-34.4,M,0000,0000*55
lng=-77.437705, lat=43.138442, altitude=159.10, speed=3.64, satellites=8, angle=6.4400, fixquality=2
$GPRMC,133147.200,A,4308.3075,N,07726.2619,W,3.65,6.64,120419,,,D*75
$GPGGA,133147.400,4308.3079,N,07726.2618,W,2,08,1.23,158.7,M,-34.4,M,0000,0000*5C
lng=-77.437698, lat=43.138462, altitude=158.90, speed=3.65, satellites=8, angle=6.6400, fixquality=2
$GPRMC,133147.600,A,4308.3082,N,07726.2618,W,3.85,7.80,120419,,,D*7D
$GPGGA,133147.800,4308.3085,N,07726.2617,W,2,08,1.23,158.5,M,-34.4,M,0000,0000*5E
lng=-77.437698, lat=43.138469, altitude=158.70, speed=3.85, satellites=8, angle=7.8000, fixquality=2
$GPRMC,133148.000,A,4308.3088,N,07726.2616,W,4.01,9.61,120419,,,D*7A
$GPGGA,133148.200,4308.3091,N,07726.2615,W,2,08,1.23,158.3,M,-34.4,M,0000,0000*5A
lng=-77.437698, lat=43.138477, altitude=158.50, speed=4.01, satellites=8, angle=9.6100, fixquality=2
$GPRMC,133148.400,A,4308.3094,N,07726.2616,W,4.32,10.06,120419,,,D*4A
$GPGGA,133148.600,4308.3097,N,07726.2615,W,2,08,1.23,158.1,M,-34.4,M,0000,0000*5A
lng=-77.437698, lat=43.138492, altitude=158.30, speed=4.32, satellites=8, angle=10.0600, fixquality=2
$GPRMC,133148.800,A,4308.3100,N,07726.2615,W,4.32,9.44,120419,,,D*77
$GPGGA,133149.000,4308.3103,N,07726.2614,W,2,08,1.23,157.8,M,-34.4,M,0000,0000*56
lng=-77.437698, lat=43.138500, altitude=158.10, speed=4.32, satellites=8, angle=9.4400, fixquality=2
$GPRMC,133149.200,A,4308.3106,N,07726.2614,W,4.23,7.25,120419,,,D*72
$GPGGA,133149.400,4308.3109,N,07726.2613,W,2,08,1.23,157.6,M,-34.4,M,0000,0000*51
lng=-77.437690, lat=43.138507, altitude=157.80, speed=4.23, satellites=8, angle=7.2500, fixquality=2
$GPRMC,133149.600,A,4308.3111,N,07726.2613,W,4.27,4.59,120419,,,D*7B
$GPGGA,133149.800,4308.3114,N,07726.2613,W,2,08,1.23,157.5,M,-34.4,M,0000,0000*52
lng=-77.437690, lat=43.138515, altitude=157.60, speed=4.27, satellites=8, angle=4.5900, fixquality=2
$GPRMC,133150.000,A,4308.3118,N,07726.2612,W,4.36,3.79,120419,,,D*78
$GPGGA,133150.200,4308.3120,N,07726.2612,W,2,08,1.23,157.4,M,-34.4,M,0000,0000*57
lng=-77.437690, lat=43.138534, altitude=157.50, speed=4.36, satellites=8, angle=3.7900, fixquality=2
$GPRMC,133150.400,A,4308.3123,N,07726.2612,W,4.56,5.84,120419,,,D*76
$GPGGA,133150.600,4308.3125,N,07726.2611,W,2,08,1.23,157.3,M,-34.4,M,0000,0000*52
lng=-77.437690, lat=43.138542, altitude=157.40, speed=4.56, satellites=8, angle=5.8400, fixquality=2
$GPRMC,133150.800,A,4308.3128,N,07726.2611,W,4.34,355.71,120419,,,D*7A
$GPGGA,133151.000,4308.3130,N,07726.2612,W,2,08,1.23,157.2,M,-34.4,M,0000,0000*53
lng=-77.437690, lat=43.138549, altitude=157.30, speed=4.34, satellites=8, angle=355.7100, fixquality=2
$GPRMC,133151.200,A,4308.3132,N,07726.2612,W,3.99,355.46,120419,,,D*7D
$GPGGA,133151.400,4308.3136,N,07726.2613,W,2,08,1.23,157.1,M,-34.4,M,0000,0000*53
lng=-77.437690, lat=43.138549, altitude=157.20, speed=3.99, satellites=8, angle=355.4600, fixquality=2
$GPRMC,133151.600,A,4308.3140,N,07726.2614,W,3.95,356.69,120419,,,D*78
$GPGGA,133151.800,4308.3144,N,07726.2613,W,2,08,1.23,157.0,M,-34.4,M,0000,0000*5B
lng=-77.437690, lat=43.138565, altitude=157.10, speed=3.95, satellites=8, angle=356.6900, fixquality=2
$GPRMC,133152.000,A,4308.3148,N,07726.2612,W,3.72,359.74,120419,,,D*79
$GPGGA,133152.200,4308.3152,N,07726.2612,W,2,08,1.23,156.8,M,-34.4,M,0000,0000*5D
lng=-77.437690, lat=43.138584, altitude=157.00, speed=3.72, satellites=8, angle=359.7400, fixquality=2
$GPRMC,133152.400,A,4308.3154,N,07726.2612,W,3.21,2.01,120419,,,D*79
$GPGGA,133152.600,4308.3157,N,07726.2613,W,2,08,1.23,156.6,M,-34.4,M,0000,0000*53
lng=-77.437690, lat=43.138591, altitude=156.80, speed=3.21, satellites=8, angle=2.0100, fixquality=2
$GPRMC,133152.800,A,4308.3159,N,07726.2613,W,2.82,7.13,120419,,,D*77
$GPGGA,133153.000,4308.3161,N,07726.2612,W,2,08,1.23,156.5,M,-34.4,M,0000,0000*53
lng=-77.437690, lat=43.138599, altitude=156.60, speed=2.82, satellites=8, angle=7.1300, fixquality=2
$GPRMC,133153.200,A,4308.3163,N,07726.2611,W,2.76,12.12,120419,,,D*49
$GPGGA,133153.400,4308.3164,N,07726.2611,W,2,08,1.23,156.4,M,-34.4,M,0000,0000*50
lng=-77.437690, lat=43.138607, altitude=156.50, speed=2.76, satellites=8, angle=12.1200, fixquality=2
$GPRMC,133153.600,A,4308.3166,N,07726.2610,W,3.10,16.95,120419,,,D*43
$GPGGA,133153.800,4308.3168,N,07726.2609,W,2,08,1.09,156.3,M,-34.4,M,0000,0000*56
lng=-77.437690, lat=43.138607, altitude=156.40, speed=3.10, satellites=8, angle=16.9500, fixquality=2
$GPRMC,133154.000,A,4308.3170,N,07726.2607,W,3.16,22.26,120419,,,D*4A
$GPGGA,133154.200,4308.3172,N,07726.2606,W,2,08,1.09,156.2,M,-34.4,M,0000,0000*5E
lng=-77.437675, lat=43.138614, altitude=156.30, speed=3.16, satellites=8, angle=22.2600, fixquality=2
$GPRMC,133154.400,A,4308.3174,N,07726.2604,W,3.83,36.95,120419,,,D*48
$GPGGA,133154.600,4308.3175,N,07726.2601,W,2,08,1.09,156.2,M,-34.4,M,0000,0000*5A
lng=-77.437667, lat=43.138622, altitude=156.20, speed=3.83, satellites=8, angle=36.9500, fixquality=2
$GPRMC,133154.800,A,4308.3177,N,07726.2598,W,4.42,51.01,120419,,,D*47
$GPGGA,133155.000,4308.3178,N,07726.2594,W,2,08,1.23,156.1,M,-34.4,M,0000,0000*54
lng=-77.437660, lat=43.138629, altitude=156.20, speed=4.42, satellites=8, angle=51.0100, fixquality=2
$GPRMC,133155.200,A,4308.3179,N,07726.2591,W,4.45,64.56,120419,,,D*48
$GPGGA,133155.400,4308.3181,N,07726.2588,W,2,08,1.23,156.0,M,-34.4,M,0000,0000*5A
lng=-77.437652, lat=43.138629, altitude=156.10, speed=4.45, satellites=8, angle=64.5600, fixquality=2
$GPRMC,133155.600,A,4308.3182,N,07726.2587,W,4.19,71.68,120419,,,D*4F
$GPGGA,133155.800,4308.3183,N,07726.2584,W,2,08,1.23,155.9,M,-34.4,M,0000,0000*52
lng=-77.437644, lat=43.138637, altitude=156.00, speed=4.19, satellites=8, angle=71.6800, fixquality=2
$GPRMC,133156.000,A,4308.3184,N,07726.2580,W,4.10,80.12,120419,,,D*41
$GPGGA,133156.200,4308.3184,N,07726.2577,W,2,08,1.09,155.8,M,-34.4,M,0000,0000*59
lng=-77.437629, lat=43.138637, altitude=155.90, speed=4.10, satellites=8, angle=80.1200, fixquality=2
$GPRMC,133156.400,A,4308.3184,N,07726.2575,W,3.86,84.62,120419,,,D*44
$GPGGA,133156.600,4308.3185,N,07726.2573,W,2,08,1.09,155.7,M,-34.4,M,0000,0000*57
lng=-77.437622, lat=43.138637, altitude=155.80, speed=3.86, satellites=8, angle=84.6200, fixquality=2
$GPRMC,133156.800,A,4308.3185,N,07726.2570,W,3.74,81.84,120419,,,D*4C
$GPGGA,133157.000,4308.3185,N,07726.2567,W,2,08,1.09,155.6,M,-34.4,M,0000,0000*54
lng=-77.437614, lat=43.138637, altitude=155.70, speed=3.74, satellites=8, angle=81.8400, fixquality=2
$GPRMC,133157.200,A,4308.3186,N,07726.2565,W,2.57,80.04,120419,,,D*49
$GPGGA,133157.400,4308.3186,N,07726.2563,W,2,08,1.09,155.6,M,-34.4,M,0000,0000*57
lng=-77.437606, lat=43.138637, altitude=155.60, speed=2.57, satellites=8, angle=80.0400, fixquality=2
$GPRMC,133157.600,A,4308.3185,N,07726.2561,W,1.73,74.53,120419,,,D*46
$GPGGA,133157.800,4308.3183,N,07726.2558,W,2,08,1.09,155.5,M,-34.4,M,0000,0000*55
lng=-77.437599, lat=43.138637, altitude=155.60, speed=1.73, satellites=8, angle=74.5300, fixquality=2
$GPRMC,133158.000,A,4308.3182,N,07726.2557,W,1.23,66.59,120419,,,D*41
$GPGGA,133158.200,4308.3181,N,07726.2557,W,2,08,1.09,155.3,M,-34.4,M,0000,0000*5B
lng=-77.437599, lat=43.138637, altitude=155.50, speed=1.23, satellites=8, angle=66.5900, fixquality=2
$GPRMC,133158.400,A,4308.3181,N,07726.2556,W,1.08,54.48,120419,,,D*4F
$GPGGA,133158.600,4308.3182,N,07726.2556,W,2,08,1.09,155.3,M,-34.4,M,0000,0000*5D
lng=-77.437591, lat=43.138629, altitude=155.30, speed=1.08, satellites=8, angle=54.4800, fixquality=2
$GPRMC,133158.800,A,4308.3183,N,07726.2556,W,0.89,31.17,120419,,,D*40
$GPGGA,133159.000,4308.3183,N,07726.2556,W,2,08,1.09,155.2,M,-34.4,M,0000,0000*5A
lng=-77.437591, lat=43.138637, altitude=155.30, speed=0.89, satellites=8, angle=31.1700, fixquality=2
$GPRMC,133159.200,A,4308.3183,N,07726.2556,W,0.89,12.55,120419,,,D*4C
$GPGGA,133159.400,4308.3183,N,07726.2557,W,2,08,1.23,155.1,M,-34.4,M,0000,0000*54
lng=-77.437591, lat=43.138637, altitude=155.20, speed=0.89, satellites=8, angle=12.5500, fixquality=2
$GPRMC,133159.600,A,4308.3182,N,07726.2559,W,0.85,338.13,120419,,,D*73
$GPGGA,133159.800,4308.3182,N,07726.2560,W,2,08,1.09,155.0,M,-34.4,M,0000,0000*54
lng=-77.437599, lat=43.138637, altitude=155.10, speed=0.85, satellites=8, angle=338.1300, fixquality=2
$GPRMC,133200.000,A,4308.3182,N,07726.2562,W,1.30,314.43,120419,,,D*76
$GPGGA,133200.200,4308.3182,N,07726.2563,W,2,08,1.09,154.9,M,-34.4,M,0000,0000*5A
lng=-77.437606, lat=43.138637, altitude=155.00, speed=1.30, satellites=8, angle=314.4300, fixquality=2
$GPRMC,133200.400,A,4308.3182,N,07726.2565,W,2.38,294.22,120419,,,D*70
$GPGGA,133200.600,4308.3181,N,07726.2568,W,2,08,1.09,154.7,M,-34.4,M,0000,0000*58
lng=-77.437606, lat=43.138637, altitude=154.90, speed=2.38, satellites=8, angle=294.2200, fixquality=2
$GPRMC,133200.800,A,4308.3181,N,07726.2572,W,4.21,271.11,120419,,,D*7C
$GPGGA,133201.000,4308.3183,N,07726.2578,W,2,08,1.23,154.7,M,-34.4,M,0000,0000*54
lng=-77.437622, lat=43.138629, altitude=154.70, speed=4.21, satellites=8, angle=271.1100, fixquality=2
$GPRMC,133201.200,A,4308.3184,N,07726.2582,W,5.75,276.11,120419,,,D*7A
$GPGGA,133201.400,4308.3186,N,07726.2586,W,2,08,1.23,154.7,M,-34.4,M,0000,0000*54
lng=-77.437637, lat=43.138637, altitude=154.70, speed=5.75, satellites=8, angle=276.1100, fixquality=2
$GPRMC,133201.600,A,4308.3187,N,07726.2592,W,7.01,279.95,120419,,,D*7E
$GPGGA,133201.800,4308.3188,N,07726.2597,W,2,08,1.23,154.7,M,-34.4,M,0000,0000*56
lng=-77.437652, lat=43.138648, altitude=154.70, speed=7.01, satellites=8, angle=279.9500, fixquality=2
$GPRMC,133202.000,A,4308.3189,N,07726.2603,W,8.35,280.14,120419,,,D*79
$GPGGA,133202.200,4308.3189,N,07726.2610,W,2,08,1.09,154.7,M,-34.4,M,0000,0000*5A
lng=-77.437667, lat=43.138648, altitude=154.70, speed=8.35, satellites=8, angle=280.1400, fixquality=2
$GPRMC,133202.400,A,4308.3191,N,07726.2617,W,9.36,280.60,120419,,,D*70
$GPGGA,133202.600,4308.3191,N,07726.2624,W,2,07,1.60,154.7,M,-34.4,M,0000,0000*50
lng=-77.437698, lat=43.138656, altitude=154.70, speed=9.36, satellites=8, angle=280.6000, fixquality=2
$GPRMC,133202.800,A,4308.3192,N,07726.2632,W,10.38,279.44,120419,,,D*4E
$GPGGA,133203.000,4308.3193,N,07726.2640,W,2,08,1.23,154.7,M,-34.4,M,0000,0000*5F
lng=-77.437721, lat=43.138656, altitude=154.70, speed=10.38, satellites=7, angle=279.4400, fixquality=2
$GPRMC,133203.200,A,4308.3194,N,07726.2648,W,11.42,278.44,120419,,,D*43
$GPGGA,133203.400,4308.3195,N,07726.2657,W,2,08,1.23,154.7,M,-34.4,M,0000,0000*5B
lng=-77.437744, lat=43.138656, altitude=154.70, speed=11.42, satellites=8, angle=278.4400, fixquality=2
$GPRMC,133203.600,A,4308.3196,N,07726.2666,W,12.41,280.18,120419,,,D*47
$GPGGA,133203.800,4308.3197,N,07726.2676,W,2,08,1.23,154.8,M,-34.4,M,0000,0000*59
lng=-77.437774, lat=43.138664, altitude=154.70, speed=12.41, satellites=8, angle=280.1800, fixquality=2
$GPRMC,133204.000,A,4308.3199,N,07726.2685,W,13.32,282.51,120419,,,D*4E
$GPGGA,133204.200,4308.3201,N,07726.2694,W,2,08,1.23,154.8,M,-34.4,M,0000,0000*54
lng=-77.437812, lat=43.138664, altitude=154.80, speed=13.32, satellites=8, angle=282.5100, fixquality=2
$GPRMC,133204.400,A,4308.3202,N,07726.2704,W,14.08,283.66,120419,,,D*48
$GPGGA,133204.600,4308.3204,N,07726.2714,W,2,08,1.23,154.8,M,-34.4,M,0000,0000*5C
lng=-77.437843, lat=43.138671, altitude=154.80, speed=14.08, satellites=8, angle=283.6600, fixquality=2
$GPRMC,133204.800,A,4308.3206,N,07726.2725,W,14.83,285.22,120419,,,D*46
$GPGGA,133205.000,4308.3209,N,07726.2735,W,2,08,1.23,154.8,M,-34.4,M,0000,0000*55
lng=-77.437873, lat=43.138679, altitude=154.80, speed=14.83, satellites=8, angle=285.2200, fixquality=2
$GPRMC,133205.200,A,4308.3212,N,07726.2746,W,15.55,287.02,120419,,,D*47
$GPGGA,133205.400,4308.3214,N,07726.2758,W,2,07,1.38,154.8,M,-34.4,M,0000,0000*53
lng=-77.437904, lat=43.138687, altitude=154.80, speed=15.55, satellites=8, angle=287.0200, fixquality=2
$GPRMC,133205.600,A,4308.3217,N,07726.2769,W,16.30,287.69,120419,,,D*46
$GPGGA,133205.800,4308.3219,N,07726.2781,W,2,08,1.23,154.8,M,-34.4,M,0000,0000*53
lng=-77.437950, lat=43.138694, altitude=154.80, speed=16.30, satellites=7, angle=287.6900, fixquality=2
$GPRMC,133206.000,A,4308.3223,N,07726.2794,W,16.77,287.59,120419,,,D*46
$GPGGA,133206.200,4308.3226,N,07726.2807,W,2,08,1.09,154.8,M,-34.4,M,0000,0000*5F
lng=-77.437988, lat=43.138706, altitude=154.80, speed=16.77, satellites=8, angle=287.5900, fixquality=2
$GPRMC,133206.400,A,4308.3230,N,07726.2820,W,17.50,288.37,120419,,,D*43
$GPGGA,133206.600,4308.3233,N,07726.2833,W,2,08,1.09,154.8,M,-34.4,M,0000,0000*58
lng=-77.438034, lat=43.138713, altitude=154.80, speed=17.50, satellites=8, angle=288.3700, fixquality=2
$GPRMC,133206.800,A,4308.3236,N,07726.2846,W,17.54,288.75,120419,,,D*4B
$GPGGA,133207.000,4308.3240,N,07726.2860,W,2,08,1.23,154.8,M,-34.4,M,0000,0000*55
lng=-77.438079, lat=43.138729, altitude=154.80, speed=17.54, satellites=8, angle=288.7500, fixquality=2
$GPRMC,133207.200,A,4308.3244,N,07726.2873,W,17.91,289.63,120419,,,D*4C
$GPGGA,133207.400,4308.3248,N,07726.2886,W,2,08,1.09,154.8,M,-34.4,M,0000,0000*59
lng=-77.438117, lat=43.138736, altitude=154.80, speed=17.91, satellites=8, angle=289.6300, fixquality=2
$GPRMC,133207.600,A,4308.3252,N,07726.2899,W,17.93,292.08,120419,,,D*4E
$GPGGA,133207.800,4308.3255,N,07726.2912,W,2,08,1.23,154.8,M,-34.4,M,0000,0000*5D
lng=-77.438163, lat=43.138751, altitude=154.80, speed=17.93, satellites=8, angle=292.0800, fixquality=2
$GPRMC,133208.000,A,4308.3258,N,07726.2925,W,18.21,292.93,120419,,,D*4F
$GPGGA,133208.200,4308.3262,N,07726.2939,W,2,08,1.09,154.8,M,-34.4,M,0000,0000*5D
lng=-77.438209, lat=43.138759, altitude=154.80, speed=18.21, satellites=8, angle=292.9300, fixquality=2
$GPRMC,133208.400,A,4308.3266,N,07726.2952,W,18.60,293.80,120419,,,D*40
$GPGGA,133208.600,4308.3270,N,07726.2965,W,2,08,1.09,154.9,M,-34.4,M,0000,0000*52
lng=-77.438255, lat=43.138778, altitude=154.80, speed=18.60, satellites=8, angle=293.8000, fixquality=2
$GPRMC,133208.800,A,4308.3274,N,07726.2979,W,18.98,294.20,120419,,,D*4C
$GPGGA,133209.000,4308.3279,N,07726.2993,W,2,08,1.23,154.8,M,-34.4,M,0000,0000*5C
lng=-77.438301, lat=43.138793, altitude=154.90, speed=18.98, satellites=8, angle=294.2000, fixquality=2
$GPRMC,133209.200,A,4308.3284,N,07726.3007,W,19.68,294.82,120419,,,D*4F
$GPGGA,133209.400,4308.3290,N,07726.3021,W,2,08,1.09,154.8,M,-34.4,M,0000,0000*56
lng=-77.438346, lat=43.138809, altitude=154.80, speed=19.68, satellites=8, angle=294.8200, fixquality=2
$GPRMC,133209.600,A,4308.3295,N,07726.3036,W,20.33,296.40,120419,,,D*41
$GPGGA,133209.800,4308.3300,N,07726.3050,W,2,08,1.23,154.8,M,-34.4,M,0000,0000*5C
lng=-77.438392, lat=43.138828, altitude=154.80, speed=20.33, satellites=8, angle=296.4000, fixquality=2
$GPRMC,133210.000,A,4308.3305,N,07726.3064,W,20.39,298.40,120419,,,D*44
$GPGGA,133210.200,4308.3310,N,07726.3078,W,2,08,1.09,154.9,M,-34.4,M,0000,0000*5C
lng=-77.438446, lat=43.138843, altitude=154.80, speed=20.39, satellites=8, angle=298.4000, fixquality=2
$GPRMC,133210.400,A,4308.3316,N,07726.3093,W,20.83,300.13,120419,,,D*4D
$GPGGA,133210.600,4308.3322,N,07726.3107,W,2,08,1.23,154.9,M,-34.4,M,0000,0000*58
lng=-77.438484, lat=43.138858, altitude=154.90, speed=20.83, satellites=8, angle=300.1300, fixquality=2
$GPRMC,133210.800,A,4308.3328,N,07726.3122,W,21.42,300.77,120419,,,D*49
$GPGGA,133211.000,4308.3334,N,07726.3137,W,2,08,1.23,154.9,M,-34.4,M,0000,0000*5B
lng=-77.438529, lat=43.138881, altitude=154.90, speed=21.42, satellites=8, angle=300.7700, fixquality=2
$GPRMC,133211.200,A,4308.3340,N,07726.3152,W,21.94,301.17,120419,,,D*47
$GPGGA,133211.400,4308.3346,N,07726.3167,W,2,08,1.23,155.0,M,-34.4,M,0000,0000*57
lng=-77.438591, lat=43.138900, altitude=154.90, speed=21.94, satellites=8, angle=301.1700, fixquality=2
$GPRMC,133211.600,A,4308.3353,N,07726.3182,W,22.48,301.15,120419,,,D*4C
$GPGGA,133211.800,4308.3360,N,07726.3197,W,2,08,1.23,155.1,M,-34.4,M,0000,0000*51
lng=-77.438636, lat=43.138923, altitude=155.00, speed=22.48, satellites=8, angle=301.1500, fixquality=2
$GPRMC,133212.000,A,4308.3367,N,07726.3213,W,23.03,301.52,120419,,,D*48
$GPGGA,133212.200,4308.3373,N,07726.3228,W,2,08,1.09,155.2,M,-34.4,M,0000,0000*56
lng=-77.438690, lat=43.138950, altitude=155.10, speed=23.03, satellites=8, angle=301.5200, fixquality=2
$GPRMC,133212.400,A,4308.3380,N,07726.3243,W,23.40,301.89,120419,,,D*41
$GPGGA,133212.600,4308.3387,N,07726.3260,W,2,08,1.23,155.3,M,-34.4,M,0000,0000*5C
lng=-77.438735, lat=43.138965, altitude=155.20, speed=23.40, satellites=8, angle=301.8900, fixquality=2
$GPRMC,133212.800,A,4308.3395,N,07726.3276,W,23.85,303.02,120419,,,D*47
$GPGGA,133213.000,4308.3402,N,07726.3292,W,2,08,1.23,155.4,M,-34.4,M,0000,0000*5B
lng=-77.438796, lat=43.138988, altitude=155.30, speed=23.85, satellites=8, angle=303.0200, fixquality=2
$GPRMC,133213.200,A,4308.3410,N,07726.3308,W,24.15,303.59,120419,,,D*4E
$GPGGA,133213.400,4308.3417,N,07726.3324,W,2,08,1.09,155.5,M,-34.4,M,0000,0000*5E
lng=-77.438842, lat=43.139015, altitude=155.40, speed=24.15, satellites=8, angle=303.5900, fixquality=2
$GPRMC,133213.600,A,4308.3425,N,07726.3341,W,24.39,304.35,120419,,,D*42
$GPGGA,133213.800,4308.3433,N,07726.3357,W,2,08,1.23,155.7,M,-34.4,M,0000,0000*5A
lng=-77.438896, lat=43.139038, altitude=155.50, speed=24.39, satellites=8, angle=304.3500, fixquality=2
$GPRMC,133214.000,A,4308.3441,N,07726.3373,W,24.42,304.85,120419,,,D*47
$GPGGA,133214.200,4308.3449,N,07726.3389,W,2,08,1.09,155.8,M,-34.4,M,0000,0000*5E
lng=-77.438957, lat=43.139072, altitude=155.70, speed=24.42, satellites=8, angle=304.8500, fixquality=2
$GPRMC,133214.400,A,4308.3457,N,07726.3405,W,24.43,305.20,120419,,,D*4D
$GPGGA,133214.600,4308.3465,N,07726.3421,W,2,08,1.23,155.9,M,-34.4,M,0000,0000*58
lng=-77.439002, lat=43.139095, altitude=155.80, speed=24.43, satellites=8, angle=305.2000, fixquality=2
$GPRMC,133214.800,A,4308.3473,N,07726.3437,W,24.47,305.23,120419,,,D*41
$GPGGA,133215.000,4308.3481,N,07726.3453,W,2,08,1.09,156.0,M,-34.4,M,0000,0000*52
lng=-77.439064, lat=43.139118, altitude=155.90, speed=24.47, satellites=8, angle=305.2300, fixquality=2
$GPRMC,133215.200,A,4308.3489,N,07726.3469,W,24.47,304.36,120419,,,D*41
$GPGGA,133215.400,4308.3498,N,07726.3485,W,2,08,1.09,156.1,M,-34.4,M,0000,0000*54
lng=-77.439109, lat=43.139152, altitude=156.00, speed=24.47, satellites=8, angle=304.3600, fixquality=2
$GPRMC,133215.600,A,4308.3506,N,07726.3501,W,25.05,306.84,120419,,,D*40
$GPGGA,133215.800,4308.3516,N,07726.3517,W,2,08,1.09,156.3,M,-34.4,M,0000,0000*57
lng=-77.439170, lat=43.139175, altitude=156.10, speed=25.05, satellites=8, angle=306.8400, fixquality=2
$GPRMC,133216.000,A,4308.3525,N,07726.3533,W,25.49,307.99,120419,,,D*40
$GPGGA,133216.200,4308.3534,N,07726.3549,W,2,08,1.09,156.4,M,-34.4,M,0000,0000*52
lng=-77.439224, lat=43.139209, altitude=156.30, speed=25.49, satellites=8, angle=307.9900, fixquality=2
$GPRMC,133216.400,A,4308.3544,N,07726.3565,W,25.54,310.60,120419,,,D*4C
$GPGGA,133216.600,4308.3554,N,07726.3580,W,2,08,1.23,156.5,M,-34.4,M,0000,0000*5C
lng=-77.439277, lat=43.139240, altitude=156.40, speed=25.54, satellites=8, angle=310.6000, fixquality=2
$GPRMC,133216.800,A,4308.3565,N,07726.3595,W,25.27,315.30,120419,,,D*48
$GPGGA,133217.000,4308.3576,N,07726.3609,W,2,08,1.23,156.6,M,-34.4,M,0000,0000*5A
lng=-77.439323, lat=43.139274, altitude=156.50, speed=25.27, satellites=8, angle=315.3000, fixquality=2
$GPRMC,133217.200,A,4308.3587,N,07726.3622,W,25.27,319.91,120419,,,D*47
$GPGGA,133217.400,4308.3599,N,07726.3635,W,2,08,1.09,156.7,M,-34.4,M,0000,0000*59
lng=-77.439369, lat=43.139316, altitude=156.60, speed=25.27, satellites=8, angle=319.9100, fixquality=2
$GPRMC,133217.600,A,4308.3610,N,07726.3647,W,24.93,323.43,120419,,,D*45
$GPGGA,133217.800,4308.3622,N,07726.3658,W,2,08,1.23,156.8,M,-34.4,M,0000,0000*5A
lng=-77.439414, lat=43.139347, altitude=156.70, speed=24.93, satellites=8, angle=323.4300, fixquality=2
$GPRMC,133218.000,A,4308.3633,N,07726.3668,W,24.38,327.34,120419,,,D*45
$GPGGA,133218.200,4308.3645,N,07726.3678,W,2,08,1.09,156.9,M,-34.4,M,0000,0000*55
lng=-77.439445, lat=43.139389, altitude=156.80, speed=24.38, satellites=8, angle=327.3400, fixquality=2
$GPRMC,133218.400,A,4308.3657,N,07726.3688,W,24.39,327.61,120419,,,D*4C
$GPGGA,133218.600,4308.3669,N,07726.3697,W,2,08,1.09,157.0,M,-34.4,M,0000,0000*56
lng=-77.439476, lat=43.139427, altitude=156.90, speed=24.39, satellites=8, angle=327.6100, fixquality=2
$GPRMC,133218.800,A,4308.3681,N,07726.3707,W,24.32,329.40,120419,,,D*4B
$GPGGA,133219.000,4308.3693,N,07726.3715,W,2,08,1.09,157.2,M,-34.4,M,0000,0000*5D
lng=-77.439506, lat=43.139469, altitude=157.00, speed=24.32, satellites=8, angle=329.4000, fixquality=2
$GPRMC,133219.200,A,4308.3705,N,07726.3724,W,24.30,331.14,120419,,,D*46
$GPGGA,133219.400,4308.3718,N,07726.3732,W,2,08,1.09,157.3,M,-34.4,M,0000,0000*5F
lng=-77.439544, lat=43.139511, altitude=157.20, speed=24.30, satellites=8, angle=331.1400, fixquality=2
$GPRMC,133219.600,A,4308.3730,N,07726.3739,W,24.01,334.13,120419,,,D*48
$GPGGA,133219.800,4308.3743,N,07726.3746,W,2,08,1.09,157.4,M,-34.4,M,0000,0000*59
lng=-77.439567, lat=43.139549, altitude=157.30, speed=24.01, satellites=8, angle=334.1300, fixquality=2
$GPRMC,133220.000,A,4308.3756,N,07726.3752,W,23.60,337.51,120419,,,D*4C
$GPGGA,133220.200,4308.3768,N,07726.3757,W,2,08,1.09,157.5,M,-34.4,M,0000,0000*51
lng=-77.439582, lat=43.139591, altitude=157.40, speed=23.60, satellites=8, angle=337.5100, fixquality=2
$GPRMC,133220.400,A,4308.3781,N,07726.3762,W,22.91,340.68,120419,,,D*44
$GPGGA,133220.600,4308.3793,N,07726.3767,W,2,08,1.09,157.5,M,-34.4,M,0000,0000*52
lng=-77.439598, lat=43.139633, altitude=157.50, speed=22.91, satellites=8, angle=340.6800, fixquality=2
$GPRMC,133220.800,A,4308.3806,N,07726.3771,W,22.73,343.94,120419,,,D*46
$GPGGA,133221.000,4308.3819,N,07726.3772,W,2,07,1.31,157.7,M,-34.4,M,0000,0000*5A
lng=-77.439613, lat=43.139671, altitude=157.50, speed=22.73, satellites=8, angle=343.9400, fixquality=2
$GPRMC,133221.200,A,4308.3832,N,07726.3774,W,22.19,349.29,120419,,,D*4F
$GPGGA,133221.400,4308.3845,N,07726.3775,W,2,08,1.23,157.8,M,-34.4,M,0000,0000*53
lng=-77.439620, lat=43.139720, altitude=157.70, speed=22.19, satellites=7, angle=349.2900, fixquality=2
$GPRMC,133221.600,A,4308.3858,N,07726.3774,W,21.89,355.42,120419,,,D*4D
$GPGGA,133221.800,4308.3871,N,07726.3773,W,2,07,1.42,158.0,M,-34.4,M,0000,0000*51
lng=-77.439620, lat=43.139762, altitude=157.80, speed=21.89, satellites=8, angle=355.4200, fixquality=2
$GPRMC,133222.000,A,4308.3884,N,07726.3773,W,22.10,359.06,120419,,,D*41
$GPGGA,133222.200,4308.3898,N,07726.3773,W,2,08,1.23,158.0,M,-34.4,M,0000,0000*57
lng=-77.439620, lat=43.139804, altitude=158.00, speed=22.10, satellites=7, angle=359.0600, fixquality=2
$GPRMC,133222.400,A,4308.3911,N,07726.3771,W,22.35,1.87,120419,,,D*4A
$GPGGA,133222.600,4308.3924,N,07726.3768,W,2,08,1.23,158.0,M,-34.4,M,0000,0000*5F
lng=-77.439613, lat=43.139850, altitude=158.00, speed=22.35, satellites=8, angle=1.8700, fixquality=2
$GPRMC,133222.800,A,4308.3937,N,07726.3766,W,22.65,4.28,120419,,,D*41
$GPGGA,133223.000,4308.3950,N,07726.3764,W,2,08,1.23,158.1,M,-34.4,M,0000,0000*56
lng=-77.439605, lat=43.139892, altitude=158.00, speed=22.65, satellites=8, angle=4.2800, fixquality=2
$GPRMC,133223.200,A,4308.3964,N,07726.3762,W,23.01,4.67,120419,,,D*40
$GPGGA,133223.400,4308.3977,N,07726.3761,W,2,07,1.42,158.0,M,-34.4,M,0000,0000*5B
lng=-77.439598, lat=43.139942, altitude=158.10, speed=23.01, satellites=8, angle=4.6700, fixquality=2
$GPRMC,133223.600,A,4308.3991,N,07726.3759,W,23.26,5.81,120419,,,D*4A
$GPGGA,133223.800,4308.4004,N,07726.3757,W,2,07,1.42,158.1,M,-34.4,M,0000,0000*59
lng=-77.439598, lat=43.139980, altitude=158.00, speed=23.26, satellites=7, angle=5.8100, fixquality=2
$GPRMC,133224.000,A,4308.4018,N,07726.3754,W,23.32,6.49,120419,,,D*4B
$GPGGA,133224.200,4308.4031,N,07726.3752,W,2,08,1.23,158.1,M,-34.4,M,0000,0000*5F
lng=-77.439590, lat=43.140029, altitude=158.10, speed=23.32, satellites=7, angle=6.4900, fixquality=2
$GPRMC,133224.400,A,4308.4043,N,07726.3750,W,23.30,6.75,120419,,,D*48
$GPGGA,133224.600,4308.4056,N,07726.3748,W,2,08,1.23,158.1,M,-34.4,M,0000,0000*51
lng=-77.439582, lat=43.140071, altitude=158.10, speed=23.30, satellites=8, angle=6.7500, fixquality=2
$GPRMC,133224.800,A,4308.4069,N,07726.3746,W,23.22,6.86,120419,,,D*44
$GPGGA,133225.000,4308.4082,N,07726.3744,W,2,08,1.23,158.0,M,-34.4,M,0000,0000*52
lng=-77.439575, lat=43.140113, altitude=158.10, speed=23.22, satellites=8, angle=6.8600, fixquality=2
$GPRMC,133225.200,A,4308.4095,N,07726.3742,W,22.94,7.04,120419,,,D*4F
$GPGGA,133225.400,4308.4107,N,07726.3739,W,2,08,1.23,158.0,M,-34.4,M,0000,0000*50
lng=-77.439567, lat=43.140159, altitude=158.00, speed=22.94, satellites=8, angle=7.0400, fixquality=2
$GPRMC,133225.600,A,4308.4120,N,07726.3737,W,22.70,7.92,120419,,,D*43
$GPGGA,133225.800,4308.4132,N,07726.3733,W,2,07,1.42,158.0,M,-34.4,M,0000,0000*58
lng=-77.439559, lat=43.140201, altitude=158.00, speed=22.70, satellites=8, angle=7.9200, fixquality=2
$GPRMC,133226.000,A,4308.4145,N,07726.3730,W,22.44,8.48,120419,,,D*4D
$GPGGA,133226.200,4308.4157,N,07726.3728,W,2,07,1.42,158.0,M,-34.4,M,0000,0000*58
lng=-77.439552, lat=43.140243, altitude=158.00, speed=22.44, satellites=7, angle=8.4800, fixquality=2
$GPRMC,133226.400,A,4308.4170,N,07726.3725,W,22.23,8.63,120419,,,D*43
$GPGGA,133226.600,4308.4182,N,07726.3722,W,2,07,1.42,158.1,M,-34.4,M,0000,0000*5F
lng=-77.439544, lat=43.140281, altitude=158.00, speed=22.23, satellites=7, angle=8.6300, fixquality=2
$GPRMC,133226.800,A,4308.4195,N,07726.3719,W,22.19,8.50,120419,,,D*42
$GPGGA,133227.000,4308.4208,N,07726.3717,W,2,07,1.42,158.2,M,-34.4,M,0000,0000*5C
lng=-77.439537, lat=43.140323, altitude=158.10, speed=22.19, satellites=7, angle=8.5000, fixquality=2
$GPRMC,133227.200,A,4308.4220,N,07726.3714,W,22.17,8.77,120419,,,D*42
$GPGGA,133227.400,4308.4233,N,07726.3711,W,2,07,1.42,158.3,M,-34.4,M,0000,0000*57
lng=-77.439529, lat=43.140365, altitude=158.20, speed=22.17, satellites=7, angle=8.7700, fixquality=2
$GPRMC,133227.600,A,4308.4246,N,07726.3708,W,22.48,8.04,120419,,,D*45
$GPGGA,133227.800,4308.4259,N,07726.3705,W,2,07,1.42,158.3,M,-34.4,M,0000,0000*52
lng=-77.439506, lat=43.140415, altitude=158.30, speed=22.48, satellites=7, angle=8.0400, fixquality=2
$GPRMC,133228.000,A,4308.4272,N,07726.3702,W,22.62,8.46,120419,,,D*4F
$GPGGA,133228.200,4308.4285,N,07726.3699,W,2,08,1.23,158.3,M,-34.4,M,0000,0000*5A
lng=-77.439498, lat=43.140453, altitude=158.30, speed=22.62, satellites=7, angle=8.4600, fixquality=2
$GPRMC,133228.400,A,4308.4298,N,07726.3696,W,22.69,8.66,120419,,,D*4A
$GPGGA,133228.600,4308.4310,N,07726.3692,W,2,07,1.42,158.4,M,-34.4,M,0000,0000*57
lng=-77.439491, lat=43.140495, altitude=158.30, speed=22.69, satellites=8, angle=8.6600, fixquality=2
$GPRMC,133228.800,A,4308.4323,N,07726.3689,W,22.67,9.09,120419,,,D*4F
$GPGGA,133229.000,4308.4335,N,07726.3686,W,2,07,1.42,158.4,M,-34.4,M,0000,0000*52
lng=-77.439483, lat=43.140537, altitude=158.40, speed=22.67, satellites=7, angle=9.0900, fixquality=2
$GPRMC,133229.200,A,4308.4348,N,07726.3683,W,22.42,9.54,120419,,,D*4C
$GPGGA,133229.400,4308.4359,N,07726.3681,W,2,08,1.23,158.4,M,-34.4,M,0000,0000*53
lng=-77.439468, lat=43.140575, altitude=158.40, speed=22.42, satellites=7, angle=9.5400, fixquality=2
$GPRMC,133229.600,A,4308.4371,N,07726.3678,W,21.47,9.12,120419,,,D*42
$GPGGA,133229.800,4308.4383,N,07726.3675,W,2,08,1.23,158.4,M,-34.4,M,0000,0000*53
lng=-77.439460, lat=43.140617, altitude=158.40, speed=21.47, satellites=8, angle=9.1200, fixquality=2
$GPRMC,133230.000,A,4308.4395,N,07726.3673,W,21.24,9.66,120419,,,D*4B
$GPGGA,133230.200,4308.4407,N,07726.3670,W,2,07,1.42,158.4,M,-34.4,M,0000,0000*57
lng=-77.439453, lat=43.140659, altitude=158.40, speed=21.24, satellites=8, angle=9.6600, fixquality=2
$GPRMC,133230.400,A,4308.4419,N,07726.3667,W,20.63,9.19,120419,,,D*43
$GPGGA,133230.600,4308.4430,N,07726.3665,W,2,06,1.73,158.4,M,-34.4,M,0000,0000*50
lng=-77.439445, lat=43.140697, altitude=158.40, speed=20.63, satellites=7, angle=9.1900, fixquality=2
$GPRMC,133230.800,A,4308.4442,N,07726.3662,W,19.93,9.73,120419,,,D*4D
$GPGGA,133231.000,4308.4453,N,07726.3659,W,2,06,1.73,158.3,M,-34.4,M,0000,0000*5A
lng=-77.439437, lat=43.140739, altitude=158.40, speed=19.93, satellites=6, angle=9.7300, fixquality=2
$GPRMC,133231.200,A,4308.4464,N,07726.3656,W,18.72,10.48,120419,,,D*7B
$GPGGA,133231.400,4308.4474,N,07726.3653,W,2,08,1.23,158.6,M,-34.4,M,0000,0000*5F
lng=-77.439430, lat=43.140769, altitude=158.30, speed=18.72, satellites=6, angle=10.4800, fixquality=2
$GPRMC,133231.600,A,4308.4484,N,07726.3650,W,17.06,10.94,120419,,,D*7A
$GPGGA,133231.800,4308.4493,N,07726.3647,W,2,08,1.23,158.3,M,-34.4,M,0000,0000*5A
lng=-77.439422, lat=43.140804, altitude=158.60, speed=17.06, satellites=8, angle=10.9400, fixquality=2
$GPRMC,133232.000,A,4308.4502,N,07726.3643,W,15.60,11.55,120419,,,D*7C
$GPGGA,133232.200,4308.4511,N,07726.3641,W,2,08,1.23,158.4,M,-34.4,M,0000,0000*59
lng=-77.439407, lat=43.140834, altitude=158.30, speed=15.60, satellites=8, angle=11.5500, fixquality=2
$GPRMC,133232.400,A,4308.4519,N,07726.3639,W,14.01,11.98,120419,,,D*78
$GPGGA,133232.600,4308.4526,N,07726.3638,W,2,08,1.23,158.2,M,-34.4,M,0000,0000*51
lng=-77.439399, lat=43.140861, altitude=158.40, speed=14.01, satellites=8, angle=11.9800, fixquality=2
$GPRMC,133232.800,A,4308.4533,N,07726.3637,W,11.73,10.80,120419,,,D*7A
$GPGGA,133233.000,4308.4539,N,07726.3635,W,2,08,1.23,158.1,M,-34.4,M,0000,0000*56
lng=-77.439399, lat=43.140884, altitude=158.20, speed=11.73, satellites=8, angle=10.8000, fixquality=2
$GPRMC,133233.200,A,4308.4545,N,07726.3633,W,10.19,11.40,120419,,,D*74
$GPGGA,133233.400,4308.4549,N,07726.3631,W,2,08,1.23,158.1,M,-34.4,M,0000,0000*51
lng=-77.439384, lat=43.140911, altitude=158.10, speed=10.19, satellites=8, angle=11.4000, fixquality=2
$GPRMC,133233.600,A,4308.4554,N,07726.3629,W,8.14,10.74,120419,,,D*49
$GPGGA,133233.800,4308.4557,N,07726.3628,W,2,08,1.23,158.2,M,-34.4,M,0000,0000*59
lng=-77.439376, lat=43.140926, altitude=158.10, speed=8.14, satellites=8, angle=10.7400, fixquality=2
$GPRMC,133234.000,A,4308.4561,N,07726.3626,W,6.33,10.41,120419,,,D*4C
$GPGGA,133234.200,4308.4563,N,07726.3625,W,2,08,1.23,158.0,M,-34.4,M,0000,0000*5C
lng=-77.439376, lat=43.140933, altitude=158.20, speed=6.33, satellites=8, angle=10.4100, fixquality=2
$GPRMC,133234.400,A,4308.4566,N,07726.3623,W,4.80,8.92,120419,,,D*77
$GPGGA,133234.600,4308.4569,N,07726.3623,W,2,08,1.23,157.9,M,-34.4,M,0000,0000*52
lng=-77.439369, lat=43.140941, altitude=158.00, speed=4.80, satellites=8, angle=8.9200, fixquality=2
$GPRMC,133234.800,A,4308.4572,N,07726.3622,W,4.74,7.15,120419,,,D*74
$GPGGA,133235.000,4308.4575,N,07726.3621,W,2,08,1.23,157.9,M,-34.4,M,0000,0000*5A
lng=-77.439369, lat=43.140949, altitude=157.90, speed=4.74, satellites=8, angle=7.1500, fixquality=2
$GPRMC,133235.200,A,4308.4578,N,07726.3620,W,5.65,2.58,120419,,,D*7A
$GPGGA,133235.400,4308.4581,N,07726.3620,W,2,08,1.23,158.0,M,-34.4,M,0000,0000*52
lng=-77.439361, lat=43.140968, altitude=157.90, speed=5.65, satellites=8, angle=2.5800, fixquality=2
$GPRMC,133235.600,A,4308.4585,N,07726.3620,W,6.55,359.03,120419,,,D*7F
$GPGGA,133235.800,4308.4589,N,07726.3620,W,2,08,1.23,158.0,M,-34.4,M,0000,0000*56
lng=-77.439361, lat=43.140975, altitude=158.00, speed=6.55, satellites=8, angle=359.0300, fixquality=2
$GPRMC,133236.000,A,4308.4593,N,07726.3621,W,6.96,351.91,120419,,,D*70
$GPGGA,133236.200,4308.4597,N,07726.3621,W,2,08,1.23,158.1,M,-34.4,M,0000,0000*50
lng=-77.439369, lat=43.140991, altitude=158.00, speed=6.96, satellites=8, angle=351.9100, fixquality=2
$GPRMC,133236.400,A,4308.4601,N,07726.3621,W,7.07,352.02,120419,,,D*7C
$GPGGA,133236.600,4308.4605,N,07726.3623,W,2,08,1.23,158.2,M,-34.4,M,0000,0000*5D
lng=-77.439369, lat=43.140998, altitude=158.10, speed=7.07, satellites=8, angle=352.0200, fixquality=2
$GPRMC,133236.800,A,4308.4609,N,07726.3624,W,7.48,344.62,120419,,,D*77
$GPGGA,133237.000,4308.4614,N,07726.3628,W,2,08,1.23,158.3,M,-34.4,M,0000,0000*50
lng=-77.439369, lat=43.141014, altitude=158.20, speed=7.48, satellites=8, angle=344.6200, fixquality=2
$GPRMC,133237.200,A,4308.4618,N,07726.3630,W,9.02,333.94,120419,,,D*70
$GPGGA,133237.400,4308.4623,N,07726.3633,W,2,08,1.23,158.3,M,-34.4,M,0000,0000*5A
lng=-77.439376, lat=43.141033, altitude=158.30, speed=9.02, satellites=8, angle=333.9400, fixquality=2
$GPRMC,133237.600,A,4308.4627,N,07726.3637,W,9.58,329.25,120419,,,D*71
$GPGGA,133237.800,4308.4632,N,07726.3642,W,2,08,1.23,158.3,M,-34.4,M,0000,0000*50
lng=-77.439399, lat=43.141048, altitude=158.30, speed=9.58, satellites=8, angle=329.2500, fixquality=2
$GPRMC,133238.000,A,4308.4635,N,07726.3648,W,10.66,315.21,120419,,,D*4D
$GPGGA,133238.200,4308.4640,N,07726.3653,W,2,08,1.09,158.3,M,-34.4,M,0000,0000*58
lng=-77.439414, lat=43.141056, altitude=158.30, speed=10.66, satellites=8, angle=315.2100, fixquality=2
$GPRMC,133238.400,A,4308.4645,N,07726.3660,W,11.36,312.77,120419,,,D*44
$GPGGA,133238.600,4308.4650,N,07726.3668,W,2,08,1.09,158.4,M,-34.4,M,0000,0000*52
lng=-77.439437, lat=43.141071, altitude=158.30, speed=11.36, satellites=8, angle=312.7700, fixquality=2
$GPRMC,133238.800,A,4308.4654,N,07726.3677,W,12.19,304.40,120419,,,D*43
$GPGGA,133239.000,4308.4657,N,07726.3688,W,2,08,1.09,158.4,M,-34.4,M,0000,0000*5C
lng=-77.439460, lat=43.141090, altitude=158.40, speed=12.19, satellites=8, angle=304.4000, fixquality=2
$GPRMC,133239.200,A,4308.4661,N,07726.3699,W,14.00,293.78,120419,,,D*44
$GPGGA,133239.400,4308.4665,N,07726.3711,W,2,08,1.09,158.5,M,-34.4,M,0000,0000*59
lng=-77.439498, lat=43.141105, altitude=158.40, speed=14.00, satellites=8, angle=293.7800, fixquality=2
$GPRMC,133239.600,A,4308.4667,N,07726.3724,W,15.56,286.07,120419,,,D*4F
$GPGGA,133239.800,4308.4670,N,07726.3739,W,2,08,1.09,158.5,M,-34.4,M,0000,0000*5B
lng=-77.439544, lat=43.141113, altitude=158.50, speed=15.56, satellites=8, angle=286.0700, fixquality=2
$GPRMC,133240.000,A,4308.4672,N,07726.3754,W,17.97,281.36,120419,,,D*4E
$GPGGA,133240.200,4308.4674,N,07726.3769,W,2,08,1.09,158.5,M,-34.4,M,0000,0000*5E
lng=-77.439590, lat=43.141120, altitude=158.50, speed=17.97, satellites=8, angle=281.3600, fixquality=2
$GPRMC,133240.400,A,4308.4676,N,07726.3785,W,19.60,279.82,120419,,,D*4C
