Vers 60
USE_SERIAL_FEEDBACK=true
DEVELOPMENT_MODE=false
USE_RMC_ONLY=false

$GPRMC,143428.250,A,4308.3876,N,07726.3861,W,28.65,7.81,140619,,,A*42
$GPGGA,143428.500,4308.3897,N,07726.3856,W,1,04,2.54,183.5,M,-34.4,M,,*53
lng=-77.439773, lat=43.139793, altitude=184.40, speed=28.65, satellites=4, angle=7.8100, fixquality=1
$GPRMC,143428.750,A,4308.3918,N,07726.3851,W,29.37,9.20,140619,,,A*4E
$GPGGA,143429.000,4308.3940,N,07726.3844,W,1,04,2.54,182.2,M,-34.4,M,,*59
lng=-77.439750, lat=43.139858, altitude=183.50, speed=29.37, satellites=4, angle=9.2000, fixquality=1
$GPRMC,143429.250,A,4308.3961,N,07726.3838,W,29.05,9.51,140619,,,A*4C
$GPGGA,143429.500,4308.3982,N,07726.3831,W,1,04,2.54,180.5,M,-34.4,M,,*55
lng=-77.439727, lat=43.139934, altitude=182.20, speed=29.05, satellites=4, angle=9.5100, fixquality=1
$GPRMC,143429.750,A,4308.4003,N,07726.3825,W,29.89,9.70,140619,,,A*48
$GPGGA,143430.000,4308.4024,N,07726.3819,W,1,04,2.54,179.7,M,-34.4,M,,*54
lng=-77.439704, lat=43.140007, altitude=180.50, speed=29.89, satellites=4, angle=9.7000, fixquality=1
$GPRMC,143430.250,A,4308.4045,N,07726.3813,W,30.11,9.39,140619,,,A*46
$GPGGA,143430.500,4308.4066,N,07726.3807,W,1,04,2.54,178.9,M,-34.4,M,,*57
lng=-77.439689, lat=43.140071, altitude=179.70, speed=30.11, satellites=4, angle=9.3900, fixquality=1
$GPRMC,143430.750,A,4308.4087,N,07726.3800,W,29.68,10.58,140619,,,A*76
$GPGGA,143431.000,4308.4108,N,07726.3793,W,1,04,2.54,177.9,M,-34.4,M,,*57
lng=-77.439666, lat=43.140144, altitude=178.90, speed=29.68, satellites=4, angle=10.5800, fixquality=1
$GPRMC,143431.250,A,4308.4129,N,07726.3786,W,29.28,11.17,140619,,,A*78
$GPGGA,143431.500,4308.4149,N,07726.3780,W,1,04,2.54,177.0,M,-34.4,M,,*5C
lng=-77.439643, lat=43.140216, altitude=177.90, speed=29.28, satellites=4, angle=11.1700, fixquality=1
$GPRMC,143431.750,A,4308.4168,N,07726.3774,W,28.48,10.35,140619,,,A*73
$GPGGA,143432.000,4308.4188,N,07726.3768,W,1,04,2.54,176.4,M,-34.4,M,,*54
lng=-77.439620, lat=43.140281, altitude=177.00, speed=28.48, satellites=4, angle=10.3500, fixquality=1
$GPRMC,143432.250,A,4308.4208,N,07726.3763,W,28.55,9.91,140619,,,A*4C
$GPGGA,143432.500,4308.4228,N,07726.3757,W,1,04,2.54,175.4,M,-34.4,M,,*57
lng=-77.439605, lat=43.140346, altitude=176.40, speed=28.55, satellites=4, angle=9.9100, fixquality=1
$GPRMC,143432.750,A,4308.4248,N,07726.3751,W,27.96,10.08,140619,,,A*74
$GPGGA,143433.000,4308.4266,N,07726.3745,W,1,04,2.54,174.4,M,-34.4,M,,*5B
lng=-77.439582, lat=43.140415, altitude=175.40, speed=27.96, satellites=4, angle=10.0800, fixquality=1
$GPRMC,143433.250,A,4308.4285,N,07726.3740,W,27.05,9.78,140619,,,A*44
$GPGGA,143433.500,4308.4304,N,07726.3735,W,1,04,2.54,173.7,M,-34.4,M,,*58
lng=-77.439567, lat=43.140480, altitude=174.40, speed=27.05, satellites=4, angle=9.7800, fixquality=1
$GPRMC,143433.750,A,4308.4322,N,07726.3730,W,26.25,10.44,140619,,,A*7E
$GPGGA,143434.000,4308.4339,N,07726.3725,W,1,04,2.54,173.2,M,-34.4,M,,*50
lng=-77.439552, lat=43.140537, altitude=173.70, speed=26.25, satellites=4, angle=10.4400, fixquality=1
$GPRMC,143434.250,A,4308.4356,N,07726.3721,W,24.84,10.12,140619,,,A*75
$GPGGA,143434.500,4308.4372,N,07726.3716,W,1,04,3.32,172.7,M,-34.4,M,,*5F
lng=-77.439537, lat=43.140590, altitude=173.20, speed=24.84, satellites=4, angle=10.1200, fixquality=1
$GPRMC,143434.750,A,4308.4388,N,07726.3712,W,22.98,9.63,140619,,,A*46
$GPGGA,143435.000,4308.4402,N,07726.3707,W,1,04,3.32,172.2,M,-34.4,M,,*5E
lng=-77.439521, lat=43.140647, altitude=172.70, speed=22.98, satellites=4, angle=9.6300, fixquality=1
$GPRMC,143435.250,A,4308.4417,N,07726.3703,W,21.68,11.15,140619,,,A*77
$GPGGA,143435.500,4308.4429,N,07726.3698,W,1,04,3.32,172.0,M,-34.4,M,,*57
lng=-77.439498, lat=43.140697, altitude=172.20, speed=21.68, satellites=4, angle=11.1500, fixquality=1
$GPRMC,143435.750,A,4308.4440,N,07726.3695,W,18.12,12.92,140619,,,A*75
$GPGGA,143436.000,4308.4451,N,07726.3690,W,1,04,3.32,171.9,M,-34.4,M,,*5C
lng=-77.439491, lat=43.140731, altitude=172.00, speed=18.12, satellites=4, angle=12.9200, fixquality=1
$GPRMC,143436.250,A,4308.4461,N,07726.3686,W,15.98,13.95,140619,,,A*7B
$GPGGA,143436.500,4308.4471,N,07726.3683,W,1,04,3.32,171.4,M,-34.4,M,,*54
lng=-77.439476, lat=43.140769, altitude=171.90, speed=15.98, satellites=4, angle=13.9500, fixquality=1
$GPRMC,143436.750,A,4308.4478,N,07726.3681,W,12.29,13.09,140619,,,A*79
$GPGGA,143437.000,4308.4485,N,07726.3679,W,1,04,3.32,171.2,M,-34.4,M,,*58
lng=-77.439468, lat=43.140796, altitude=171.40, speed=12.29, satellites=4, angle=13.0900, fixquality=1
$GPRMC,143437.250,A,4308.4491,N,07726.3677,W,10.29,12.33,140619,,,A*79
$GPGGA,143437.500,4308.4495,N,07726.3676,W,1,04,3.32,171.2,M,-34.4,M,,*53
lng=-77.439460, lat=43.140819, altitude=171.20, speed=10.29, satellites=4, angle=12.3300, fixquality=1
$GPRMC,143437.750,A,4308.4498,N,07726.3676,W,6.95,11.37,140619,,,A*43
$GPGGA,143438.000,4308.4501,N,07726.3675,W,1,04,3.32,171.2,M,-34.4,M,,*56
lng=-77.439460, lat=43.140827, altitude=171.20, speed=6.95, satellites=4, angle=11.3700, fixquality=1
$GPRMC,143438.250,A,4308.4504,N,07726.3674,W,4.90,12.00,140619,,,A*4F
$GPGGA,143438.500,4308.4506,N,07726.3675,W,1,04,3.32,171.2,M,-34.4,M,,*54
lng=-77.439453, lat=43.140834, altitude=171.20, speed=4.90, satellites=4, angle=12.0000, fixquality=1
$GPRMC,143438.750,A,4308.4509,N,07726.3676,W,4.31,4.27,140619,,,A*7C
$GPGGA,143439.000,4308.4511,N,07726.3678,W,1,04,3.32,171.6,M,-34.4,M,,*5F
lng=-77.439460, lat=43.140846, altitude=171.20, speed=4.31, satellites=4, angle=4.2700, fixquality=1
$GPRMC,143439.250,A,4308.4513,N,07726.3679,W,4.20,359.81,140619,,,A*7B
$GPGGA,143439.500,4308.4516,N,07726.3681,W,1,04,3.32,171.9,M,-34.4,M,,*54
lng=-77.439460, lat=43.140853, altitude=171.60, speed=4.20, satellites=4, angle=359.8100, fixquality=1
$GPRMC,143439.750,A,4308.4519,N,07726.3685,W,4.82,346.47,140619,,,A*7B
$GPGGA,143440.000,4308.4524,N,07726.3691,W,1,04,3.32,171.9,M,-34.4,M,,*5F
lng=-77.439476, lat=43.140861, altitude=171.90, speed=4.82, satellites=4, angle=346.4700, fixquality=1
$GPRMC,143440.250,A,4308.4528,N,07726.3694,W,6.38,334.62,140619,,,A*73
$GPGGA,143440.500,4308.4533,N,07726.3699,W,1,04,2.54,172.1,M,-34.4,M,,*5E
lng=-77.439491, lat=43.140876, altitude=171.90, speed=6.38, satellites=4, angle=334.6200, fixquality=1
$GPRMC,143440.750,A,4308.4539,N,07726.3706,W,8.10,327.20,140619,,,A*7C
$GPGGA,143441.000,4308.4551,N,07726.3717,W,1,04,2.54,172.3,M,-34.4,M,,*5B
lng=-77.439506, lat=43.140903, altitude=172.10, speed=8.10, satellites=4, angle=327.2000, fixquality=1
$GPRMC,143441.250,A,4308.4556,N,07726.3725,W,11.63,322.35,140619,,,A*4D
$GPGGA,143441.500,4308.4561,N,07726.3734,W,1,04,2.54,172.6,M,-34.4,M,,*59
lng=-77.439544, lat=43.140926, altitude=172.30, speed=11.63, satellites=4, angle=322.3500, fixquality=1
$GPRMC,143441.750,A,4308.4565,N,07726.3744,W,11.98,312.71,140619,,,A*48
$GPGGA,143442.000,4308.4568,N,07726.3757,W,1,04,2.53,172.6,M,-34.4,M,,*54
lng=-77.439575, lat=43.140941, altitude=172.60, speed=11.98, satellites=4, angle=312.7100, fixquality=1
$GPRMC,143442.250,A,4308.4572,N,07726.3770,W,13.05,302.67,140619,,,A*4F
$GPGGA,143442.500,4308.4574,N,07726.3785,W,1,04,2.54,172.9,M,-34.4,M,,*5B
lng=-77.439613, lat=43.140949, altitude=172.60, speed=13.05, satellites=4, angle=302.6700, fixquality=1
$GPRMC,143442.750,A,4308.4577,N,07726.3800,W,14.42,294.53,140619,,,A*4A
$GPGGA,143443.000,4308.4579,N,07726.3817,W,1,04,2.54,173.1,M,-34.4,M,,*5F
lng=-77.439666, lat=43.140956, altitude=172.90, speed=14.42, satellites=4, angle=294.5300, fixquality=1
$GPRMC,143443.250,A,4308.4581,N,07726.3833,W,15.62,288.51,140619,,,A*4B
$GPGGA,143443.500,4308.4583,N,07726.3852,W,1,04,2.53,173.1,M,-34.4,M,,*59
lng=-77.439720, lat=43.140968, altitude=173.10, speed=15.62, satellites=4, angle=288.5100, fixquality=1
$GPRMC,143443.750,A,4308.4585,N,07726.3869,W,17.03,283.74,140619,,,A*4C
$GPGGA,143444.000,4308.4586,N,07726.3889,W,1,04,2.54,173.1,M,-34.4,M,,*5F
lng=-77.439781, lat=43.140975, altitude=173.10, speed=17.03, satellites=4, angle=283.7400, fixquality=1
$GPRMC,143444.250,A,4308.4587,N,07726.3909,W,18.49,280.58,140619,,,A*47
$GPGGA,143444.500,4308.4588,N,07726.3930,W,1,04,2.53,173.3,M,-34.4,M,,*52
lng=-77.439849, lat=43.140975, altitude=173.10, speed=18.49, satellites=4, angle=280.5800, fixquality=1
$GPRMC,143444.750,A,4308.4590,N,07726.3951,W,19.87,278.29,140619,,,A*4B
$GPGGA,143445.000,4308.4590,N,07726.3975,W,1,04,2.53,173.4,M,-34.4,M,,*59
lng=-77.439918, lat=43.140983, altitude=173.30, speed=19.87, satellites=4, angle=278.2900, fixquality=1
$GPRMC,143445.250,A,4308.4592,N,07726.3996,W,21.28,276.72,140619,,,A*48
$GPGGA,143445.500,4308.4593,N,07726.4020,W,1,04,2.53,173.2,M,-34.4,M,,*57
lng=-77.439987, lat=43.140983, altitude=173.40, speed=21.28, satellites=4, angle=276.7200, fixquality=1
$GPRMC,143445.750,A,4308.4595,N,07726.4041,W,22.43,276.12,140619,,,A*46
$GPGGA,143446.000,4308.4597,N,07726.4063,W,1,04,2.53,173.1,M,-34.4,M,,*51
lng=-77.440071, lat=43.140991, altitude=173.20, speed=22.43, satellites=4, angle=276.1200, fixquality=1
$GPRMC,143446.250,A,4308.4599,N,07726.4084,W,22.58,276.70,140619,,,A*4B
$GPGGA,143446.500,4308.4601,N,07726.4105,W,1,04,2.53,173.1,M,-34.4,M,,*59
lng=-77.440139, lat=43.140998, altitude=173.10, speed=22.58, satellites=4, angle=276.7000, fixquality=1
$GPRMC,143446.750,A,4308.4603,N,07726.4125,W,22.55,277.33,140619,,,A*4F
$GPGGA,143447.000,4308.4605,N,07726.4146,W,1,04,2.53,172.9,M,-34.4,M,,*57
lng=-77.440208, lat=43.141006, altitude=173.10, speed=22.55, satellites=4, angle=277.3300, fixquality=1
$GPRMC,143447.250,A,4308.4608,N,07726.4167,W,22.63,277.33,140619,,,A*43
$GPGGA,143447.500,4308.4610,N,07726.4188,W,1,04,2.53,172.6,M,-34.4,M,,*5B
lng=-77.440277, lat=43.141014, altitude=172.90, speed=22.63, satellites=4, angle=277.3300, fixquality=1
$GPRMC,143447.750,A,4308.4612,N,07726.4209,W,22.66,277.17,140619,,,A*45
$GPGGA,143448.000,4308.4614,N,07726.4229,W,1,04,2.53,172.6,M,-34.4,M,,*5D
lng=-77.440345, lat=43.141025, altitude=172.60, speed=22.66, satellites=4, angle=277.1700, fixquality=1
$GPRMC,143448.250,A,4308.4616,N,07726.4250,W,22.38,277.74,140619,,,A*49
$GPGGA,143448.500,4308.4619,N,07726.4269,W,1,04,2.53,172.7,M,-34.4,M,,*50
lng=-77.440414, lat=43.141025, altitude=172.60, speed=22.38, satellites=4, angle=277.7400, fixquality=1
$GPRMC,143448.750,A,4308.4621,N,07726.4288,W,21.69,278.24,140619,,,A*40
$GPGGA,143449.000,4308.4624,N,07726.4305,W,1,04,2.53,172.8,M,-34.4,M,,*5E
lng=-77.440475, lat=43.141033, altitude=172.70, speed=21.69, satellites=4, angle=278.2400, fixquality=1
$GPRMC,143449.250,A,4308.4625,N,07726.4323,W,20.49,279.06,140619,,,A*42
$GPGGA,143449.500,4308.4627,N,07726.4340,W,1,04,2.53,172.8,M,-34.4,M,,*59
lng=-77.440536, lat=43.141040, altitude=172.80, speed=20.49, satellites=4, angle=279.0600, fixquality=1
$GPRMC,143449.750,A,4308.4628,N,07726.4357,W,19.33,278.31,140619,,,A*4B
$GPGGA,143450.000,4308.4630,N,07726.4372,W,1,04,2.53,173.0,M,-34.4,M,,*5A
lng=-77.440589, lat=43.141048, altitude=172.80, speed=19.33, satellites=4, angle=278.3100, fixquality=1
$GPRMC,143450.250,A,4308.4631,N,07726.4388,W,18.03,277.33,140619,,,A*43
$GPGGA,143450.500,4308.4632,N,07726.4401,W,1,04,2.53,173.2,M,-34.4,M,,*5C
lng=-77.440650, lat=43.141048, altitude=173.00, speed=18.03, satellites=4, angle=277.3300, fixquality=1
$GPRMC,143450.750,A,4308.4633,N,07726.4414,W,16.27,276.30,140619,,,A*4C
$GPGGA,143451.000,4308.4635,N,07726.4422,W,1,04,2.53,173.0,M,-34.4,M,,*5C
lng=-77.440689, lat=43.141056, altitude=173.20, speed=16.27, satellites=4, angle=276.3000, fixquality=1
$GPRMC,143451.250,A,4308.4636,N,07726.4432,W,13.65,276.55,140619,,,A*49
$GPGGA,143451.500,4308.4637,N,07726.4439,W,1,04,2.53,173.0,M,-34.4,M,,*51
lng=-77.440719, lat=43.141056, altitude=173.00, speed=13.65, satellites=4, angle=276.5500, fixquality=1
$GPRMC,143451.750,A,4308.4639,N,07726.4448,W,11.32,277.19,140619,,,A*47
$GPGGA,143452.000,4308.4640,N,07726.4454,W,1,04,2.53,173.0,M,-34.4,M,,*5C
lng=-77.440750, lat=43.141063, altitude=173.00, speed=11.32, satellites=4, angle=277.1900, fixquality=1
$GPRMC,143452.250,A,4308.4640,N,07726.4460,W,9.09,276.45,140619,,,A*7C
$GPGGA,143452.500,4308.4641,N,07726.4462,W,1,04,2.53,172.9,M,-34.4,M,,*55
lng=-77.440765, lat=43.141063, altitude=173.00, speed=9.09, satellites=4, angle=276.4500, fixquality=1
$GPRMC,143452.750,A,4308.4641,N,07726.4466,W,6.44,276.79,140619,,,A*77
$GPGGA,143453.000,4308.4641,N,07726.4468,W,1,04,2.53,172.7,M,-34.4,M,,*55
lng=-77.440780, lat=43.141063, altitude=172.90, speed=6.44, satellites=4, angle=276.7900, fixquality=1
$GPRMC,143453.250,A,4308.4641,N,07726.4470,W,4.38,275.11,140619,,,A*70
$GPGGA,143453.500,4308.4640,N,07726.4470,W,1,04,2.53,172.7,M,-34.4,M,,*58
lng=-77.440780, lat=43.141063, altitude=172.70, speed=4.38, satellites=4, angle=275.1100, fixquality=1
$GPRMC,143453.750,A,4308.4640,N,07726.4471,W,2.48,275.37,140619,,,A*70
$GPGGA,143454.000,4308.4639,N,07726.4468,W,1,04,2.53,172.8,M,-34.4,M,,*52
lng=-77.440788, lat=43.141063, altitude=172.70, speed=2.48, satellites=4, angle=275.3700, fixquality=1
$GPRMC,143454.250,A,4308.4639,N,07726.4467,W,0.08,275.37,140619,,,A*7D
$GPGGA,143454.500,4308.4639,N,07726.4465,W,1,04,2.53,172.9,M,-34.4,M,,*5B
lng=-77.440780, lat=43.141063, altitude=172.80, speed=0.08, satellites=4, angle=275.3700, fixquality=1
$GPRMC,143454.750,A,4308.4638,N,07726.4463,W,0.02,275.37,140619,,,A*77
$GPGGA,143455.000,4308.4638,N,07726.4461,W,1,04,2.53,173.5,M,-34.4,M,,*57
lng=-77.440773, lat=43.141063, altitude=172.90, speed=0.02, satellites=4, angle=275.3700, fixquality=1
$GPRMC,143455.250,A,4308.4637,N,07726.4460,W,0.03,275.37,140619,,,A*7E
$GPGGA,143455.500,4308.4637,N,07726.4458,W,1,04,2.53,174.1,M,-34.4,M,,*54
lng=-77.440765, lat=43.141063, altitude=173.50, speed=0.03, satellites=4, angle=275.3700, fixquality=1
$GPRMC,143455.750,A,4308.4637,N,07726.4456,W,0.05,275.37,140619,,,A*78
$GPGGA,143456.000,4308.4637,N,07726.4455,W,1,04,2.53,174.5,M,-34.4,M,,*5B
lng=-77.440765, lat=43.141063, altitude=174.10, speed=0.05, satellites=4, angle=275.3700, fixquality=1
$GPRMC,143456.250,A,4308.4638,N,07726.4454,W,0.05,275.37,140619,,,A*73
$GPGGA,143456.500,4308.4638,N,07726.4453,W,1,05,1.92,174.4,M,-34.4,M,,*59
lng=-77.440757, lat=43.141063, altitude=174.50, speed=0.05, satellites=4, angle=275.3700, fixquality=1
$GPRMC,143456.750,A,4308.4638,N,07726.4453,W,0.04,275.37,140619,,,A*70
$GPGGA,143457.000,4308.4637,N,07726.4454,W,1,05,1.92,174.3,M,-34.4,M,,*52
lng=-77.440757, lat=43.141063, altitude=174.40, speed=0.04, satellites=5, angle=275.3700, fixquality=1
$GPRMC,143457.250,A,4308.4637,N,07726.4455,W,0.02,275.37,140619,,,A*7B
$GPGGA,143457.500,4308.4637,N,07726.4458,W,1,05,1.92,174.1,M,-34.4,M,,*59
lng=-77.440757, lat=43.141063, altitude=174.30, speed=0.02, satellites=5, angle=275.3700, fixquality=1
$GPRMC,143457.750,A,4308.4637,N,07726.4462,W,0.04,275.37,140619,,,A*7C
$GPGGA,143458.000,4308.4631,N,07726.4471,W,1,05,1.92,173.7,M,-34.4,M,,*5F
lng=-77.440773, lat=43.141063, altitude=174.10, speed=0.04, satellites=5, angle=275.3700, fixquality=1
$GPRMC,143458.250,A,4308.4630,N,07726.4475,W,0.32,275.37,140619,,,A*72
$GPGGA,143458.500,4308.4630,N,07726.4483,W,1,05,1.92,174.0,M,-34.4,M,,*56
lng=-77.440788, lat=43.141048, altitude=173.70, speed=0.32, satellites=5, angle=275.3700, fixquality=1
$GPRMC,143458.750,A,4308.4630,N,07726.4490,W,5.82,271.08,140619,,,A*7A
$GPGGA,143459.000,4308.4630,N,07726.4498,W,1,05,1.92,174.1,M,-34.4,M,,*59
lng=-77.440818, lat=43.141048, altitude=174.00, speed=5.82, satellites=5, angle=271.0800, fixquality=1
$GPRMC,143459.250,A,4308.4631,N,07726.4506,W,7.06,272.67,140619,,,A*75
$GPGGA,143459.500,4308.4632,N,07726.4515,W,1,05,1.92,174.0,M,-34.4,M,,*5B
lng=-77.440841, lat=43.141048, altitude=174.10, speed=7.06, satellites=5, angle=272.6700, fixquality=1
$GPRMC,143459.750,A,4308.4635,N,07726.4532,W,10.19,275.72,140619,,,A*48
$GPGGA,143500.000,4308.4638,N,07726.4546,W,1,05,1.92,173.6,M,-34.4,M,,*5E
lng=-77.440887, lat=43.141056, altitude=174.00, speed=10.19, satellites=5, angle=275.7200, fixquality=1
$GPRMC,143500.250,A,4308.4641,N,07726.4562,W,12.30,280.16,140619,,,A*47
$GPGGA,143500.500,4308.4645,N,07726.4586,W,1,05,1.92,173.2,M,-34.4,M,,*59
lng=-77.440933, lat=43.141063, altitude=173.60, speed=12.30, satellites=5, angle=280.1600, fixquality=1
$GPRMC,143500.750,A,4308.4648,N,07726.4604,W,16.04,280.82,140619,,,A*46
$GPGGA,143501.000,4308.4651,N,07726.4629,W,1,05,1.92,173.1,M,-34.4,M,,*5D
lng=-77.441009, lat=43.141078, altitude=173.20, speed=16.04, satellites=5, angle=280.8200, fixquality=1
$GPRMC,143501.250,A,4308.4654,N,07726.4648,W,19.08,280.66,140619,,,A*4E
$GPGGA,143501.500,4308.4658,N,07726.4670,W,1,05,1.92,172.9,M,-34.4,M,,*54
lng=-77.441078, lat=43.141090, altitude=173.10, speed=19.08, satellites=5, angle=280.6600, fixquality=1
$GPRMC,143501.750,A,4308.4662,N,07726.4692,W,20.73,281.71,140619,,,A*48
$GPGGA,143502.000,4308.4666,N,07726.4716,W,1,05,1.92,172.8,M,-34.4,M,,*5F
lng=-77.441154, lat=43.141105, altitude=172.90, speed=20.73, satellites=5, angle=281.7100, fixquality=1
$GPRMC,143502.250,A,4308.4670,N,07726.4739,W,22.48,281.76,140619,,,A*40
$GPGGA,143502.500,4308.4672,N,07726.4770,W,1,05,1.92,172.7,M,-34.4,M,,*50
lng=-77.441238, lat=43.141113, altitude=172.80, speed=22.48, satellites=5, angle=281.7600, fixquality=1
$GPRMC,143502.750,A,4308.4676,N,07726.4798,W,26.12,280.41,140619,,,A*46
$GPGGA,143503.000,4308.4679,N,07726.4828,W,1,05,1.92,172.4,M,-34.4,M,,*5E
lng=-77.441329, lat=43.141128, altitude=172.70, speed=26.12, satellites=5, angle=280.4100, fixquality=1
$GPRMC,143503.250,A,4308.4682,N,07726.4856,W,28.27,279.52,140619,,,A*48
$GPGGA,143503.500,4308.4685,N,07726.4885,W,1,05,1.92,172.0,M,-34.4,M,,*5B
lng=-77.441429, lat=43.141136, altitude=172.40, speed=28.27, satellites=5, angle=279.5200, fixquality=1
$GPRMC,143503.750,A,4308.4688,N,07726.4914,W,29.59,278.64,140619,,,A*4C
$GPGGA,143504.000,4308.4691,N,07726.4944,W,1,05,1.92,171.8,M,-34.4,M,,*5B
lng=-77.441520, lat=43.141147, altitude=172.00, speed=29.59, satellites=5, angle=278.6400, fixquality=1
$GPRMC,143504.250,A,4308.4693,N,07726.4974,W,30.87,277.32,140619,,,A*45
$GPGGA,143504.500,4308.4696,N,07726.5005,W,1,05,1.92,171.6,M,-34.4,M,,*5A
lng=-77.441627, lat=43.141155, altitude=171.80, speed=30.87, satellites=5, angle=277.3200, fixquality=1
$GPRMC,143504.750,A,4308.4698,N,07726.5037,W,32.05,276.33,140619,,,A*4C
$GPGGA,143505.000,4308.4701,N,07726.5069,W,1,05,1.92,171.4,M,-34.4,M,,*59
lng=-77.441734, lat=43.141162, altitude=171.60, speed=32.05, satellites=5, angle=276.3300, fixquality=1
$GPRMC,143505.250,A,4308.4704,N,07726.5101,W,33.00,275.98,140619,,,A*4E
$GPGGA,143505.500,4308.4706,N,07726.5134,W,1,05,1.92,171.0,M,-34.4,M,,*56
lng=-77.441841, lat=43.141170, altitude=171.40, speed=33.00, satellites=5, angle=275.9800, fixquality=1
$GPRMC,143505.750,A,4308.4709,N,07726.5168,W,34.33,275.23,140619,,,A*4E
$GPGGA,143506.000,4308.4712,N,07726.5202,W,1,05,1.92,170.8,M,-34.4,M,,*5A
lng=-77.441940, lat=43.141178, altitude=171.00, speed=34.33, satellites=5, angle=275.2300, fixquality=1
$GPRMC,143506.250,A,4308.4714,N,07726.5237,W,35.15,275.09,140619,,,A*40
$GPGGA,143506.500,4308.4718,N,07726.5271,W,1,05,1.92,170.5,M,-34.4,M,,*5C
lng=-77.442062, lat=43.141185, altitude=170.80, speed=35.15, satellites=5, angle=275.0900, fixquality=1
$GPRMC,143506.750,A,4308.4720,N,07726.5307,W,35.64,275.04,140619,,,A*4B
$GPGGA,143507.000,4308.4723,N,07726.5342,W,1,05,1.92,170.3,M,-34.4,M,,*57
lng=-77.442176, lat=43.141201, altitude=170.50, speed=35.64, satellites=5, angle=275.0400, fixquality=1
$GPRMC,143507.250,A,4308.4726,N,07726.5377,W,36.78,274.72,140619,,,A*40
$GPGGA,143507.500,4308.4729,N,07726.5414,W,1,05,1.92,170.1,M,-34.4,M,,*5E
lng=-77.442291, lat=43.141212, altitude=170.30, speed=36.78, satellites=5, angle=274.7200, fixquality=1
$GPRMC,143507.750,A,4308.4731,N,07726.5450,W,37.01,274.36,140619,,,A*4E
$GPGGA,143508.000,4308.4733,N,07726.5485,W,1,05,1.92,169.9,M,-34.4,M,,*57
lng=-77.442413, lat=43.141220, altitude=170.10, speed=37.01, satellites=5, angle=274.3600, fixquality=1
$GPRMC,143508.250,A,4308.4735,N,07726.5521,W,36.57,274.18,140619,,,A*49
$GPGGA,143508.500,4308.4737,N,07726.5557,W,1,05,1.92,169.6,M,-34.4,M,,*57
lng=-77.442535, lat=43.141227, altitude=169.90, speed=36.57, satellites=5, angle=274.1800, fixquality=1
$GPRMC,143508.750,A,4308.4738,N,07726.5592,W,36.53,273.80,140619,,,A*4B
$GPGGA,143509.000,4308.4740,N,07726.5627,W,1,05,1.92,169.4,M,-34.4,M,,*55
lng=-77.442649, lat=43.141227, altitude=169.60, speed=36.53, satellites=5, angle=273.8000, fixquality=1
$GPRMC,143509.250,A,4308.4742,N,07726.5662,W,36.70,273.26,140619,,,A*43
$GPGGA,143509.500,4308.4744,N,07726.5698,W,1,05,1.92,169.2,M,-34.4,M,,*56
lng=-77.442771, lat=43.141235, altitude=169.40, speed=36.70, satellites=5, angle=273.2600, fixquality=1
$GPRMC,143509.750,A,4308.4745,N,07726.5733,W,36.81,273.07,140619,,,A*49
$GPGGA,143510.000,4308.4747,N,07726.5769,W,1,05,1.92,169.0,M,-34.4,M,,*55
lng=-77.442886, lat=43.141242, altitude=169.20, speed=36.81, satellites=5, angle=273.0700, fixquality=1
$GPRMC,143510.250,A,4308.4748,N,07726.5804,W,36.87,272.77,140619,,,A*42
$GPGGA,143510.500,4308.4750,N,07726.5839,W,1,05,1.92,168.8,M,-34.4,M,,*55
lng=-77.443008, lat=43.141242, altitude=169.00, speed=36.87, satellites=5, angle=272.7700, fixquality=1
$GPRMC,143510.750,A,4308.4751,N,07726.5874,W,36.88,272.73,140619,,,A*43
$GPGGA,143511.000,4308.4753,N,07726.5909,W,1,05,1.92,168.7,M,-34.4,M,,*5F
lng=-77.443122, lat=43.141250, altitude=168.80, speed=36.88, satellites=5, angle=272.7300, fixquality=1
$GPRMC,143511.250,A,4308.4754,N,07726.5945,W,37.04,272.75,140619,,,A*42
$GPGGA,143511.500,4308.4755,N,07726.5981,W,1,05,1.92,168.7,M,-34.4,M,,*5C
lng=-77.443244, lat=43.141258, altitude=168.70, speed=37.04, satellites=5, angle=272.7500, fixquality=1
$GPRMC,143511.750,A,4308.4756,N,07726.6016,W,37.09,272.32,140619,,,A*47
$GPGGA,143512.000,4308.4757,N,07726.6052,W,1,05,1.92,168.8,M,-34.4,M,,*53
lng=-77.443359, lat=43.141258, altitude=168.70, speed=37.09, satellites=5, angle=272.3200, fixquality=1
$GPRMC,143512.250,A,4308.4758,N,07726.6088,W,37.09,272.23,140619,,,A*48
$GPGGA,143512.500,4308.4758,N,07726.6123,W,1,05,1.92,168.8,M,-34.4,M,,*5E
lng=-77.443481, lat=43.141258, altitude=168.80, speed=37.09, satellites=5, angle=272.2300, fixquality=1
$GPRMC,143512.750,A,4308.4759,N,07726.6159,W,37.13,271.98,140619,,,A*49
$GPGGA,143513.000,4308.4760,N,07726.6194,W,1,05,1.92,168.8,M,-34.4,M,,*5D
lng=-77.443595, lat=43.141269, altitude=168.80, speed=37.13, satellites=5, angle=271.9800, fixquality=1
$GPRMC,143513.250,A,4308.4761,N,07726.6230,W,37.26,271.89,140619,,,A*4C
$GPGGA,143513.500,4308.4761,N,07726.6266,W,1,05,1.92,168.9,M,-34.4,M,,*56
lng=-77.443717, lat=43.141269, altitude=168.80, speed=37.26, satellites=5, angle=271.8900, fixquality=1
$GPRMC,143513.750,A,4308.4761,N,07726.6302,W,37.41,271.05,140619,,,A*4C
$GPGGA,143514.000,4308.4761,N,07726.6337,W,1,05,1.92,169.0,M,-34.4,M,,*59
lng=-77.443840, lat=43.141269, altitude=168.90, speed=37.41, satellites=5, angle=271.0500, fixquality=1
$GPRMC,143514.250,A,4308.4761,N,07726.6373,W,37.40,270.98,140619,,,A*4C
$GPGGA,143514.500,4308.4762,N,07726.6408,W,1,05,1.92,169.0,M,-34.4,M,,*54
lng=-77.443954, lat=43.141269, altitude=169.00, speed=37.40, satellites=5, angle=270.9800, fixquality=1
$GPRMC,143514.750,A,4308.4761,N,07726.6443,W,37.37,270.27,140619,,,A*49
$GPGGA,143515.000,4308.4760,N,07726.6479,W,1,05,1.92,169.0,M,-34.4,M,,*54
lng=-77.444076, lat=43.141269, altitude=169.00, speed=37.37, satellites=5, angle=270.2700, fixquality=1
$GPRMC,143515.250,A,4308.4759,N,07726.6514,W,37.36,268.54,140619,,,A*49
$GPGGA,143515.500,4308.4758,N,07726.6550,W,1,05,1.92,169.1,M,-34.4,M,,*51
lng=-77.444190, lat=43.141269, altitude=169.00, speed=37.36, satellites=5, angle=268.5400, fixquality=1
$GPRMC,143515.750,A,4308.4757,N,07726.6586,W,37.38,267.59,140619,,,A*45
$GPGGA,143516.000,4308.4756,N,07726.6621,W,1,05,1.92,169.2,M,-34.4,M,,*5F
lng=-77.444313, lat=43.141258, altitude=169.10, speed=37.38, satellites=5, angle=267.5900, fixquality=1
$GPRMC,143516.250,A,4308.4755,N,07726.6657,W,37.36,267.26,140619,,,A*48
$GPGGA,143516.500,4308.4753,N,07726.6692,W,1,05,1.92,169.3,M,-34.4,M,,*56
lng=-77.444427, lat=43.141258, altitude=169.20, speed=37.36, satellites=5, angle=267.2600, fixquality=1
$GPRMC,143516.750,A,4308.4752,N,07726.6728,W,37.36,266.94,140619,,,A*4B
$GPGGA,143517.000,4308.4750,N,07726.6764,W,1,05,1.92,169.5,M,-34.4,M,,*5F
lng=-77.444549, lat=43.141250, altitude=169.30, speed=37.36, satellites=5, angle=266.9400, fixquality=1
$GPRMC,143517.250,A,4308.4749,N,07726.6799,W,37.34,266.83,140619,,,A*4B
$GPGGA,143517.500,4308.4747,N,07726.6835,W,1,05,1.92,169.6,M,-34.4,M,,*54
lng=-77.444664, lat=43.141250, altitude=169.50, speed=37.34, satellites=5, angle=266.8300, fixquality=1
$GPRMC,143517.750,A,4308.4746,N,07726.6870,W,37.31,266.74,140619,,,A*44
$GPGGA,143518.000,4308.4745,N,07726.6905,W,1,05,1.92,169.7,M,-34.4,M,,*5F
lng=-77.444786, lat=43.141242, altitude=169.60, speed=37.31, satellites=5, angle=266.7400, fixquality=1
$GPRMC,143518.250,A,4308.4743,N,07726.6941,W,37.30,266.59,140619,,,A*46
$GPGGA,143518.500,4308.4742,N,07726.6977,W,1,05,1.92,169.8,M,-34.4,M,,*57
lng=-77.444908, lat=43.141235, altitude=169.70, speed=37.30, satellites=5, angle=266.5900, fixquality=1
$GPRMC,143518.750,A,4308.4740,N,07726.7012,W,37.34,266.50,140619,,,A*43
$GPGGA,143519.000,4308.4739,N,07726.7048,W,1,05,1.92,169.9,M,-34.4,M,,*5A
lng=-77.445022, lat=43.141235, altitude=169.80, speed=37.34, satellites=5, angle=266.5000, fixquality=1
$GPRMC,143519.250,A,4308.4737,N,07726.7084,W,37.43,266.44,140619,,,A*4D
$GPGGA,143519.500,4308.4735,N,07726.7120,W,1,05,1.92,170.0,M,-34.4,M,,*5D
lng=-77.445144, lat=43.141227, altitude=169.90, speed=37.43, satellites=5, angle=266.4400, fixquality=1
$GPRMC,143519.750,A,4308.4734,N,07726.7155,W,37.59,266.26,140619,,,A*49
$GPGGA,143520.000,4308.4732,N,07726.7190,W,1,05,1.92,170.0,M,-34.4,M,,*5E
lng=-77.445259, lat=43.141227, altitude=170.00, speed=37.59, satellites=5, angle=266.2600, fixquality=1
$GPRMC,143520.250,A,4308.4730,N,07726.7226,W,37.65,266.10,140619,,,A*4F
$GPGGA,143520.500,4308.4728,N,07726.7262,W,1,05,1.92,170.1,M,-34.4,M,,*5F
lng=-77.445381, lat=43.141220, altitude=170.00, speed=37.65, satellites=5, angle=266.1000, fixquality=1
$GPRMC,143520.750,A,4308.4726,N,07726.7298,W,38.02,265.75,140619,,,A*46
$GPGGA,143521.000,4308.4724,N,07726.7335,W,1,05,1.92,170.2,M,-34.4,M,,*57
lng=-77.445503, lat=43.141212, altitude=170.10, speed=38.02, satellites=5, angle=265.7500, fixquality=1
$GPRMC,143521.250,A,4308.4722,N,07726.7371,W,38.20,265.63,140619,,,A*47
$GPGGA,143521.500,4308.4720,N,07726.7407,W,1,05,1.92,170.3,M,-34.4,M,,*51
lng=-77.445625, lat=43.141201, altitude=170.20, speed=38.20, satellites=5, angle=265.6300, fixquality=1
$GPRMC,143521.750,A,4308.4718,N,07726.7443,W,38.28,265.78,140619,,,A*4F
$GPGGA,143522.000,4308.4716,N,07726.7480,W,1,05,1.92,170.4,M,-34.4,M,,*5A
lng=-77.445732, lat=43.141193, altitude=170.30, speed=38.28, satellites=5, angle=265.7800, fixquality=1
$GPRMC,143522.250,A,4308.4714,N,07726.7517,W,38.39,265.88,140619,,,A*4A
$GPGGA,143522.500,4308.4711,N,07726.7554,W,1,05,1.92,170.6,M,-34.4,M,,*52
lng=-77.445854, lat=43.141185, altitude=170.40, speed=38.39, satellites=5, angle=265.8800, fixquality=1
$GPRMC,143522.750,A,4308.4709,N,07726.7592,W,38.59,265.79,140619,,,A*46
$GPGGA,143523.000,4308.4707,N,07726.7629,W,1,05,1.92,170.7,M,-34.4,M,,*59
lng=-77.445991, lat=43.141178, altitude=170.60, speed=38.59, satellites=5, angle=265.7900, fixquality=1
$GPRMC,143523.250,A,4308.4705,N,07726.7666,W,38.67,265.79,140619,,,A*4B
$GPGGA,143523.500,4308.4702,N,07726.7702,W,1,05,1.92,170.8,M,-34.4,M,,*5E
lng=-77.446113, lat=43.141178, altitude=170.70, speed=38.67, satellites=5, angle=265.7900, fixquality=1
$GPRMC,143523.750,A,4308.4700,N,07726.7738,W,38.64,265.78,140619,,,A*43
$GPGGA,143524.000,4308.4698,N,07726.7775,W,1,05,1.92,171.0,M,-34.4,M,,*57
lng=-77.446235, lat=43.141170, altitude=170.80, speed=38.64, satellites=5, angle=265.7800, fixquality=1
$GPRMC,143524.250,A,4308.4696,N,07726.7812,W,38.61,266.09,140619,,,A*48
$GPGGA,143524.500,4308.4694,N,07726.7849,W,1,05,1.92,171.1,M,-34.4,M,,*5F
lng=-77.446357, lat=43.141162, altitude=171.00, speed=38.61, satellites=5, angle=266.0900, fixquality=1
$GPRMC,143524.750,A,4308.4692,N,07726.7886,W,38.65,266.53,140619,,,A*4F
$GPGGA,143525.000,4308.4690,N,07726.7924,W,1,05,1.92,171.3,M,-34.4,M,,*57
lng=-77.446479, lat=43.141155, altitude=171.10, speed=38.65, satellites=5, angle=266.5300, fixquality=1
$GPRMC,143525.250,A,4308.4688,N,07726.7961,W,38.86,266.29,140619,,,A*48
$GPGGA,143525.500,4308.4685,N,07726.7999,W,1,05,1.92,171.4,M,-34.4,M,,*57
lng=-77.446601, lat=43.141147, altitude=171.30, speed=38.86, satellites=5, angle=266.2900, fixquality=1
$GPRMC,143525.750,A,4308.4683,N,07726.8037,W,39.13,266.14,140619,,,A*40
$GPGGA,143526.000,4308.4681,N,07726.8076,W,1,05,1.92,171.5,M,-34.4,M,,*53
lng=-77.446731, lat=43.141136, altitude=171.40, speed=39.13, satellites=5, angle=266.1400, fixquality=1
$GPRMC,143526.250,A,4308.4678,N,07726.8114,W,39.35,265.96,140619,,,A*4F
$GPGGA,143526.500,4308.4676,N,07726.8152,W,1,05,1.92,171.7,M,-34.4,M,,*5B
lng=-77.446861, lat=43.141128, altitude=171.50, speed=39.35, satellites=5, angle=265.9600, fixquality=1
$GPRMC,143526.750,A,4308.4673,N,07726.8191,W,39.75,265.36,140619,,,A*42
$GPGGA,143527.000,4308.4669,N,07726.8231,W,1,05,1.92,171.8,M,-34.4,M,,*58
lng=-77.446990, lat=43.141120, altitude=171.70, speed=39.75, satellites=5, angle=265.3600, fixquality=1
$GPRMC,143527.250,A,4308.4666,N,07726.8271,W,39.99,264.98,140619,,,A*48
$GPGGA,143527.500,4308.4663,N,07726.8312,W,1,05,1.92,171.9,M,-34.4,M,,*56
lng=-77.447120, lat=43.141113, altitude=171.80, speed=39.99, satellites=5, angle=264.9800, fixquality=1
$GPRMC,143527.750,A,4308.4659,N,07726.8354,W,41.31,264.67,140619,,,A*4A
$GPGGA,143528.000,4308.4655,N,07726.8395,W,1,05,1.92,172.1,M,-34.4,M,,*5D
lng=-77.447257, lat=43.141098, altitude=171.90, speed=41.31, satellites=5, angle=264.6700, fixquality=1
$GPRMC,143528.250,A,4308.4651,N,07726.8436,W,41.85,264.26,140619,,,A*41
$GPGGA,143528.500,4308.4647,N,07726.8477,W,1,05,1.92,172.3,M,-34.4,M,,*52
lng=-77.447395, lat=43.141090, altitude=172.10, speed=41.85, satellites=5, angle=264.2600, fixquality=1
$GPRMC,143528.750,A,4308.4644,N,07726.8518,W,42.22,264.37,140619,,,A*43
$GPGGA,143529.000,4308.4640,N,07726.8560,W,1,05,1.92,172.4,M,-34.4,M,,*51
lng=-77.447525, lat=43.141071, altitude=172.30, speed=42.22, satellites=5, angle=264.3700, fixquality=1
$GPRMC,143529.250,A,4308.4636,N,07726.8601,W,42.47,264.51,140619,,,A*4A
$GPGGA,143529.500,4308.4633,N,07726.8643,W,1,05,1.92,172.5,M,-34.4,M,,*53
lng=-77.447662, lat=43.141056, altitude=172.40, speed=42.47, satellites=5, angle=264.5100, fixquality=1
$GPRMC,143529.750,A,4308.4629,N,07726.8684,W,42.79,264.50,140619,,,A*40
$GPGGA,143530.000,4308.4626,N,07726.8725,W,1,05,1.92,172.7,M,-34.4,M,,*59
lng=-77.447799, lat=43.141048, altitude=172.50, speed=42.79, satellites=5, angle=264.5000, fixquality=1
$GPRMC,143530.250,A,4308.4624,N,07726.8766,W,43.01,264.79,140619,,,A*48
$GPGGA,143530.500,4308.4621,N,07726.8807,W,1,05,1.92,172.8,M,-34.4,M,,*5B
lng=-77.447944, lat=43.141040, altitude=172.70, speed=43.01, satellites=5, angle=264.7900, fixquality=1
$GPRMC,143530.750,A,4308.4618,N,07726.8849,W,43.27,264.91,140619,,,A*42
$GPGGA,143531.000,4308.4616,N,07726.8890,W,1,05,1.92,172.9,M,-34.4,M,,*54
lng=-77.448081, lat=43.141033, altitude=172.80, speed=43.27, satellites=5, angle=264.9100, fixquality=1
$GPRMC,143531.250,A,4308.4613,N,07726.8932,W,43.47,265.00,140619,,,A*4F
$GPGGA,143531.500,4308.4611,N,07726.8973,W,1,05,1.92,173.0,M,-34.4,M,,*52
lng=-77.448219, lat=43.141025, altitude=172.90, speed=43.47, satellites=5, angle=265.0000, fixquality=1
$GPRMC,143531.750,A,4308.4608,N,07726.9014,W,43.47,265.11,140619,,,A*4C
$GPGGA,143532.000,4308.4606,N,07726.9055,W,1,05,1.92,173.1,M,-34.4,M,,*5F
lng=-77.448356, lat=43.141014, altitude=173.00, speed=43.47, satellites=5, angle=265.1100, fixquality=1
$GPRMC,143532.250,A,4308.4604,N,07726.9096,W,43.27,265.11,140619,,,A*4A
$GPGGA,143532.500,4308.4601,N,07726.9137,W,1,05,1.92,173.2,M,-34.4,M,,*5B
lng=-77.448493, lat=43.141006, altitude=173.10, speed=43.27, satellites=5, angle=265.1100, fixquality=1
$GPRMC,143532.750,A,4308.4599,N,07726.9177,W,43.29,265.05,140619,,,A*4D
$GPGGA,143533.000,4308.4596,N,07726.9218,W,1,05,1.92,173.3,M,-34.4,M,,*5D
lng=-77.448623, lat=43.140998, altitude=173.20, speed=43.29, satellites=5, angle=265.0500, fixquality=1
$GPRMC,143533.250,A,4308.4593,N,07726.9259,W,43.23,264.79,140619,,,A*4C
$GPGGA,143533.500,4308.4590,N,07726.9300,W,1,05,1.92,173.4,M,-34.4,M,,*51
lng=-77.448760, lat=43.140991, altitude=173.30, speed=43.23, satellites=5, angle=264.7900, fixquality=1
$GPRMC,143533.750,A,4308.4587,N,07726.9341,W,42.98,264.48,140619,,,A*47
$GPGGA,143534.000,4308.4584,N,07726.9382,W,1,05,1.92,173.6,M,-34.4,M,,*5E
lng=-77.448898, lat=43.140975, altitude=173.40, speed=42.98, satellites=5, angle=264.4800, fixquality=1
$GPRMC,143534.250,A,4308.4581,N,07726.9422,W,42.76,264.15,140619,,,A*49
$GPGGA,143534.500,4308.4577,N,07726.9462,W,1,05,1.92,173.7,M,-34.4,M,,*5F
lng=-77.449043, lat=43.140968, altitude=173.60, speed=42.76, satellites=5, angle=264.1500, fixquality=1
$GPRMC,143534.750,A,4308.4574,N,07726.9504,W,42.58,263.99,140619,,,A*4C
$GPGGA,143535.000,4308.4570,N,07726.9545,W,1,05,1.92,173.8,M,-34.4,M,,*57
lng=-77.449172, lat=43.140956, altitude=173.70, speed=42.58, satellites=5, angle=263.9900, fixquality=1
$GPRMC,143535.250,A,4308.4567,N,07726.9585,W,42.59,264.05,140619,,,A*40
$GPGGA,143535.500,4308.4564,N,07726.9626,W,1,05,1.92,173.8,M,-34.4,M,,*51
lng=-77.449310, lat=43.140941, altitude=173.80, speed=42.59, satellites=5, angle=264.0500, fixquality=1
$GPRMC,143535.750,A,4308.4560,N,07726.9668,W,42.57,264.42,140619,,,A*4F
$GPGGA,143536.000,4308.4557,N,07726.9710,W,1,05,1.92,173.9,M,-34.4,M,,*52
lng=-77.449447, lat=43.140933, altitude=173.80, speed=42.57, satellites=5, angle=264.4200, fixquality=1
$GPRMC,143536.250,A,4308.4553,N,07726.9752,W,42.78,264.56,140619,,,A*49
$GPGGA,143536.500,4308.4550,N,07726.9794,W,1,05,1.92,174.0,M,-34.4,M,,*52
lng=-77.449584, lat=43.140918, altitude=173.90, speed=42.78, satellites=5, angle=264.5600, fixquality=1
$GPRMC,143536.750,A,4308.4547,N,07726.9835,W,42.86,264.52,140619,,,A*42
$GPGGA,143537.000,4308.4543,N,07726.9876,W,1,05,1.92,174.2,M,-34.4,M,,*55
lng=-77.449722, lat=43.140911, altitude=174.00, speed=42.86, satellites=5, angle=264.5200, fixquality=1
$GPRMC,143537.250,A,4308.4540,N,07726.9916,W,42.75,264.40,140619,,,A*4E
$GPGGA,143537.500,4308.4537,N,07726.9957,W,1,05,1.92,174.4,M,-34.4,M,,*57
lng=-77.449859, lat=43.140903, altitude=174.20, speed=42.75, satellites=5, angle=264.4000, fixquality=1
$GPRMC,143537.750,A,4308.4534,N,07726.9998,W,42.69,264.45,140619,,,A*46
$GPGGA,143538.000,4308.4531,N,07727.0039,W,1,05,1.92,174.5,M,-34.4,M,,*53
lng=-77.449996, lat=43.140892, altitude=174.40, speed=42.69, satellites=5, angle=264.4500, fixquality=1
$GPRMC,143538.250,A,4308.4528,N,07727.0079,W,42.62,264.57,140619,,,A*47
$GPGGA,143538.500,4308.4525,N,07727.0120,W,1,05,1.92,174.7,M,-34.4,M,,*58
lng=-77.450126, lat=43.140876, altitude=174.50, speed=42.62, satellites=5, angle=264.5700, fixquality=1
$GPRMC,143538.750,A,4308.4522,N,07727.0161,W,42.54,264.65,140619,,,A*44
$GPGGA,143539.000,4308.4520,N,07727.0201,W,1,05,1.92,174.9,M,-34.4,M,,*57
lng=-77.450271, lat=43.140869, altitude=174.70, speed=42.54, satellites=5, angle=264.6500, fixquality=1
$GPRMC,143539.250,A,4308.4517,N,07727.0242,W,42.46,264.94,140619,,,A*49
$GPGGA,143539.500,4308.4514,N,07727.0283,W,1,05,1.92,175.1,M,-34.4,M,,*56
lng=-77.450408, lat=43.140861, altitude=174.90, speed=42.46, satellites=5, angle=264.9400, fixquality=1
$GPRMC,143539.750,A,4308.4511,N,07727.0324,W,42.43,265.22,140619,,,A*42
$GPGGA,143540.000,4308.4509,N,07727.0364,W,1,05,1.92,175.2,M,-34.4,M,,*5A
lng=-77.450538, lat=43.140853, altitude=175.10, speed=42.43, satellites=5, angle=265.2200, fixquality=1
$GPRMC,143540.250,A,4308.4507,N,07727.0404,W,42.42,265.94,140619,,,A*47
$GPGGA,143540.500,4308.4506,N,07727.0445,W,1,05,1.92,175.4,M,-34.4,M,,*52
lng=-77.450675, lat=43.140846, altitude=175.20, speed=42.42, satellites=5, angle=265.9400, fixquality=1
$GPRMC,143540.750,A,4308.4504,N,07727.0485,W,42.44,266.46,140619,,,A*42
$GPGGA,143541.000,4308.4503,N,07727.0525,W,1,05,1.92,175.5,M,-34.4,M,,*55
lng=-77.450805, lat=43.140834, altitude=175.40, speed=42.44, satellites=5, angle=266.4600, fixquality=1
$GPRMC,143541.250,A,4308.4502,N,07727.0564,W,42.45,266.98,140619,,,A*4C
$GPGGA,143541.500,4308.4501,N,07727.0605,W,1,05,1.92,175.6,M,-34.4,M,,*50
lng=-77.450942, lat=43.140834, altitude=175.50, speed=42.45, satellites=5, angle=266.9800, fixquality=1
$GPRMC,143541.750,A,4308.4500,N,07727.0647,W,42.67,267.59,140619,,,A*45
$GPGGA,143542.000,4308.4499,N,07727.0689,W,1,05,1.92,175.7,M,-34.4,M,,*53
lng=-77.451080, lat=43.140834, altitude=175.60, speed=42.67, satellites=5, angle=267.5900, fixquality=1
$GPRMC,143542.250,A,4308.4499,N,07727.0731,W,42.94,268.65,140619,,,A*4E
$GPGGA,143542.500,4308.4499,N,07727.0773,W,1,05,1.92,175.7,M,-34.4,M,,*52
lng=-77.451217, lat=43.140827, altitude=175.70, speed=42.94, satellites=5, angle=268.6500, fixquality=1
$GPRMC,143542.750,A,4308.4499,N,07727.0815,W,43.24,269.57,140619,,,A*48
$GPGGA,143543.000,4308.4501,N,07727.0856,W,1,05,1.92,175.8,M,-34.4,M,,*51
lng=-77.451362, lat=43.140827, altitude=175.70, speed=43.24, satellites=5, angle=269.5700, fixquality=1
$GPRMC,143543.250,A,4308.4504,N,07727.0896,W,43.22,271.31,140619,,,A*4D
$GPGGA,143543.500,4308.4507,N,07727.0936,W,1,05,1.92,175.8,M,-34.4,M,,*55
lng=-77.451499, lat=43.140834, altitude=175.80, speed=43.22, satellites=5, angle=271.3100, fixquality=1
$GPRMC,143543.750,A,4308.4511,N,07727.0976,W,43.24,272.98,140619,,,A*45
$GPGGA,143544.000,4308.4515,N,07727.1016,W,1,05,1.92,175.9,M,-34.4,M,,*5F
lng=-77.451629, lat=43.140853, altitude=175.80, speed=43.24, satellites=5, angle=272.9800, fixquality=1
$GPRMC,143544.250,A,4308.4518,N,07727.1055,W,42.97,274.42,140619,,,A*4F
$GPGGA,143544.500,4308.4523,N,07727.1093,W,1,05,1.92,176.0,M,-34.4,M,,*58
lng=-77.451759, lat=43.140861, altitude=175.90, speed=42.97, satellites=5, angle=274.4200, fixquality=1
$GPRMC,143544.750,A,4308.4528,N,07727.1132,W,41.86,275.90,140619,,,A*44
$GPGGA,143545.000,4308.4533,N,07727.1170,W,1,05,1.92,176.1,M,-34.4,M,,*50
lng=-77.451889, lat=43.140876, altitude=176.00, speed=41.86, satellites=5, angle=275.9000, fixquality=1
$GPRMC,143545.250,A,4308.4537,N,07727.1208,W,41.56,277.14,140619,,,A*47
$GPGGA,143545.500,4308.4542,N,07727.1247,W,1,05,1.92,176.3,M,-34.4,M,,*56
lng=-77.452011, lat=43.140892, altitude=176.10, speed=41.56, satellites=5, angle=277.1400, fixquality=1
$GPRMC,143545.750,A,4308.4547,N,07727.1285,W,40.98,278.17,140619,,,A*4F
$GPGGA,143546.000,4308.4552,N,07727.1323,W,1,05,1.92,176.4,M,-34.4,M,,*55
lng=-77.452140, lat=43.140911, altitude=176.30, speed=40.98, satellites=5, angle=278.1700, fixquality=1
$GPRMC,143546.250,A,4308.4557,N,07727.1361,W,40.85,278.93,140619,,,A*43
$GPGGA,143546.500,4308.4562,N,07727.1399,W,1,05,1.92,176.6,M,-34.4,M,,*50
lng=-77.452270, lat=43.140926, altitude=176.40, speed=40.85, satellites=5, angle=278.9300, fixquality=1
$GPRMC,143546.750,A,4308.4567,N,07727.1436,W,39.83,279.36,140619,,,A*46
$GPGGA,143547.000,4308.4572,N,07727.1473,W,1,05,1.92,176.7,M,-34.4,M,,*57
lng=-77.452392, lat=43.140941, altitude=176.60, speed=39.83, satellites=5, angle=279.3600, fixquality=1
$GPRMC,143547.250,A,4308.4576,N,07727.1510,W,39.37,279.13,140619,,,A*4F
$GPGGA,143547.500,4308.4581,N,07727.1547,W,1,05,1.92,176.9,M,-34.4,M,,*56
lng=-77.452514, lat=43.140956, altitude=176.70, speed=39.37, satellites=5, angle=279.1300, fixquality=1
$GPRMC,143547.750,A,4308.4585,N,07727.1584,W,39.02,279.25,140619,,,A*48
$GPGGA,143548.000,4308.4589,N,07727.1620,W,1,05,1.92,176.9,M,-34.4,M,,*56
lng=-77.452636, lat=43.140975, altitude=176.90, speed=39.02, satellites=5, angle=279.2500, fixquality=1
$GPRMC,143548.250,A,4308.4594,N,07727.1657,W,38.90,279.53,140619,,,A*44
$GPGGA,143548.500,4308.4598,N,07727.1693,W,1,05,1.92,177.0,M,-34.4,M,,*53
lng=-77.452758, lat=43.140991, altitude=176.90, speed=38.90, satellites=5, angle=279.5300, fixquality=1
$GPRMC,143548.750,A,4308.4602,N,07727.1729,W,38.18,279.62,140619,,,A*47
$GPGGA,143549.000,4308.4606,N,07727.1764,W,1,05,1.92,177.1,M,-34.4,M,,*5B
lng=-77.452880, lat=43.140998, altitude=177.00, speed=38.18, satellites=5, angle=279.6200, fixquality=1
$GPRMC,143549.250,A,4308.4610,N,07727.1801,W,38.04,279.49,140619,,,A*41
$GPGGA,143549.500,4308.4615,N,07727.1837,W,1,05,1.92,177.2,M,-34.4,M,,*56
lng=-77.453002, lat=43.141014, altitude=177.10, speed=38.04, satellites=5, angle=279.4900, fixquality=1
$GPRMC,143549.750,A,4308.4619,N,07727.1872,W,38.14,279.65,140619,,,A*46
$GPGGA,143550.000,4308.4624,N,07727.1908,W,1,05,1.92,177.2,M,-34.4,M,,*54
lng=-77.453117, lat=43.141033, altitude=177.20, speed=38.14, satellites=5, angle=279.6500, fixquality=1
$GPRMC,143550.250,A,4308.4628,N,07727.1944,W,38.14,279.64,140619,,,A*4C
$GPGGA,143550.500,4308.4632,N,07727.1980,W,1,05,1.92,177.3,M,-34.4,M,,*57
lng=-77.453239, lat=43.141048, altitude=177.20, speed=38.14, satellites=5, angle=279.6400, fixquality=1
$GPRMC,143550.750,A,4308.4636,N,07727.2016,W,38.19,279.46,140619,,,A*46
$GPGGA,143551.000,4308.4641,N,07727.2052,W,1,05,1.92,177.4,M,-34.4,M,,*55
lng=-77.453361, lat=43.141056, altitude=177.30, speed=38.19, satellites=5, angle=279.4600, fixquality=1
$GPRMC,143551.250,A,4308.4646,N,07727.2087,W,38.19,279.65,140619,,,A*4C
$GPGGA,143551.500,4308.4650,N,07727.2123,W,1,05,1.92,177.5,M,-34.4,M,,*56
lng=-77.453475, lat=43.141071, altitude=177.40, speed=38.19, satellites=5, angle=279.6500, fixquality=1
$GPRMC,143551.750,A,4308.4656,N,07727.2158,W,38.14,279.68,140619,,,A*4B
$GPGGA,143552.000,4308.4660,N,07727.2193,W,1,05,1.92,177.5,M,-34.4,M,,*58
lng=-77.453598, lat=43.141098, altitude=177.50, speed=38.14, satellites=5, angle=279.6800, fixquality=1
$GPRMC,143552.250,A,4308.4665,N,07727.2228,W,38.10,279.35,140619,,,A*45
$GPGGA,143552.500,4308.4669,N,07727.2264,W,1,05,1.92,177.7,M,-34.4,M,,*5D
lng=-77.453712, lat=43.141105, altitude=177.50, speed=38.10, satellites=5, angle=279.3500, fixquality=1
$GPRMC,143552.750,A,4308.4673,N,07727.2300,W,38.08,278.96,140619,,,A*4D
$GPGGA,143553.000,4308.4678,N,07727.2335,W,1,05,1.92,177.8,M,-34.4,M,,*53
lng=-77.453834, lat=43.141120, altitude=177.70, speed=38.08, satellites=5, angle=278.9600, fixquality=1
$GPRMC,143553.250,A,4308.4682,N,07727.2371,W,38.07,278.50,140619,,,A*44
$GPGGA,143553.500,4308.4686,N,07727.2406,W,1,05,1.92,178.0,M,-34.4,M,,*57
lng=-77.453956, lat=43.141136, altitude=177.80, speed=38.07, satellites=5, angle=278.5000, fixquality=1
$GPRMC,143553.750,A,4308.4690,N,07727.2441,W,38.03,278.40,140619,,,A*43
$GPGGA,143554.000,4308.4694,N,07727.2477,W,1,05,1.92,178.1,M,-34.4,M,,*51
lng=-77.454071, lat=43.141155, altitude=178.00, speed=38.03, satellites=5, angle=278.4000, fixquality=1
$GPRMC,143554.250,A,4308.4698,N,07727.2512,W,37.98,278.56,140619,,,A*44
$GPGGA,143554.500,4308.4702,N,07727.2548,W,1,05,1.92,178.3,M,-34.4,M,,*55
lng=-77.454185, lat=43.141162, altitude=178.10, speed=37.98, satellites=5, angle=278.5600, fixquality=1
$GPRMC,143554.750,A,4308.4706,N,07727.2583,W,37.89,278.50,140619,,,A*49
$GPGGA,143555.000,4308.4710,N,07727.2619,W,1,05,1.92,178.4,M,-34.4,M,,*52
lng=-77.454307, lat=43.141178, altitude=178.30, speed=37.89, satellites=5, angle=278.5000, fixquality=1
$GPRMC,143555.250,A,4308.4714,N,07727.2654,W,37.86,278.57,140619,,,A*4F
$GPGGA,143555.500,4308.4719,N,07727.2689,W,1,05,1.92,178.5,M,-34.4,M,,*56
lng=-77.454429, lat=43.141185, altitude=178.40, speed=37.86, satellites=5, angle=278.5700, fixquality=1
$GPRMC,143555.750,A,4308.4723,N,07727.2725,W,37.93,278.84,140619,,,A*43
$GPGGA,143556.000,4308.4727,N,07727.2760,W,1,05,1.92,178.7,M,-34.4,M,,*59
lng=-77.454544, lat=43.141201, altitude=178.50, speed=37.93, satellites=5, angle=278.8400, fixquality=1
$GPRMC,143556.250,A,4308.4731,N,07727.2796,W,38.21,279.01,140619,,,A*44
$GPGGA,143556.500,4308.4736,N,07727.2832,W,1,05,1.92,178.9,M,-34.4,M,,*5A
lng=-77.454666, lat=43.141220, altitude=178.70, speed=38.21, satellites=5, angle=279.0100, fixquality=1
$GPRMC,143556.750,A,4308.4740,N,07727.2868,W,38.30,279.24,140619,,,A*4E
$GPGGA,143557.000,4308.4744,N,07727.2904,W,1,05,1.92,179.0,M,-34.4,M,,*57
lng=-77.454780, lat=43.141235, altitude=178.90, speed=38.30, satellites=5, angle=279.2400, fixquality=1
$GPRMC,143557.250,A,4308.4748,N,07727.2940,W,38.58,279.07,140619,,,A*46
$GPGGA,143557.500,4308.4751,N,07727.2977,W,1,05,1.92,179.2,M,-34.4,M,,*50
lng=-77.454902, lat=43.141242, altitude=179.00, speed=38.58, satellites=5, angle=279.0700, fixquality=1
$GPRMC,143557.750,A,4308.4755,N,07727.3013,W,38.77,278.77,140619,,,A*4A
$GPGGA,143558.000,4308.4759,N,07727.3049,W,1,05,1.92,179.4,M,-34.4,M,,*51
lng=-77.455024, lat=43.141258, altitude=179.20, speed=38.77, satellites=5, angle=278.7700, fixquality=1
$GPRMC,143558.250,A,4308.4762,N,07727.3086,W,39.12,278.55,140619,,,A*4A
$GPGGA,143558.500,4308.4767,N,07727.3122,W,1,05,1.92,179.5,M,-34.4,M,,*54
lng=-77.455146, lat=43.141269, altitude=179.40, speed=39.12, satellites=5, angle=278.5500, fixquality=1
$GPRMC,143558.750,A,4308.4771,N,07727.3159,W,39.13,278.80,140619,,,A*47
$GPGGA,143559.000,4308.4774,N,07727.3196,W,1,05,1.92,179.6,M,-34.4,M,,*5E
lng=-77.455268, lat=43.141284, altitude=179.50, speed=39.13, satellites=5, angle=278.8000, fixquality=1
$GPRMC,143559.250,A,4308.4778,N,07727.3233,W,39.24,278.74,140619,,,A*4A
$GPGGA,143559.500,4308.4782,N,07727.3270,W,1,05,1.92,179.7,M,-34.4,M,,*58
lng=-77.455390, lat=43.141300, altitude=179.60, speed=39.24, satellites=5, angle=278.7400, fixquality=1
$GPRMC,143559.750,A,4308.4786,N,07727.3307,W,39.67,278.43,140619,,,A*4B
$GPGGA,143600.000,4308.4790,N,07727.3344,W,1,05,1.92,179.9,M,-34.4,M,,*59
lng=-77.455513, lat=43.141307, altitude=179.70, speed=39.67, satellites=5, angle=278.4300, fixquality=1
$GPRMC,143600.250,A,4308.4794,N,07727.3382,W,39.87,278.70,140619,,,A*41
$GPGGA,143600.500,4308.4799,N,07727.3419,W,1,05,1.92,180.0,M,-34.4,M,,*55
lng=-77.455642, lat=43.141323, altitude=179.90, speed=39.87, satellites=5, angle=278.7000, fixquality=1
$GPRMC,143600.750,A,4308.4803,N,07727.3457,W,39.86,279.07,140619,,,A*4A
$GPGGA,143601.000,4308.4808,N,07727.3494,W,1,05,1.92,180.2,M,-34.4,M,,*51
lng=-77.455764, lat=43.141342, altitude=180.00, speed=39.86, satellites=5, angle=279.0700, fixquality=1
$GPRMC,143601.250,A,4308.4812,N,07727.3531,W,39.82,279.29,140619,,,A*47
$GPGGA,143601.500,4308.4817,N,07727.3569,W,1,05,1.92,180.4,M,-34.4,M,,*5F
lng=-77.455886, lat=43.141349, altitude=180.20, speed=39.82, satellites=5, angle=279.2900, fixquality=1
$GPRMC,143601.750,A,4308.4822,N,07727.3606,W,40.03,279.21,140619,,,A*49
$GPGGA,143602.000,4308.4827,N,07727.3644,W,1,05,1.92,180.6,M,-34.4,M,,*54
lng=-77.456016, lat=43.141372, altitude=180.40, speed=40.03, satellites=5, angle=279.2100, fixquality=1
$GPRMC,143602.250,A,4308.4831,N,07727.3682,W,40.11,278.89,140619,,,A*41
$GPGGA,143602.500,4308.4835,N,07727.3720,W,1,05,1.92,180.7,M,-34.4,M,,*50
lng=-77.456138, lat=43.141380, altitude=180.60, speed=40.11, satellites=5, angle=278.8900, fixquality=1
$GPRMC,143602.750,A,4308.4840,N,07727.3757,W,40.18,278.64,140619,,,A*41
$GPGGA,143603.000,4308.4844,N,07727.3795,W,1,05,1.92,180.9,M,-34.4,M,,*52
lng=-77.456260, lat=43.141399, altitude=180.70, speed=40.18, satellites=5, angle=278.6400, fixquality=1
$GPRMC,143603.250,A,4308.4848,N,07727.3833,W,40.24,278.39,140619,,,A*47
$GPGGA,143603.500,4308.4852,N,07727.3871,W,1,05,1.92,181.0,M,-34.4,M,,*5D
lng=-77.456390, lat=43.141414, altitude=180.90, speed=40.24, satellites=5, angle=278.3900, fixquality=1
$GPRMC,143603.750,A,4308.4857,N,07727.3909,W,40.45,278.30,140619,,,A*4A
$GPGGA,143604.000,4308.4861,N,07727.3947,W,1,05,1.92,181.1,M,-34.4,M,,*5A
lng=-77.456520, lat=43.141429, altitude=181.00, speed=40.45, satellites=5, angle=278.3000, fixquality=1
$GPRMC,143604.250,A,4308.4865,N,07727.3985,W,40.46,278.28,140619,,,A*47
$GPGGA,143604.500,4308.4869,N,07727.4022,W,1,05,1.92,181.3,M,-34.4,M,,*58
lng=-77.456642, lat=43.141437, altitude=181.10, speed=40.46, satellites=5, angle=278.2800, fixquality=1
$GPRMC,143604.750,A,4308.4873,N,07727.4060,W,40.38,278.36,140619,,,A*46
$GPGGA,143605.000,4308.4877,N,07727.4098,W,1,05,1.92,181.4,M,-34.4,M,,*55
lng=-77.456764, lat=43.141456, altitude=181.30, speed=40.38, satellites=5, angle=278.3600, fixquality=1
$GPRMC,143605.250,A,4308.4880,N,07727.4136,W,40.34,278.06,140619,,,A*43
$GPGGA,143605.500,4308.4884,N,07727.4174,W,1,05,1.92,181.6,M,-34.4,M,,*5D
lng=-77.456893, lat=43.141464, altitude=181.40, speed=40.34, satellites=5, angle=278.0600, fixquality=1
$GPRMC,143605.750,A,4308.4888,N,07727.4212,W,40.48,278.17,140619,,,A*40
$GPGGA,143606.000,4308.4891,N,07727.4250,W,1,05,1.92,181.7,M,-34.4,M,,*5B
lng=-77.457023, lat=43.141479, altitude=181.60, speed=40.48, satellites=5, angle=278.1700, fixquality=1
$GPRMC,143606.250,A,4308.4895,N,07727.4289,W,40.48,278.02,140619,,,A*4C
$GPGGA,143606.500,4308.4899,N,07727.4327,W,1,05,1.92,181.9,M,-34.4,M,,*59
lng=-77.457145, lat=43.141487, altitude=181.70, speed=40.48, satellites=5, angle=278.0200, fixquality=1
$GPRMC,143606.750,A,4308.4903,N,07727.4365,W,40.53,278.02,140619,,,A*4E
$GPGGA,143607.000,4308.4907,N,07727.4403,W,1,05,1.92,182.0,M,-34.4,M,,*50
lng=-77.457275, lat=43.141502, altitude=181.90, speed=40.53, satellites=5, angle=278.0200, fixquality=1
$GPRMC,143607.250,A,4308.4911,N,07727.4441,W,40.50,277.94,140619,,,A*4B
$GPGGA,143607.500,4308.4915,N,07727.4479,W,1,05,1.92,182.2,M,-34.4,M,,*59
lng=-77.457405, lat=43.141521, altitude=182.00, speed=40.50, satellites=5, angle=277.9400, fixquality=1
$GPRMC,143607.750,A,4308.4919,N,07727.4517,W,40.44,278.12,140619,,,A*40
$GPGGA,143608.000,4308.4924,N,07727.4555,W,1,05,1.92,182.4,M,-34.4,M,,*58
lng=-77.457527, lat=43.141529, altitude=182.20, speed=40.44, satellites=5, angle=278.1200, fixquality=1
$GPRMC,143608.250,A,4308.4928,N,07727.4594,W,40.74,278.87,140619,,,A*4C
$GPGGA,143608.500,4308.4933,N,07727.4632,W,1,05,1.92,182.6,M,-34.4,M,,*5B
lng=-77.457656, lat=43.141544, altitude=182.40, speed=40.74, satellites=5, angle=278.8700, fixquality=1
$GPRMC,143608.750,A,4308.4938,N,07727.4670,W,40.82,279.73,140619,,,A*42
$GPGGA,143609.000,4308.4944,N,07727.4708,W,1,05,1.92,182.7,M,-34.4,M,,*56
lng=-77.457778, lat=43.141559, altitude=182.60, speed=40.82, satellites=5, angle=279.7300, fixquality=1
$GPRMC,143609.250,A,4308.4949,N,07727.4747,W,41.10,280.02,140619,,,A*4F
$GPGGA,143609.500,4308.4954,N,07727.4785,W,1,05,1.92,182.8,M,-34.4,M,,*58
lng=-77.457908, lat=43.141586, altitude=182.70, speed=41.10, satellites=5, angle=280.0200, fixquality=1
$GPRMC,143609.750,A,4308.4959,N,07727.4823,W,41.28,279.70,140619,,,A*4E
$GPGGA,143610.000,4308.4964,N,07727.4861,W,1,05,1.92,182.8,M,-34.4,M,,*53
lng=-77.458038, lat=43.141601, altitude=182.80, speed=41.28, satellites=5, angle=279.7000, fixquality=1
$GPRMC,143610.250,A,4308.4969,N,07727.4899,W,40.97,279.79,140619,,,A*4D
$GPGGA,143610.500,4308.4974,N,07727.4937,W,1,05,1.92,182.9,M,-34.4,M,,*54
lng=-77.458160, lat=43.141616, altitude=182.80, speed=40.97, satellites=5, angle=279.7900, fixquality=1
$GPRMC,143610.750,A,4308.4979,N,07727.4975,W,40.90,279.80,140619,,,A*4B
$GPGGA,143611.000,4308.4984,N,07727.5013,W,1,05,1.92,183.1,M,-34.4,M,,*58
lng=-77.458290, lat=43.141635, altitude=182.90, speed=40.90, satellites=5, angle=279.8000, fixquality=1
$GPRMC,143611.250,A,4308.4989,N,07727.5051,W,40.78,279.60,140619,,,A*46
$GPGGA,143611.500,4308.4994,N,07727.5089,W,1,05,1.92,183.4,M,-34.4,M,,*5A
lng=-77.458412, lat=43.141651, altitude=183.10, speed=40.78, satellites=5, angle=279.6000, fixquality=1
$GPRMC,143611.750,A,4308.4999,N,07727.5127,W,40.75,279.32,140619,,,A*48
$GPGGA,143612.000,4308.5003,N,07727.5165,W,1,05,1.92,183.6,M,-34.4,M,,*5B
lng=-77.458541, lat=43.141666, altitude=183.40, speed=40.75, satellites=5, angle=279.3200, fixquality=1
$GPRMC,143612.250,A,4308.5008,N,07727.5203,W,40.73,279.08,140619,,,A*44
$GPGGA,143612.500,4308.5013,N,07727.5241,W,1,05,1.92,183.9,M,-34.4,M,,*55
lng=-77.458671, lat=43.141681, altitude=183.60, speed=40.73, satellites=5, angle=279.0800, fixquality=1
$GPRMC,143612.750,A,4308.5017,N,07727.5279,W,40.75,278.78,140619,,,A*42
$GPGGA,143613.000,4308.5022,N,07727.5318,W,1,05,1.92,184.1,M,-34.4,M,,*51
lng=-77.458793, lat=43.141689, altitude=183.90, speed=40.75, satellites=5, angle=278.7800, fixquality=1
$GPRMC,143613.250,A,4308.5026,N,07727.5356,W,40.82,278.63,140619,,,A*4A
$GPGGA,143613.500,4308.5030,N,07727.5394,W,1,05,1.92,184.4,M,-34.4,M,,*56
lng=-77.458930, lat=43.141708, altitude=184.10, speed=40.82, satellites=5, angle=278.6300, fixquality=1
$GPRMC,143613.750,A,4308.5035,N,07727.5431,W,40.49,278.64,140619,,,A*4B
$GPGGA,143614.000,4308.5039,N,07727.5469,W,1,05,1.92,184.6,M,-34.4,M,,*5A
lng=-77.459053, lat=43.141723, altitude=184.40, speed=40.49, satellites=5, angle=278.6400, fixquality=1
$GPRMC,143614.250,A,4308.5043,N,07727.5508,W,40.56,278.71,140619,,,A*49
$GPGGA,143614.500,4308.5048,N,07727.5545,W,1,05,1.92,184.8,M,-34.4,M,,*58
lng=-77.459182, lat=43.141738, altitude=184.60, speed=40.56, satellites=5, angle=278.7100, fixquality=1
$GPRMC,143614.750,A,4308.5052,N,07727.5583,W,40.57,279.02,140619,,,A*4B
$GPGGA,143615.000,4308.5057,N,07727.5621,W,1,05,1.92,185.0,M,-34.4,M,,*5A
lng=-77.459304, lat=43.141757, altitude=184.80, speed=40.57, satellites=5, angle=279.0200, fixquality=1
$GPRMC,143615.250,A,4308.5061,N,07727.5659,W,40.53,279.22,140619,,,A*4D
$GPGGA,143615.500,4308.5065,N,07727.5697,W,1,05,1.92,185.2,M,-34.4,M,,*51
lng=-77.459434, lat=43.141765, altitude=185.00, speed=40.53, satellites=5, angle=279.2200, fixquality=1
$GPRMC,143615.750,A,4308.5069,N,07727.5735,W,40.47,279.11,140619,,,A*4E
$GPGGA,143616.000,4308.5073,N,07727.5773,W,1,05,1.92,185.5,M,-34.4,M,,*5C
lng=-77.459564, lat=43.141780, altitude=185.20, speed=40.47, satellites=5, angle=279.1100, fixquality=1
$GPRMC,143616.250,A,4308.5077,N,07727.5811,W,40.50,278.75,140619,,,A*4B
$GPGGA,143616.500,4308.5082,N,07727.5849,W,1,05,1.92,185.8,M,-34.4,M,,*5C
lng=-77.459686, lat=43.141796, altitude=185.50, speed=40.50, satellites=5, angle=278.7500, fixquality=1
$GPRMC,143616.750,A,4308.5086,N,07727.5887,W,40.31,278.60,140619,,,A*4C
$GPGGA,143617.000,4308.5091,N,07727.5925,W,1,05,1.92,186.1,M,-34.4,M,,*5B
lng=-77.459815, lat=43.141811, altitude=185.80, speed=40.31, satellites=5, angle=278.6000, fixquality=1
$GPRMC,143617.250,A,4308.5095,N,07727.5963,W,39.53,278.32,140619,,,A*4C
$GPGGA,143617.500,4308.5099,N,07727.6000,W,1,05,1.92,186.0,M,-34.4,M,,*5A
lng=-77.459938, lat=43.141822, altitude=186.10, speed=39.53, satellites=5, angle=278.3200, fixquality=1
$GPRMC,143617.750,A,4308.5104,N,07727.6037,W,39.30,278.10,140619,,,A*4E
$GPGGA,143618.000,4308.5107,N,07727.6074,W,1,05,1.92,185.9,M,-34.4,M,,*5F
lng=-77.460060, lat=43.141838, altitude=186.00, speed=39.30, satellites=5, angle=278.1000, fixquality=1
$GPRMC,143618.250,A,4308.5111,N,07727.6111,W,39.26,277.99,140619,,,A*4C
$GPGGA,143618.500,4308.5115,N,07727.6148,W,1,05,1.92,185.8,M,-34.4,M,,*56
lng=-77.460189, lat=43.141853, altitude=185.90, speed=39.26, satellites=5, angle=277.9900, fixquality=1
$GPRMC,143618.750,A,4308.5119,N,07727.6185,W,39.03,278.61,140619,,,A*43
$GPGGA,143619.000,4308.5123,N,07727.6221,W,1,05,1.92,185.7,M,-34.4,M,,*54
lng=-77.460311, lat=43.141860, altitude=185.80, speed=39.03, satellites=5, angle=278.6100, fixquality=1
$GPRMC,143619.250,A,4308.5128,N,07727.6257,W,38.61,279.34,140619,,,A*4D
$GPGGA,143619.500,4308.5132,N,07727.6293,W,1,05,1.92,185.5,M,-34.4,M,,*5A
lng=-77.460426, lat=43.141880, altitude=185.70, speed=38.61, satellites=5, angle=279.3400, fixquality=1
$GPRMC,143619.750,A,4308.5136,N,07727.6329,W,38.38,279.90,140619,,,A*4D
$GPGGA,143620.000,4308.5141,N,07727.6364,W,1,05,1.92,185.4,M,-34.4,M,,*59
lng=-77.460548, lat=43.141895, altitude=185.50, speed=38.38, satellites=5, angle=279.9000, fixquality=1
$GPRMC,143620.250,A,4308.5144,N,07727.6400,W,38.07,279.16,140619,,,A*49
$GPGGA,143620.500,4308.5148,N,07727.6435,W,1,05,1.92,185.4,M,-34.4,M,,*56
lng=-77.460670, lat=43.141902, altitude=185.40, speed=38.07, satellites=5, angle=279.1600, fixquality=1
$GPRMC,143620.750,A,4308.5152,N,07727.6471,W,37.75,278.47,140619,,,A*42
$GPGGA,143621.000,4308.5156,N,07727.6507,W,1,05,1.92,185.4,M,-34.4,M,,*5D
lng=-77.460784, lat=43.141918, altitude=185.40, speed=37.75, satellites=5, angle=278.4700, fixquality=1
$GPRMC,143621.250,A,4308.5159,N,07727.6543,W,37.62,277.92,140619,,,A*4C
$GPGGA,143621.500,4308.5163,N,07727.6578,W,1,05,1.92,185.3,M,-34.4,M,,*51
lng=-77.460906, lat=43.141933, altitude=185.40, speed=37.62, satellites=5, angle=277.9200, fixquality=1
$GPRMC,143621.750,A,4308.5166,N,07727.6613,W,37.23,277.56,140619,,,A*4E
$GPGGA,143622.000,4308.5170,N,07727.6648,W,1,05,1.92,185.3,M,-34.4,M,,*55
lng=-77.461021, lat=43.141944, altitude=185.30, speed=37.23, satellites=5, angle=277.5600, fixquality=1
$GPRMC,143622.250,A,4308.5173,N,07727.6683,W,37.00,277.28,140619,,,A*4D
$GPGGA,143622.500,4308.5176,N,07727.6718,W,1,05,1.92,185.4,M,-34.4,M,,*55
lng=-77.461143, lat=43.141952, altitude=185.30, speed=37.00, satellites=5, angle=277.2800, fixquality=1
$GPRMC,143622.750,A,4308.5179,N,07727.6752,W,36.87,276.23,140619,,,A*4B
$GPGGA,143623.000,4308.5182,N,07727.6786,W,1,05,1.92,185.4,M,-34.4,M,,*5D
lng=-77.461257, lat=43.141967, altitude=185.40, speed=36.87, satellites=5, angle=276.2300, fixquality=1
$GPRMC,143623.250,A,4308.5184,N,07727.6820,W,35.05,275.92,140619,,,A*47
$GPGGA,143623.500,4308.5187,N,07727.6853,W,1,05,1.92,185.4,M,-34.4,M,,*5A
lng=-77.461372, lat=43.141975, altitude=185.40, speed=35.05, satellites=5, angle=275.9200, fixquality=1
$GPRMC,143623.750,A,4308.5189,N,07727.6885,W,33.67,274.99,140619,,,A*48
$GPGGA,143624.000,4308.5192,N,07727.6916,W,1,05,1.92,185.5,M,-34.4,M,,*5D
lng=-77.461471, lat=43.141983, altitude=185.40, speed=33.67, satellites=5, angle=274.9900, fixquality=1
$GPRMC,143624.250,A,4308.5194,N,07727.6946,W,32.14,274.40,140619,,,A*49
$GPGGA,143624.500,4308.5196,N,07727.6976,W,1,05,1.92,185.5,M,-34.4,M,,*5A
lng=-77.461578, lat=43.141990, altitude=185.50, speed=32.14, satellites=5, angle=274.4000, fixquality=1
$GPRMC,143624.750,A,4308.5198,N,07727.7004,W,30.56,274.18,140619,,,A*47
$GPGGA,143625.000,4308.5200,N,07727.7033,W,1,05,1.92,185.6,M,-34.4,M,,*58
lng=-77.461669, lat=43.142002, altitude=185.50, speed=30.56, satellites=5, angle=274.1800, fixquality=1
$GPRMC,143625.250,A,4308.5202,N,07727.7061,W,29.88,273.93,140619,,,A*4F
$GPGGA,143625.500,4308.5203,N,07727.7088,W,1,05,1.92,185.6,M,-34.4,M,,*5E
lng=-77.461769, lat=43.142002, altitude=185.60, speed=29.88, satellites=5, angle=273.9300, fixquality=1
$GPRMC,143625.750,A,4308.5205,N,07727.7115,W,29.37,273.72,140619,,,A*44
$GPGGA,143626.000,4308.5207,N,07727.7142,W,1,05,1.92,185.7,M,-34.4,M,,*5A
lng=-77.461860, lat=43.142009, altitude=185.60, speed=29.37, satellites=5, angle=273.7200, fixquality=1
$GPRMC,143626.250,A,4308.5211,N,07727.7166,W,29.22,273.89,140619,,,A*43
$GPGGA,143626.500,4308.5213,N,07727.7192,W,1,06,1.31,185.2,M,-34.4,M,,*58
lng=-77.461944, lat=43.142017, altitude=185.70, speed=29.22, satellites=5, angle=273.8900, fixquality=1
$GPRMC,143626.750,A,4308.5215,N,07727.7218,W,28.64,274.35,140619,,,A*4B
$GPGGA,143627.000,4308.5217,N,07727.7244,W,1,06,1.31,185.1,M,-34.4,M,,*53
lng=-77.462028, lat=43.142024, altitude=185.20, speed=28.64, satellites=6, angle=274.3500, fixquality=1
$GPRMC,143627.250,A,4308.5214,N,07727.7271,W,28.56,269.13,140619,,,A*48
$GPGGA,143627.500,4308.5215,N,07727.7297,W,1,06,1.31,185.1,M,-34.4,M,,*5A
lng=-77.462120, lat=43.142024, altitude=185.10, speed=28.56, satellites=6, angle=269.1300, fixquality=1
$GPRMC,143627.750,A,4308.5215,N,07727.7324,W,28.40,271.13,140619,,,A*43
$GPGGA,143628.000,4308.5216,N,07727.7349,W,1,06,1.31,185.0,M,-34.4,M,,*50
lng=-77.462203, lat=43.142024, altitude=185.10, speed=28.40, satellites=6, angle=271.1300, fixquality=1
