Vers 60
USE_SERIAL_FEEDBACK=true
DEVELOPMENT_MODE=false
USE_RMC_ONLY=false

$GPRMC,132314.500,A,4308.3078,N,07726.2637,W,0.09,66.48,170619,,,A*45
$GPGGA,132314.750,4308.3077,N,07726.2638,W,1,09,0.94,152.7,M,-34.4,M,,*56
lng=-77.437728, lat=43.138462, altitude=152.70, speed=0.09, satellites=9, angle=66.4800, fixquality=1
$GPRMC,132315.000,A,4308.3077,N,07726.2637,W,0.24,84.70,170619,,,A*46
$GPGGA,132315.250,4308.3076,N,07726.2638,W,1,09,0.94,152.7,M,-34.4,M,,*53
lng=-77.437728, lat=43.138462, altitude=152.70, speed=0.24, satellites=9, angle=84.7000, fixquality=1
$GPRMC,132315.500,A,4308.3077,N,07726.2638,W,0.30,46.20,170619,,,A*42
$GPGGA,132315.750,4308.3077,N,07726.2638,W,1,09,0.94,152.7,M,-34.4,M,,*57
lng=-77.437728, lat=43.138462, altitude=152.70, speed=0.30, satellites=9, angle=46.2000, fixquality=1
$GPRMC,132316.000,A,4308.3076,N,07726.2638,W,0.26,42.12,170619,,,A*47
$GPGGA,132316.250,4308.3076,N,07726.2638,W,1,08,1.01,152.8,M,-34.4,M,,*53
lng=-77.437728, lat=43.138462, altitude=152.70, speed=0.26, satellites=9, angle=42.1200, fixquality=1
$GPRMC,132316.500,A,4308.3077,N,07726.2638,W,0.22,34.39,170619,,,A*4F
$GPGGA,132316.750,4308.3076,N,07726.2638,W,1,09,0.94,152.8,M,-34.4,M,,*5A
lng=-77.437728, lat=43.138462, altitude=152.80, speed=0.22, satellites=8, angle=34.3900, fixquality=1
$GPRMC,132317.000,A,4308.3076,N,07726.2639,W,0.12,74.88,170619,,,A*46
$GPGGA,132317.250,4308.3076,N,07726.2640,W,1,09,0.94,152.8,M,-34.4,M,,*51
lng=-77.437728, lat=43.138462, altitude=152.80, speed=0.12, satellites=9, angle=74.8800, fixquality=1
$GPRMC,132317.500,A,4308.3076,N,07726.2640,W,0.06,202.82,170619,,,A*71
$GPGGA,132317.750,4308.3075,N,07726.2641,W,1,09,0.94,152.8,M,-34.4,M,,*56
lng=-77.437736, lat=43.138462, altitude=152.80, speed=0.06, satellites=9, angle=202.8200, fixquality=1
$GPRMC,132318.000,A,4308.3075,N,07726.2641,W,0.16,149.90,170619,,,A*77
$GPGGA,132318.250,4308.3074,N,07726.2642,W,1,09,0.94,152.8,M,-34.4,M,,*5E
lng=-77.437736, lat=43.138462, altitude=152.80, speed=0.16, satellites=9, angle=149.9000, fixquality=1
$GPRMC,132318.500,A,4308.3074,N,07726.2643,W,0.11,232.51,170619,,,A*74
$GPGGA,132318.750,4308.3074,N,07726.2644,W,1,08,1.01,152.7,M,-34.4,M,,*5E
lng=-77.437736, lat=43.138462, altitude=152.80, speed=0.11, satellites=9, angle=232.5100, fixquality=1
$GPRMC,132319.000,A,4308.3074,N,07726.2645,W,0.13,232.24,170619,,,A*76
$GPGGA,132319.250,4308.3074,N,07726.2646,W,1,09,0.94,152.8,M,-34.4,M,,*5B
lng=-77.437744, lat=43.138462, altitude=152.70, speed=0.13, satellites=8, angle=232.2400, fixquality=1
$GPRMC,132319.500,A,4308.3074,N,07726.2646,W,0.11,215.20,170619,,,A*73
$GPGGA,132319.750,4308.3074,N,07726.2647,W,1,09,0.94,152.8,M,-34.4,M,,*5F
lng=-77.437744, lat=43.138462, altitude=152.80, speed=0.11, satellites=9, angle=215.2000, fixquality=1
$GPRMC,132320.000,A,4308.3074,N,07726.2647,W,0.07,203.80,170619,,,A*77
$GPGGA,132320.250,4308.3074,N,07726.2647,W,1,09,0.94,152.8,M,-34.4,M,,*50
lng=-77.437744, lat=43.138462, altitude=152.80, speed=0.07, satellites=9, angle=203.8000, fixquality=1
$GPRMC,132320.500,A,4308.3074,N,07726.2647,W,0.06,196.46,170619,,,A*76
$GPGGA,132320.750,4308.3073,N,07726.2648,W,1,09,0.94,152.8,M,-34.4,M,,*5D
lng=-77.437744, lat=43.138462, altitude=152.80, speed=0.06, satellites=9, angle=196.4600, fixquality=1
$GPRMC,132321.000,A,4308.3073,N,07726.2648,W,0.06,201.34,170619,,,A*72
$GPGGA,132321.250,4308.3073,N,07726.2648,W,1,09,0.94,152.8,M,-34.4,M,,*59
lng=-77.437744, lat=43.138450, altitude=152.80, speed=0.06, satellites=9, angle=201.3400, fixquality=1
$GPRMC,132321.500,A,4308.3073,N,07726.2648,W,0.09,186.83,170619,,,A*78
$GPGGA,132321.750,4308.3073,N,07726.2648,W,1,09,0.94,152.8,M,-34.4,M,,*5C
lng=-77.437744, lat=43.138450, altitude=152.80, speed=0.09, satellites=9, angle=186.8300, fixquality=1
$GPRMC,132322.000,A,4308.3073,N,07726.2648,W,0.07,140.95,170619,,,A*7D
$GPGGA,132322.250,4308.3072,N,07726.2647,W,1,09,0.94,152.8,M,-34.4,M,,*54
lng=-77.437744, lat=43.138450, altitude=152.80, speed=0.07, satellites=9, angle=140.9500, fixquality=1
$GPRMC,132322.500,A,4308.3072,N,07726.2647,W,0.24,94.52,170619,,,A*44
$GPGGA,132322.750,4308.3071,N,07726.2647,W,1,09,0.94,152.8,M,-34.4,M,,*52
lng=-77.437744, lat=43.138450, altitude=152.80, speed=0.24, satellites=9, angle=94.5200, fixquality=1
$GPRMC,132323.000,A,4308.3071,N,07726.2647,W,0.24,108.67,170619,,,A*71
$GPGGA,132323.250,4308.3071,N,07726.2646,W,1,08,1.01,152.8,M,-34.4,M,,*5B
lng=-77.437744, lat=43.138450, altitude=152.80, speed=0.24, satellites=9, angle=108.6700, fixquality=1
$GPRMC,132323.500,A,4308.3070,N,07726.2646,W,0.22,94.27,170619,,,A*42
$GPGGA,132323.750,4308.3070,N,07726.2646,W,1,10,0.83,152.8,M,-34.4,M,,*5D
lng=-77.437744, lat=43.138450, altitude=152.80, speed=0.22, satellites=8, angle=94.2700, fixquality=1
$GPRMC,132324.000,A,4308.3071,N,07726.2637,W,0.03,312.53,170619,,,A*7A
$GPGGA,132324.250,4308.3070,N,07726.2635,W,1,09,0.89,152.9,M,-34.4,M,,*58
lng=-77.437728, lat=43.138450, altitude=152.80, speed=0.03, satellites=10, angle=312.5300, fixquality=1
$GPRMC,132324.500,A,4308.3069,N,07726.2635,W,0.02,252.20,170619,,,A*74
$GPGGA,132324.750,4308.3069,N,07726.2634,W,1,09,0.89,152.9,M,-34.4,M,,*54
lng=-77.437728, lat=43.138450, altitude=152.90, speed=0.02, satellites=9, angle=252.2000, fixquality=1
$GPRMC,132325.000,A,4308.3070,N,07726.2634,W,0.03,301.87,170619,,,A*72
$GPGGA,132325.250,4308.3070,N,07726.2633,W,1,09,0.89,152.9,M,-34.4,M,,*5F
lng=-77.437721, lat=43.138450, altitude=152.90, speed=0.03, satellites=9, angle=301.8700, fixquality=1
$GPRMC,132325.500,A,4308.3070,N,07726.2633,W,0.02,309.19,170619,,,A*7E
$GPGGA,132325.750,4308.3071,N,07726.2633,W,1,09,0.89,153.0,M,-34.4,M,,*53
lng=-77.437721, lat=43.138450, altitude=152.90, speed=0.02, satellites=9, angle=309.1900, fixquality=1
$GPRMC,132326.000,A,4308.3071,N,07726.2633,W,0.08,121.05,170619,,,A*76
$GPGGA,132326.250,4308.3071,N,07726.2633,W,1,09,0.89,153.0,M,-34.4,M,,*55
lng=-77.437721, lat=43.138450, altitude=153.00, speed=0.08, satellites=9, angle=121.0500, fixquality=1
$GPRMC,132326.500,A,4308.3071,N,07726.2632,W,0.02,82.83,170619,,,A*4E
$GPGGA,132326.750,4308.3071,N,07726.2632,W,1,09,0.89,153.1,M,-34.4,M,,*50
lng=-77.437721, lat=43.138450, altitude=153.00, speed=0.02, satellites=9, angle=82.8300, fixquality=1
$GPRMC,132327.000,A,4308.3071,N,07726.2631,W,0.08,285.19,170619,,,A*75
$GPGGA,132327.250,4308.3071,N,07726.2631,W,1,09,0.89,153.1,M,-34.4,M,,*57
lng=-77.437721, lat=43.138450, altitude=153.10, speed=0.08, satellites=9, angle=285.1900, fixquality=1
$GPRMC,132327.500,A,4308.3071,N,07726.2631,W,0.04,338.69,170619,,,A*7C
$GPGGA,132327.750,4308.3071,N,07726.2630,W,1,09,0.89,153.2,M,-34.4,M,,*50
lng=-77.437721, lat=43.138450, altitude=153.10, speed=0.04, satellites=9, angle=338.6900, fixquality=1
$GPRMC,132328.000,A,4308.3071,N,07726.2630,W,0.01,39.13,170619,,,A*4D
$GPGGA,132328.250,4308.3070,N,07726.2629,W,1,09,0.89,153.2,M,-34.4,M,,*53
lng=-77.437721, lat=43.138450, altitude=153.20, speed=0.01, satellites=9, angle=39.1300, fixquality=1
$GPRMC,132328.500,A,4308.3070,N,07726.2629,W,0.06,335.78,170619,,,A*74
$GPGGA,132328.750,4308.3070,N,07726.2629,W,1,09,0.89,153.3,M,-34.4,M,,*57
lng=-77.437713, lat=43.138450, altitude=153.20, speed=0.06, satellites=9, angle=335.7800, fixquality=1
$GPRMC,132329.000,A,4308.3070,N,07726.2629,W,0.05,279.48,170619,,,A*79
$GPGGA,132329.250,4308.3069,N,07726.2628,W,1,09,0.89,153.3,M,-34.4,M,,*5A
lng=-77.437713, lat=43.138450, altitude=153.30, speed=0.05, satellites=9, angle=279.4800, fixquality=1
$GPRMC,132329.500,A,4308.3069,N,07726.2628,W,0.03,190.59,170619,,,A*77
$GPGGA,132329.750,4308.3069,N,07726.2628,W,1,09,0.89,153.4,M,-34.4,M,,*58
lng=-77.437713, lat=43.138450, altitude=153.30, speed=0.03, satellites=9, angle=190.5900, fixquality=1
$GPRMC,132330.000,A,4308.3068,N,07726.2628,W,0.02,251.75,170619,,,A*7A
$GPGGA,132330.250,4308.3068,N,07726.2628,W,1,09,0.89,153.4,M,-34.4,M,,*54
lng=-77.437713, lat=43.138442, altitude=153.40, speed=0.02, satellites=9, angle=251.7500, fixquality=1
$GPRMC,132330.500,A,4308.3068,N,07726.2628,W,0.04,168.33,170619,,,A*72
$GPGGA,132330.750,4308.3068,N,07726.2627,W,1,09,0.89,153.4,M,-34.4,M,,*5E
lng=-77.437713, lat=43.138442, altitude=153.40, speed=0.04, satellites=9, angle=168.3300, fixquality=1
$GPRMC,132331.000,A,4308.3067,N,07726.2627,W,0.05,276.02,170619,,,A*79
$GPGGA,132331.250,4308.3067,N,07726.2627,W,1,09,0.89,153.4,M,-34.4,M,,*55
lng=-77.437713, lat=43.138442, altitude=153.40, speed=0.05, satellites=9, angle=276.0200, fixquality=1
$GPRMC,132331.500,A,4308.3067,N,07726.2627,W,0.05,147.79,170619,,,A*71
$GPGGA,132331.750,4308.3066,N,07726.2627,W,1,09,0.89,153.4,M,-34.4,M,,*51
lng=-77.437713, lat=43.138442, altitude=153.40, speed=0.05, satellites=9, angle=147.7900, fixquality=1
$GPRMC,132332.000,A,4308.3066,N,07726.2627,W,0.02,78.22,170619,,,A*42
$GPGGA,132332.250,4308.3066,N,07726.2627,W,1,09,0.89,153.4,M,-34.4,M,,*57
lng=-77.437713, lat=43.138442, altitude=153.40, speed=0.02, satellites=9, angle=78.2200, fixquality=1
$GPRMC,132332.500,A,4308.3066,N,07726.2627,W,0.02,345.55,170619,,,A*7A
$GPGGA,132332.750,4308.3065,N,07726.2628,W,1,09,0.91,153.4,M,-34.4,M,,*57
lng=-77.437713, lat=43.138442, altitude=153.40, speed=0.02, satellites=9, angle=345.5500, fixquality=1
$GPRMC,132333.000,A,4308.3065,N,07726.2628,W,0.03,113.00,170619,,,A*72
$GPGGA,132333.250,4308.3065,N,07726.2628,W,1,10,0.83,153.4,M,-34.4,M,,*58
lng=-77.437713, lat=43.138442, altitude=153.40, speed=0.03, satellites=9, angle=113.0000, fixquality=1
$GPRMC,132333.500,A,4308.3065,N,07726.2629,W,0.07,327.20,170619,,,A*75
$GPGGA,132333.750,4308.3065,N,07726.2629,W,1,10,0.83,153.5,M,-34.4,M,,*5D
lng=-77.437713, lat=43.138442, altitude=153.40, speed=0.07, satellites=10, angle=327.2000, fixquality=1
$GPRMC,132334.000,A,4308.3065,N,07726.2630,W,0.01,51.50,170619,,,A*4C
$GPGGA,132334.250,4308.3065,N,07726.2630,W,1,10,0.83,153.5,M,-34.4,M,,*57
lng=-77.437721, lat=43.138442, altitude=153.50, speed=0.01, satellites=10, angle=51.5000, fixquality=1
$GPRMC,132334.500,A,4308.3065,N,07726.2630,W,0.04,248.81,170619,,,A*7A
$GPGGA,132334.750,4308.3065,N,07726.2631,W,1,10,0.83,153.5,M,-34.4,M,,*53
lng=-77.437721, lat=43.138442, altitude=153.50, speed=0.04, satellites=10, angle=248.8100, fixquality=1
$GPRMC,132335.000,A,4308.3065,N,07726.2631,W,0.06,349.14,170619,,,A*71
$GPGGA,132335.250,4308.3065,N,07726.2631,W,1,10,0.87,153.5,M,-34.4,M,,*53
lng=-77.437721, lat=43.138442, altitude=153.50, speed=0.06, satellites=10, angle=349.1400, fixquality=1
$GPRMC,132335.500,A,4308.3065,N,07726.2632,W,0.02,141.70,170619,,,A*7B
$GPGGA,132335.750,4308.3065,N,07726.2632,W,1,10,0.83,153.6,M,-34.4,M,,*52
lng=-77.437721, lat=43.138442, altitude=153.50, speed=0.02, satellites=10, angle=141.7000, fixquality=1
$GPRMC,132336.000,A,4308.3065,N,07726.2632,W,0.05,312.90,170619,,,A*70
$GPGGA,132336.250,4308.3065,N,07726.2633,W,1,10,0.83,153.6,M,-34.4,M,,*55
lng=-77.437721, lat=43.138442, altitude=153.60, speed=0.05, satellites=10, angle=312.9000, fixquality=1
$GPRMC,132336.500,A,4308.3065,N,07726.2633,W,0.02,72.33,170619,,,A*4F
$GPGGA,132336.750,4308.3064,N,07726.2633,W,1,10,0.83,153.6,M,-34.4,M,,*51
lng=-77.437721, lat=43.138442, altitude=153.60, speed=0.02, satellites=10, angle=72.3300, fixquality=1
$GPRMC,132337.000,A,4308.3064,N,07726.2633,W,0.03,312.32,170619,,,A*7F
$GPGGA,132337.250,4308.3064,N,07726.2634,W,1,10,0.83,153.6,M,-34.4,M,,*52
lng=-77.437721, lat=43.138442, altitude=153.60, speed=0.03, satellites=10, angle=312.3200, fixquality=1
$GPRMC,132337.500,A,4308.3064,N,07726.2634,W,0.07,53.44,170619,,,A*4E
$GPGGA,132337.750,4308.3064,N,07726.2634,W,1,10,0.83,153.6,M,-34.4,M,,*57
lng=-77.437721, lat=43.138442, altitude=153.60, speed=0.07, satellites=10, angle=53.4400, fixquality=1
$GPRMC,132338.000,A,4308.3064,N,07726.2635,W,0.04,194.90,170619,,,A*75
$GPGGA,132338.250,4308.3064,N,07726.2635,W,1,10,0.83,153.6,M,-34.4,M,,*5C
lng=-77.437728, lat=43.138442, altitude=153.60, speed=0.04, satellites=10, angle=194.9000, fixquality=1
$GPRMC,132338.500,A,4308.3064,N,07726.2636,W,0.05,342.59,170619,,,A*7E
$GPGGA,132338.750,4308.3063,N,07726.2636,W,1,10,0.83,153.6,M,-34.4,M,,*5D
lng=-77.437728, lat=43.138442, altitude=153.60, speed=0.05, satellites=10, angle=342.5900, fixquality=1
$GPRMC,132339.000,A,4308.3063,N,07726.2636,W,0.74,14.85,170619,,,A*4A
$GPGGA,132339.250,4308.3064,N,07726.2636,W,1,10,0.87,153.6,M,-34.4,M,,*5A
lng=-77.437728, lat=43.138435, altitude=153.60, speed=0.74, satellites=10, angle=14.8500, fixquality=1
$GPRMC,132339.500,A,4308.3065,N,07726.2636,W,2.66,10.77,170619,,,A*41
$GPGGA,132339.750,4308.3067,N,07726.2636,W,1,10,0.87,153.6,M,-34.4,M,,*5C
lng=-77.437728, lat=43.138442, altitude=153.60, speed=2.66, satellites=10, angle=10.7700, fixquality=1
$GPRMC,132340.000,A,4308.3070,N,07726.2635,W,4.67,8.99,170619,,,A*73
$GPGGA,132340.250,4308.3074,N,07726.2634,W,1,10,0.87,153.6,M,-34.4,M,,*57
lng=-77.437728, lat=43.138450, altitude=153.60, speed=4.67, satellites=10, angle=8.9900, fixquality=1
$GPRMC,132340.500,A,4308.3077,N,07726.2633,W,6.02,6.98,170619,,,A*79
$GPGGA,132340.750,4308.3082,N,07726.2633,W,1,10,0.87,153.6,M,-34.4,M,,*5C
lng=-77.437721, lat=43.138462, altitude=153.60, speed=6.02, satellites=10, angle=6.9800, fixquality=1
$GPRMC,132341.000,A,4308.3087,N,07726.2632,W,7.07,6.49,170619,,,A*7B
$GPGGA,132341.250,4308.3092,N,07726.2631,W,1,11,0.80,153.5,M,-34.4,M,,*5E
lng=-77.437721, lat=43.138477, altitude=153.60, speed=7.07, satellites=10, angle=6.4900, fixquality=1
$GPRMC,132341.500,A,4308.3097,N,07726.2630,W,6.89,4.43,170619,,,A*72
$GPGGA,132341.750,4308.3101,N,07726.2630,W,1,11,0.80,153.5,M,-34.4,M,,*51
lng=-77.437721, lat=43.138492, altitude=153.50, speed=6.89, satellites=11, angle=4.4300, fixquality=1
$GPRMC,132342.000,A,4308.3106,N,07726.2629,W,6.94,3.26,170619,,,A*7D
$GPGGA,132342.250,4308.3111,N,07726.2629,W,1,11,0.80,153.5,M,-34.4,M,,*5E
lng=-77.437713, lat=43.138507, altitude=153.50, speed=6.94, satellites=11, angle=3.2600, fixquality=1
$GPRMC,132342.500,A,4308.3115,N,07726.2628,W,5.93,1.00,170619,,,A*79
$GPGGA,132342.750,4308.3119,N,07726.2628,W,1,11,0.80,153.5,M,-34.4,M,,*52
lng=-77.437713, lat=43.138526, altitude=153.50, speed=5.93, satellites=11, angle=1.0000, fixquality=1
$GPRMC,132343.000,A,4308.3122,N,07726.2628,W,5.12,1.31,170619,,,A*72
$GPGGA,132343.250,4308.3125,N,07726.2628,W,1,11,0.80,153.4,M,-34.4,M,,*58
lng=-77.437713, lat=43.138534, altitude=153.50, speed=5.12, satellites=11, angle=1.3100, fixquality=1
$GPRMC,132343.500,A,4308.3128,N,07726.2628,W,4.16,5.21,170619,,,A*7D
$GPGGA,132343.750,4308.3131,N,07726.2628,W,1,10,0.87,153.4,M,-34.4,M,,*5E
lng=-77.437713, lat=43.138549, altitude=153.40, speed=4.16, satellites=11, angle=5.2100, fixquality=1
$GPRMC,132344.000,A,4308.3134,N,07726.2628,W,3.78,6.44,170619,,,A*7D
$GPGGA,132344.250,4308.3136,N,07726.2627,W,1,10,0.87,153.4,M,-34.4,M,,*54
lng=-77.437713, lat=43.138557, altitude=153.40, speed=3.78, satellites=10, angle=6.4400, fixquality=1
$GPRMC,132344.500,A,4308.3139,N,07726.2627,W,3.94,10.62,170619,,,A*4B
$GPGGA,132344.750,4308.3142,N,07726.2626,W,1,10,0.87,153.4,M,-34.4,M,,*53
lng=-77.437713, lat=43.138565, altitude=153.40, speed=3.94, satellites=10, angle=10.6200, fixquality=1
$GPRMC,132345.000,A,4308.3145,N,07726.2626,W,4.12,16.08,170619,,,A*46
$GPGGA,132345.250,4308.3148,N,07726.2625,W,1,11,0.80,153.3,M,-34.4,M,,*5F
lng=-77.437713, lat=43.138572, altitude=153.40, speed=4.12, satellites=10, angle=16.0800, fixquality=1
$GPRMC,132345.500,A,4308.3151,N,07726.2624,W,4.30,23.18,170619,,,A*43
$GPGGA,132345.750,4308.3154,N,07726.2622,W,1,11,0.80,153.1,M,-34.4,M,,*52
lng=-77.437705, lat=43.138584, altitude=153.30, speed=4.30, satellites=11, angle=23.1800, fixquality=1
$GPRMC,132346.000,A,4308.3157,N,07726.2620,W,4.81,25.50,170619,,,A*47
$GPGGA,132346.250,4308.3160,N,07726.2619,W,1,11,0.80,153.1,M,-34.4,M,,*5B
lng=-77.437705, lat=43.138599, altitude=153.10, speed=4.81, satellites=11, angle=25.5000, fixquality=1
$GPRMC,132346.500,A,4308.3163,N,07726.2617,W,4.78,30.38,170619,,,A*4D
$GPGGA,132346.750,4308.3166,N,07726.2615,W,1,11,0.80,153.0,M,-34.4,M,,*55
lng=-77.437698, lat=43.138607, altitude=153.10, speed=4.78, satellites=11, angle=30.3800, fixquality=1
$GPRMC,132347.000,A,4308.3169,N,07726.2612,W,5.04,31.34,170619,,,A*41
$GPGGA,132347.250,4308.3171,N,07726.2609,W,1,11,0.80,153.0,M,-34.4,M,,*5A
lng=-77.437690, lat=43.138614, altitude=153.00, speed=5.04, satellites=11, angle=31.3400, fixquality=1
$GPRMC,132347.500,A,4308.3173,N,07726.2607,W,4.58,40.00,170619,,,A*42
$GPGGA,132347.750,4308.3175,N,07726.2605,W,1,11,0.80,153.0,M,-34.4,M,,*57
lng=-77.437675, lat=43.138622, altitude=153.00, speed=4.58, satellites=11, angle=40.0000, fixquality=1
$GPRMC,132348.000,A,4308.3177,N,07726.2601,W,4.51,56.46,170619,,,A*46
$GPGGA,132348.250,4308.3177,N,07726.2598,W,1,11,0.80,153.3,M,-34.4,M,,*5B
lng=-77.437667, lat=43.138629, altitude=153.00, speed=4.51, satellites=11, angle=56.4600, fixquality=1
$GPRMC,132348.500,A,4308.3177,N,07726.2595,W,4.34,79.35,170619,,,A*47
$GPGGA,132348.750,4308.3178,N,07726.2592,W,1,11,0.80,153.3,M,-34.4,M,,*5B
lng=-77.437652, lat=43.138629, altitude=153.30, speed=4.34, satellites=11, angle=79.3500, fixquality=1
$GPRMC,132349.000,A,4308.3178,N,07726.2589,W,4.04,79.36,170619,,,A*41
$GPGGA,132349.250,4308.3179,N,07726.2586,W,1,11,0.80,153.4,M,-34.4,M,,*5C
lng=-77.437644, lat=43.138629, altitude=153.30, speed=4.04, satellites=11, angle=79.3600, fixquality=1
$GPRMC,132349.500,A,4308.3178,N,07726.2583,W,3.44,83.86,170619,,,A*43
$GPGGA,132349.750,4308.3179,N,07726.2581,W,1,11,0.78,153.3,M,-34.4,M,,*5E
lng=-77.437637, lat=43.138629, altitude=153.40, speed=3.44, satellites=11, angle=83.8600, fixquality=1
$GPRMC,132350.000,A,4308.3177,N,07726.2580,W,1.99,86.20,170619,,,A*49
$GPGGA,132350.250,4308.3176,N,07726.2580,W,1,10,0.83,153.0,M,-34.4,M,,*5B
lng=-77.437629, lat=43.138629, altitude=153.30, speed=1.99, satellites=11, angle=86.2000, fixquality=1
$GPRMC,132350.500,A,4308.3175,N,07726.2580,W,0.30,334.59,170619,,,A*78
$GPGGA,132350.750,4308.3175,N,07726.2581,W,1,10,0.83,152.8,M,-34.4,M,,*55
lng=-77.437629, lat=43.138622, altitude=153.00, speed=0.30, satellites=10, angle=334.5900, fixquality=1
$GPRMC,132351.000,A,4308.3175,N,07726.2583,W,0.74,298.82,170619,,,A*7E
$GPGGA,132351.250,4308.3174,N,07726.2586,W,1,10,0.83,152.7,M,-34.4,M,,*58
lng=-77.437637, lat=43.138622, altitude=152.80, speed=0.74, satellites=10, angle=298.8200, fixquality=1
$GPRMC,132351.500,A,4308.3174,N,07726.2591,W,1.80,280.56,170619,,,A*73
$GPGGA,132351.750,4308.3173,N,07726.2595,W,1,10,0.83,152.7,M,-34.4,M,,*58
lng=-77.437652, lat=43.138622, altitude=152.70, speed=1.80, satellites=10, angle=280.5600, fixquality=1
$GPRMC,132352.000,A,4308.3173,N,07726.2599,W,3.47,268.40,170619,,,A*72
$GPGGA,132352.250,4308.3173,N,07726.2604,W,1,10,0.83,152.7,M,-34.4,M,,*55
lng=-77.437660, lat=43.138622, altitude=152.70, speed=3.47, satellites=10, angle=268.4000, fixquality=1
$GPRMC,132352.500,A,4308.3172,N,07726.2611,W,5.92,268.06,170619,,,A*79
$GPGGA,132352.750,4308.3171,N,07726.2618,W,1,10,0.87,152.6,M,-34.4,M,,*5A
lng=-77.437690, lat=43.138622, altitude=152.70, speed=5.92, satellites=10, angle=268.0600, fixquality=1
$GPRMC,132353.000,A,4308.3171,N,07726.2627,W,7.97,271.07,170619,,,A*75
$GPGGA,132353.250,4308.3171,N,07726.2636,W,1,10,0.87,152.5,M,-34.4,M,,*51
lng=-77.437713, lat=43.138614, altitude=152.60, speed=7.97, satellites=10, angle=271.0700, fixquality=1
$GPRMC,132353.500,A,4308.3171,N,07726.2646,W,9.14,274.13,170619,,,A*72
$GPGGA,132353.750,4308.3171,N,07726.2655,W,1,10,0.87,152.4,M,-34.4,M,,*50
lng=-77.437744, lat=43.138614, altitude=152.50, speed=9.14, satellites=10, angle=274.1300, fixquality=1
$GPRMC,132354.000,A,4308.3171,N,07726.2665,W,10.26,276.21,170619,,,A*4B
$GPGGA,132354.250,4308.3171,N,07726.2676,W,1,10,0.87,152.4,M,-34.4,M,,*53
lng=-77.437774, lat=43.138614, altitude=152.40, speed=10.26, satellites=10, angle=276.2100, fixquality=1
$GPRMC,132354.500,A,4308.3171,N,07726.2688,W,11.19,276.24,170619,,,A*45
$GPGGA,132354.750,4308.3171,N,07726.2701,W,1,10,0.83,152.4,M,-34.4,M,,*53
lng=-77.437812, lat=43.138614, altitude=152.40, speed=11.19, satellites=10, angle=276.2400, fixquality=1
$GPRMC,132355.000,A,4308.3172,N,07726.2716,W,13.05,275.61,170619,,,A*49
$GPGGA,132355.250,4308.3173,N,07726.2731,W,1,10,0.87,152.3,M,-34.4,M,,*55
lng=-77.437858, lat=43.138622, altitude=152.40, speed=13.05, satellites=10, angle=275.6100, fixquality=1
$GPRMC,132355.500,A,4308.3174,N,07726.2746,W,14.56,277.22,170619,,,A*4B
$GPGGA,132355.750,4308.3176,N,07726.2760,W,1,10,0.87,152.2,M,-34.4,M,,*50
lng=-77.437904, lat=43.138622, altitude=152.30, speed=14.56, satellites=10, angle=277.2200, fixquality=1
$GPRMC,132356.000,A,4308.3177,N,07726.2774,W,14.46,279.51,170619,,,A*44
$GPGGA,132356.250,4308.3180,N,07726.2788,W,1,10,0.87,152.2,M,-34.4,M,,*59
lng=-77.437957, lat=43.138629, altitude=152.20, speed=14.46, satellites=10, angle=279.5100, fixquality=1
$GPRMC,132356.500,A,4308.3181,N,07726.2802,W,15.14,282.74,170619,,,A*43
$GPGGA,132356.750,4308.3184,N,07726.2817,W,1,10,0.87,152.1,M,-34.4,M,,*52
lng=-77.438003, lat=43.138629, altitude=152.20, speed=15.14, satellites=10, angle=282.7400, fixquality=1
$GPRMC,132357.000,A,4308.3186,N,07726.2832,W,15.68,286.30,170619,,,A*4C
$GPGGA,132357.250,4308.3189,N,07726.2847,W,1,10,0.87,152.1,M,-34.4,M,,*5E
lng=-77.438056, lat=43.138637, altitude=152.10, speed=15.68, satellites=10, angle=286.3000, fixquality=1
$GPRMC,132357.500,A,4308.3193,N,07726.2862,W,16.55,287.93,170619,,,A*4D
$GPGGA,132357.750,4308.3198,N,07726.2877,W,1,10,0.83,152.2,M,-34.4,M,,*5F
lng=-77.438102, lat=43.138656, altitude=152.10, speed=16.55, satellites=10, angle=287.9300, fixquality=1
$GPRMC,132358.000,A,4308.3203,N,07726.2893,W,17.56,292.45,170619,,,A*4E
$GPGGA,132358.250,4308.3208,N,07726.2909,W,1,10,0.87,152.3,M,-34.4,M,,*52
lng=-77.438148, lat=43.138671, altitude=152.20, speed=17.56, satellites=10, angle=292.4500, fixquality=1
$GPRMC,132358.500,A,4308.3214,N,07726.2926,W,18.90,295.20,170619,,,A*43
$GPGGA,132358.750,4308.3220,N,07726.2944,W,1,10,0.87,152.3,M,-34.4,M,,*54
lng=-77.438209, lat=43.138687, altitude=152.30, speed=18.90, satellites=10, angle=295.2000, fixquality=1
$GPRMC,132359.000,A,4308.3227,N,07726.2962,W,20.13,297.68,170619,,,A*49
$GPGGA,132359.250,4308.3234,N,07726.2980,W,1,10,0.87,152.5,M,-34.4,M,,*5B
lng=-77.438270, lat=43.138713, altitude=152.30, speed=20.13, satellites=10, angle=297.6800, fixquality=1
$GPRMC,132359.500,A,4308.3242,N,07726.2998,W,21.26,300.12,170619,,,A*4F
$GPGGA,132359.750,4308.3250,N,07726.3016,W,1,10,0.87,152.6,M,-34.4,M,,*58
lng=-77.438331, lat=43.138736, altitude=152.50, speed=21.26, satellites=10, angle=300.1200, fixquality=1
$GPRMC,132400.000,A,4308.3259,N,07726.3034,W,21.96,302.37,170619,,,A*4B
$GPGGA,132400.250,4308.3269,N,07726.3053,W,1,10,0.87,152.8,M,-34.4,M,,*53
lng=-77.438385, lat=43.138759, altitude=152.60, speed=21.96, satellites=10, angle=302.3700, fixquality=1
$GPRMC,132400.500,A,4308.3278,N,07726.3072,W,22.90,303.23,170619,,,A*4E
$GPGGA,132400.750,4308.3288,N,07726.3091,W,1,10,0.87,153.1,M,-34.4,M,,*5F
lng=-77.438453, lat=43.138793, altitude=152.80, speed=22.90, satellites=10, angle=303.2300, fixquality=1
$GPRMC,132401.000,A,4308.3298,N,07726.3110,W,23.94,303.27,170619,,,A*40
$GPGGA,132401.250,4308.3308,N,07726.3130,W,1,10,0.87,153.5,M,-34.4,M,,*5C
lng=-77.438514, lat=43.138828, altitude=153.10, speed=23.94, satellites=10, angle=303.2700, fixquality=1
$GPRMC,132401.500,A,4308.3318,N,07726.3150,W,24.89,303.47,170619,,,A*45
$GPGGA,132401.750,4308.3328,N,07726.3170,W,1,10,0.87,153.8,M,-34.4,M,,*52
lng=-77.438583, lat=43.138866, altitude=153.50, speed=24.89, satellites=10, angle=303.4700, fixquality=1
$GPRMC,132402.000,A,4308.3338,N,07726.3191,W,25.59,303.05,170619,,,A*46
$GPGGA,132402.250,4308.3349,N,07726.3211,W,1,10,0.87,153.9,M,-34.4,M,,*56
lng=-77.438652, lat=43.138900, altitude=153.80, speed=25.59, satellites=10, angle=303.0500, fixquality=1
$GPRMC,132402.500,A,4308.3359,N,07726.3232,W,25.87,302.70,170619,,,A*4E
$GPGGA,132402.750,4308.3369,N,07726.3253,W,1,10,0.87,154.2,M,-34.4,M,,*5B
lng=-77.438720, lat=43.138931, altitude=153.90, speed=25.87, satellites=10, angle=302.7000, fixquality=1
$GPRMC,132403.000,A,4308.3380,N,07726.3273,W,25.32,302.72,170619,,,A*47
$GPGGA,132403.250,4308.3390,N,07726.3294,W,1,10,0.87,154.5,M,-34.4,M,,*55
lng=-77.438789, lat=43.138965, altitude=154.20, speed=25.32, satellites=10, angle=302.7200, fixquality=1
$GPRMC,132403.500,A,4308.3400,N,07726.3314,W,24.68,302.92,170619,,,A*4D
$GPGGA,132403.750,4308.3409,N,07726.3333,W,1,10,0.87,154.8,M,-34.4,M,,*56
lng=-77.438858, lat=43.138996, altitude=154.50, speed=24.68, satellites=10, angle=302.9200, fixquality=1
$GPRMC,132404.000,A,4308.3419,N,07726.3353,W,24.15,303.29,170619,,,A*4F
$GPGGA,132404.250,4308.3429,N,07726.3372,W,1,10,0.87,154.9,M,-34.4,M,,*52
lng=-77.438926, lat=43.139030, altitude=154.80, speed=24.15, satellites=10, angle=303.2900, fixquality=1
$GPRMC,132404.500,A,4308.3438,N,07726.3391,W,23.67,303.12,170619,,,A*4D
$GPGGA,132404.750,4308.3447,N,07726.3409,W,1,10,0.87,155.0,M,-34.4,M,,*5C
lng=-77.438980, lat=43.139060, altitude=154.90, speed=23.67, satellites=10, angle=303.1200, fixquality=1
$GPRMC,132405.000,A,4308.3456,N,07726.3427,W,22.77,303.45,170619,,,A*49
$GPGGA,132405.250,4308.3465,N,07726.3445,W,1,10,0.87,155.3,M,-34.4,M,,*53
lng=-77.439048, lat=43.139095, altitude=155.00, speed=22.77, satellites=10, angle=303.4500, fixquality=1
$GPRMC,132405.500,A,4308.3474,N,07726.3463,W,22.04,303.38,170619,,,A*42
$GPGGA,132405.750,4308.3483,N,07726.3481,W,1,10,0.87,155.4,M,-34.4,M,,*51
lng=-77.439102, lat=43.139118, altitude=155.30, speed=22.04, satellites=10, angle=303.3800, fixquality=1
$GPRMC,132406.000,A,4308.3492,N,07726.3498,W,21.74,304.94,170619,,,A*4D
$GPGGA,132406.250,4308.3501,N,07726.3515,W,1,10,0.87,155.6,M,-34.4,M,,*52
lng=-77.439163, lat=43.139152, altitude=155.40, speed=21.74, satellites=10, angle=304.9400, fixquality=1
$GPRMC,132406.500,A,4308.3509,N,07726.3532,W,21.76,306.83,170619,,,A*4C
$GPGGA,132406.750,4308.3518,N,07726.3548,W,1,10,0.87,155.8,M,-34.4,M,,*59
lng=-77.439216, lat=43.139183, altitude=155.60, speed=21.76, satellites=10, angle=306.8300, fixquality=1
$GPRMC,132407.000,A,4308.3528,N,07726.3563,W,22.08,309.56,170619,,,A*42
$GPGGA,132407.250,4308.3538,N,07726.3579,W,1,10,0.87,156.0,M,-34.4,M,,*56
lng=-77.439277, lat=43.139217, altitude=155.80, speed=22.08, satellites=10, angle=309.5600, fixquality=1
$GPRMC,132407.500,A,4308.3549,N,07726.3595,W,21.94,311.02,170619,,,A*47
$GPGGA,132407.750,4308.3559,N,07726.3611,W,1,10,0.87,156.3,M,-34.4,M,,*5A
lng=-77.439323, lat=43.139247, altitude=156.00, speed=21.94, satellites=10, angle=311.0200, fixquality=1
$GPRMC,132408.000,A,4308.3570,N,07726.3626,W,21.90,313.14,170619,,,A*4D
$GPGGA,132408.250,4308.3581,N,07726.3641,W,1,10,0.87,156.4,M,-34.4,M,,*57
lng=-77.439376, lat=43.139282, altitude=156.30, speed=21.90, satellites=10, angle=313.1400, fixquality=1
$GPRMC,132408.500,A,4308.3593,N,07726.3654,W,21.90,317.27,170619,,,A*44
$GPGGA,132408.750,4308.3605,N,07726.3668,W,1,10,0.87,156.6,M,-34.4,M,,*54
lng=-77.439422, lat=43.139324, altitude=156.40, speed=21.90, satellites=10, angle=317.2700, fixquality=1
$GPRMC,132409.000,A,4308.3617,N,07726.3680,W,21.60,320.71,170619,,,A*4E
$GPGGA,132409.250,4308.3630,N,07726.3693,W,1,10,0.87,156.7,M,-34.4,M,,*53
lng=-77.439468, lat=43.139362, altitude=156.60, speed=21.60, satellites=10, angle=320.7100, fixquality=1
$GPRMC,132409.500,A,4308.3643,N,07726.3705,W,21.78,323.39,170619,,,A*40
$GPGGA,132409.750,4308.3656,N,07726.3717,W,1,10,0.87,156.9,M,-34.4,M,,*55
lng=-77.439506, lat=43.139404, altitude=156.70, speed=21.78, satellites=10, angle=323.3900, fixquality=1
$GPRMC,132410.000,A,4308.3671,N,07726.3728,W,22.46,328.40,170619,,,A*48
$GPGGA,132410.250,4308.3684,N,07726.3737,W,1,10,0.87,156.9,M,-34.4,M,,*55
lng=-77.439544, lat=43.139453, altitude=156.90, speed=22.46, satellites=10, angle=328.4000, fixquality=1
$GPRMC,132410.500,A,4308.3699,N,07726.3745,W,22.76,334.26,170619,,,A*4E
$GPGGA,132410.750,4308.3713,N,07726.3754,W,1,10,0.87,156.8,M,-34.4,M,,*5B
lng=-77.439575, lat=43.139503, altitude=156.90, speed=22.76, satellites=10, angle=334.2600, fixquality=1
$GPRMC,132411.000,A,4308.3728,N,07726.3762,W,22.84,337.97,170619,,,A*40
$GPGGA,132411.250,4308.3743,N,07726.3768,W,1,10,0.87,156.9,M,-34.4,M,,*54
lng=-77.439598, lat=43.139541, altitude=156.80, speed=22.84, satellites=10, angle=337.9700, fixquality=1
$GPRMC,132411.500,A,4308.3758,N,07726.3775,W,23.23,341.96,170619,,,A*48
$GPGGA,132411.750,4308.3774,N,07726.3781,W,1,11,0.78,156.9,M,-34.4,M,,*53
lng=-77.439620, lat=43.139598, altitude=156.90, speed=23.23, satellites=10, angle=341.9600, fixquality=1
$GPRMC,132412.000,A,4308.3790,N,07726.3785,W,23.09,345.70,170619,,,A*41
$GPGGA,132412.250,4308.3806,N,07726.3790,W,1,11,0.80,157.0,M,-34.4,M,,*50
lng=-77.439643, lat=43.139648, altitude=156.90, speed=23.09, satellites=11, angle=345.7000, fixquality=1
$GPRMC,132412.500,A,4308.3822,N,07726.3794,W,23.54,348.56,170619,,,A*43
$GPGGA,132412.750,4308.3839,N,07726.3796,W,1,11,0.80,157.1,M,-34.4,M,,*5E
lng=-77.439659, lat=43.139705, altitude=157.00, speed=23.54, satellites=11, angle=348.5600, fixquality=1
$GPRMC,132413.000,A,4308.3857,N,07726.3797,W,24.37,353.96,170619,,,A*42
$GPGGA,132413.250,4308.3874,N,07726.3795,W,1,10,0.87,157.3,M,-34.4,M,,*54
lng=-77.439666, lat=43.139762, altitude=157.10, speed=24.37, satellites=11, angle=353.9600, fixquality=1
$GPRMC,132413.500,A,4308.3892,N,07726.3792,W,24.98,0.85,170619,,,A*49
$GPGGA,132413.750,4308.3910,N,07726.3791,W,1,11,0.80,157.5,M,-34.4,M,,*56
lng=-77.439659, lat=43.139820, altitude=157.30, speed=24.98, satellites=10, angle=0.8500, fixquality=1
$GPRMC,132414.000,A,4308.3928,N,07726.3789,W,25.47,3.22,170619,,,A*4C
$GPGGA,132414.250,4308.3946,N,07726.3785,W,1,10,0.87,157.7,M,-34.4,M,,*56
lng=-77.439651, lat=43.139877, altitude=157.50, speed=25.47, satellites=11, angle=3.2200, fixquality=1
$GPRMC,132414.500,A,4308.3964,N,07726.3782,W,26.06,6.12,170619,,,A*4A
$GPGGA,132414.750,4308.3983,N,07726.3778,W,1,10,0.87,157.8,M,-34.4,M,,*57
lng=-77.439643, lat=43.139942, altitude=157.70, speed=26.06, satellites=10, angle=6.1200, fixquality=1
$GPRMC,132415.000,A,4308.4001,N,07726.3774,W,26.09,7.62,170619,,,A*43
$GPGGA,132415.250,4308.4019,N,07726.3770,W,1,10,0.87,158.0,M,-34.4,M,,*51
lng=-77.439620, lat=43.139999, altitude=157.80, speed=26.09, satellites=10, angle=7.6200, fixquality=1
$GPRMC,132415.500,A,4308.4037,N,07726.3765,W,26.44,9.18,170619,,,A*49
$GPGGA,132415.750,4308.4056,N,07726.3760,W,1,10,0.87,158.3,M,-34.4,M,,*5D
lng=-77.439605, lat=43.140064, altitude=158.00, speed=26.44, satellites=10, angle=9.1800, fixquality=1
$GPRMC,132416.000,A,4308.4074,N,07726.3754,W,26.59,10.17,170619,,,A*71
$GPGGA,132416.250,4308.4093,N,07726.3748,W,1,10,0.87,158.6,M,-34.4,M,,*5D
lng=-77.439590, lat=43.140121, altitude=158.30, speed=26.59, satellites=10, angle=10.1700, fixquality=1
$GPRMC,132416.500,A,4308.4112,N,07726.3743,W,27.02,10.13,170619,,,A*78
$GPGGA,132416.750,4308.4131,N,07726.3737,W,1,10,0.87,158.7,M,-34.4,M,,*58
lng=-77.439575, lat=43.140186, altitude=158.60, speed=27.02, satellites=10, angle=10.1300, fixquality=1
$GPRMC,132417.000,A,4308.4149,N,07726.3732,W,26.40,9.47,170619,,,A*4A
$GPGGA,132417.250,4308.4168,N,07726.3728,W,1,10,0.87,158.8,M,-34.4,M,,*51
lng=-77.439552, lat=43.140251, altitude=158.70, speed=26.40, satellites=10, angle=9.4700, fixquality=1
$GPRMC,132417.500,A,4308.4186,N,07726.3723,W,25.59,8.78,170619,,,A*4A
$GPGGA,132417.750,4308.4204,N,07726.3718,W,1,10,0.87,158.9,M,-34.4,M,,*5F
lng=-77.439537, lat=43.140308, altitude=158.80, speed=25.59, satellites=10, angle=8.7800, fixquality=1
$GPRMC,132418.000,A,4308.4221,N,07726.3713,W,24.98,9.23,170619,,,A*4E
$GPGGA,132418.250,4308.4239,N,07726.3709,W,1,10,0.87,158.9,M,-34.4,M,,*5B
lng=-77.439521, lat=43.140365, altitude=158.90, speed=24.98, satellites=10, angle=9.2300, fixquality=1
$GPRMC,132418.500,A,4308.4255,N,07726.3705,W,23.70,8.64,170619,,,A*4C
$GPGGA,132418.750,4308.4271,N,07726.3701,W,1,10,0.87,159.0,M,-34.4,M,,*52
lng=-77.439506, lat=43.140422, altitude=158.90, speed=23.70, satellites=10, angle=8.6400, fixquality=1
$GPRMC,132419.000,A,4308.4288,N,07726.3696,W,22.00,9.70,170619,,,A*41
$GPGGA,132419.250,4308.4303,N,07726.3692,W,1,10,0.87,158.4,M,-34.4,M,,*5C
lng=-77.439491, lat=43.140480, altitude=159.00, speed=22.00, satellites=10, angle=9.7000, fixquality=1
$GPRMC,132419.500,A,4308.4317,N,07726.3688,W,20.37,9.25,170619,,,A*4A
$GPGGA,132419.750,4308.4331,N,07726.3685,W,1,11,0.80,158.5,M,-34.4,M,,*59
lng=-77.439476, lat=43.140525, altitude=158.40, speed=20.37, satellites=10, angle=9.2500, fixquality=1
$GPRMC,132420.000,A,4308.4345,N,07726.3682,W,18.76,8.83,170619,,,A*4B
$GPGGA,132420.250,4308.4357,N,07726.3678,W,1,11,0.80,158.4,M,-34.4,M,,*55
lng=-77.439468, lat=43.140575, altitude=158.50, speed=18.76, satellites=11, angle=8.8300, fixquality=1
$GPRMC,132420.500,A,4308.4370,N,07726.3676,W,17.30,8.67,170619,,,A*44
$GPGGA,132420.750,4308.4381,N,07726.3672,W,1,11,0.80,158.5,M,-34.4,M,,*50
lng=-77.439460, lat=43.140617, altitude=158.40, speed=17.30, satellites=11, angle=8.6700, fixquality=1
$GPRMC,132421.000,A,4308.4394,N,07726.3666,W,15.69,9.33,170619,,,A*45
$GPGGA,132421.250,4308.4405,N,07726.3660,W,1,11,0.80,158.5,M,-34.4,M,,*5C
lng=-77.439445, lat=43.140659, altitude=158.50, speed=15.69, satellites=11, angle=9.3300, fixquality=1
$GPRMC,132421.500,A,4308.4416,N,07726.3654,W,14.16,9.03,170619,,,A*46
$GPGGA,132421.750,4308.4426,N,07726.3650,W,1,11,0.80,158.3,M,-34.4,M,,*5D
lng=-77.439422, lat=43.140689, altitude=158.50, speed=14.16, satellites=11, angle=9.0300, fixquality=1
$GPRMC,132422.000,A,4308.4435,N,07726.3646,W,12.73,9.40,170619,,,A*40
$GPGGA,132422.250,4308.4444,N,07726.3642,W,1,11,0.80,158.3,M,-34.4,M,,*5C
lng=-77.439414, lat=43.140724, altitude=158.30, speed=12.73, satellites=11, angle=9.4000, fixquality=1
$GPRMC,132422.500,A,4308.4451,N,07726.3639,W,10.68,9.01,170619,,,A*42
$GPGGA,132422.750,4308.4459,N,07726.3636,W,1,11,0.80,158.3,M,-34.4,M,,*56
lng=-77.439399, lat=43.140754, altitude=158.30, speed=10.68, satellites=11, angle=9.0100, fixquality=1
$GPRMC,132423.000,A,4308.4466,N,07726.3633,W,9.03,8.84,170619,,,A*71
$GPGGA,132423.250,4308.4472,N,07726.3630,W,1,11,0.80,158.2,M,-34.4,M,,*5C
lng=-77.439384, lat=43.140781, altitude=158.30, speed=9.03, satellites=11, angle=8.8400, fixquality=1
$GPRMC,132423.500,A,4308.4478,N,07726.3627,W,8.61,8.33,170619,,,A*77
$GPGGA,132423.750,4308.4484,N,07726.3626,W,1,11,0.80,158.2,M,-34.4,M,,*57
lng=-77.439376, lat=43.140796, altitude=158.20, speed=8.61, satellites=11, angle=8.3300, fixquality=1
$GPRMC,132424.000,A,4308.4489,N,07726.3623,W,8.82,9.66,170619,,,A*73
$GPGGA,132424.250,4308.4495,N,07726.3621,W,1,11,0.80,158.0,M,-34.4,M,,*50
lng=-77.439369, lat=43.140811, altitude=158.20, speed=8.82, satellites=11, angle=9.6600, fixquality=1
$GPRMC,132424.500,A,4308.4501,N,07726.3619,W,9.28,10.08,170619,,,A*4F
$GPGGA,132424.750,4308.4507,N,07726.3617,W,1,11,0.80,158.0,M,-34.4,M,,*5A
lng=-77.439361, lat=43.140834, altitude=158.00, speed=9.28, satellites=11, angle=10.0800, fixquality=1
$GPRMC,132425.000,A,4308.4513,N,07726.3615,W,9.13,9.11,170619,,,A*7C
$GPGGA,132425.250,4308.4518,N,07726.3613,W,1,11,0.80,157.9,M,-34.4,M,,*52
lng=-77.439353, lat=43.140853, altitude=158.00, speed=9.13, satellites=11, angle=9.1100, fixquality=1
$GPRMC,132425.500,A,4308.4524,N,07726.3611,W,8.65,9.57,170619,,,A*7B
$GPGGA,132425.750,4308.4529,N,07726.3609,W,1,11,0.80,157.7,M,-34.4,M,,*50
lng=-77.439353, lat=43.140876, altitude=157.90, speed=8.65, satellites=11, angle=9.5700, fixquality=1
$GPRMC,132426.000,A,4308.4534,N,07726.3607,W,7.55,10.70,170619,,,A*4A
$GPGGA,132426.250,4308.4539,N,07726.3605,W,1,11,0.80,157.5,M,-34.4,M,,*59
lng=-77.439346, lat=43.140892, altitude=157.70, speed=7.55, satellites=11, angle=10.7000, fixquality=1
$GPRMC,132426.500,A,4308.4543,N,07726.3603,W,5.52,6.59,170619,,,A*72
$GPGGA,132426.750,4308.4546,N,07726.3602,W,1,11,0.80,157.4,M,-34.4,M,,*52
lng=-77.439338, lat=43.140903, altitude=157.50, speed=5.52, satellites=11, angle=6.5900, fixquality=1
$GPRMC,132427.000,A,4308.4549,N,07726.3601,W,3.14,12.13,170619,,,A*41
$GPGGA,132427.250,4308.4551,N,07726.3600,W,1,11,0.80,157.3,M,-34.4,M,,*55
lng=-77.439331, lat=43.140918, altitude=157.40, speed=3.14, satellites=11, angle=12.1300, fixquality=1
$GPRMC,132427.500,A,4308.4553,N,07726.3599,W,2.35,12.13,170619,,,A*4F
$GPGGA,132427.750,4308.4555,N,07726.3599,W,1,11,0.80,157.2,M,-34.4,M,,*56
lng=-77.439331, lat=43.140918, altitude=157.30, speed=2.35, satellites=11, angle=12.1300, fixquality=1
$GPRMC,132428.000,A,4308.4557,N,07726.3598,W,3.04,8.55,170619,,,A*7A
$GPGGA,132428.250,4308.4560,N,07726.3598,W,1,11,0.80,157.1,M,-34.4,M,,*58
lng=-77.439331, lat=43.140926, altitude=157.20, speed=3.04, satellites=11, angle=8.5500, fixquality=1
$GPRMC,132428.500,A,4308.4564,N,07726.3597,W,4.84,7.12,170619,,,A*73
$GPGGA,132428.750,4308.4569,N,07726.3596,W,1,11,0.80,157.1,M,-34.4,M,,*5A
lng=-77.439331, lat=43.140941, altitude=157.10, speed=4.84, satellites=11, angle=7.1200, fixquality=1
$GPRMC,132429.000,A,4308.4575,N,07726.3596,W,6.35,3.18,170619,,,A*70
$GPGGA,132429.250,4308.4581,N,07726.3597,W,1,11,0.80,157.2,M,-34.4,M,,*5A
lng=-77.439323, lat=43.140956, altitude=157.10, speed=6.35, satellites=11, angle=3.1800, fixquality=1
$GPRMC,132429.500,A,4308.4587,N,07726.3598,W,7.31,354.53,170619,,,A*7D
$GPGGA,132429.750,4308.4593,N,07726.3599,W,1,11,0.80,157.2,M,-34.4,M,,*52
lng=-77.439331, lat=43.140975, altitude=157.20, speed=7.31, satellites=11, angle=354.5300, fixquality=1
$GPRMC,132430.000,A,4308.4600,N,07726.3601,W,7.88,346.51,170619,,,A*7C
$GPGGA,132430.250,4308.4606,N,07726.3604,W,1,11,0.80,157.2,M,-34.4,M,,*57
lng=-77.439331, lat=43.140998, altitude=157.20, speed=7.88, satellites=11, angle=346.5100, fixquality=1
$GPRMC,132430.500,A,4308.4613,N,07726.3610,W,9.01,329.56,170619,,,A*7A
$GPGGA,132430.750,4308.4620,N,07726.3616,W,1,11,0.80,157.3,M,-34.4,M,,*54
lng=-77.439346, lat=43.141025, altitude=157.20, speed=9.01, satellites=11, angle=329.5600, fixquality=1
$GPRMC,132431.000,A,4308.4626,N,07726.3623,W,9.50,319.37,170619,,,A*78
$GPGGA,132431.250,4308.4631,N,07726.3630,W,1,11,0.80,157.3,M,-34.4,M,,*54
lng=-77.439369, lat=43.141040, altitude=157.30, speed=9.50, satellites=11, angle=319.3700, fixquality=1
$GPRMC,132431.500,A,4308.4636,N,07726.3638,W,9.73,307.94,170619,,,A*71
$GPGGA,132431.750,4308.4640,N,07726.3646,W,1,11,0.80,157.2,M,-34.4,M,,*57
lng=-77.439399, lat=43.141056, altitude=157.30, speed=9.73, satellites=11, angle=307.9400, fixquality=1
$GPRMC,132432.000,A,4308.4644,N,07726.3654,W,10.20,300.33,170619,,,A*4C
$GPGGA,132432.250,4308.4647,N,07726.3663,W,1,11,0.80,157.3,M,-34.4,M,,*50
lng=-77.439422, lat=43.141071, altitude=157.20, speed=10.20, satellites=11, angle=300.3300, fixquality=1
$GPRMC,132432.500,A,4308.4650,N,07726.3673,W,10.47,291.51,170619,,,A*45
$GPGGA,132432.750,4308.4653,N,07726.3683,W,1,10,0.83,157.4,M,-34.4,M,,*5B
lng=-77.439453, lat=43.141078, altitude=157.30, speed=10.47, satellites=11, angle=291.5100, fixquality=1
$GPRMC,132433.000,A,4308.4655,N,07726.3694,W,11.63,285.74,170619,,,A*48
$GPGGA,132433.250,4308.4658,N,07726.3707,W,1,11,0.80,157.4,M,-34.4,M,,*5B
lng=-77.439491, lat=43.141090, altitude=157.40, speed=11.63, satellites=10, angle=285.7400, fixquality=1
$GPRMC,132433.500,A,4308.4660,N,07726.3720,W,13.30,283.10,170619,,,A*45
$GPGGA,132433.750,4308.4662,N,07726.3733,W,1,11,0.80,157.4,M,-34.4,M,,*50
lng=-77.439537, lat=43.141098, altitude=157.40, speed=13.30, satellites=11, angle=283.1000, fixquality=1
$GPRMC,132434.000,A,4308.4666,N,07726.3747,W,14.13,282.48,170619,,,A*4A
$GPGGA,132434.250,4308.4668,N,07726.3761,W,1,11,0.80,157.5,M,-34.4,M,,*5E
lng=-77.439575, lat=43.141113, altitude=157.40, speed=14.13, satellites=11, angle=282.4800, fixquality=1
$GPRMC,132434.500,A,4308.4670,N,07726.3776,W,15.07,279.86,170619,,,A*48
$GPGGA,132434.750,4308.4671,N,07726.3791,W,1,11,0.80,157.5,M,-34.4,M,,*5C
lng=-77.439620, lat=43.141113, altitude=157.50, speed=15.07, satellites=11, angle=279.8600, fixquality=1
$GPRMC,132435.000,A,4308.4673,N,07726.3807,W,15.80,278.09,170619,,,A*4F
$GPGGA,132435.250,4308.4674,N,07726.3823,W,1,11,0.80,157.5,M,-34.4,M,,*5B
lng=-77.439682, lat=43.141120, altitude=157.50, speed=15.80, satellites=11, angle=278.0900, fixquality=1
$GPRMC,132435.500,A,4308.4675,N,07726.3839,W,16.51,277.51,170619,,,A*4C
$GPGGA,132435.750,4308.4676,N,07726.3855,W,1,10,0.87,157.5,M,-34.4,M,,*5B
lng=-77.439727, lat=43.141120, altitude=157.50, speed=16.51, satellites=11, angle=277.5100, fixquality=1
$GPRMC,132436.000,A,4308.4676,N,07726.3872,W,17.54,276.30,170619,,,A*44
$GPGGA,132436.250,4308.4676,N,07726.3890,W,1,10,0.87,157.3,M,-34.4,M,,*52
lng=-77.439788, lat=43.141128, altitude=157.50, speed=17.54, satellites=10, angle=276.3000, fixquality=1
$GPRMC,132436.500,A,4308.4677,N,07726.3908,W,18.61,276.29,170619,,,A*4D
$GPGGA,132436.750,4308.4678,N,07726.3926,W,1,10,0.87,157.2,M,-34.4,M,,*54
lng=-77.439842, lat=43.141128, altitude=157.30, speed=18.61, satellites=10, angle=276.2900, fixquality=1
$GPRMC,132437.000,A,4308.4679,N,07726.3945,W,19.14,275.34,170619,,,A*42
$GPGGA,132437.250,4308.4681,N,07726.3965,W,1,10,0.87,157.2,M,-34.4,M,,*51
lng=-77.439910, lat=43.141128, altitude=157.20, speed=19.14, satellites=10, angle=275.3400, fixquality=1
$GPRMC,132437.500,A,4308.4683,N,07726.3984,W,19.91,276.24,170619,,,A*40
$GPGGA,132437.750,4308.4685,N,07726.4004,W,1,10,0.87,157.0,M,-34.4,M,,*5B
lng=-77.439971, lat=43.141136, altitude=157.20, speed=19.91, satellites=10, angle=276.2400, fixquality=1
$GPRMC,132438.000,A,4308.4687,N,07726.4024,W,20.83,277.93,170619,,,A*4E
$GPGGA,132438.250,4308.4689,N,07726.4044,W,1,10,0.87,157.0,M,-34.4,M,,*59
lng=-77.440040, lat=43.141147, altitude=157.00, speed=20.83, satellites=10, angle=277.9300, fixquality=1
$GPRMC,132438.500,A,4308.4691,N,07726.4065,W,21.46,278.27,170619,,,A*41
$GPGGA,132438.750,4308.4693,N,07726.4086,W,1,10,0.83,157.0,M,-34.4,M,,*5D
lng=-77.440109, lat=43.141155, altitude=157.00, speed=21.46, satellites=10, angle=278.2700, fixquality=1
$GPRMC,132439.000,A,4308.4694,N,07726.4107,W,22.04,277.98,170619,,,A*4B
$GPGGA,132439.250,4308.4696,N,07726.4128,W,1,10,0.87,157.0,M,-34.4,M,,*5D
lng=-77.440177, lat=43.141155, altitude=157.00, speed=22.04, satellites=10, angle=277.9800, fixquality=1
$GPRMC,132439.500,A,4308.4697,N,07726.4150,W,22.52,277.91,170619,,,A*45
$GPGGA,132439.750,4308.4699,N,07726.4172,W,1,10,0.83,156.9,M,-34.4,M,,*54
lng=-77.440254, lat=43.141162, altitude=157.00, speed=22.52, satellites=10, angle=277.9100, fixquality=1
$GPRMC,132440.000,A,4308.4701,N,07726.4193,W,22.54,278.32,170619,,,A*4F
$GPGGA,132440.250,4308.4703,N,07726.4214,W,1,10,0.87,156.9,M,-34.4,M,,*5A
lng=-77.440322, lat=43.141170, altitude=156.90, speed=22.54, satellites=10, angle=278.3200, fixquality=1
$GPRMC,132440.500,A,4308.4705,N,07726.4235,W,21.62,278.89,170619,,,A*47
$GPGGA,132440.750,4308.4708,N,07726.4255,W,1,10,0.87,156.8,M,-34.4,M,,*50
lng=-77.440391, lat=43.141178, altitude=156.90, speed=21.62, satellites=10, angle=278.8900, fixquality=1
$GPRMC,132441.000,A,4308.4711,N,07726.4275,W,20.92,281.02,170619,,,A*49
$GPGGA,132441.250,4308.4714,N,07726.4294,W,1,11,0.80,156.8,M,-34.4,M,,*52
lng=-77.440460, lat=43.141185, altitude=156.80, speed=20.92, satellites=10, angle=281.0200, fixquality=1
$GPRMC,132441.500,A,4308.4717,N,07726.4314,W,20.06,283.30,170619,,,A*42
$GPGGA,132441.750,4308.4720,N,07726.4333,W,1,10,0.87,156.7,M,-34.4,M,,*55
lng=-77.440528, lat=43.141193, altitude=156.80, speed=20.06, satellites=11, angle=283.3000, fixquality=1
$GPRMC,132442.000,A,4308.4722,N,07726.4353,W,19.65,285.56,170619,,,A*48
$GPGGA,132442.250,4308.4726,N,07726.4372,W,1,10,0.87,156.5,M,-34.4,M,,*52
lng=-77.440582, lat=43.141201, altitude=156.70, speed=19.65, satellites=10, angle=285.5600, fixquality=1
$GPRMC,132442.500,A,4308.4730,N,07726.4392,W,19.94,286.69,170619,,,A*42
$GPGGA,132442.750,4308.4734,N,07726.4410,W,1,10,0.87,156.4,M,-34.4,M,,*56
lng=-77.440650, lat=43.141220, altitude=156.50, speed=19.94, satellites=10, angle=286.6900, fixquality=1
$GPRMC,132443.000,A,4308.4737,N,07726.4429,W,19.98,285.48,170619,,,A*4A
$GPGGA,132443.250,4308.4740,N,07726.4449,W,1,10,0.87,156.2,M,-34.4,M,,*5B
lng=-77.440711, lat=43.141227, altitude=156.40, speed=19.98, satellites=10, angle=285.4800, fixquality=1
$GPRMC,132443.500,A,4308.4742,N,07726.4469,W,20.43,281.14,170619,,,A*48
$GPGGA,132443.750,4308.4743,N,07726.4489,W,1,10,0.87,156.0,M,-34.4,M,,*53
lng=-77.440780, lat=43.141235, altitude=156.20, speed=20.43, satellites=10, angle=281.1400, fixquality=1
$GPRMC,132444.000,A,4308.4744,N,07726.4510,W,21.21,277.53,170619,,,A*4C
$GPGGA,132444.250,4308.4744,N,07726.4532,W,1,10,0.87,155.8,M,-34.4,M,,*5C
lng=-77.440849, lat=43.141242, altitude=156.00, speed=21.21, satellites=10, angle=277.5300, fixquality=1
$GPRMC,132444.500,A,4308.4744,N,07726.4554,W,22.03,274.44,170619,,,A*4F
$GPGGA,132444.750,4308.4745,N,07726.4576,W,1,11,0.80,155.7,M,-34.4,M,,*51
lng=-77.440925, lat=43.141242, altitude=155.80, speed=22.03, satellites=10, angle=274.4400, fixquality=1
$GPRMC,132445.000,A,4308.4746,N,07726.4598,W,23.14,273.75,170619,,,A*4B
$GPGGA,132445.250,4308.4747,N,07726.4622,W,1,11,0.80,155.5,M,-34.4,M,,*57
lng=-77.441001, lat=43.141242, altitude=155.70, speed=23.14, satellites=11, angle=273.7500, fixquality=1
$GPRMC,132445.500,A,4308.4748,N,07726.4646,W,24.40,273.58,170619,,,A*49
$GPGGA,132445.750,4308.4749,N,07726.4670,W,1,11,0.80,155.4,M,-34.4,M,,*5A
lng=-77.441070, lat=43.141242, altitude=155.50, speed=24.40, satellites=11, angle=273.5800, fixquality=1
$GPRMC,132446.000,A,4308.4751,N,07726.4696,W,26.09,274.90,170619,,,A*46
$GPGGA,132446.250,4308.4753,N,07726.4722,W,1,11,0.80,155.4,M,-34.4,M,,*51
lng=-77.441162, lat=43.141250, altitude=155.40, speed=26.09, satellites=11, angle=274.9000, fixquality=1
$GPRMC,132446.500,A,4308.4755,N,07726.4748,W,27.02,275.80,170619,,,A*4F
$GPGGA,132446.750,4308.4757,N,07726.4774,W,1,11,0.80,155.4,M,-34.4,M,,*53
lng=-77.441246, lat=43.141258, altitude=155.40, speed=27.02, satellites=11, angle=275.8000, fixquality=1
$GPRMC,132447.000,A,4308.4759,N,07726.4802,W,28.39,276.49,170619,,,A*47
$GPGGA,132447.250,4308.4761,N,07726.4830,W,1,10,0.87,155.6,M,-34.4,M,,*59
lng=-77.441329, lat=43.141269, altitude=155.40, speed=28.39, satellites=11, angle=276.4900, fixquality=1
$GPRMC,132447.500,A,4308.4763,N,07726.4858,W,29.18,275.69,170619,,,A*47
$GPGGA,132447.750,4308.4764,N,07726.4886,W,1,10,0.87,155.7,M,-34.4,M,,*55
lng=-77.441429, lat=43.141269, altitude=155.60, speed=29.18, satellites=10, angle=275.6900, fixquality=1
$GPRMC,132448.000,A,4308.4766,N,07726.4915,W,29.59,275.95,170619,,,A*46
$GPGGA,132448.250,4308.4767,N,07726.4944,W,1,10,0.87,155.7,M,-34.4,M,,*53
lng=-77.441528, lat=43.141277, altitude=155.70, speed=29.59, satellites=10, angle=275.9500, fixquality=1
$GPRMC,132448.500,A,4308.4769,N,07726.4973,W,30.02,276.06,170619,,,A*43
$GPGGA,132448.750,4308.4770,N,07726.5002,W,1,10,0.87,155.8,M,-34.4,M,,*55
lng=-77.441619, lat=43.141284, altitude=155.70, speed=30.02, satellites=10, angle=276.0600, fixquality=1
$GPRMC,132449.000,A,4308.4771,N,07726.5033,W,30.26,275.78,170619,,,A*4E
$GPGGA,132449.250,4308.4772,N,07726.5063,W,1,10,0.87,155.8,M,-34.4,M,,*54
lng=-77.441726, lat=43.141284, altitude=155.80, speed=30.26, satellites=10, angle=275.7800, fixquality=1
$GPRMC,132449.500,A,4308.4773,N,07726.5093,W,30.44,275.30,170619,,,A*4B
$GPGGA,132449.750,4308.4774,N,07726.5123,W,1,10,0.87,155.6,M,-34.4,M,,*5C
lng=-77.441818, lat=43.141292, altitude=155.80, speed=30.44, satellites=10, angle=275.3000, fixquality=1
$GPRMC,132450.000,A,4308.4774,N,07726.5154,W,30.61,274.50,170619,,,A*4B
$GPGGA,132450.250,4308.4775,N,07726.5186,W,1,10,0.87,155.3,M,-34.4,M,,*5A
lng=-77.441925, lat=43.141292, altitude=155.60, speed=30.61, satellites=10, angle=274.5000, fixquality=1
$GPRMC,132450.500,A,4308.4776,N,07726.5218,W,32.53,274.58,170619,,,A*4C
$GPGGA,132450.750,4308.4777,N,07726.5249,W,1,10,0.87,155.2,M,-34.4,M,,*5C
lng=-77.442031, lat=43.141292, altitude=155.30, speed=32.53, satellites=10, angle=274.5800, fixquality=1
$GPRMC,132451.000,A,4308.4779,N,07726.5282,W,33.36,274.53,170619,,,A*4D
$GPGGA,132451.250,4308.4780,N,07726.5314,W,1,10,0.87,155.2,M,-34.4,M,,*59
lng=-77.442138, lat=43.141300, altitude=155.20, speed=33.36, satellites=10, angle=274.5300, fixquality=1
$GPRMC,132451.500,A,4308.4782,N,07726.5348,W,34.51,274.31,170619,,,A*49
$GPGGA,132451.750,4308.4784,N,07726.5382,W,1,10,0.83,155.2,M,-34.4,M,,*53
lng=-77.442245, lat=43.141300, altitude=155.20, speed=34.51, satellites=10, angle=274.3100, fixquality=1
$GPRMC,132452.000,A,4308.4785,N,07726.5415,W,35.22,274.35,170619,,,A*46
$GPGGA,132452.250,4308.4787,N,07726.5450,W,1,10,0.87,155.2,M,-34.4,M,,*5A
lng=-77.442359, lat=43.141307, altitude=155.20, speed=35.22, satellites=10, angle=274.3500, fixquality=1
$GPRMC,132452.500,A,4308.4789,N,07726.5485,W,36.03,273.96,170619,,,A*48
$GPGGA,132452.750,4308.4790,N,07726.5520,W,1,10,0.83,155.2,M,-34.4,M,,*5B
lng=-77.442474, lat=43.141315, altitude=155.20, speed=36.03, satellites=10, angle=273.9600, fixquality=1
$GPRMC,132453.000,A,4308.4791,N,07726.5555,W,36.71,273.79,170619,,,A*4D
$GPGGA,132453.250,4308.4792,N,07726.5590,W,1,10,0.87,155.1,M,-34.4,M,,*51
lng=-77.442596, lat=43.141315, altitude=155.20, speed=36.71, satellites=10, angle=273.7900, fixquality=1
$GPRMC,132453.500,A,4308.4794,N,07726.5626,W,36.95,273.89,170619,,,A*4F
$GPGGA,132453.750,4308.4795,N,07726.5662,W,1,10,0.83,155.1,M,-34.4,M,,*59
lng=-77.442710, lat=43.141323, altitude=155.10, speed=36.95, satellites=10, angle=273.8900, fixquality=1
$GPRMC,132454.000,A,4308.4797,N,07726.5699,W,38.02,273.41,170619,,,A*4E
$GPGGA,132454.250,4308.4798,N,07726.5736,W,1,10,0.87,155.2,M,-34.4,M,,*51
lng=-77.442832, lat=43.141323, altitude=155.10, speed=38.02, satellites=10, angle=273.4100, fixquality=1
$GPRMC,132454.500,A,4308.4799,N,07726.5772,W,38.47,272.64,170619,,,A*46
$GPGGA,132454.750,4308.4801,N,07726.5809,W,1,10,0.83,155.3,M,-34.4,M,,*5D
lng=-77.442955, lat=43.141334, altitude=155.20, speed=38.47, satellites=10, angle=272.6400, fixquality=1
$GPRMC,132455.000,A,4308.4802,N,07726.5846,W,38.64,272.37,170619,,,A*40
$GPGGA,132455.250,4308.4803,N,07726.5884,W,1,10,0.87,155.3,M,-34.4,M,,*5A
lng=-77.443077, lat=43.141334, altitude=155.30, speed=38.64, satellites=10, angle=272.3700, fixquality=1
$GPRMC,132455.500,A,4308.4805,N,07726.5922,W,39.11,272.68,170619,,,A*48
$GPGGA,132455.750,4308.4806,N,07726.5959,W,1,10,0.83,155.5,M,-34.4,M,,*59
lng=-77.443206, lat=43.141342, altitude=155.30, speed=39.11, satellites=10, angle=272.6800, fixquality=1
$GPRMC,132456.000,A,4308.4807,N,07726.5997,W,39.32,272.31,170619,,,A*4F
$GPGGA,132456.250,4308.4808,N,07726.6035,W,1,10,0.87,155.6,M,-34.4,M,,*56
lng=-77.443328, lat=43.141342, altitude=155.50, speed=39.32, satellites=10, angle=272.3100, fixquality=1
$GPRMC,132456.500,A,4308.4809,N,07726.6073,W,39.50,272.26,170619,,,A*46
$GPGGA,132456.750,4308.4810,N,07726.6112,W,1,10,0.83,155.7,M,-34.4,M,,*5B
lng=-77.443458, lat=43.141349, altitude=155.60, speed=39.50, satellites=10, angle=272.2600, fixquality=1
$GPRMC,132457.000,A,4308.4810,N,07726.6151,W,39.97,271.05,170619,,,A*42
$GPGGA,132457.250,4308.4809,N,07726.6189,W,1,10,0.87,155.8,M,-34.4,M,,*5E
lng=-77.443588, lat=43.141349, altitude=155.70, speed=39.97, satellites=10, angle=271.0500, fixquality=1
$GPRMC,132457.500,A,4308.4809,N,07726.6227,W,39.68,270.46,170619,,,A*4B
$GPGGA,132457.750,4308.4810,N,07726.6265,W,1,10,0.83,155.8,M,-34.4,M,,*56
lng=-77.443710, lat=43.141349, altitude=155.80, speed=39.68, satellites=10, angle=270.4600, fixquality=1
$GPRMC,132458.000,A,4308.4809,N,07726.6304,W,39.64,270.50,170619,,,A*4A
$GPGGA,132458.250,4308.4809,N,07726.6342,W,1,10,0.87,155.8,M,-34.4,M,,*54
lng=-77.443840, lat=43.141349, altitude=155.80, speed=39.64, satellites=10, angle=270.5000, fixquality=1
$GPRMC,132458.500,A,4308.4808,N,07726.6380,W,39.35,269.88,170619,,,A*4B
$GPGGA,132458.750,4308.4808,N,07726.6418,W,1,10,0.87,155.7,M,-34.4,M,,*57
lng=-77.443969, lat=43.141349, altitude=155.80, speed=39.35, satellites=10, angle=269.8800, fixquality=1
$GPRMC,132459.000,A,4308.4807,N,07726.6455,W,39.18,269.60,170619,,,A*46
$GPGGA,132459.250,4308.4806,N,07726.6492,W,1,10,0.87,155.6,M,-34.4,M,,*5E
lng=-77.444091, lat=43.141342, altitude=155.70, speed=39.18, satellites=10, angle=269.6000, fixquality=1
$GPRMC,132459.500,A,4308.4805,N,07726.6529,W,37.73,268.72,170619,,,A*4A
$GPGGA,132459.750,4308.4803,N,07726.6566,W,1,10,0.83,155.7,M,-34.4,M,,*51
lng=-77.444213, lat=43.141342, altitude=155.60, speed=37.73, satellites=10, angle=268.7200, fixquality=1
$GPRMC,132500.000,A,4308.4802,N,07726.6604,W,37.75,267.77,170619,,,A*45
$GPGGA,132500.250,4308.4800,N,07726.6640,W,1,10,0.87,155.8,M,-34.4,M,,*56
lng=-77.444335, lat=43.141334, altitude=155.70, speed=37.75, satellites=10, angle=267.7700, fixquality=1
$GPRMC,132500.500,A,4308.4798,N,07726.6676,W,37.28,267.40,170619,,,A*45
$GPGGA,132500.750,4308.4797,N,07726.6712,W,1,10,0.87,155.8,M,-34.4,M,,*54
lng=-77.444458, lat=43.141334, altitude=155.80, speed=37.28, satellites=10, angle=267.4000, fixquality=1
$GPRMC,132501.000,A,4308.4795,N,07726.6748,W,37.01,267.03,170619,,,A*4C
$GPGGA,132501.250,4308.4793,N,07726.6783,W,1,10,0.87,155.9,M,-34.4,M,,*5D
lng=-77.444580, lat=43.141323, altitude=155.80, speed=37.01, satellites=10, angle=267.0300, fixquality=1
$GPRMC,132501.500,A,4308.4791,N,07726.6818,W,36.73,266.64,170619,,,A*43
$GPGGA,132501.750,4308.4789,N,07726.6853,W,1,10,0.87,156.0,M,-34.4,M,,*5B
lng=-77.444694, lat=43.141315, altitude=155.90, speed=36.73, satellites=10, angle=266.6400, fixquality=1
$GPRMC,132502.000,A,4308.4787,N,07726.6888,W,36.64,266.31,170619,,,A*4D
$GPGGA,132502.250,4308.4785,N,07726.6924,W,1,11,0.80,156.0,M,-34.4,M,,*56
lng=-77.444816, lat=43.141307, altitude=156.00, speed=36.64, satellites=10, angle=266.3100, fixquality=1
$GPRMC,132502.500,A,4308.4782,N,07726.6959,W,37.31,266.24,170619,,,A*45
$GPGGA,132502.750,4308.4780,N,07726.6994,W,1,11,0.80,156.1,M,-34.4,M,,*5C
lng=-77.444931, lat=43.141300, altitude=156.00, speed=37.31, satellites=11, angle=266.2400, fixquality=1
$GPRMC,132503.000,A,4308.4778,N,07726.7030,W,37.52,266.08,170619,,,A*48
$GPGGA,132503.250,4308.4776,N,07726.7067,W,1,10,0.87,156.3,M,-34.4,M,,*51
lng=-77.445053, lat=43.141300, altitude=156.10, speed=37.52, satellites=11, angle=266.0800, fixquality=1
$GPRMC,132503.500,A,4308.4774,N,07726.7104,W,37.70,266.11,170619,,,A*4F
$GPGGA,132503.750,4308.4772,N,07726.7141,W,1,11,0.80,156.6,M,-34.4,M,,*56
lng=-77.445175, lat=43.141292, altitude=156.30, speed=37.70, satellites=10, angle=266.1100, fixquality=1
$GPRMC,132504.000,A,4308.4770,N,07726.7178,W,38.43,266.35,170619,,,A*4B
$GPGGA,132504.250,4308.4767,N,07726.7216,W,1,11,0.80,157.0,M,-34.4,M,,*56
lng=-77.445297, lat=43.141284, altitude=156.60, speed=38.43, satellites=11, angle=266.3500, fixquality=1
$GPRMC,132504.500,A,4308.4765,N,07726.7253,W,38.67,266.27,170619,,,A*45
$GPGGA,132504.750,4308.4763,N,07726.7290,W,1,11,0.80,157.4,M,-34.4,M,,*5D
lng=-77.445419, lat=43.141277, altitude=157.00, speed=38.67, satellites=11, angle=266.2700, fixquality=1
$GPRMC,132505.000,A,4308.4761,N,07726.7328,W,38.73,266.85,170619,,,A*45
$GPGGA,132505.250,4308.4758,N,07726.7365,W,1,11,0.80,157.9,M,-34.4,M,,*57
lng=-77.445549, lat=43.141269, altitude=157.40, speed=38.73, satellites=11, angle=266.8500, fixquality=1
$GPRMC,132505.500,A,4308.4756,N,07726.7403,W,39.15,266.71,170619,,,A*40
$GPGGA,132505.750,4308.4754,N,07726.7440,W,1,11,0.80,158.3,M,-34.4,M,,*5B
lng=-77.445671, lat=43.141258, altitude=157.90, speed=39.15, satellites=11, angle=266.7100, fixquality=1
$GPRMC,132506.000,A,4308.4751,N,07726.7479,W,39.62,266.39,170619,,,A*40
$GPGGA,132506.250,4308.4749,N,07726.7518,W,1,11,0.80,159.0,M,-34.4,M,,*5F
lng=-77.445800, lat=43.141250, altitude=158.30, speed=39.62, satellites=11, angle=266.3900, fixquality=1
$GPRMC,132506.500,A,4308.4746,N,07726.7557,W,40.21,266.40,170619,,,A*49
$GPGGA,132506.750,4308.4744,N,07726.7595,W,1,11,0.78,159.5,M,-34.4,M,,*50
lng=-77.445930, lat=43.141242, altitude=159.00, speed=40.21, satellites=11, angle=266.4000, fixquality=1
$GPRMC,132507.000,A,4308.4742,N,07726.7634,W,40.45,266.38,170619,,,A*42
$GPGGA,132507.250,4308.4740,N,07726.7673,W,1,11,0.80,159.9,M,-34.4,M,,*50
lng=-77.446052, lat=43.141235, altitude=159.50, speed=40.45, satellites=11, angle=266.3800, fixquality=1
$GPRMC,132507.500,A,4308.4738,N,07726.7712,W,40.57,266.66,170619,,,A*47
$GPGGA,132507.750,4308.4736,N,07726.7752,W,1,11,0.78,160.3,M,-34.4,M,,*51
lng=-77.446182, lat=43.141227, altitude=159.90, speed=40.57, satellites=11, angle=266.6600, fixquality=1
$GPRMC,132508.000,A,4308.4734,N,07726.7792,W,41.06,266.22,170619,,,A*4C
$GPGGA,132508.250,4308.4732,N,07726.7832,W,1,11,0.80,160.6,M,-34.4,M,,*54
lng=-77.446319, lat=43.141227, altitude=160.30, speed=41.06, satellites=11, angle=266.2200, fixquality=1
$GPRMC,132508.500,A,4308.4729,N,07726.7873,W,41.31,265.23,170619,,,A*43
$GPGGA,132508.750,4308.4727,N,07726.7913,W,1,11,0.80,160.6,M,-34.4,M,,*57
lng=-77.446449, lat=43.141212, altitude=160.60, speed=41.31, satellites=11, angle=265.2300, fixquality=1
$GPRMC,132509.000,A,4308.4725,N,07726.7953,W,41.86,265.63,170619,,,A*40
$GPGGA,132509.250,4308.4723,N,07726.7995,W,1,11,0.80,160.4,M,-34.4,M,,*5B
lng=-77.446586, lat=43.141212, altitude=160.60, speed=41.86, satellites=11, angle=265.6300, fixquality=1
$GPRMC,132509.500,A,4308.4721,N,07726.8037,W,42.64,265.46,170619,,,A*4D
$GPGGA,132509.750,4308.4718,N,07726.8078,W,1,11,0.78,160.3,M,-34.4,M,,*53
lng=-77.446731, lat=43.141201, altitude=160.40, speed=42.64, satellites=11, angle=265.4600, fixquality=1
$GPRMC,132510.000,A,4308.4716,N,07726.8119,W,43.16,264.99,170619,,,A*4E
$GPGGA,132510.250,4308.4713,N,07726.8161,W,1,11,0.80,160.0,M,-34.4,M,,*58
lng=-77.446868, lat=43.141193, altitude=160.30, speed=43.16, satellites=11, angle=264.9900, fixquality=1
$GPRMC,132510.500,A,4308.4711,N,07726.8203,W,43.53,264.91,170619,,,A*4D
$GPGGA,132510.750,4308.4709,N,07726.8244,W,1,11,0.80,159.6,M,-34.4,M,,*5E
lng=-77.447006, lat=43.141185, altitude=160.00, speed=43.53, satellites=11, angle=264.9100, fixquality=1
$GPRMC,132511.000,A,4308.4706,N,07726.8286,W,43.87,265.17,170619,,,A*44
$GPGGA,132511.250,4308.4704,N,07726.8328,W,1,11,0.80,159.2,M,-34.4,M,,*58
lng=-77.447143, lat=43.141178, altitude=159.60, speed=43.87, satellites=11, angle=265.1700, fixquality=1
$GPRMC,132511.500,A,4308.4702,N,07726.8371,W,44.47,265.15,170619,,,A*45
$GPGGA,132511.750,4308.4699,N,07726.8413,W,1,11,0.80,158.8,M,-34.4,M,,*5C
lng=-77.447280, lat=43.141170, altitude=159.20, speed=44.47, satellites=11, angle=265.1500, fixquality=1
$GPRMC,132512.000,A,4308.4696,N,07726.8456,W,44.96,265.20,170619,,,A*47
$GPGGA,132512.250,4308.4693,N,07726.8499,W,1,11,0.80,158.5,M,-34.4,M,,*5F
lng=-77.447425, lat=43.141162, altitude=158.80, speed=44.96, satellites=11, angle=265.2000, fixquality=1
$GPRMC,132512.500,A,4308.4691,N,07726.8542,W,45.08,265.14,170619,,,A*40
$GPGGA,132512.750,4308.4688,N,07726.8585,W,1,11,0.80,158.2,M,-34.4,M,,*5B
lng=-77.447563, lat=43.141155, altitude=158.50, speed=45.08, satellites=11, angle=265.1400, fixquality=1
$GPRMC,132513.000,A,4308.4684,N,07726.8628,W,45.21,264.85,170619,,,A*4D
$GPGGA,132513.250,4308.4681,N,07726.8671,W,1,11,0.80,158.0,M,-34.4,M,,*5C
lng=-77.447715, lat=43.141136, altitude=158.20, speed=45.21, satellites=11, angle=264.8500, fixquality=1
$GPRMC,132513.500,A,4308.4679,N,07726.8714,W,45.66,265.57,170619,,,A*49
$GPGGA,132513.750,4308.4676,N,07726.8757,W,1,11,0.80,157.9,M,-34.4,M,,*52
lng=-77.447860, lat=43.141128, altitude=158.00, speed=45.66, satellites=11, angle=265.5700, fixquality=1
$GPRMC,132514.000,A,4308.4673,N,07726.8801,W,45.61,265.54,170619,,,A*4E
$GPGGA,132514.250,4308.4670,N,07726.8844,W,1,11,0.80,157.6,M,-34.4,M,,*54
lng=-77.447998, lat=43.141120, altitude=157.90, speed=45.61, satellites=11, angle=265.5400, fixquality=1
$GPRMC,132514.500,A,4308.4668,N,07726.8888,W,45.93,265.25,170619,,,A*4B
