Vers 81
USE_SERIAL_FEEDBACK=true
DEVELOPMENT_MODE=false
USE_RMC_ONLY=false

$GPRMC,142134.500,A,4308.3052,N,07726.2658,W,0.01,279.87,101019,,,A*74
$GPGGA,142134.750,4308.3052,N,07726.2658,W,1,06,1.27,163.9,M,-34.4,M,,*5A
$GPRMC,142135.250,A,4308.3053,N,07726.2658,W,0.01,303.40,101019,,,A*71
$GPGGA,142135.500,4308.3053,N,07726.2658,W,1,06,1.27,164.2,M,-34.4,M,,*51
$GPRMC,142136.000,A,4308.3053,N,07726.2659,W,0.06,63.63,101019,,,A*47
$GPGGA,142136.250,4308.3053,N,07726.2659,W,1,06,1.27,164.0,M,-34.4,M,,*53
$GPRMC,142136.500,A,4308.3052,N,07726.2660,W,0.04,34.84,101019,,,A*40
$GPGGA,142136.750,4308.3053,N,07726.2660,W,1,06,1.27,163.9,M,-34.4,M,,*52
$GPRMC,142137.000,A,4308.3053,N,07726.2661,W,0.06,36.35,101019,,,A*4E
$GPGGA,142137.250,4308.3053,N,07726.2661,W,1,06,1.27,163.8,M,-34.4,M,,*56
$GPRMC,142137.500,A,4308.3054,N,07726.2662,W,0.06,24.01,101019,,,A*4B
$GPGGA,142137.750,4308.3053,N,07726.2662,W,1,06,1.27,163.6,M,-34.4,M,,*5E
$GPRMC,142138.000,A,4308.3054,N,07726.2663,W,0.08,33.03,101019,,,A*4A
$GPGGA,142138.250,4308.3054,N,07726.2663,W,1,06,1.27,163.4,M,-34.4,M,,*50
$GPRMC,142138.500,A,4308.3054,N,07726.2664,W,0.05,40.84,101019,,,A*4E
$GPGGA,142138.750,4308.3054,N,07726.2664,W,1,06,1.27,163.3,M,-34.4,M,,*55
$GPRMC,142139.000,A,4308.3054,N,07726.2664,W,0.12,20.28,101019,,,A*4C
$GPGGA,142139.250,4308.3055,N,07726.2664,W,1,06,1.27,163.2,M,-34.4,M,,*51
$GPRMC,142139.500,A,4308.3055,N,07726.2665,W,0.08,9.15,101019,,,A*77
$GPGGA,142139.750,4308.3055,N,07726.2665,W,1,06,1.41,163.1,M,-34.4,M,,*56
$GPRMC,142140.000,A,4308.3055,N,07726.2665,W,0.06,7.35,101019,,,A*7E
$GPGGA,142140.250,4308.3055,N,07726.2665,W,1,06,1.41,163.2,M,-34.4,M,,*5E
$GPRMC,142140.500,A,4308.3056,N,07726.2666,W,0.05,349.19,101019,,,A*7F
$GPGGA,142140.750,4308.3056,N,07726.2666,W,1,06,1.41,163.1,M,-34.4,M,,*58
$GPRMC,142141.000,A,4308.3056,N,07726.2666,W,0.05,341.70,101019,,,A*7C
$GPGGA,142141.250,4308.3056,N,07726.2667,W,1,06,1.27,163.0,M,-34.4,M,,*5C
$GPRMC,142141.500,A,4308.3057,N,07726.2667,W,0.07,328.58,101019,,,A*7E
$GPGGA,142141.750,4308.3056,N,07726.2667,W,1,06,1.27,162.9,M,-34.4,M,,*51
$GPRMC,142142.000,A,4308.3057,N,07726.2668,W,0.05,111.97,101019,,,A*7E
$GPGGA,142142.250,4308.3057,N,07726.2668,W,1,06,1.27,162.8,M,-34.4,M,,*58
$GPRMC,142142.500,A,4308.3057,N,07726.2669,W,0.02,72.93,101019,,,A*4D
$GPGGA,142142.750,4308.3057,N,07726.2669,W,1,06,1.27,162.7,M,-34.4,M,,*53
$GPRMC,142143.000,A,4308.3057,N,07726.2668,W,0.18,79.64,101019,,,A*40
$GPGGA,142143.250,4308.3057,N,07726.2668,W,1,06,1.27,162.6,M,-34.4,M,,*57
$GPRMC,142143.500,A,4308.3057,N,07726.2668,W,0.17,305.73,101019,,,A*74
$GPGGA,142143.750,4308.3057,N,07726.2668,W,1,06,1.27,162.3,M,-34.4,M,,*57
$GPRMC,142144.000,A,4308.3057,N,07726.2668,W,0.03,19.21,101019,,,A*4A
$GPGGA,142144.250,4308.3057,N,07726.2668,W,1,06,1.27,162.1,M,-34.4,M,,*57
$GPRMC,142144.500,A,4308.3057,N,07726.2668,W,0.05,333.87,101019,,,A*7E
$GPGGA,142144.750,4308.3057,N,07726.2668,W,1,06,1.27,162.0,M,-34.4,M,,*53
$GPRMC,142145.000,A,4308.3057,N,07726.2669,W,0.10,341.99,101019,,,A*75
$GPGGA,142145.250,4308.3057,N,07726.2669,W,1,06,1.27,162.0,M,-34.4,M,,*56
$GPRMC,142145.500,A,4308.3057,N,07726.2669,W,0.07,323.71,101019,,,A*74
$GPGGA,142145.750,4308.3057,N,07726.2669,W,1,06,1.27,161.9,M,-34.4,M,,*59
$GPRMC,142146.000,A,4308.3057,N,07726.2670,W,0.12,321.03,101019,,,A*79
$GPGGA,142146.250,4308.3057,N,07726.2670,W,1,06,1.27,161.8,M,-34.4,M,,*56
$GPRMC,142146.500,A,4308.3057,N,07726.2670,W,0.11,354.23,101019,,,A*7F
$GPGGA,142146.750,4308.3056,N,07726.2670,W,1,06,1.41,161.7,M,-34.4,M,,*5D
$GPRMC,142147.000,A,4308.3056,N,07726.2671,W,0.05,336.11,101019,,,A*7B
$GPGGA,142147.250,4308.3056,N,07726.2671,W,1,06,1.27,161.7,M,-34.4,M,,*58
$GPRMC,142147.500,A,4308.3056,N,07726.2671,W,0.09,287.42,101019,,,A*7F
$GPGGA,142147.750,4308.3056,N,07726.2672,W,1,06,1.27,161.7,M,-34.4,M,,*5E
$GPRMC,142148.000,A,4308.3056,N,07726.2672,W,0.13,257.36,101019,,,A*73
$GPGGA,142148.250,4308.3055,N,07726.2672,W,1,06,1.27,161.7,M,-34.4,M,,*57
$GPRMC,142148.500,A,4308.3055,N,07726.2672,W,0.16,245.29,101019,,,A*7D
$GPGGA,142148.750,4308.3055,N,07726.2673,W,1,06,1.27,161.6,M,-34.4,M,,*52
$GPRMC,142149.000,A,4308.3055,N,07726.2673,W,0.08,225.52,101019,,,A*7D
$GPGGA,142149.250,4308.3054,N,07726.2673,W,1,06,1.27,161.6,M,-34.4,M,,*57
$GPRMC,142149.500,A,4308.3054,N,07726.2673,W,0.06,205.03,101019,,,A*71
$GPGGA,142149.750,4308.3054,N,07726.2673,W,1,06,1.27,161.6,M,-34.4,M,,*52
$GPRMC,142150.000,A,4308.3053,N,07726.2673,W,0.04,176.54,101019,,,A*7C
$GPGGA,142150.250,4308.3053,N,07726.2673,W,1,06,1.27,161.6,M,-34.4,M,,*58
$GPRMC,142150.500,A,4308.3053,N,07726.2673,W,0.03,178.58,101019,,,A*7C
$GPGGA,142150.750,4308.3053,N,07726.2674,W,1,05,2.93,161.5,M,-34.4,M,,*56
$GPRMC,142151.000,A,4308.3053,N,07726.2673,W,0.05,160.19,101019,,,A*72
$GPGGA,142151.250,4308.3053,N,07726.2674,W,1,06,1.27,161.5,M,-34.4,M,,*5D
$GPRMC,142151.500,A,4308.3052,N,07726.2674,W,0.10,191.07,101019,,,A*74
$GPGGA,142151.750,4308.3052,N,07726.2674,W,1,06,1.27,161.5,M,-34.4,M,,*59
$GPRMC,142152.000,A,4308.3052,N,07726.2674,W,0.17,227.50,101019,,,A*79
$GPGGA,142152.250,4308.3052,N,07726.2674,W,1,05,2.92,161.5,M,-34.4,M,,*51
$GPRMC,142152.500,A,4308.3052,N,07726.2675,W,0.11,224.16,101019,,,A*7A
$GPGGA,142152.750,4308.3052,N,07726.2675,W,1,05,2.93,161.6,M,-34.4,M,,*57
$GPRMC,142153.000,A,4308.3053,N,07726.2675,W,0.04,228.44,101019,,,A*70
$GPGGA,142153.250,4308.3053,N,07726.2675,W,1,05,2.93,161.6,M,-34.4,M,,*52
$GPRMC,142153.500,A,4308.3053,N,07726.2676,W,0.11,243.11,101019,,,A*7F
$GPGGA,142153.750,4308.3053,N,07726.2676,W,1,05,2.93,161.7,M,-34.4,M,,*55
$GPRMC,142154.000,A,4308.3053,N,07726.2676,W,0.09,262.32,101019,,,A*76
$GPGGA,142154.250,4308.3053,N,07726.2676,W,1,05,2.93,161.7,M,-34.4,M,,*57
$GPRMC,142154.500,A,4308.3053,N,07726.2677,W,0.08,243.50,101019,,,A*74
$GPGGA,142154.750,4308.3053,N,07726.2676,W,1,05,2.92,161.7,M,-34.4,M,,*53
$GPRMC,142155.000,A,4308.3053,N,07726.2676,W,0.04,201.09,101019,,,A*77
$GPGGA,142155.250,4308.3053,N,07726.2677,W,1,05,2.93,161.8,M,-34.4,M,,*58
$GPRMC,142155.500,A,4308.3053,N,07726.2677,W,0.02,145.71,101019,,,A*79
$GPGGA,142155.750,4308.3054,N,07726.2677,W,1,05,2.93,161.8,M,-34.4,M,,*5A
$GPRMC,142156.000,A,4308.3054,N,07726.2677,W,0.05,100.21,101019,,,A*7B
$GPGGA,142156.250,4308.3054,N,07726.2677,W,1,06,1.27,161.9,M,-34.4,M,,*52
$GPRMC,142156.500,A,4308.3053,N,07726.2677,W,0.07,121.04,101019,,,A*7F
$GPGGA,142156.750,4308.3053,N,07726.2676,W,1,06,1.27,161.9,M,-34.4,M,,*51
$GPRMC,142157.000,A,4308.3053,N,07726.2676,W,0.16,114.75,101019,,,A*7A
$GPGGA,142157.250,4308.3053,N,07726.2676,W,1,06,1.27,161.9,M,-34.4,M,,*55
$GPRMC,142157.500,A,4308.3053,N,07726.2676,W,0.13,100.43,101019,,,A*7A
$GPGGA,142157.750,4308.3054,N,07726.2676,W,1,05,2.93,161.9,M,-34.4,M,,*58
$GPRMC,142158.000,A,4308.3055,N,07726.2677,W,0.16,20.11,101019,,,A*46
$GPGGA,142158.250,4308.3055,N,07726.2677,W,1,05,2.93,161.9,M,-34.4,M,,*52
$GPRMC,142158.500,A,4308.3055,N,07726.2677,W,0.09,28.88,101019,,,A*45
$GPGGA,142158.750,4308.3055,N,07726.2677,W,1,05,2.93,161.9,M,-34.4,M,,*57
$GPRMC,142159.000,A,4308.3054,N,07726.2677,W,0.05,222.86,101019,,,A*7A
$GPGGA,142159.250,4308.3055,N,07726.2677,W,1,05,2.93,161.9,M,-34.4,M,,*53
$GPRMC,142159.500,A,4308.3054,N,07726.2676,W,0.06,174.79,101019,,,A*7D
$GPGGA,142159.750,4308.3054,N,07726.2676,W,1,05,2.93,161.9,M,-34.4,M,,*56
$GPRMC,142200.000,A,4308.3054,N,07726.2675,W,0.18,110.74,101019,,,A*74
$GPGGA,142200.250,4308.3054,N,07726.2675,W,1,05,2.93,161.9,M,-34.4,M,,*5F
$GPRMC,142200.500,A,4308.3054,N,07726.2675,W,0.15,110.01,101019,,,A*7E
$GPGGA,142200.750,4308.3054,N,07726.2675,W,1,05,2.93,162.0,M,-34.4,M,,*50
$GPRMC,142201.000,A,4308.3054,N,07726.2676,W,0.09,168.24,101019,,,A*7C
$GPGGA,142201.250,4308.3055,N,07726.2676,W,1,05,2.93,162.0,M,-34.4,M,,*56
$GPRMC,142201.500,A,4308.3055,N,07726.2676,W,0.05,164.96,101019,,,A*71
$GPGGA,142201.750,4308.3055,N,07726.2675,W,1,05,2.93,162.0,M,-34.4,M,,*50
$GPRMC,142202.000,A,4308.3056,N,07726.2676,W,0.05,51.03,101019,,,A*4F
$GPGGA,142202.250,4308.3056,N,07726.2676,W,1,05,2.93,162.0,M,-34.4,M,,*56
$GPRMC,142202.500,A,4308.3055,N,07726.2675,W,0.08,107.80,101019,,,A*7E
$GPGGA,142202.750,4308.3055,N,07726.2675,W,1,05,2.93,162.0,M,-34.4,M,,*53
$GPRMC,142203.000,A,4308.3055,N,07726.2675,W,0.18,157.33,101019,,,A*76
$GPGGA,142203.250,4308.3055,N,07726.2674,W,1,05,2.93,162.0,M,-34.4,M,,*56
$GPRMC,142203.500,A,4308.3055,N,07726.2674,W,0.17,148.90,101019,,,A*7A
$GPGGA,142203.750,4308.3055,N,07726.2674,W,1,05,2.93,162.0,M,-34.4,M,,*53
$GPRMC,142204.000,A,4308.3055,N,07726.2674,W,0.16,115.75,101019,,,A*7A
$GPGGA,142204.250,4308.3055,N,07726.2674,W,1,05,2.93,162.0,M,-34.4,M,,*51
$GPRMC,142204.500,A,4308.3055,N,07726.2674,W,0.21,136.56,101019,,,A*7B
$GPGGA,142204.750,4308.3054,N,07726.2673,W,1,05,2.93,161.9,M,-34.4,M,,*58
$GPRMC,142205.000,A,4308.3054,N,07726.2673,W,0.33,125.87,101019,,,A*74
$GPGGA,142205.250,4308.3055,N,07726.2673,W,1,05,2.93,161.9,M,-34.4,M,,*5D
$GPRMC,142205.500,A,4308.3055,N,07726.2673,W,0.26,126.37,101019,,,A*7C
$GPGGA,142205.750,4308.3055,N,07726.2673,W,1,06,1.27,161.9,M,-34.4,M,,*57
$GPRMC,142206.000,A,4308.3055,N,07726.2673,W,0.19,124.36,101019,,,A*75
$GPGGA,142206.250,4308.3055,N,07726.2673,W,1,06,1.27,161.9,M,-34.4,M,,*51
$GPRMC,142206.500,A,4308.3055,N,07726.2672,W,0.25,119.89,101019,,,A*74
$GPGGA,142206.750,4308.3055,N,07726.2672,W,1,06,1.27,161.9,M,-34.4,M,,*55
$GPRMC,142207.000,A,4308.3055,N,07726.2672,W,0.71,98.56,101019,,,A*4B
$GPGGA,142207.250,4308.3056,N,07726.2672,W,1,06,1.27,161.9,M,-34.4,M,,*52
$GPRMC,142207.500,A,4308.3059,N,07726.2671,W,1.39,28.07,101019,,,A*43
$GPGGA,142207.750,4308.3061,N,07726.2671,W,1,06,1.27,161.9,M,-34.4,M,,*50
$GPRMC,142208.000,A,4308.3064,N,07726.2670,W,3.43,21.38,101019,,,A*4C
$GPGGA,142208.250,4308.3066,N,07726.2669,W,1,06,1.27,161.9,M,-34.4,M,,*54
$GPRMC,142208.500,A,4308.3070,N,07726.2669,W,4.98,11.46,101019,,,A*4F
$GPGGA,142208.750,4308.3075,N,07726.2669,W,1,05,3.09,161.9,M,-34.4,M,,*5E
$GPRMC,142209.000,A,4308.3079,N,07726.2668,W,5.70,5.52,101019,,,A*74
$GPGGA,142209.250,4308.3082,N,07726.2668,W,1,06,1.41,161.8,M,-34.4,M,,*5F
$GPRMC,142209.500,A,4308.3086,N,07726.2667,W,5.52,4.58,101019,,,A*75
$GPGGA,142209.750,4308.3090,N,07726.2667,W,1,06,1.41,161.9,M,-34.4,M,,*57
$GPRMC,142210.000,A,4308.3094,N,07726.2667,W,5.93,359.84,101019,,,A*7C
$GPGGA,142210.250,4308.3098,N,07726.2667,W,1,06,1.41,161.9,M,-34.4,M,,*52
$GPRMC,142210.500,A,4308.3103,N,07726.2667,W,6.11,0.04,101019,,,A*78
$GPGGA,142210.750,4308.3106,N,07726.2666,W,1,06,1.41,161.8,M,-34.4,M,,*51
$GPRMC,142211.000,A,4308.3110,N,07726.2666,W,5.51,4.24,101019,,,A*7E
$GPGGA,142211.250,4308.3114,N,07726.2665,W,1,06,1.41,161.8,M,-34.4,M,,*55
$GPRMC,142211.500,A,4308.3117,N,07726.2664,W,5.02,5.26,101019,,,A*7B
$GPGGA,142211.750,4308.3120,N,07726.2663,W,1,06,1.41,161.8,M,-34.4,M,,*51
$GPRMC,142212.000,A,4308.3122,N,07726.2662,W,3.96,10.11,101019,,,A*46
$GPGGA,142212.250,4308.3125,N,07726.2662,W,1,06,1.41,161.8,M,-34.4,M,,*53
$GPRMC,142212.500,A,4308.3127,N,07726.2661,W,3.81,9.75,101019,,,A*79
$GPGGA,142212.750,4308.3130,N,07726.2660,W,1,06,1.41,161.8,M,-34.4,M,,*50
$GPRMC,142213.000,A,4308.3132,N,07726.2659,W,3.18,11.58,101019,,,A*44
$GPGGA,142213.250,4308.3133,N,07726.2657,W,1,06,1.41,161.8,M,-34.4,M,,*53
$GPRMC,142213.500,A,4308.3136,N,07726.2656,W,3.31,19.99,101019,,,A*44
$GPGGA,142213.750,4308.3138,N,07726.2655,W,1,06,1.27,161.8,M,-34.4,M,,*5F
$GPRMC,142214.000,A,4308.3141,N,07726.2654,W,3.72,17.02,101019,,,A*4F
$GPGGA,142214.250,4308.3143,N,07726.2653,W,1,06,1.27,161.8,M,-34.4,M,,*57
$GPRMC,142214.500,A,4308.3145,N,07726.2651,W,3.75,25.44,101019,,,A*4F
$GPGGA,142214.750,4308.3147,N,07726.2648,W,1,06,1.27,161.8,M,-34.4,M,,*5C
$GPRMC,142215.000,A,4308.3150,N,07726.2646,W,4.23,33.78,101019,,,A*45
$GPGGA,142215.250,4308.3152,N,07726.2643,W,1,06,1.27,161.9,M,-34.4,M,,*56
$GPRMC,142215.500,A,4308.3154,N,07726.2640,W,4.06,39.09,101019,,,A*49
$GPGGA,142215.750,4308.3156,N,07726.2637,W,1,06,1.41,161.9,M,-34.4,M,,*54
$GPRMC,142216.000,A,4308.3158,N,07726.2633,W,4.11,54.71,101019,,,A*45
$GPGGA,142216.250,4308.3159,N,07726.2630,W,1,06,1.27,161.9,M,-34.4,M,,*5A
$GPRMC,142216.500,A,4308.3161,N,07726.2627,W,3.83,57.19,101019,,,A*4E
$GPGGA,142216.750,4308.3162,N,07726.2623,W,1,06,1.27,161.9,M,-34.4,M,,*55
$GPRMC,142217.000,A,4308.3163,N,07726.2620,W,3.59,64.34,101019,,,A*47
$GPGGA,142217.250,4308.3164,N,07726.2617,W,1,06,1.27,161.9,M,-34.4,M,,*50
$GPRMC,142217.500,A,4308.3164,N,07726.2614,W,2.75,83.69,101019,,,A*4C
$GPGGA,142217.750,4308.3164,N,07726.2612,W,1,06,1.27,161.9,M,-34.4,M,,*50
$GPRMC,142218.000,A,4308.3164,N,07726.2610,W,1.42,94.43,101019,,,A*4B
$GPGGA,142218.250,4308.3164,N,07726.2610,W,1,06,1.27,161.9,M,-34.4,M,,*58
$GPRMC,142218.500,A,4308.3164,N,07726.2610,W,0.61,103.59,101019,,,A*7A
$GPGGA,142218.750,4308.3164,N,07726.2611,W,1,06,1.27,161.9,M,-34.4,M,,*5C
$GPRMC,142219.000,A,4308.3164,N,07726.2615,W,0.91,252.07,101019,,,A*78
$GPGGA,142219.250,4308.3164,N,07726.2617,W,1,06,1.27,161.9,M,-34.4,M,,*5E
$GPRMC,142219.500,A,4308.3164,N,07726.2620,W,1.42,256.65,101019,,,A*74
$GPGGA,142219.750,4308.3163,N,07726.2624,W,1,06,1.27,161.9,M,-34.4,M,,*5C
$GPRMC,142220.000,A,4308.3162,N,07726.2630,W,5.49,247.34,101019,,,A*77
$GPGGA,142220.250,4308.3161,N,07726.2636,W,1,06,1.27,161.9,M,-34.4,M,,*52
$GPRMC,142220.500,A,4308.3160,N,07726.2644,W,7.78,250.52,101019,,,A*75
$GPGGA,142220.750,4308.3159,N,07726.2653,W,1,06,1.41,161.8,M,-34.4,M,,*5E
$GPRMC,142221.000,A,4308.3160,N,07726.2662,W,9.21,259.84,101019,,,A*75
$GPGGA,142221.250,4308.3163,N,07726.2675,W,1,06,1.41,161.8,M,-34.4,M,,*57
$GPRMC,142221.500,A,4308.3163,N,07726.2687,W,11.97,268.62,101019,,,A*46
$GPGGA,142221.750,4308.3164,N,07726.2701,W,1,06,1.41,161.7,M,-34.4,M,,*58
$GPRMC,142222.000,A,4308.3166,N,07726.2715,W,14.39,272.01,101019,,,A*40
$GPGGA,142222.250,4308.3167,N,07726.2731,W,1,06,1.27,161.7,M,-34.4,M,,*5E
$GPRMC,142222.500,A,4308.3169,N,07726.2747,W,16.33,274.41,101019,,,A*47
$GPGGA,142222.750,4308.3171,N,07726.2765,W,1,06,1.27,161.7,M,-34.4,M,,*5D
$GPRMC,142223.000,A,4308.3173,N,07726.2782,W,17.50,275.68,101019,,,A*4F
$GPGGA,142223.250,4308.3175,N,07726.2799,W,1,06,1.27,161.7,M,-34.4,M,,*5E
$GPRMC,142223.500,A,4308.3177,N,07726.2818,W,18.37,277.49,101019,,,A*4D
$GPGGA,142223.750,4308.3180,N,07726.2836,W,1,06,1.27,161.7,M,-34.4,M,,*5B
$GPRMC,142224.000,A,4308.3184,N,07726.2856,W,19.53,279.25,101019,,,A*4E
$GPGGA,142224.250,4308.3187,N,07726.2875,W,1,06,1.27,161.7,M,-34.4,M,,*59
$GPRMC,142224.500,A,4308.3191,N,07726.2895,W,20.03,281.34,101019,,,A*48
$GPGGA,142224.750,4308.3195,N,07726.2916,W,1,06,1.27,161.7,M,-34.4,M,,*5B
$GPRMC,142225.000,A,4308.3201,N,07726.2937,W,21.02,284.53,101019,,,A*4B
$GPGGA,142225.250,4308.3208,N,07726.2959,W,1,06,1.27,161.7,M,-34.4,M,,*53
$GPRMC,142225.500,A,4308.3217,N,07726.2982,W,22.40,289.00,101019,,,A*49
$GPGGA,142225.750,4308.3226,N,07726.3006,W,1,06,1.27,161.6,M,-34.4,M,,*59
$GPRMC,142226.000,A,4308.3235,N,07726.3030,W,24.19,291.28,101019,,,A*47
$GPGGA,142226.250,4308.3245,N,07726.3055,W,1,06,1.27,161.6,M,-34.4,M,,*5C
$GPRMC,142226.500,A,4308.3257,N,07726.3081,W,25.83,294.53,101019,,,A*47
$GPGGA,142226.750,4308.3269,N,07726.3107,W,1,06,1.27,161.5,M,-34.4,M,,*52
$GPRMC,142227.000,A,4308.3281,N,07726.3133,W,27.87,297.29,101019,,,A*48
$GPGGA,142227.250,4308.3293,N,07726.3159,W,1,06,1.27,161.5,M,-34.4,M,,*58
$GPRMC,142227.500,A,4308.3306,N,07726.3185,W,29.47,299.27,101019,,,A*4C
$GPGGA,142227.750,4308.3320,N,07726.3213,W,1,06,1.41,161.5,M,-34.4,M,,*59
$GPRMC,142228.000,A,4308.3333,N,07726.3239,W,31.00,302.18,101019,,,A*41
$GPGGA,142228.250,4308.3345,N,07726.3264,W,1,06,1.27,161.4,M,-34.4,M,,*51
$GPRMC,142228.500,A,4308.3357,N,07726.3289,W,31.50,302.69,101019,,,A*4E
$GPGGA,142228.750,4308.3369,N,07726.3313,W,1,06,1.40,161.4,M,-34.4,M,,*5A
$GPRMC,142229.000,A,4308.3380,N,07726.3337,W,29.01,303.24,101019,,,A*41
$GPGGA,142229.250,4308.3391,N,07726.3359,W,1,06,1.27,161.3,M,-34.4,M,,*51
$GPRMC,142229.500,A,4308.3402,N,07726.3382,W,27.59,302.84,101019,,,A*4F
$GPGGA,142229.750,4308.3413,N,07726.3404,W,1,06,1.40,161.3,M,-34.4,M,,*57
$GPRMC,142230.000,A,4308.3423,N,07726.3426,W,26.77,303.05,101019,,,A*4D
$GPGGA,142230.250,4308.3434,N,07726.3448,W,1,06,1.27,161.3,M,-34.4,M,,*56
$GPRMC,142230.500,A,4308.3444,N,07726.3469,W,26.39,303.71,101019,,,A*4B
$GPGGA,142230.750,4308.3455,N,07726.3490,W,1,06,1.40,161.3,M,-34.4,M,,*50
$GPRMC,142231.000,A,4308.3467,N,07726.3510,W,26.38,306.95,101019,,,A*4F
$GPGGA,142231.250,4308.3478,N,07726.3531,W,1,06,1.27,161.4,M,-34.4,M,,*57
$GPRMC,142231.500,A,4308.3490,N,07726.3551,W,26.41,309.14,101019,,,A*4F
$GPGGA,142231.750,4308.3503,N,07726.3571,W,1,06,1.27,161.4,M,-34.4,M,,*5B
$GPRMC,142232.000,A,4308.3515,N,07726.3590,W,26.39,309.97,101019,,,A*4C
$GPGGA,142232.250,4308.3527,N,07726.3609,W,1,06,1.27,161.4,M,-34.4,M,,*57
$GPRMC,142232.500,A,4308.3540,N,07726.3627,W,26.09,313.01,101019,,,A*41
$GPGGA,142232.750,4308.3552,N,07726.3645,W,1,06,1.27,161.5,M,-34.4,M,,*59
$GPRMC,142233.000,A,4308.3566,N,07726.3662,W,25.88,317.08,101019,,,A*47
$GPGGA,142233.250,4308.3580,N,07726.3678,W,1,06,1.27,161.6,M,-34.4,M,,*5F
$GPRMC,142233.500,A,4308.3595,N,07726.3693,W,25.84,321.55,101019,,,A*41
$GPGGA,142233.750,4308.3610,N,07726.3708,W,1,06,1.40,161.8,M,-34.4,M,,*59
$GPRMC,142234.000,A,4308.3626,N,07726.3721,W,26.26,326.94,101019,,,A*41
$GPGGA,142234.250,4308.3642,N,07726.3735,W,1,06,1.27,161.9,M,-34.4,M,,*52
$GPRMC,142234.500,A,4308.3658,N,07726.3746,W,26.10,331.41,101019,,,A*47
$GPGGA,142234.750,4308.3674,N,07726.3756,W,1,06,1.40,162.1,M,-34.4,M,,*5D
$GPRMC,142235.000,A,4308.3691,N,07726.3766,W,25.60,336.54,101019,,,A*43
$GPGGA,142235.250,4308.3708,N,07726.3775,W,1,06,1.27,162.2,M,-34.4,M,,*50
$GPRMC,142235.500,A,4308.3726,N,07726.3784,W,26.08,341.53,101019,,,A*4D
$GPGGA,142235.750,4308.3743,N,07726.3790,W,1,06,1.40,162.3,M,-34.4,M,,*51
$GPRMC,142236.000,A,4308.3761,N,07726.3796,W,26.19,345.90,101019,,,A*40
$GPGGA,142236.250,4308.3779,N,07726.3801,W,1,06,1.27,162.4,M,-34.4,M,,*5F
$GPRMC,142236.500,A,4308.3798,N,07726.3806,W,26.18,349.82,101019,,,A*4B
$GPGGA,142236.750,4308.3817,N,07726.3809,W,1,06,1.27,162.7,M,-34.4,M,,*56
$GPRMC,142237.000,A,4308.3836,N,07726.3811,W,26.24,354.41,101019,,,A*4E
$GPGGA,142237.250,4308.3855,N,07726.3811,W,1,06,1.27,163.0,M,-34.4,M,,*5B
$GPRMC,142237.500,A,4308.3874,N,07726.3811,W,26.28,358.96,101019,,,A*47
$GPGGA,142237.750,4308.3893,N,07726.3810,W,1,06,1.27,163.3,M,-34.4,M,,*56
$GPRMC,142238.000,A,4308.3912,N,07726.3808,W,26.29,3.19,101019,,,A*4F
$GPGGA,142238.250,4308.3931,N,07726.3806,W,1,06,1.27,163.5,M,-34.4,M,,*54
$GPRMC,142238.500,A,4308.3949,N,07726.3803,W,26.34,6.40,101019,,,A*4A
$GPGGA,142238.750,4308.3968,N,07726.3799,W,1,06,1.40,163.7,M,-34.4,M,,*57
$GPRMC,142239.000,A,4308.3987,N,07726.3795,W,26.44,8.49,101019,,,A*4C
$GPGGA,142239.250,4308.4006,N,07726.3791,W,1,06,1.27,163.8,M,-34.4,M,,*53
$GPRMC,142239.500,A,4308.4026,N,07726.3786,W,26.51,9.57,101019,,,A*44
$GPGGA,142239.750,4308.4045,N,07726.3781,W,1,06,1.40,163.9,M,-34.4,M,,*50
$GPRMC,142240.000,A,4308.4065,N,07726.3776,W,26.62,10.16,101019,,,A*7A
$GPGGA,142240.250,4308.4084,N,07726.3771,W,1,06,1.27,164.1,M,-34.4,M,,*57
$GPRMC,142240.500,A,4308.4104,N,07726.3765,W,26.73,10.65,101019,,,A*7F
$GPGGA,142240.750,4308.4122,N,07726.3759,W,1,06,1.40,164.3,M,-34.4,M,,*56
$GPRMC,142241.000,A,4308.4141,N,07726.3754,W,26.65,10.62,101019,,,A*78
$GPGGA,142241.250,4308.4160,N,07726.3749,W,1,06,1.27,164.4,M,-34.4,M,,*53
$GPRMC,142241.500,A,4308.4178,N,07726.3744,W,26.15,10.05,101019,,,A*70
$GPGGA,142241.750,4308.4196,N,07726.3739,W,1,06,1.40,164.6,M,-34.4,M,,*5B
$GPRMC,142242.000,A,4308.4213,N,07726.3734,W,24.76,9.08,101019,,,A*4D
$GPGGA,142242.250,4308.4230,N,07726.3730,W,1,06,1.40,164.8,M,-34.4,M,,*55
$GPRMC,142242.500,A,4308.4247,N,07726.3726,W,24.34,8.96,101019,,,A*4A
$GPGGA,142242.750,4308.4263,N,07726.3721,W,1,06,1.40,165.1,M,-34.4,M,,*5E
$GPRMC,142243.000,A,4308.4280,N,07726.3717,W,24.06,9.04,101019,,,A*4C
$GPGGA,142243.250,4308.4296,N,07726.3713,W,1,06,1.40,165.4,M,-34.4,M,,*54
$GPRMC,142243.500,A,4308.4312,N,07726.3708,W,23.47,9.28,101019,,,A*41
$GPGGA,142243.750,4308.4328,N,07726.3704,W,1,06,1.40,165.6,M,-34.4,M,,*51
$GPRMC,142244.000,A,4308.4343,N,07726.3700,W,22.83,8.57,101019,,,A*4F
$GPGGA,142244.250,4308.4359,N,07726.3696,W,1,06,1.40,165.8,M,-34.4,M,,*51
$GPRMC,142244.500,A,4308.4374,N,07726.3692,W,22.24,8.60,101019,,,A*4D
$GPGGA,142244.750,4308.4389,N,07726.3688,W,1,06,1.40,165.8,M,-34.4,M,,*56
$GPRMC,142245.000,A,4308.4404,N,07726.3684,W,21.59,8.97,101019,,,A*4F
$GPGGA,142245.250,4308.4418,N,07726.3681,W,1,06,1.40,166.0,M,-34.4,M,,*5F
$GPRMC,142245.500,A,4308.4433,N,07726.3677,W,21.10,8.96,101019,,,A*4E
$GPGGA,142245.750,4308.4447,N,07726.3674,W,1,06,1.40,166.1,M,-34.4,M,,*5B
$GPRMC,142246.000,A,4308.4461,N,07726.3671,W,20.39,8.00,101019,,,A*4C
$GPGGA,142246.250,4308.4475,N,07726.3668,W,1,06,1.40,166.1,M,-34.4,M,,*51
$GPRMC,142246.500,A,4308.4488,N,07726.3665,W,19.41,7.05,101019,,,A*44
$GPGGA,142246.750,4308.4499,N,07726.3662,W,1,06,1.40,166.0,M,-34.4,M,,*5D
$GPRMC,142247.000,A,4308.4510,N,07726.3660,W,16.44,6.48,101019,,,A*47
$GPGGA,142247.250,4308.4520,N,07726.3658,W,1,06,1.40,166.0,M,-34.4,M,,*53
$GPRMC,142247.500,A,4308.4529,N,07726.3656,W,13.78,4.59,101019,,,A*45
$GPGGA,142247.750,4308.4536,N,07726.3653,W,1,06,1.40,165.9,M,-34.4,M,,*50
$GPRMC,142248.000,A,4308.4542,N,07726.3651,W,10.48,4.69,101019,,,A*46
$GPGGA,142248.250,4308.4549,N,07726.3650,W,1,06,1.40,165.9,M,-34.4,M,,*51
$GPRMC,142248.500,A,4308.4554,N,07726.3649,W,8.45,3.19,101019,,,A*79
$GPGGA,142248.750,4308.4558,N,07726.3648,W,1,06,1.40,165.9,M,-34.4,M,,*5D
$GPRMC,142249.000,A,4308.4562,N,07726.3646,W,6.55,4.96,101019,,,A*78
$GPGGA,142249.250,4308.4566,N,07726.3645,W,1,06,1.40,165.9,M,-34.4,M,,*59
$GPRMC,142249.500,A,4308.4570,N,07726.3644,W,5.81,4.39,101019,,,A*73
$GPGGA,142249.750,4308.4574,N,07726.3644,W,1,06,1.40,166.0,M,-34.4,M,,*54
$GPRMC,142250.000,A,4308.4578,N,07726.3644,W,5.34,1.15,101019,,,A*73
$GPGGA,142250.250,4308.4581,N,07726.3644,W,1,06,1.40,165.8,M,-34.4,M,,*58
$GPRMC,142250.500,A,4308.4586,N,07726.3644,W,5.61,0.07,101019,,,A*75
$GPGGA,142250.750,4308.4590,N,07726.3645,W,1,06,1.40,165.7,M,-34.4,M,,*53
$GPRMC,142251.000,A,4308.4595,N,07726.3646,W,6.48,353.04,101019,,,A*7F
$GPGGA,142251.250,4308.4600,N,07726.3647,W,1,06,1.40,165.7,M,-34.4,M,,*5F
$GPRMC,142251.500,A,4308.4606,N,07726.3650,W,7.41,343.76,101019,,,A*78
$GPGGA,142251.750,4308.4611,N,07726.3653,W,1,06,1.27,165.7,M,-34.4,M,,*5E
$GPRMC,142252.000,A,4308.4616,N,07726.3657,W,8.55,331.44,101019,,,A*76
$GPGGA,142252.250,4308.4621,N,07726.3663,W,1,06,1.27,165.7,M,-34.4,M,,*58
$GPRMC,142252.500,A,4308.4626,N,07726.3672,W,9.98,310.41,101019,,,A*71
$GPGGA,142252.750,4308.4630,N,07726.3681,W,1,06,1.40,165.7,M,-34.4,M,,*50
$GPRMC,142253.000,A,4308.4635,N,07726.3692,W,11.75,301.44,101019,,,A*46
$GPGGA,142253.250,4308.4639,N,07726.3705,W,1,06,1.27,165.7,M,-34.4,M,,*51
$GPRMC,142253.500,A,4308.4642,N,07726.3718,W,13.74,291.96,101019,,,A*44
$GPGGA,142253.750,4308.4645,N,07726.3733,W,1,06,1.27,165.7,M,-34.4,M,,*5A
$GPRMC,142254.000,A,4308.4648,N,07726.3748,W,15.61,285.75,101019,,,A*43
$GPGGA,142254.250,4308.4651,N,07726.3763,W,1,06,1.27,165.6,M,-34.4,M,,*59
$GPRMC,142254.500,A,4308.4653,N,07726.3779,W,16.88,281.22,101019,,,A*4C
$GPGGA,142254.750,4308.4655,N,07726.3796,W,1,06,1.40,165.6,M,-34.4,M,,*53
$GPRMC,142255.000,A,4308.4658,N,07726.3814,W,18.15,279.23,101019,,,A*4B
$GPGGA,142255.250,4308.4659,N,07726.3833,W,1,06,1.40,165.6,M,-34.4,M,,*5B
$GPRMC,142255.500,A,4308.4661,N,07726.3852,W,19.73,276.37,101019,,,A*4D
$GPGGA,142255.750,4308.4662,N,07726.3872,W,1,06,1.40,165.6,M,-34.4,M,,*53
$GPRMC,142256.000,A,4308.4664,N,07726.3893,W,20.93,276.16,101019,,,A*44
$GPGGA,142256.250,4308.4665,N,07726.3913,W,1,06,1.27,165.5,M,-34.4,M,,*56
$GPRMC,142256.500,A,4308.4666,N,07726.3933,W,21.18,274.99,101019,,,A*4F
$GPGGA,142256.750,4308.4667,N,07726.3953,W,1,06,1.40,165.4,M,-34.4,M,,*55
$GPRMC,142257.000,A,4308.4668,N,07726.3974,W,21.13,275.17,101019,,,A*4A
$GPGGA,142257.250,4308.4669,N,07726.3994,W,1,06,1.27,165.4,M,-34.4,M,,*55
$GPRMC,142257.500,A,4308.4670,N,07726.4014,W,21.15,275.32,101019,,,A*4F
$GPGGA,142257.750,4308.4672,N,07726.4035,W,1,06,1.27,165.4,M,-34.4,M,,*5F
$GPRMC,142258.000,A,4308.4673,N,07726.4055,W,20.93,276.05,101019,,,A*4B
$GPGGA,142258.250,4308.4675,N,07726.4075,W,1,06,1.27,165.3,M,-34.4,M,,*51
$GPRMC,142258.500,A,4308.4676,N,07726.4095,W,20.80,276.81,101019,,,A*49
$GPGGA,142258.750,4308.4678,N,07726.4115,W,1,06,1.40,165.3,M,-34.4,M,,*5F
$GPRMC,142259.000,A,4308.4680,N,07726.4135,W,20.75,278.06,101019,,,A*44
$GPGGA,142259.250,4308.4682,N,07726.4155,W,1,06,1.27,165.4,M,-34.4,M,,*5C
$GPRMC,142259.500,A,4308.4684,N,07726.4175,W,20.64,278.60,101019,,,A*41
$GPGGA,142259.750,4308.4685,N,07726.4194,W,1,06,1.40,165.4,M,-34.4,M,,*52
$GPRMC,142300.000,A,4308.4687,N,07726.4213,W,20.10,278.30,101019,,,A*4F
$GPGGA,142300.250,4308.4689,N,07726.4232,W,1,06,1.27,165.4,M,-34.4,M,,*58
$GPRMC,142300.500,A,4308.4691,N,07726.4250,W,19.57,278.36,101019,,,A*45
$GPGGA,142300.750,4308.4693,N,07726.4268,W,1,06,1.40,165.4,M,-34.4,M,,*58
$GPRMC,142301.000,A,4308.4695,N,07726.4286,W,18.34,279.45,101019,,,A*4F
$GPGGA,142301.250,4308.4696,N,07726.4303,W,1,06,1.40,165.3,M,-34.4,M,,*52
$GPRMC,142301.500,A,4308.4698,N,07726.4319,W,16.94,279.25,101019,,,A*42
$GPGGA,142301.750,4308.4699,N,07726.4334,W,1,06,1.40,165.3,M,-34.4,M,,*5C
$GPRMC,142302.000,A,4308.4701,N,07726.4347,W,14.35,279.29,101019,,,A*4B
$GPGGA,142302.250,4308.4702,N,07726.4359,W,1,06,1.40,165.3,M,-34.4,M,,*52
$GPRMC,142302.500,A,4308.4702,N,07726.4370,W,11.73,277.86,101019,,,A*45
$GPGGA,142302.750,4308.4703,N,07726.4379,W,1,06,1.40,165.2,M,-34.4,M,,*55
$GPRMC,142303.000,A,4308.4704,N,07726.4387,W,8.88,279.56,101019,,,A*70
$GPGGA,142303.250,4308.4704,N,07726.4394,W,1,06,1.40,165.2,M,-34.4,M,,*55
$GPRMC,142303.500,A,4308.4704,N,07726.4399,W,5.67,280.86,101019,,,A*7D
$GPGGA,142303.750,4308.4704,N,07726.4403,W,1,06,1.40,165.1,M,-34.4,M,,*5A
$GPRMC,142304.000,A,4308.4704,N,07726.4405,W,2.97,281.91,101019,,,A*72
$GPGGA,142304.250,4308.4704,N,07726.4407,W,1,06,1.27,165.1,M,-34.4,M,,*5D
$GPRMC,142304.500,A,4308.4704,N,07726.4409,W,1.51,281.91,101019,,,A*72
$GPGGA,142304.750,4308.4704,N,07726.4409,W,1,06,1.27,165.1,M,-34.4,M,,*56
$GPRMC,142305.000,A,4308.4704,N,07726.4410,W,1.03,281.91,101019,,,A*79
$GPGGA,142305.250,4308.4704,N,07726.4410,W,1,06,1.27,165.1,M,-34.4,M,,*5A
$GPRMC,142305.500,A,4308.4704,N,07726.4410,W,0.69,281.91,101019,,,A*71
$GPGGA,142305.750,4308.4704,N,07726.4410,W,1,06,1.27,165.1,M,-34.4,M,,*5F
$GPRMC,142306.000,A,4308.4703,N,07726.4409,W,0.47,281.91,101019,,,A*74
$GPGGA,142306.250,4308.4703,N,07726.4409,W,1,06,1.27,165.2,M,-34.4,M,,*55
$GPRMC,142306.500,A,4308.4703,N,07726.4409,W,0.36,281.91,101019,,,A*77
$GPGGA,142306.750,4308.4703,N,07726.4409,W,1,06,1.27,165.3,M,-34.4,M,,*51
$GPRMC,142307.000,A,4308.4702,N,07726.4408,W,0.25,281.91,101019,,,A*71
$GPGGA,142307.250,4308.4702,N,07726.4408,W,1,06,1.27,165.3,M,-34.4,M,,*55
$GPRMC,142307.500,A,4308.4701,N,07726.4408,W,0.18,281.91,101019,,,A*79
$GPGGA,142307.750,4308.4701,N,07726.4407,W,1,06,1.27,165.4,M,-34.4,M,,*5B
$GPRMC,142308.000,A,4308.4701,N,07726.4407,W,0.20,65.97,101019,,,A*49
$GPGGA,142308.250,4308.4701,N,07726.4407,W,1,06,1.27,165.4,M,-34.4,M,,*51
$GPRMC,142308.500,A,4308.4701,N,07726.4407,W,0.18,80.90,101019,,,A*4B
$GPGGA,142308.750,4308.4701,N,07726.4407,W,1,06,1.27,165.3,M,-34.4,M,,*53
$GPRMC,142309.000,A,4308.4701,N,07726.4406,W,0.15,80.90,101019,,,A*43
$GPGGA,142309.250,4308.4701,N,07726.4406,W,1,06,1.27,165.3,M,-34.4,M,,*56
$GPRMC,142309.500,A,4308.4701,N,07726.4406,W,0.15,80.90,101019,,,A*46
$GPGGA,142309.750,4308.4701,N,07726.4406,W,1,06,1.27,165.3,M,-34.4,M,,*53
$GPRMC,142310.000,A,4308.4701,N,07726.4406,W,0.14,80.90,101019,,,A*4A
$GPGGA,142310.250,4308.4701,N,07726.4406,W,1,06,1.27,165.3,M,-34.4,M,,*5E
$GPRMC,142310.500,A,4308.4701,N,07726.4406,W,0.04,80.90,101019,,,A*4E
$GPGGA,142310.750,4308.4701,N,07726.4406,W,1,06,1.27,165.3,M,-34.4,M,,*5B
$GPRMC,142311.000,A,4308.4701,N,07726.4406,W,0.06,80.90,101019,,,A*48
$GPGGA,142311.250,4308.4701,N,07726.4406,W,1,06,1.27,165.3,M,-34.4,M,,*5F
$GPRMC,142311.500,A,4308.4701,N,07726.4406,W,0.12,80.90,101019,,,A*48
$GPGGA,142311.750,4308.4701,N,07726.4406,W,1,06,1.27,165.3,M,-34.4,M,,*5A
$GPRMC,142312.000,A,4308.4701,N,07726.4406,W,0.20,80.90,101019,,,A*4F
$GPGGA,142312.250,4308.4701,N,07726.4406,W,1,06,1.27,165.3,M,-34.4,M,,*5C
$GPRMC,142312.500,A,4308.4701,N,07726.4406,W,0.18,80.90,101019,,,A*41
$GPGGA,142312.750,4308.4701,N,07726.4406,W,1,06,1.27,165.3,M,-34.4,M,,*59
$GPRMC,142313.000,A,4308.4701,N,07726.4406,W,0.10,80.90,101019,,,A*4D
$GPGGA,142313.250,4308.4701,N,07726.4407,W,1,06,1.27,165.3,M,-34.4,M,,*5C
$GPRMC,142313.500,A,4308.4701,N,07726.4407,W,0.05,80.90,101019,,,A*4D
$GPGGA,142313.750,4308.4701,N,07726.4407,W,1,06,1.27,165.3,M,-34.4,M,,*59
$GPRMC,142314.000,A,4308.4701,N,07726.4407,W,0.10,80.90,101019,,,A*4B
$GPGGA,142314.250,4308.4701,N,07726.4407,W,1,06,1.27,165.3,M,-34.4,M,,*5B
$GPRMC,142314.500,A,4308.4701,N,07726.4407,W,0.15,80.90,101019,,,A*4B
$GPGGA,142314.750,4308.4701,N,07726.4407,W,1,06,1.27,165.3,M,-34.4,M,,*5E
$GPRMC,142315.250,A,4308.4701,N,07726.4407,W,0.20,80.90,101019,,,A*4E
$GPGGA,142315.500,4308.4700,N,07726.4407,W,1,06,1.27,165.3,M,-34.4,M,,*59
$GPRMC,142316.000,A,4308.4700,N,07726.4406,W,0.22,80.90,101019,,,A*48
$GPGGA,142316.250,4308.4700,N,07726.4406,W,1,06,1.27,165.3,M,-34.4,M,,*59
$GPRMC,142316.750,A,4308.4700,N,07726.4406,W,0.25,80.90,101019,,,A*4D
$GPGGA,142317.000,4308.4700,N,07726.4406,W,1,06,1.27,165.3,M,-34.4,M,,*5F
$GPRMC,142317.250,A,4308.4699,N,07726.4406,W,0.24,80.90,101019,,,A*49
$GPGGA,142317.500,4308.4699,N,07726.4406,W,1,06,1.27,165.3,M,-34.4,M,,*5B
$GPRMC,142317.750,A,4308.4699,N,07726.4406,W,0.13,80.90,101019,,,A*48
$GPGGA,142318.000,4308.4699,N,07726.4406,W,1,06,1.27,165.3,M,-34.4,M,,*51
$GPRMC,142318.250,A,4308.4699,N,07726.4406,W,0.08,80.90,101019,,,A*48
$GPGGA,142318.500,4308.4699,N,07726.4406,W,1,06,1.27,165.3,M,-34.4,M,,*54
$GPRMC,142318.750,A,4308.4699,N,07726.4406,W,0.14,80.90,101019,,,A*40
$GPGGA,142319.000,4308.4699,N,07726.4406,W,1,06,1.27,165.3,M,-34.4,M,,*50
$GPRMC,142319.250,A,4308.4699,N,07726.4406,W,0.20,80.90,101019,,,A*43
$GPGGA,142319.500,4308.4699,N,07726.4406,W,1,06,1.27,165.3,M,-34.4,M,,*55
$GPRMC,142319.750,A,4308.4699,N,07726.4406,W,0.23,80.90,101019,,,A*45
$GPGGA,142320.000,4308.4699,N,07726.4407,W,1,06,1.27,165.3,M,-34.4,M,,*5B
$GPRMC,142320.250,A,4308.4699,N,07726.4407,W,0.25,80.90,101019,,,A*4D
$GPGGA,142320.500,4308.4700,N,07726.4407,W,1,06,1.27,165.3,M,-34.4,M,,*5F
$GPRMC,142320.750,A,4308.4700,N,07726.4407,W,0.05,80.90,101019,,,A*4B
$GPGGA,142321.000,4308.4700,N,07726.4407,W,1,06,1.40,165.3,M,-34.4,M,,*5A
$GPRMC,142321.250,A,4308.4700,N,07726.4407,W,0.01,80.90,101019,,,A*4B
$GPGGA,142321.500,4308.4700,N,07726.4407,W,1,06,1.40,165.3,M,-34.4,M,,*5F
$GPRMC,142321.750,A,4308.4700,N,07726.4407,W,0.02,80.90,101019,,,A*4D
$GPGGA,142322.000,4308.4700,N,07726.4407,W,1,06,1.40,165.3,M,-34.4,M,,*59
$GPRMC,142322.250,A,4308.4700,N,07726.4407,W,0.03,80.90,101019,,,A*4A
$GPGGA,142322.500,4308.4700,N,07726.4407,W,1,06,1.40,165.3,M,-34.4,M,,*5C
$GPRMC,142322.750,A,4308.4700,N,07726.4407,W,0.02,80.90,101019,,,A*4E
$GPGGA,142323.000,4308.4700,N,07726.4407,W,1,06,1.40,165.3,M,-34.4,M,,*58
$GPRMC,142323.250,A,4308.4700,N,07726.4407,W,0.00,80.90,101019,,,A*48
$GPGGA,142323.500,4308.4700,N,07726.4407,W,1,06,1.40,165.3,M,-34.4,M,,*5D
$GPRMC,142323.750,A,4308.4699,N,07726.4407,W,0.02,80.90,101019,,,A*4E
$GPGGA,142324.000,4308.4699,N,07726.4407,W,1,06,1.40,165.3,M,-34.4,M,,*5E
$GPRMC,142324.250,A,4308.4699,N,07726.4407,W,0.00,80.90,101019,,,A*4E
$GPGGA,142324.500,4308.4699,N,07726.4407,W,1,06,1.40,165.3,M,-34.4,M,,*5B
$GPRMC,142324.750,A,4308.4699,N,07726.4407,W,0.02,80.90,101019,,,A*49
$GPGGA,142325.000,4308.4699,N,07726.4407,W,1,06,1.40,165.3,M,-34.4,M,,*5F
$GPRMC,142325.250,A,4308.4699,N,07726.4407,W,0.00,80.90,101019,,,A*4F
$GPGGA,142325.500,4308.4699,N,07726.4407,W,1,06,1.40,165.3,M,-34.4,M,,*5A
$GPRMC,142325.750,A,4308.4699,N,07726.4407,W,0.01,80.90,101019,,,A*4B
$GPGGA,142326.000,4308.4699,N,07726.4407,W,1,06,1.40,165.3,M,-34.4,M,,*5C
$GPRMC,142326.250,A,4308.4699,N,07726.4407,W,0.01,80.90,101019,,,A*4D
$GPGGA,142326.500,4308.4699,N,07726.4407,W,1,06,1.40,165.3,M,-34.4,M,,*59
$GPRMC,142326.750,A,4308.4699,N,07726.4407,W,0.01,80.90,101019,,,A*48
$GPGGA,142327.000,4308.4699,N,07726.4407,W,1,06,1.40,165.3,M,-34.4,M,,*5D
$GPRMC,142327.250,A,4308.4699,N,07726.4407,W,0.00,80.90,101019,,,A*4D
$GPGGA,142327.500,4308.4699,N,07726.4407,W,2,06,1.27,165.4,M,-34.4,M,0000,0000*5D
$GPRMC,142327.750,A,4308.4699,N,07726.4407,W,0.01,80.90,101019,,,D*4C
$GPGGA,142328.000,4308.4698,N,07726.4406,W,2,06,1.27,165.3,M,-34.4,M,0000,0000*50
$GPRMC,142328.250,A,4308.4698,N,07726.4406,W,0.02,80.90,101019,,,D*45
$GPGGA,142328.500,4308.4698,N,07726.4406,W,2,06,1.27,165.3,M,-34.4,M,0000,0000*55
$GPRMC,142328.750,A,4308.4697,N,07726.4406,W,0.02,80.90,101019,,,D*4F
$GPGGA,142329.000,4308.4697,N,07726.4406,W,2,06,1.27,165.3,M,-34.4,M,0000,0000*5E
$GPRMC,142329.250,A,4308.4696,N,07726.4405,W,0.03,80.90,101019,,,D*48
$GPGGA,142329.500,4308.4696,N,07726.4405,W,2,06,1.27,165.2,M,-34.4,M,0000,0000*58
$GPRMC,142329.750,A,4308.4696,N,07726.4405,W,0.04,80.90,101019,,,D*4A
$GPGGA,142330.000,4308.4695,N,07726.4405,W,2,06,1.27,165.2,M,-34.4,M,0000,0000*56
$GPRMC,142330.250,A,4308.4695,N,07726.4405,W,0.05,80.90,101019,,,D*45
$GPGGA,142330.500,4308.4695,N,07726.4405,W,2,06,1.27,165.2,M,-34.4,M,0000,0000*53
$GPRMC,142330.750,A,4308.4694,N,07726.4405,W,0.05,80.90,101019,,,D*41
$GPGGA,142331.000,4308.4694,N,07726.4405,W,2,06,1.27,165.1,M,-34.4,M,0000,0000*55
$GPRMC,142331.250,A,4308.4693,N,07726.4405,W,0.04,80.90,101019,,,D*43
$GPGGA,142331.500,4308.4693,N,07726.4405,W,2,06,1.27,165.1,M,-34.4,M,0000,0000*57
$GPRMC,142331.750,A,4308.4693,N,07726.4405,W,0.04,80.90,101019,,,D*46
$GPGGA,142332.000,4308.4692,N,07726.4405,W,2,06,1.27,165.1,M,-34.4,M,0000,0000*50
$GPRMC,142332.250,A,4308.4692,N,07726.4405,W,0.04,80.90,101019,,,D*41
$GPGGA,142332.500,4308.4692,N,07726.4405,W,2,06,1.27,165.1,M,-34.4,M,0000,0000*55
$GPRMC,142332.750,A,4308.4691,N,07726.4405,W,0.04,80.90,101019,,,D*47
$GPGGA,142333.000,4308.4691,N,07726.4404,W,2,06,1.27,165.1,M,-34.4,M,0000,0000*53
$GPRMC,142333.250,A,4308.4690,N,07726.4404,W,0.05,80.90,101019,,,D*42
$GPGGA,142333.500,4308.4690,N,07726.4404,W,2,06,1.27,165.1,M,-34.4,M,0000,0000*57
$GPRMC,142333.750,A,4308.4690,N,07726.4404,W,0.06,80.90,101019,,,D*44
$GPGGA,142334.000,4308.4689,N,07726.4404,W,2,06,1.27,165.1,M,-34.4,M,0000,0000*5D
$GPRMC,142334.250,A,4308.4689,N,07726.4404,W,0.06,80.90,101019,,,D*4E
$GPGGA,142334.500,4308.4689,N,07726.4404,W,2,06,1.27,165.1,M,-34.4,M,0000,0000*58
$GPRMC,142334.750,A,4308.4688,N,07726.4404,W,0.07,80.90,101019,,,D*4B
$GPGGA,142335.000,4308.4688,N,07726.4404,W,2,06,1.27,165.0,M,-34.4,M,0000,0000*5C
$GPRMC,142335.250,A,4308.4688,N,07726.4404,W,0.08,80.90,101019,,,D*40
$GPGGA,142335.500,4308.4687,N,07726.4404,W,2,06,1.27,165.0,M,-34.4,M,0000,0000*56
$GPRMC,142335.750,A,4308.4687,N,07726.4404,W,0.09,80.90,101019,,,D*4B
$GPGGA,142336.000,4308.4686,N,07726.4404,W,2,06,1.27,165.0,M,-34.4,M,0000,0000*51
$GPRMC,142336.250,A,4308.4686,N,07726.4404,W,0.09,80.90,101019,,,D*4C
$GPGGA,142336.500,4308.4686,N,07726.4404,W,2,06,1.27,164.9,M,-34.4,M,0000,0000*5C
$GPRMC,142336.750,A,4308.4685,N,07726.4404,W,0.10,80.90,101019,,,D*42
$GPGGA,142337.000,4308.4685,N,07726.4405,W,2,06,1.27,164.9,M,-34.4,M,0000,0000*5A
$GPRMC,142337.250,A,4308.4685,N,07726.4405,W,0.11,80.90,101019,,,D*46
$GPGGA,142337.500,4308.4684,N,07726.4405,W,2,06,1.27,164.9,M,-34.4,M,0000,0000*5E
$GPRMC,142337.750,A,4308.4684,N,07726.4405,W,0.10,80.90,101019,,,D*43
$GPGGA,142338.000,4308.4684,N,07726.4406,W,2,06,1.27,164.9,M,-34.4,M,0000,0000*57
$GPRMC,142338.250,A,4308.4683,N,07726.4406,W,0.06,80.90,101019,,,D*4A
$GPGGA,142338.500,4308.4683,N,07726.4408,W,2,06,1.27,164.9,M,-34.4,M,0000,0000*5B
$GPRMC,142338.750,A,4308.4683,N,07726.4410,W,0.45,80.90,101019,,,D*4F
$GPGGA,142339.000,4308.4682,N,07726.4412,W,2,06,1.27,164.9,M,-34.4,M,0000,0000*55
$GPRMC,142339.250,A,4308.4681,N,07726.4414,W,1.02,80.90,101019,,,D*4F
$GPGGA,142339.500,4308.4681,N,07726.4418,W,2,06,1.27,164.9,M,-34.4,M,0000,0000*59
$GPRMC,142339.750,A,4308.4681,N,07726.4425,W,6.64,263.51,101019,,,D*7D
$GPGGA,142340.000,4308.4680,N,07726.4433,W,2,06,1.40,164.9,M,-34.4,M,0000,0000*5B
$GPRMC,142340.250,A,4308.4680,N,07726.4442,W,9.31,263.51,101019,,,D*79
$GPGGA,142340.500,4308.4679,N,07726.4453,W,2,06,1.40,164.9,M,-34.4,M,0000,0000*5E
$GPRMC,142340.750,A,4308.4679,N,07726.4465,W,11.73,265.39,101019,,,D*48
$GPGGA,142341.000,4308.4679,N,07726.4477,W,2,06,1.40,164.8,M,-34.4,M,0000,0000*5D
$GPRMC,142341.250,A,4308.4679,N,07726.4490,W,13.48,265.58,101019,,,D*4B
$GPGGA,142341.500,4308.4679,N,07726.4505,W,2,06,1.40,164.8,M,-34.4,M,0000,0000*5C
$GPRMC,142341.750,A,4308.4681,N,07726.4521,W,15.26,269.17,101019,,,D*4B
$GPGGA,142342.000,4308.4683,N,07726.4538,W,2,06,1.40,164.8,M,-34.4,M,0000,0000*51
$GPRMC,142342.250,A,4308.4685,N,07726.4556,W,17.18,272.69,101019,,,D*45
$GPGGA,142342.500,4308.4687,N,07726.4574,W,2,06,1.40,164.8,M,-34.4,M,0000,0000*58
$GPRMC,142342.750,A,4308.4688,N,07726.4594,W,19.40,274.43,101019,,,D*4E
$GPGGA,142343.000,4308.4690,N,07726.4613,W,2,06,1.40,164.8,M,-34.4,M,0000,0000*58
$GPRMC,142343.250,A,4308.4692,N,07726.4634,W,20.84,275.42,101019,,,D*4A
$GPGGA,142343.500,4308.4694,N,07726.4655,W,2,06,1.40,164.8,M,-34.4,M,0000,0000*5B
$GPRMC,142343.750,A,4308.4696,N,07726.4677,W,22.60,275.03,101019,,,D*41
$GPGGA,142344.000,4308.4697,N,07726.4700,W,2,06,1.40,164.8,M,-34.4,M,0000,0000*5B
$GPRMC,142344.250,A,4308.4699,N,07726.4723,W,24.27,273.90,101019,,,D*45
$GPGGA,142344.500,4308.4700,N,07726.4747,W,2,06,1.40,164.8,M,-34.4,M,0000,0000*52
$GPRMC,142344.750,A,4308.4701,N,07726.4772,W,25.90,271.86,101019,,,D*4C
$GPGGA,142345.000,4308.4701,N,07726.4798,W,2,06,1.40,164.9,M,-34.4,M,0000,0000*54
$GPRMC,142345.250,A,4308.4702,N,07726.4825,W,27.84,271.15,101019,,,D*4B
$GPGGA,142345.500,4308.4705,N,07726.4855,W,2,06,1.40,165.0,M,-34.4,M,0000,0000*53
$GPRMC,142345.750,A,4308.4706,N,07726.4884,W,30.60,271.84,101019,,,D*45
$GPGGA,142346.000,4308.4708,N,07726.4916,W,2,06,1.40,165.1,M,-34.4,M,0000,0000*5F
$GPRMC,142346.250,A,4308.4710,N,07726.4947,W,33.01,272.42,101019,,,D*47
$GPGGA,142346.500,4308.4711,N,07726.4980,W,2,06,1.40,165.2,M,-34.4,M,0000,0000*5E
$GPRMC,142346.750,A,4308.4714,N,07726.5015,W,35.13,273.15,101019,,,D*4F
$GPGGA,142347.000,4308.4717,N,07726.5050,W,2,06,1.40,165.3,M,-34.4,M,0000,0000*58
$GPRMC,142347.250,A,4308.4719,N,07726.5085,W,36.13,273.46,101019,,,D*4A
$GPGGA,142347.500,4308.4721,N,07726.5120,W,2,06,1.40,165.4,M,-34.4,M,0000,0000*59
$GPRMC,142347.750,A,4308.4723,N,07726.5156,W,36.93,273.27,101019,,,D*46
$GPGGA,142348.000,4308.4725,N,07726.5191,W,2,06,1.40,165.5,M,-34.4,M,0000,0000*5C
$GPRMC,142348.250,A,4308.4726,N,07726.5227,W,37.38,273.26,101019,,,D*4D
$GPGGA,142348.500,4308.4728,N,07726.5263,W,2,06,1.40,165.6,M,-34.4,M,0000,0000*59
$GPRMC,142348.750,A,4308.4730,N,07726.5300,W,37.74,273.47,101019,,,D*44
$GPGGA,142349.000,4308.4732,N,07726.5337,W,2,06,1.40,165.6,M,-34.4,M,0000,0000*56
$GPRMC,142349.250,A,4308.4734,N,07726.5374,W,38.36,273.82,101019,,,D*47
$GPGGA,142349.500,4308.4737,N,07726.5411,W,2,06,1.40,165.7,M,-34.4,M,0000,0000*54
$GPRMC,142349.750,A,4308.4740,N,07726.5448,W,38.57,274.15,101019,,,D*47
$GPGGA,142350.000,4308.4742,N,07726.5484,W,2,06,1.40,165.7,M,-34.4,M,0000,0000*57
$GPRMC,142350.250,A,4308.4743,N,07726.5521,W,38.78,273.65,101019,,,D*4A
$GPGGA,142350.500,4308.4745,N,07726.5558,W,2,06,1.40,165.7,M,-34.4,M,0000,0000*55
$GPRMC,142350.750,A,4308.4747,N,07726.5595,W,38.79,272.76,101019,,,D*46
$GPGGA,142351.000,4308.4748,N,07726.5633,W,2,06,1.40,165.7,M,-34.4,M,0000,0000*52
$GPRMC,142351.250,A,4308.4750,N,07726.5670,W,38.83,272.59,101019,,,D*44
$GPGGA,142351.500,4308.4752,N,07726.5707,W,2,06,1.40,165.7,M,-34.4,M,0000,0000*5A
$GPRMC,142351.750,A,4308.4753,N,07726.5745,W,38.82,272.81,101019,,,D*41
$GPGGA,142352.000,4308.4755,N,07726.5782,W,2,06,1.40,165.6,M,-34.4,M,0000,0000*57
$GPRMC,142352.250,A,4308.4757,N,07726.5819,W,38.57,273.13,101019,,,D*47
$GPGGA,142352.500,4308.4758,N,07726.5855,W,2,06,1.40,165.6,M,-34.4,M,0000,0000*5A
$GPRMC,142352.750,A,4308.4760,N,07726.5892,W,38.27,272.46,101019,,,D*43
$GPGGA,142353.000,4308.4761,N,07726.5928,W,2,06,1.40,165.5,M,-34.4,M,0000,0000*5C
$GPRMC,142353.250,A,4308.4762,N,07726.5964,W,37.66,272.01,101019,,,D*44
$GPGGA,142353.500,4308.4763,N,07726.6000,W,2,06,1.40,165.6,M,-34.4,M,0000,0000*58
$GPRMC,142353.750,A,4308.4763,N,07726.6035,W,37.36,271.02,101019,,,D*4B
$GPGGA,142354.000,4308.4764,N,07726.6070,W,2,06,1.39,165.7,M,-34.4,M,0000,0000*55
$GPRMC,142354.250,A,4308.4765,N,07726.6105,W,36.37,270.69,101019,,,D*41
$GPGGA,142354.500,4308.4766,N,07726.6140,W,2,06,1.39,165.8,M,-34.4,M,0000,0000*5F
$GPRMC,142354.750,A,4308.4767,N,07726.6175,W,36.18,271.29,101019,,,D*49
$GPGGA,142355.000,4308.4768,N,07726.6210,W,2,05,3.08,165.9,M,-34.4,M,0000,0000*51
$GPRMC,142355.250,A,4308.4769,N,07726.6245,W,36.12,271.44,101019,,,D*42
$GPGGA,142355.500,4308.4770,N,07726.6279,W,2,05,2.94,166.0,M,-34.4,M,0000,0000*5C
$GPRMC,142355.750,A,4308.4769,N,07726.6313,W,35.54,270.38,101019,,,D*4E
$GPGGA,142356.000,4308.4769,N,07726.6346,W,2,06,1.39,166.2,M,-34.4,M,0000,0000*5A
$GPRMC,142356.250,A,4308.4769,N,07726.6381,W,35.57,269.78,101019,,,D*4C
$GPGGA,142356.500,4308.4769,N,07726.6415,W,2,06,1.27,166.4,M,-34.4,M,0000,0000*57
$GPRMC,142356.750,A,4308.4769,N,07726.6449,W,35.80,268.70,101019,,,D*49
$GPGGA,142357.000,4308.4768,N,07726.6483,W,2,06,1.39,166.5,M,-34.4,M,0000,0000*53
$GPRMC,142357.250,A,4308.4768,N,07726.6517,W,35.88,267.87,101019,,,D*49
$GPGGA,142357.500,4308.4768,N,07726.6552,W,2,06,1.40,166.7,M,-34.4,M,0000,0000*57
$GPRMC,142357.750,A,4308.4767,N,07726.6586,W,36.19,267.31,101019,,,D*4D
$GPGGA,142358.000,4308.4766,N,07726.6621,W,2,06,1.40,166.8,M,-34.4,M,0000,0000*5B
$GPRMC,142358.250,A,4308.4765,N,07726.6655,W,36.18,266.71,101019,,,D*4C
$GPGGA,142358.500,4308.4765,N,07726.6690,W,2,06,1.39,166.9,M,-34.4,M,0000,0000*58
$GPRMC,142358.750,A,4308.4764,N,07726.6725,W,36.18,266.48,101019,,,D*44
$GPGGA,142359.000,4308.4763,N,07726.6761,W,2,06,1.39,167.0,M,-34.4,M,0000,0000*5D
$GPRMC,142359.250,A,4308.4763,N,07726.6796,W,36.19,267.07,101019,,,D*44
$GPGGA,142359.500,4308.4762,N,07726.6830,W,2,06,1.39,167.1,M,-34.4,M,0000,0000*53
$GPRMC,142359.750,A,4308.4761,N,07726.6865,W,35.92,266.41,101019,,,D*43
$GPGGA,142400.000,4308.4761,N,07726.6900,W,2,06,1.39,167.3,M,-34.4,M,0000,0000*5E
$GPRMC,142400.250,A,4308.4759,N,07726.6934,W,36.11,266.42,101019,,,D*48
$GPGGA,142400.500,4308.4758,N,07726.6969,W,2,06,1.39,167.4,M,-34.4,M,0000,0000*59
$GPRMC,142400.750,A,4308.4756,N,07726.7004,W,36.40,265.72,101019,,,D*4D
$GPGGA,142401.000,4308.4754,N,07726.7038,W,2,06,1.39,167.6,M,-34.4,M,0000,0000*5F
$GPRMC,142401.250,A,4308.4752,N,07726.7073,W,36.44,265.02,101019,,,D*4E
$GPGGA,142401.500,4308.4749,N,07726.7107,W,2,06,1.39,167.8,M,-34.4,M,0000,0000*55
$GPRMC,142401.750,A,4308.4747,N,07726.7142,W,36.52,264.21,101019,,,D*4B
$GPGGA,142402.000,4308.4744,N,07726.7176,W,2,06,1.39,168.0,M,-34.4,M,0000,0000*5F
$GPRMC,142402.250,A,4308.4742,N,07726.7211,W,36.56,263.81,101019,,,D*44
$GPGGA,142402.500,4308.4739,N,07726.7246,W,2,05,2.94,168.2,M,-34.4,M,0000,0000*55
$GPRMC,142402.750,A,4308.4737,N,07726.7281,W,36.83,264.43,101019,,,D*4B
$GPGGA,142403.000,4308.4735,N,07726.7316,W,2,06,1.39,168.4,M,-34.4,M,0000,0000*58
$GPRMC,142403.250,A,4308.4733,N,07726.7351,W,37.08,264.67,101019,,,D*43
$GPGGA,142403.500,4308.4731,N,07726.7387,W,2,06,1.27,168.7,M,-34.4,M,0000,0000*5D
$GPRMC,142403.750,A,4308.4729,N,07726.7422,W,37.27,265.26,101019,,,D*47
$GPGGA,142404.000,4308.4726,N,07726.7457,W,2,06,1.39,169.0,M,-34.4,M,0000,0000*5A
$GPRMC,142404.250,A,4308.4724,N,07726.7492,W,37.31,265.15,101019,,,D*44
$GPGGA,142404.500,4308.4722,N,07726.7527,W,2,06,1.39,169.3,M,-34.4,M,0000,0000*5E
$GPRMC,142404.750,A,4308.4720,N,07726.7562,W,36.29,265.71,101019,,,D*41
$GPGGA,142405.000,4308.4718,N,07726.7596,W,2,06,1.39,169.6,M,-34.4,M,0000,0000*5C
$GPRMC,142405.250,A,4308.4716,N,07726.7630,W,35.98,265.68,101019,,,D*45
$GPGGA,142405.500,4308.4715,N,07726.7664,W,2,06,1.39,169.9,M,-34.4,M,0000,0000*55
$GPRMC,142405.750,A,4308.4714,N,07726.7697,W,35.25,265.87,101019,,,D*48
$GPGGA,142406.000,4308.4712,N,07726.7730,W,2,06,1.39,170.2,M,-34.4,M,0000,0000*57
$GPRMC,142406.250,A,4308.4711,N,07726.7763,W,33.91,265.75,101019,,,D*45
$GPGGA,142406.500,4308.4710,N,07726.7795,W,2,06,1.39,170.4,M,-34.4,M,0000,0000*59
$GPRMC,142406.750,A,4308.4710,N,07726.7828,W,33.05,265.81,101019,,,D*47
$GPGGA,142407.000,4308.4709,N,07726.7861,W,2,06,1.39,170.5,M,-34.4,M,0000,0000*50
$GPRMC,142407.250,A,4308.4709,N,07726.7894,W,33.29,266.49,101019,,,D*45
$GPGGA,142407.500,4308.4710,N,07726.7927,W,2,06,1.27,170.6,M,-34.4,M,0000,0000*52
$GPRMC,142407.750,A,4308.4710,N,07726.7961,W,33.76,266.24,101019,,,D*42
$GPGGA,142408.000,4308.4709,N,07726.7994,W,2,06,1.39,170.6,M,-34.4,M,0000,0000*57
$GPRMC,142408.250,A,4308.4708,N,07726.8028,W,34.23,265.52,101019,,,D*4F
$GPGGA,142408.500,4308.4706,N,07726.8062,W,2,06,1.27,170.6,M,-34.4,M,0000,0000*5D
$GPRMC,142408.750,A,4308.4704,N,07726.8096,W,34.43,264.96,101019,,,D*4C
$GPGGA,142409.000,4308.4703,N,07726.8130,W,2,06,1.27,170.5,M,-34.4,M,0000,0000*59
$GPRMC,142409.250,A,4308.4701,N,07726.8164,W,34.69,264.71,101019,,,D*40
$GPGGA,142409.500,4308.4699,N,07726.8198,W,2,06,1.39,170.4,M,-34.4,M,0000,0000*52
$GPRMC,142409.750,A,4308.4697,N,07726.8233,W,36.67,264.55,101019,,,D*40
$GPGGA,142410.000,4308.4695,N,07726.8268,W,2,06,1.39,170.2,M,-34.4,M,0000,0000*59
$GPRMC,142410.250,A,4308.4693,N,07726.8303,W,36.94,264.87,101019,,,D*48
$GPGGA,142410.500,4308.4691,N,07726.8339,W,2,06,1.27,169.9,M,-34.4,M,0000,0000*51
$GPRMC,142410.750,A,4308.4689,N,07726.8375,W,37.80,264.53,101019,,,D*4A
$GPGGA,142411.000,4308.4687,N,07726.8412,W,2,06,1.39,169.7,M,-34.4,M,0000,0000*5D
$GPRMC,142411.250,A,4308.4685,N,07726.8449,W,38.24,264.84,101019,,,D*41
$GPGGA,142411.500,4308.4683,N,07726.8486,W,2,06,1.27,169.6,M,-34.4,M,0000,0000*5F
$GPRMC,142411.750,A,4308.4681,N,07726.8522,W,38.66,265.09,101019,,,D*4E
$GPGGA,142412.000,4308.4679,N,07726.8559,W,2,06,1.39,169.3,M,-34.4,M,0000,0000*55
$GPRMC,142412.250,A,4308.4677,N,07726.8595,W,38.89,265.35,101019,,,D*43
$GPGGA,142412.500,4308.4675,N,07726.8632,W,2,06,1.39,169.1,M,-34.4,M,0000,0000*50
$GPRMC,142412.750,A,4308.4673,N,07726.8668,W,38.99,265.65,101019,,,D*47
$GPGGA,142413.000,4308.4671,N,07726.8705,W,2,06,1.39,168.7,M,-34.4,M,0000,0000*52
$GPRMC,142413.250,A,4308.4669,N,07726.8741,W,38.99,265.56,101019,,,D*42
$GPGGA,142413.500,4308.4667,N,07726.8778,W,2,06,1.39,168.5,M,-34.4,M,0000,0000*58
$GPRMC,142413.750,A,4308.4665,N,07726.8815,W,39.26,265.32,101019,,,D*42
$GPGGA,142414.000,4308.4663,N,07726.8853,W,2,06,1.39,168.3,M,-34.4,M,0000,0000*5E
$GPRMC,142414.250,A,4308.4660,N,07726.8890,W,39.34,265.16,101019,,,D*4D
$GPGGA,142414.500,4308.4658,N,07726.8928,W,2,06,1.39,168.1,M,-34.4,M,0000,0000*5C
$GPRMC,142414.750,A,4308.4656,N,07726.8965,W,39.74,265.18,101019,,,D*4C
$GPGGA,142415.000,4308.4654,N,07726.9004,W,2,06,1.39,168.0,M,-34.4,M,0000,0000*53
$GPRMC,142415.250,A,4308.4652,N,07726.9042,W,40.16,265.41,101019,,,D*47
$GPGGA,142415.500,4308.4651,N,07726.9081,W,2,06,1.27,167.9,M,-34.4,M,0000,0000*57
$GPRMC,142415.750,A,4308.4649,N,07726.9119,W,40.42,265.57,101019,,,D*41
$GPGGA,142416.000,4308.4647,N,07726.9158,W,2,06,1.39,167.7,M,-34.4,M,0000,0000*52
$GPRMC,142416.250,A,4308.4645,N,07726.9196,W,40.50,265.41,101019,,,D*48
$GPGGA,142416.500,4308.4643,N,07726.9235,W,2,06,1.39,167.5,M,-34.4,M,0000,0000*59
$GPRMC,142416.750,A,4308.4641,N,07726.9274,W,40.95,265.32,101019,,,D*4B
$GPGGA,142417.000,4308.4639,N,07726.9313,W,2,06,1.39,167.2,M,-34.4,M,0000,0000*52
$GPRMC,142417.250,A,4308.4637,N,07726.9352,W,41.18,265.28,101019,,,D*44
$GPGGA,142417.500,4308.4635,N,07726.9390,W,2,06,1.39,167.0,M,-34.4,M,0000,0000*52
$GPRMC,142417.750,A,4308.4632,N,07726.9429,W,41.26,264.79,101019,,,D*47
$GPGGA,142418.000,4308.4630,N,07726.9468,W,2,06,1.39,166.6,M,-34.4,M,0000,0000*5A
$GPRMC,142418.250,A,4308.4628,N,07726.9507,W,41.33,264.72,101019,,,D*44
$GPGGA,142418.500,4308.4625,N,07726.9546,W,2,06,1.39,166.3,M,-34.4,M,0000,0000*53
$GPRMC,142418.750,A,4308.4623,N,07726.9585,W,41.40,264.56,101019,,,D*42
$GPGGA,142419.000,4308.4620,N,07726.9624,W,2,06,1.39,165.9,M,-34.4,M,0000,0000*5C
$GPRMC,142419.250,A,4308.4618,N,07726.9663,W,41.76,264.94,101019,,,D*4E
$GPGGA,142419.500,4308.4615,N,07726.9702,W,2,06,1.39,165.4,M,-34.4,M,0000,0000*57
$GPRMC,142419.750,A,4308.4613,N,07726.9741,W,41.73,265.19,101019,,,D*40
$GPGGA,142420.000,4308.4611,N,07726.9781,W,2,06,1.39,165.0,M,-34.4,M,0000,0000*53
$GPRMC,142420.250,A,4308.4609,N,07726.9820,W,41.76,265.17,101019,,,D*47
$GPGGA,142420.500,4308.4607,N,07726.9859,W,2,06,1.39,164.7,M,-34.4,M,0000,0000*5D
$GPRMC,142420.750,A,4308.4604,N,07726.9898,W,41.36,265.38,101019,,,D*45
$GPGGA,142421.000,4308.4602,N,07726.9936,W,2,06,1.39,164.4,M,-34.4,M,0000,0000*57
$GPRMC,142421.250,A,4308.4600,N,07726.9975,W,40.99,265.54,101019,,,D*49
$GPGGA,142421.500,4308.4598,N,07727.0013,W,2,06,1.39,164.2,M,-34.4,M,0000,0000*52
$GPRMC,142421.750,A,4308.4596,N,07727.0051,W,40.79,266.20,101019,,,D*49
$GPGGA,142422.000,4308.4595,N,07727.0089,W,2,06,1.39,163.9,M,-34.4,M,0000,0000*56
$GPRMC,142422.250,A,4308.4593,N,07727.0128,W,40.47,266.60,101019,,,D*4C
$GPGGA,142422.500,4308.4592,N,07727.0166,W,2,06,1.39,163.8,M,-34.4,M,0000,0000*55
$GPRMC,142422.750,A,4308.4591,N,07727.0204,W,40.27,267.45,101019,,,D*46
$GPGGA,142423.000,4308.4590,N,07727.0243,W,2,06,1.39,163.7,M,-34.4,M,0000,0000*58
$GPRMC,142423.250,A,4308.4589,N,07727.0282,W,40.15,267.82,101019,,,D*4F
$GPGGA,142423.500,4308.4588,N,07727.0320,W,2,06,1.39,163.6,M,-34.4,M,0000,0000*51
$GPRMC,142423.750,A,4308.4587,N,07727.0359,W,40.42,267.91,101019,,,D*43
$GPGGA,142424.000,4308.4586,N,07727.0396,W,2,06,1.39,163.4,M,-34.4,M,0000,0000*52
$GPRMC,142424.250,A,4308.4586,N,07727.0434,W,40.39,268.37,101019,,,D*43
$GPGGA,142424.500,4308.4585,N,07727.0473,W,2,06,1.39,163.3,M,-34.4,M,0000,0000*5F
$GPRMC,142424.750,A,4308.4585,N,07727.0511,W,39.61,269.28,101019,,,D*4F
$GPGGA,142425.000,4308.4585,N,07727.0548,W,2,06,1.39,163.1,M,-34.4,M,0000,0000*50
$GPRMC,142425.250,A,4308.4585,N,07727.0586,W,39.13,269.95,101019,,,D*46
$GPGGA,142425.500,4308.4586,N,07727.0623,W,2,06,1.39,163.1,M,-34.4,M,0000,0000*58
$GPRMC,142425.750,A,4308.4586,N,07727.0661,W,38.87,270.75,101019,,,D*40
$GPGGA,142426.000,4308.4587,N,07727.0698,W,2,06,1.39,163.1,M,-34.4,M,0000,0000*5F
$GPRMC,142426.250,A,4308.4589,N,07727.0735,W,38.65,272.22,101019,,,D*45
$GPGGA,142426.500,4308.4591,N,07727.0773,W,2,06,1.39,163.0,M,-34.4,M,0000,0000*58
$GPRMC,142426.750,A,4308.4593,N,07727.0810,W,38.94,274.18,101019,,,D*42
$GPGGA,142427.000,4308.4596,N,07727.0847,W,2,06,1.39,162.9,M,-34.4,M,0000,0000*5B
$GPRMC,142427.250,A,4308.4598,N,07727.0883,W,38.87,274.90,101019,,,D*45
$GPGGA,142427.500,4308.4601,N,07727.0920,W,2,06,1.27,162.9,M,-34.4,M,0000,0000*5C
$GPRMC,142427.750,A,4308.4604,N,07727.0957,W,38.95,275.51,101019,,,D*41
$GPGGA,142428.000,4308.4607,N,07727.0994,W,2,06,1.39,162.8,M,-34.4,M,0000,0000*51
$GPRMC,142428.250,A,4308.4610,N,07727.1031,W,39.01,276.04,101019,,,D*49
$GPGGA,142428.500,4308.4613,N,07727.1068,W,2,06,1.39,162.7,M,-34.4,M,0000,0000*55
$GPRMC,142428.750,A,4308.4617,N,07727.1105,W,39.06,276.92,101019,,,D*45
$GPGGA,142429.000,4308.4621,N,07727.1142,W,2,06,1.39,162.6,M,-34.4,M,0000,0000*58
$GPRMC,142429.250,A,4308.4625,N,07727.1178,W,38.84,277.80,101019,,,D*43
$GPGGA,142429.500,4308.4629,N,07727.1214,W,2,06,1.39,162.5,M,-34.4,M,0000,0000*56
$GPRMC,142429.750,A,4308.4633,N,07727.1251,W,38.49,278.13,101019,,,D*4D
$GPGGA,142430.000,4308.4638,N,07727.1287,W,2,06,1.39,162.5,M,-34.4,M,0000,0000*51
$GPRMC,142430.250,A,4308.4642,N,07727.1323,W,38.46,278.28,101019,,,D*45
$GPGGA,142430.500,4308.4646,N,07727.1360,W,2,06,1.39,162.5,M,-34.4,M,0000,0000*55
$GPRMC,142430.750,A,4308.4652,N,07727.1398,W,38.41,279.37,101019,,,D*49
$GPGGA,142431.000,4308.4657,N,07727.1435,W,2,06,1.39,162.5,M,-34.4,M,0000,0000*56
$GPRMC,142431.250,A,4308.4662,N,07727.1471,W,39.22,279.64,101019,,,D*4C
$GPGGA,142431.500,4308.4666,N,07727.1508,W,2,06,1.39,162.6,M,-34.4,M,0000,0000*5D
$GPRMC,142431.750,A,4308.4671,N,07727.1544,W,39.05,279.61,101019,,,D*4C
$GPGGA,142432.000,4308.4676,N,07727.1581,W,2,06,1.39,162.7,M,-34.4,M,0000,0000*5A
$GPRMC,142432.250,A,4308.4680,N,07727.1618,W,38.93,279.39,101019,,,D*4D
$GPGGA,142432.500,4308.4685,N,07727.1655,W,2,06,1.39,162.8,M,-34.4,M,0000,0000*56
$GPRMC,142432.750,A,4308.4689,N,07727.1691,W,38.74,279.03,101019,,,D*40
$GPGGA,142433.000,4308.4693,N,07727.1727,W,2,06,1.39,162.9,M,-34.4,M,0000,0000*50
$GPRMC,142433.250,A,4308.4697,N,07727.1763,W,38.49,278.74,101019,,,D*48
$GPGGA,142433.500,4308.4701,N,07727.1799,W,2,06,1.39,163.1,M,-34.4,M,0000,0000*53
$GPRMC,142433.750,A,4308.4705,N,07727.1835,W,38.10,278.78,101019,,,D*4B
$GPGGA,142434.000,4308.4709,N,07727.1871,W,2,06,1.39,163.2,M,-34.4,M,0000,0000*53
$GPRMC,142434.250,A,4308.4713,N,07727.1907,W,38.04,278.62,101019,,,D*40
$GPGGA,142434.500,4308.4717,N,07727.1943,W,2,06,1.39,163.3,M,-34.4,M,0000,0000*58
$GPRMC,142434.750,A,4308.4721,N,07727.1980,W,38.24,278.86,101019,,,D*43
$GPGGA,142435.000,4308.4726,N,07727.2016,W,2,06,1.39,163.4,M,-34.4,M,0000,0000*53
$GPRMC,142435.250,A,4308.4730,N,07727.2053,W,38.27,279.28,101019,,,D*45
$GPGGA,142435.500,4308.4735,N,07727.2090,W,2,06,1.39,163.5,M,-34.4,M,0000,0000*5B
$GPRMC,142435.750,A,4308.4740,N,07727.2127,W,38.83,279.57,101019,,,D*43
$GPGGA,142436.000,4308.4744,N,07727.2163,W,2,06,1.39,163.7,M,-34.4,M,0000,0000*54
$GPRMC,142436.250,A,4308.4748,N,07727.2200,W,38.80,279.28,101019,,,D*40
$GPGGA,142436.500,4308.4752,N,07727.2235,W,2,06,1.39,163.8,M,-34.4,M,0000,0000*59
$GPRMC,142436.750,A,4308.4756,N,07727.2271,W,38.50,279.22,101019,,,D*4B
$GPGGA,142437.000,4308.4761,N,07727.2308,W,2,06,1.39,163.9,M,-34.4,M,0000,0000*53
$GPRMC,142437.250,A,4308.4765,N,07727.2344,W,38.55,279.74,101019,,,D*4E
$GPGGA,142437.500,4308.4770,N,07727.2380,W,2,06,1.27,164.1,M,-34.4,M,0000,0000*56
$GPRMC,142437.750,A,4308.4775,N,07727.2417,W,38.59,280.04,101019,,,D*46
$GPGGA,142438.000,4308.4780,N,07727.2453,W,2,06,1.39,164.2,M,-34.4,M,0000,0000*56
$GPRMC,142438.250,A,4308.4784,N,07727.2489,W,38.57,279.80,101019,,,D*41
$GPGGA,142438.500,4308.4789,N,07727.2525,W,2,06,1.39,164.4,M,-34.4,M,0000,0000*5C
$GPRMC,142438.750,A,4308.4793,N,07727.2561,W,37.97,279.44,101019,,,D*4E
$GPGGA,142439.000,4308.4798,N,07727.2597,W,2,06,1.39,164.6,M,-34.4,M,0000,0000*53
$GPRMC,142439.250,A,4308.4803,N,07727.2632,W,37.68,279.74,101019,,,D*4A
$GPGGA,142439.500,4308.4807,N,07727.2668,W,2,06,1.39,164.7,M,-34.4,M,0000,0000*5D
$GPRMC,142439.750,A,4308.4812,N,07727.2703,W,37.75,279.27,101019,,,D*46
$GPGGA,142440.000,4308.4817,N,07727.2739,W,2,06,1.39,164.9,M,-34.4,M,0000,0000*5C
$GPRMC,142440.250,A,4308.4821,N,07727.2774,W,37.68,279.22,101019,,,D*44
$GPGGA,142440.500,4308.4826,N,07727.2810,W,2,06,1.39,165.1,M,-34.4,M,0000,0000*56
$GPRMC,142440.750,A,4308.4831,N,07727.2845,W,37.69,279.42,101019,,,D*4A
$GPGGA,142441.000,4308.4835,N,07727.2881,W,2,06,1.39,165.2,M,-34.4,M,0000,0000*5B
$GPRMC,142441.250,A,4308.4840,N,07727.2916,W,37.95,279.63,101019,,,D*4F
$GPGGA,142441.500,4308.4844,N,07727.2952,W,2,06,1.39,165.3,M,-34.4,M,0000,0000*56
$GPRMC,142441.750,A,4308.4849,N,07727.2988,W,38.06,279.93,101019,,,D*4E
$GPGGA,142442.000,4308.4854,N,07727.3023,W,2,06,1.39,165.4,M,-34.4,M,0000,0000*58
$GPRMC,142442.250,A,4308.4858,N,07727.3059,W,38.15,279.77,101019,,,D*44
$GPGGA,142442.500,4308.4863,N,07727.3095,W,2,06,1.39,165.6,M,-34.4,M,0000,0000*56
$GPRMC,142442.750,A,4308.4868,N,07727.3132,W,38.24,280.25,101019,,,D*4D
$GPGGA,142443.000,4308.4873,N,07727.3168,W,2,06,1.39,165.8,M,-34.4,M,0000,0000*5E
$GPRMC,142443.250,A,4308.4878,N,07727.3205,W,38.93,280.03,101019,,,D*47
$GPGGA,142443.500,4308.4883,N,07727.3241,W,2,06,1.39,166.0,M,-34.4,M,0000,0000*57
$GPRMC,142443.750,A,4308.4888,N,07727.3278,W,39.17,279.77,101019,,,D*4F
$GPGGA,142444.000,4308.4892,N,07727.3315,W,2,06,1.39,166.2,M,-34.4,M,0000,0000*57
$GPRMC,142444.250,A,4308.4897,N,07727.3351,W,39.29,279.63,101019,,,D*41
$GPGGA,142444.500,4308.4902,N,07727.3388,W,2,06,1.39,166.2,M,-34.4,M,0000,0000*5E
$GPRMC,142444.750,A,4308.4906,N,07727.3426,W,39.41,279.10,101019,,,D*40
$GPGGA,142445.000,4308.4910,N,07727.3463,W,2,06,1.39,166.2,M,-34.4,M,0000,0000*5B
$GPRMC,142445.250,A,4308.4915,N,07727.3501,W,39.52,279.02,101019,,,D*43
$GPGGA,142445.500,4308.4919,N,07727.3538,W,2,06,1.39,166.2,M,-34.4,M,0000,0000*58
$GPRMC,142445.750,A,4308.4923,N,07727.3576,W,40.18,279.39,101019,,,D*4B
$GPGGA,142446.000,4308.4927,N,07727.3614,W,2,06,1.39,166.2,M,-34.4,M,0000,0000*5E
$GPRMC,142446.250,A,4308.4932,N,07727.3652,W,40.40,279.28,101019,,,D*45
$GPGGA,142446.500,4308.4936,N,07727.3689,W,2,06,1.39,166.2,M,-34.4,M,0000,0000*5F
$GPRMC,142446.750,A,4308.4940,N,07727.3727,W,40.30,279.16,101019,,,D*4C
$GPGGA,142447.000,4308.4943,N,07727.3763,W,2,06,1.39,166.1,M,-34.4,M,0000,0000*5F
$GPRMC,142447.250,A,4308.4947,N,07727.3800,W,40.35,278.56,101019,,,D*45
$GPGGA,142447.500,4308.4950,N,07727.3837,W,2,06,1.39,166.1,M,-34.4,M,0000,0000*56
$GPRMC,142447.750,A,4308.4954,N,07727.3873,W,39.37,278.22,101019,,,D*49
$GPGGA,142448.000,4308.4957,N,07727.3910,W,2,06,1.39,166.0,M,-34.4,M,0000,0000*5E
$GPRMC,142448.250,A,4308.4961,N,07727.3947,W,38.98,278.08,101019,,,D*4F
$GPGGA,142448.500,4308.4965,N,07727.3984,W,2,06,1.39,166.0,M,-34.4,M,0000,0000*57
$GPRMC,142448.750,A,4308.4969,N,07727.4021,W,39.01,278.32,101019,,,D*44
$GPGGA,142449.000,4308.4973,N,07727.4059,W,2,06,1.39,166.1,M,-34.4,M,0000,0000*5B
$GPRMC,142449.250,A,4308.4977,N,07727.4096,W,39.13,278.51,101019,,,D*45
$GPGGA,142449.500,4308.4982,N,07727.4134,W,2,06,1.39,166.2,M,-34.4,M,0000,0000*59
$GPRMC,142449.750,A,4308.4986,N,07727.4172,W,40.54,279.44,101019,,,D*4D
$GPGGA,142450.000,4308.4990,N,07727.4210,W,2,06,1.39,166.4,M,-34.4,M,0000,0000*54
$GPRMC,142450.250,A,4308.4995,N,07727.4248,W,40.35,279.42,101019,,,D*49
$GPGGA,142450.500,4308.5000,N,07727.4286,W,2,06,1.39,166.6,M,-34.4,M,0000,0000*5D
$GPRMC,142450.750,A,4308.5004,N,07727.4324,W,40.36,279.61,101019,,,D*45
$GPGGA,142451.000,4308.5009,N,07727.4363,W,2,06,1.39,166.7,M,-34.4,M,0000,0000*5B
$GPRMC,142451.250,A,4308.5014,N,07727.4401,W,40.46,279.62,101019,,,D*44
$GPGGA,142451.500,4308.5018,N,07727.4438,W,2,06,1.27,166.9,M,-34.4,M,0000,0000*56
$GPRMC,142451.750,A,4308.5023,N,07727.4476,W,40.13,279.82,101019,,,D*4B
$GPGGA,142452.000,4308.5028,N,07727.4514,W,2,06,1.39,167.0,M,-34.4,M,0000,0000*5B
$GPRMC,142452.250,A,4308.5032,N,07727.4551,W,40.10,279.63,101019,,,D*45
$GPGGA,142452.500,4308.5037,N,07727.4589,W,2,06,1.27,167.2,M,-34.4,M,0000,0000*59
$GPRMC,142452.750,A,4308.5041,N,07727.4626,W,39.70,279.05,101019,,,D*4F
$GPGGA,142453.000,4308.5045,N,07727.4663,W,2,06,1.39,167.4,M,-34.4,M,0000,0000*56
$GPRMC,142453.250,A,4308.5049,N,07727.4701,W,39.64,278.69,101019,,,D*49
$GPGGA,142453.500,4308.5053,N,07727.4738,W,2,06,1.39,167.6,M,-34.4,M,0000,0000*59
$GPRMC,142453.750,A,4308.5057,N,07727.4775,W,39.62,278.24,101019,,,D*4F
$GPGGA,142454.000,4308.5061,N,07727.4813,W,2,06,1.39,167.9,M,-34.4,M,0000,0000*53
$GPRMC,142454.250,A,4308.5065,N,07727.4851,W,39.63,278.33,101019,,,D*42
$GPGGA,142454.500,4308.5070,N,07727.4888,W,2,06,1.39,168.2,M,-34.4,M,0000,0000*50
$GPRMC,142454.750,A,4308.5074,N,07727.4926,W,39.71,278.88,101019,,,D*45
$GPGGA,142455.000,4308.5079,N,07727.4963,W,2,06,1.39,168.5,M,-34.4,M,0000,0000*5E
$GPRMC,142455.250,A,4308.5083,N,07727.5001,W,39.91,279.34,101019,,,D*4C
$GPGGA,142455.500,4308.5088,N,07727.5039,W,2,06,1.39,168.8,M,-34.4,M,0000,0000*5F
$GPRMC,142455.750,A,4308.5093,N,07727.5077,W,40.67,279.57,101019,,,D*4B
$GPGGA,142456.000,4308.5098,N,07727.5116,W,2,06,1.39,169.1,M,-34.4,M,0000,0000*5C
$GPRMC,142456.250,A,4308.5103,N,07727.5155,W,40.70,280.11,101019,,,D*46
$GPGGA,142456.500,4308.5109,N,07727.5193,W,2,06,1.39,169.3,M,-34.4,M,0000,0000*5F
$GPRMC,142456.750,A,4308.5115,N,07727.5232,W,40.72,280.75,101019,,,D*46
