Vers 57
USE_SERIAL_FEEDBACK=false
DEVELOPMENT_MODE=false
USE_RMC_ONLY=false

$GPRMC,152342.400,A,4308.2969,N,07726.2654,W,0.00,171.06,240419,,,D*7F
$GPGGA,152342.600,4308.2969,N,07726.2654,W,2,08,1.02,153.1,M,-34.4,M,0000,0000*51
lng=-77.437759, lat=43.138282, altitude=153.10, speed=0.00, satellites=9, angle=171.0600, fixquality=2
$GPRMC,152342.800,A,4308.2969,N,07726.2654,W,0.00,171.06,240419,,,D*73
$GPGGA,152343.000,4308.2969,N,07726.2654,W,2,08,1.02,153.1,M,-34.4,M,0000,0000*56
lng=-77.437759, lat=43.138282, altitude=153.10, speed=0.00, satellites=8, angle=171.0600, fixquality=2
$GPRMC,152343.200,A,4308.2969,N,07726.2654,W,0.00,171.06,240419,,,D*78
$GPGGA,152343.400,4308.2969,N,07726.2654,W,2,08,1.02,153.1,M,-34.4,M,0000,0000*52
lng=-77.437759, lat=43.138282, altitude=153.10, speed=0.00, satellites=8, angle=171.0600, fixquality=2
$GPRMC,152343.600,A,4308.2969,N,07726.2654,W,0.00,171.06,240419,,,D*7C
$GPGGA,152343.800,4308.2969,N,07726.2654,W,2,08,1.02,153.1,M,-34.4,M,0000,0000*5E
lng=-77.437759, lat=43.138282, altitude=153.10, speed=0.00, satellites=8, angle=171.0600, fixquality=2
$GPRMC,152344.000,A,4308.2969,N,07726.2654,W,0.00,171.06,240419,,,D*7D
$GPGGA,152344.200,4308.2969,N,07726.2654,W,2,08,1.02,153.1,M,-34.4,M,0000,0000*53
lng=-77.437759, lat=43.138282, altitude=153.10, speed=0.00, satellites=8, angle=171.0600, fixquality=2
$GPRMC,152344.400,A,4308.2969,N,07726.2654,W,0.00,171.06,240419,,,D*79
$GPGGA,152344.600,4308.2969,N,07726.2654,W,2,08,1.02,153.1,M,-34.4,M,0000,0000*57
lng=-77.437759, lat=43.138282, altitude=153.10, speed=0.00, satellites=8, angle=171.0600, fixquality=2
$GPRMC,152344.800,A,4308.2969,N,07726.2654,W,0.00,171.06,240419,,,D*75
$GPGGA,152345.000,4308.2969,N,07726.2654,W,2,08,1.02,153.1,M,-34.4,M,0000,0000*50
lng=-77.437759, lat=43.138282, altitude=153.10, speed=0.00, satellites=8, angle=171.0600, fixquality=2
$GPRMC,152345.200,A,4308.2969,N,07726.2654,W,0.00,171.06,240419,,,D*7E
$GPGGA,152345.400,4308.2969,N,07726.2654,W,2,08,1.02,153.1,M,-34.4,M,0000,0000*54
lng=-77.437759, lat=43.138282, altitude=153.10, speed=0.00, satellites=8, angle=171.0600, fixquality=2
$GPRMC,152345.600,A,4308.2969,N,07726.2654,W,0.00,171.06,240419,,,D*7A
$GPGGA,152345.800,4308.2969,N,07726.2654,W,2,08,1.02,153.1,M,-34.4,M,0000,0000*58
lng=-77.437759, lat=43.138282, altitude=153.10, speed=0.00, satellites=8, angle=171.0600, fixquality=2
$GPRMC,152346.000,A,4308.2969,N,07726.2654,W,0.00,171.06,240419,,,D*7F
$GPGGA,152346.200,4308.2969,N,07726.2654,W,2,08,1.02,153.1,M,-34.4,M,0000,0000*51
lng=-77.437759, lat=43.138282, altitude=153.10, speed=0.00, satellites=8, angle=171.0600, fixquality=2
$GPRMC,152346.400,A,4308.2969,N,07726.2654,W,0.00,171.06,240419,,,D*7B
$GPGGA,152346.600,4308.2969,N,07726.2654,W,2,08,1.02,153.1,M,-34.4,M,0000,0000*55
lng=-77.437759, lat=43.138282, altitude=153.10, speed=0.00, satellites=8, angle=171.0600, fixquality=2
$GPRMC,152346.800,A,4308.2969,N,07726.2654,W,0.00,171.06,240419,,,D*77
$GPGGA,152347.000,4308.2969,N,07726.2654,W,2,08,1.02,153.1,M,-34.4,M,0000,0000*52
lng=-77.437759, lat=43.138282, altitude=153.10, speed=0.00, satellites=8, angle=171.0600, fixquality=2
$GPRMC,152347.200,A,4308.2969,N,07726.2654,W,0.00,171.06,240419,,,D*7C
$GPGGA,152347.400,4308.2969,N,07726.2654,W,2,08,1.02,153.1,M,-34.4,M,0000,0000*56
lng=-77.437759, lat=43.138282, altitude=153.10, speed=0.00, satellites=8, angle=171.0600, fixquality=2
$GPRMC,152347.600,A,4308.2969,N,07726.2654,W,0.00,171.06,240419,,,D*78
$GPGGA,152347.800,4308.2969,N,07726.2654,W,2,08,1.02,153.1,M,-34.4,M,0000,0000*5A
lng=-77.437759, lat=43.138282, altitude=153.10, speed=0.00, satellites=8, angle=171.0600, fixquality=2
$GPRMC,152348.000,A,4308.2969,N,07726.2654,W,0.00,171.06,240419,,,D*71
$GPGGA,152348.200,4308.2969,N,07726.2654,W,2,08,1.02,153.1,M,-34.4,M,0000,0000*5F
lng=-77.437759, lat=43.138282, altitude=153.10, speed=0.00, satellites=8, angle=171.0600, fixquality=2
$GPRMC,152348.400,A,4308.2969,N,07726.2654,W,0.00,171.06,240419,,,D*75
$GPGGA,152348.600,4308.2969,N,07726.2654,W,2,08,1.02,153.1,M,-34.4,M,0000,0000*5B
lng=-77.437759, lat=43.138282, altitude=153.10, speed=0.00, satellites=8, angle=171.0600, fixquality=2
$GPRMC,152348.800,A,4308.2969,N,07726.2654,W,0.01,171.06,240419,,,D*78
$GPGGA,152349.000,4308.2969,N,07726.2654,W,2,08,1.02,153.1,M,-34.4,M,0000,0000*5C
lng=-77.437759, lat=43.138282, altitude=153.10, speed=0.01, satellites=8, angle=171.0600, fixquality=2
$GPRMC,152349.200,A,4308.2969,N,07726.2654,W,0.01,171.06,240419,,,D*73
$GPGGA,152349.400,4308.2969,N,07726.2654,W,2,08,1.02,153.1,M,-34.4,M,0000,0000*58
lng=-77.437759, lat=43.138282, altitude=153.10, speed=0.01, satellites=8, angle=171.0600, fixquality=2
$GPRMC,152349.600,A,4308.2969,N,07726.2654,W,0.00,171.06,240419,,,D*76
$GPGGA,152349.800,4308.2969,N,07726.2654,W,2,08,1.02,153.1,M,-34.4,M,0000,0000*54
lng=-77.437759, lat=43.138282, altitude=153.10, speed=0.00, satellites=8, angle=171.0600, fixquality=2
$GPRMC,152350.000,A,4308.2969,N,07726.2654,W,0.00,171.06,240419,,,D*78
$GPGGA,152350.200,4308.2969,N,07726.2654,W,2,08,1.02,153.1,M,-34.4,M,0000,0000*56
lng=-77.437759, lat=43.138282, altitude=153.10, speed=0.00, satellites=8, angle=171.0600, fixquality=2
$GPRMC,152350.400,A,4308.2969,N,07726.2654,W,0.00,171.06,240419,,,D*7C
$GPGGA,152350.600,4308.2969,N,07726.2654,W,2,08,1.02,153.1,M,-34.4,M,0000,0000*52
lng=-77.437759, lat=43.138282, altitude=153.10, speed=0.00, satellites=8, angle=171.0600, fixquality=2
$GPRMC,152350.800,A,4308.2969,N,07726.2654,W,0.01,171.06,240419,,,D*71
$GPGGA,152351.000,4308.2969,N,07726.2654,W,2,08,1.02,153.1,M,-34.4,M,0000,0000*55
lng=-77.437759, lat=43.138282, altitude=153.10, speed=0.01, satellites=8, angle=171.0600, fixquality=2
$GPRMC,152351.200,A,4308.2969,N,07726.2654,W,0.00,171.06,240419,,,D*7B
$GPGGA,152351.400,4308.2969,N,07726.2654,W,2,08,1.02,153.1,M,-34.4,M,0000,0000*51
lng=-77.437759, lat=43.138282, altitude=153.10, speed=0.00, satellites=8, angle=171.0600, fixquality=2
$GPRMC,152351.600,A,4308.2969,N,07726.2654,W,0.00,171.06,240419,,,D*7F
$GPGGA,152351.800,4308.2969,N,07726.2654,W,2,08,1.02,153.1,M,-34.4,M,0000,0000*5D
lng=-77.437759, lat=43.138282, altitude=153.10, speed=0.00, satellites=8, angle=171.0600, fixquality=2
$GPRMC,152352.000,A,4308.2969,N,07726.2654,W,0.00,171.06,240419,,,D*7A
$GPGGA,152352.200,4308.2969,N,07726.2654,W,2,08,1.02,153.1,M,-34.4,M,0000,0000*54
lng=-77.437759, lat=43.138282, altitude=153.10, speed=0.00, satellites=8, angle=171.0600, fixquality=2
$GPRMC,152352.400,A,4308.2969,N,07726.2654,W,0.01,171.06,240419,,,D*7F
$GPGGA,152352.600,4308.2969,N,07726.2654,W,2,08,1.02,153.1,M,-34.4,M,0000,0000*50
lng=-77.437759, lat=43.138282, altitude=153.10, speed=0.01, satellites=8, angle=171.0600, fixquality=2
$GPRMC,152352.800,A,4308.2969,N,07726.2654,W,0.00,171.06,240419,,,D*72
$GPGGA,152353.000,4308.2969,N,07726.2654,W,2,08,1.02,153.1,M,-34.4,M,0000,0000*57
lng=-77.437759, lat=43.138282, altitude=153.10, speed=0.00, satellites=8, angle=171.0600, fixquality=2
$GPRMC,152353.200,A,4308.2969,N,07726.2654,W,0.00,171.06,240419,,,D*79
$GPGGA,152353.400,4308.2969,N,07726.2654,W,2,08,1.02,153.1,M,-34.4,M,0000,0000*53
lng=-77.437759, lat=43.138282, altitude=153.10, speed=0.00, satellites=8, angle=171.0600, fixquality=2
$GPRMC,152353.600,A,4308.2969,N,07726.2654,W,0.01,171.06,240419,,,D*7C
$GPGGA,152353.800,4308.2969,N,07726.2655,W,2,08,1.02,153.1,M,-34.4,M,0000,0000*5E
lng=-77.437759, lat=43.138282, altitude=153.10, speed=0.01, satellites=8, angle=171.0600, fixquality=2
$GPRMC,152354.000,A,4308.2969,N,07726.2655,W,0.01,171.06,240419,,,D*7C
$GPGGA,152354.200,4308.2969,N,07726.2655,W,2,08,1.02,153.1,M,-34.4,M,0000,0000*53
lng=-77.437759, lat=43.138282, altitude=153.10, speed=0.01, satellites=8, angle=171.0600, fixquality=2
$GPRMC,152354.400,A,4308.2969,N,07726.2655,W,0.00,171.06,240419,,,D*79
$GPGGA,152354.600,4308.2969,N,07726.2655,W,2,08,1.02,153.1,M,-34.4,M,0000,0000*57
lng=-77.437759, lat=43.138282, altitude=153.10, speed=0.00, satellites=8, angle=171.0600, fixquality=2
$GPRMC,152354.800,A,4308.2969,N,07726.2655,W,0.00,171.06,240419,,,D*75
$GPGGA,152355.000,4308.2969,N,07726.2655,W,2,08,1.02,153.1,M,-34.4,M,0000,0000*50
lng=-77.437759, lat=43.138282, altitude=153.10, speed=0.00, satellites=8, angle=171.0600, fixquality=2
$GPRMC,152355.200,A,4308.2969,N,07726.2655,W,0.00,171.06,240419,,,D*7E
$GPGGA,152355.400,4308.2969,N,07726.2655,W,2,08,1.02,153.1,M,-34.4,M,0000,0000*54
lng=-77.437759, lat=43.138282, altitude=153.10, speed=0.00, satellites=8, angle=171.0600, fixquality=2
$GPRMC,152355.600,A,4308.2969,N,07726.2655,W,0.01,171.06,240419,,,D*7B
$GPGGA,152355.800,4308.2969,N,07726.2655,W,2,08,1.02,153.1,M,-34.4,M,0000,0000*58
lng=-77.437759, lat=43.138282, altitude=153.10, speed=0.01, satellites=8, angle=171.0600, fixquality=2
$GPRMC,152356.000,A,4308.2969,N,07726.2655,W,0.01,171.06,240419,,,D*7E
$GPGGA,152356.200,4308.2969,N,07726.2655,W,2,08,1.02,153.1,M,-34.4,M,0000,0000*51
lng=-77.437759, lat=43.138282, altitude=153.10, speed=0.01, satellites=8, angle=171.0600, fixquality=2
$GPRMC,152356.400,A,4308.2969,N,07726.2655,W,0.00,171.06,240419,,,D*7B
$GPGGA,152356.600,4308.2969,N,07726.2655,W,2,08,1.02,153.1,M,-34.4,M,0000,0000*55
lng=-77.437759, lat=43.138282, altitude=153.10, speed=0.00, satellites=8, angle=171.0600, fixquality=2
$GPRMC,152356.800,A,4308.2969,N,07726.2655,W,0.00,171.06,240419,,,D*77
$GPGGA,152357.000,4308.2969,N,07726.2655,W,2,08,1.02,153.1,M,-34.4,M,0000,0000*52
lng=-77.437759, lat=43.138282, altitude=153.10, speed=0.00, satellites=8, angle=171.0600, fixquality=2
$GPRMC,152357.200,A,4308.2969,N,07726.2655,W,0.01,171.06,240419,,,D*7D
$GPGGA,152357.400,4308.2969,N,07726.2655,W,2,08,1.02,153.1,M,-34.4,M,0000,0000*56
lng=-77.437759, lat=43.138282, altitude=153.10, speed=0.01, satellites=8, angle=171.0600, fixquality=2
$GPRMC,152357.600,A,4308.2969,N,07726.2655,W,0.00,171.06,240419,,,D*78
$GPGGA,152357.800,4308.2969,N,07726.2655,W,2,08,1.02,153.1,M,-34.4,M,0000,0000*5A
lng=-77.437759, lat=43.138282, altitude=153.10, speed=0.00, satellites=8, angle=171.0600, fixquality=2
$GPRMC,152358.000,A,4308.2969,N,07726.2655,W,0.01,171.06,240419,,,D*70
$GPGGA,152358.200,4308.2969,N,07726.2655,W,2,08,1.02,153.1,M,-34.4,M,0000,0000*5F
lng=-77.437759, lat=43.138282, altitude=153.10, speed=0.01, satellites=8, angle=171.0600, fixquality=2
$GPRMC,152358.400,A,4308.2969,N,07726.2655,W,0.00,171.06,240419,,,D*75
$GPGGA,152358.600,4308.2969,N,07726.2655,W,2,08,1.02,153.1,M,-34.4,M,0000,0000*5B
lng=-77.437759, lat=43.138282, altitude=153.10, speed=0.00, satellites=8, angle=171.0600, fixquality=2
$GPRMC,152358.800,A,4308.2969,N,07726.2655,W,0.00,171.06,240419,,,D*79
$GPGGA,152359.000,4308.2969,N,07726.2655,W,2,08,1.02,153.1,M,-34.4,M,0000,0000*5C
lng=-77.437759, lat=43.138282, altitude=153.10, speed=0.00, satellites=8, angle=171.0600, fixquality=2
$GPRMC,152359.200,A,4308.2969,N,07726.2655,W,0.00,171.06,240419,,,D*72
$GPGGA,152359.400,4308.2969,N,07726.2655,W,2,08,1.02,153.1,M,-34.4,M,0000,0000*58
lng=-77.437759, lat=43.138282, altitude=153.10, speed=0.00, satellites=8, angle=171.0600, fixquality=2
$GPRMC,152359.600,A,4308.2969,N,07726.2655,W,0.00,171.06,240419,,,D*76
$GPGGA,152359.800,4308.2969,N,07726.2655,W,2,08,1.02,153.1,M,-34.4,M,0000,0000*54
lng=-77.437759, lat=43.138282, altitude=153.10, speed=0.00, satellites=8, angle=171.0600, fixquality=2
$GPRMC,152400.000,A,4308.2969,N,07726.2655,W,0.00,171.06,240419,,,D*7B
$GPGGA,152400.200,4308.2969,N,07726.2655,W,2,08,1.02,153.1,M,-34.4,M,0000,0000*55
lng=-77.437759, lat=43.138282, altitude=153.10, speed=0.00, satellites=8, angle=171.0600, fixquality=2
$GPRMC,152400.400,A,4308.2969,N,07726.2655,W,0.00,171.06,240419,,,D*7F
$GPGGA,152400.600,4308.2969,N,07726.2655,W,2,08,1.02,153.1,M,-34.4,M,0000,0000*51
lng=-77.437759, lat=43.138282, altitude=153.10, speed=0.00, satellites=8, angle=171.0600, fixquality=2
$GPRMC,152400.800,A,4308.2969,N,07726.2655,W,0.00,171.06,240419,,,D*73
$GPGGA,152401.000,4308.2969,N,07726.2655,W,2,08,1.02,153.1,M,-34.4,M,0000,0000*56
lng=-77.437759, lat=43.138282, altitude=153.10, speed=0.00, satellites=8, angle=171.0600, fixquality=2
$GPRMC,152401.200,A,4308.2970,N,07726.2655,W,0.00,171.06,240419,,,D*70
$GPGGA,152401.400,4308.2970,N,07726.2655,W,2,08,1.02,153.1,M,-34.4,M,0000,0000*5A
lng=-77.437759, lat=43.138282, altitude=153.10, speed=0.00, satellites=8, angle=171.0600, fixquality=2
$GPRMC,152401.600,A,4308.2970,N,07726.2655,W,0.01,171.06,240419,,,D*75
$GPGGA,152401.800,4308.2970,N,07726.2655,W,2,08,1.02,153.1,M,-34.4,M,0000,0000*56
lng=-77.437759, lat=43.138282, altitude=153.10, speed=0.01, satellites=8, angle=171.0600, fixquality=2
$GPRMC,152402.000,A,4308.2970,N,07726.2655,W,0.00,171.06,240419,,,D*71
$GPGGA,152402.200,4308.2970,N,07726.2655,W,2,08,1.02,153.1,M,-34.4,M,0000,0000*5F
lng=-77.437759, lat=43.138282, altitude=153.10, speed=0.00, satellites=8, angle=171.0600, fixquality=2
$GPRMC,152402.400,A,4308.2970,N,07726.2655,W,0.00,171.06,240419,,,D*75
$GPGGA,152402.600,4308.2970,N,07726.2655,W,2,08,1.02,153.1,M,-34.4,M,0000,0000*5B
lng=-77.437759, lat=43.138282, altitude=153.10, speed=0.00, satellites=8, angle=171.0600, fixquality=2
$GPRMC,152402.800,A,4308.2970,N,07726.2655,W,0.00,171.06,240419,,,D*79
$GPGGA,152403.000,4308.2970,N,07726.2655,W,2,08,1.02,153.1,M,-34.4,M,0000,0000*5C
lng=-77.437759, lat=43.138282, altitude=153.10, speed=0.00, satellites=8, angle=171.0600, fixquality=2
$GPRMC,152403.200,A,4308.2970,N,07726.2655,W,0.00,171.06,240419,,,D*72
$GPGGA,152403.400,4308.2970,N,07726.2655,W,2,08,1.02,153.1,M,-34.4,M,0000,0000*58
lng=-77.437759, lat=43.138282, altitude=153.10, speed=0.00, satellites=8, angle=171.0600, fixquality=2
$GPRMC,152403.600,A,4308.2970,N,07726.2655,W,0.00,171.06,240419,,,D*76
$GPGGA,152403.800,4308.2970,N,07726.2655,W,2,08,1.02,153.1,M,-34.4,M,0000,0000*54
lng=-77.437759, lat=43.138282, altitude=153.10, speed=0.00, satellites=8, angle=171.0600, fixquality=2
$GPRMC,152404.000,A,4308.2970,N,07726.2655,W,0.00,171.06,240419,,,D*77
$GPGGA,152404.200,4308.2970,N,07726.2655,W,2,08,1.02,153.1,M,-34.4,M,0000,0000*59
lng=-77.437759, lat=43.138282, altitude=153.10, speed=0.00, satellites=8, angle=171.0600, fixquality=2
$GPRMC,152404.400,A,4308.2970,N,07726.2655,W,0.00,171.06,240419,,,D*73
$GPGGA,152404.600,4308.2970,N,07726.2655,W,2,08,1.02,153.1,M,-34.4,M,0000,0000*5D
lng=-77.437759, lat=43.138282, altitude=153.10, speed=0.00, satellites=8, angle=171.0600, fixquality=2
$GPRMC,152404.800,A,4308.2970,N,07726.2655,W,0.00,171.06,240419,,,D*7F
$GPGGA,152405.000,4308.2970,N,07726.2655,W,2,08,1.02,153.1,M,-34.4,M,0000,0000*5A
lng=-77.437759, lat=43.138282, altitude=153.10, speed=0.00, satellites=8, angle=171.0600, fixquality=2
$GPRMC,152405.200,A,4308.2970,N,07726.2655,W,0.00,171.06,240419,,,D*74
$GPGGA,152405.400,4308.2970,N,07726.2655,W,2,08,1.02,153.1,M,-34.4,M,0000,0000*5E
lng=-77.437759, lat=43.138282, altitude=153.10, speed=0.00, satellites=8, angle=171.0600, fixquality=2
$GPRMC,152405.600,A,4308.2970,N,07726.2655,W,0.00,171.06,240419,,,D*70
$GPGGA,152405.800,4308.2970,N,07726.2655,W,2,08,1.02,153.1,M,-34.4,M,0000,0000*52
lng=-77.437759, lat=43.138282, altitude=153.10, speed=0.00, satellites=8, angle=171.0600, fixquality=2
$GPRMC,152406.000,A,4308.2970,N,07726.2655,W,0.00,171.06,240419,,,D*75
$GPGGA,152406.200,4308.2970,N,07726.2655,W,2,08,1.02,153.1,M,-34.4,M,0000,0000*5B
lng=-77.437759, lat=43.138282, altitude=153.10, speed=0.00, satellites=8, angle=171.0600, fixquality=2
$GPRMC,152406.400,A,4308.2970,N,07726.2655,W,0.00,171.06,240419,,,D*71
$GPGGA,152406.600,4308.2970,N,07726.2655,W,2,08,1.02,153.1,M,-34.4,M,0000,0000*5F
lng=-77.437759, lat=43.138282, altitude=153.10, speed=0.00, satellites=8, angle=171.0600, fixquality=2
$GPRMC,152406.800,A,4308.2970,N,07726.2655,W,0.00,171.06,240419,,,D*7D
$GPGGA,152407.000,4308.2970,N,07726.2655,W,2,08,1.02,153.1,M,-34.4,M,0000,0000*58
lng=-77.437759, lat=43.138282, altitude=153.10, speed=0.00, satellites=8, angle=171.0600, fixquality=2
$GPRMC,152407.200,A,4308.2970,N,07726.2655,W,0.00,171.06,240419,,,D*76
$GPGGA,152407.400,4308.2970,N,07726.2655,W,2,08,1.02,153.1,M,-34.4,M,0000,0000*5C
lng=-77.437759, lat=43.138282, altitude=153.10, speed=0.00, satellites=8, angle=171.0600, fixquality=2
$GPRMC,152407.600,A,4308.2970,N,07726.2655,W,0.00,171.06,240419,,,D*72
$GPGGA,152407.800,4308.2970,N,07726.2655,W,2,08,1.02,153.1,M,-34.4,M,0000,0000*50
lng=-77.437759, lat=43.138282, altitude=153.10, speed=0.00, satellites=8, angle=171.0600, fixquality=2
$GPRMC,152408.000,A,4308.2970,N,07726.2655,W,0.00,171.06,240419,,,D*7B
$GPGGA,152408.200,4308.2970,N,07726.2655,W,2,08,1.02,153.1,M,-34.4,M,0000,0000*55
lng=-77.437759, lat=43.138282, altitude=153.10, speed=0.00, satellites=8, angle=171.0600, fixquality=2
$GPRMC,152408.400,A,4308.2970,N,07726.2655,W,0.00,171.06,240419,,,D*7F
$GPGGA,152408.600,4308.2970,N,07726.2655,W,2,08,1.02,153.1,M,-34.4,M,0000,0000*51
lng=-77.437759, lat=43.138282, altitude=153.10, speed=0.00, satellites=8, angle=171.0600, fixquality=2
$GPRMC,152408.800,A,4308.2970,N,07726.2655,W,0.01,171.06,240419,,,D*72
$GPGGA,152409.000,4308.2970,N,07726.2655,W,2,08,1.02,153.1,M,-34.4,M,0000,0000*56
lng=-77.437759, lat=43.138282, altitude=153.10, speed=0.01, satellites=8, angle=171.0600, fixquality=2
$GPRMC,152409.200,A,4308.2970,N,07726.2655,W,0.00,171.06,240419,,,D*78
$GPGGA,152409.400,4308.2970,N,07726.2655,W,2,08,1.02,153.1,M,-34.4,M,0000,0000*52
lng=-77.437759, lat=43.138282, altitude=153.10, speed=0.00, satellites=8, angle=171.0600, fixquality=2
$GPRMC,152409.600,A,4308.2970,N,07726.2655,W,0.00,171.06,240419,,,D*7C
$GPGGA,152409.800,4308.2970,N,07726.2655,W,2,08,1.02,153.1,M,-34.4,M,0000,0000*5E
lng=-77.437759, lat=43.138282, altitude=153.10, speed=0.00, satellites=8, angle=171.0600, fixquality=2
$GPRMC,152410.000,A,4308.2970,N,07726.2655,W,0.00,171.06,240419,,,D*72
$GPGGA,152410.200,4308.2970,N,07726.2655,W,2,08,1.02,153.1,M,-34.4,M,0000,0000*5C
lng=-77.437759, lat=43.138282, altitude=153.10, speed=0.00, satellites=8, angle=171.0600, fixquality=2
$GPRMC,152410.400,A,4308.2970,N,07726.2655,W,0.00,171.06,240419,,,D*76
$GPGGA,152410.600,4308.2970,N,07726.2655,W,2,08,1.02,153.1,M,-34.4,M,0000,0000*58
lng=-77.437759, lat=43.138282, altitude=153.10, speed=0.00, satellites=8, angle=171.0600, fixquality=2
$GPRMC,152410.800,A,4308.2970,N,07726.2655,W,0.00,171.06,240419,,,D*7A
$GPGGA,152411.000,4308.2970,N,07726.2655,W,2,08,1.02,153.1,M,-34.4,M,0000,0000*5F
lng=-77.437759, lat=43.138282, altitude=153.10, speed=0.00, satellites=8, angle=171.0600, fixquality=2
$GPRMC,152411.200,A,4308.2970,N,07726.2655,W,0.00,171.06,240419,,,D*71
$GPGGA,152411.400,4308.2970,N,07726.2655,W,2,08,1.02,153.1,M,-34.4,M,0000,0000*5B
lng=-77.437759, lat=43.138282, altitude=153.10, speed=0.00, satellites=8, angle=171.0600, fixquality=2
$GPRMC,152411.600,A,4308.2970,N,07726.2655,W,0.00,171.06,240419,,,D*75
$GPGGA,152411.800,4308.2970,N,07726.2655,W,2,08,1.02,153.1,M,-34.4,M,0000,0000*57
lng=-77.437759, lat=43.138282, altitude=153.10, speed=0.00, satellites=8, angle=171.0600, fixquality=2
$GPRMC,152412.000,A,4308.2970,N,07726.2655,W,0.00,171.06,240419,,,D*70
$GPGGA,152412.200,4308.2970,N,07726.2655,W,2,08,1.02,153.1,M,-34.4,M,0000,0000*5E
lng=-77.437759, lat=43.138282, altitude=153.10, speed=0.00, satellites=8, angle=171.0600, fixquality=2
$GPRMC,152412.400,A,4308.2970,N,07726.2655,W,0.00,171.06,240419,,,D*74
$GPGGA,152412.600,4308.2970,N,07726.2655,W,2,08,1.02,153.1,M,-34.4,M,0000,0000*5A
lng=-77.437759, lat=43.138282, altitude=153.10, speed=0.00, satellites=8, angle=171.0600, fixquality=2
$GPRMC,152412.800,A,4308.2970,N,07726.2655,W,0.00,171.06,240419,,,D*78
$GPGGA,152413.000,4308.2970,N,07726.2655,W,2,08,1.02,153.1,M,-34.4,M,0000,0000*5D
lng=-77.437759, lat=43.138282, altitude=153.10, speed=0.00, satellites=8, angle=171.0600, fixquality=2
$GPRMC,152413.200,A,4308.2970,N,07726.2655,W,0.00,171.06,240419,,,D*73
$GPGGA,152413.400,4308.2970,N,07726.2655,W,2,08,1.02,153.1,M,-34.4,M,0000,0000*59
lng=-77.437759, lat=43.138282, altitude=153.10, speed=0.00, satellites=8, angle=171.0600, fixquality=2
$GPRMC,152413.600,A,4308.2970,N,07726.2655,W,0.00,171.06,240419,,,D*77
$GPGGA,152413.800,4308.2970,N,07726.2655,W,2,08,1.02,153.1,M,-34.4,M,0000,0000*55
lng=-77.437759, lat=43.138282, altitude=153.10, speed=0.00, satellites=8, angle=171.0600, fixquality=2
$GPRMC,152414.000,A,4308.2970,N,07726.2655,W,0.00,171.06,240419,,,D*76
$GPGGA,152414.200,4308.2970,N,07726.2655,W,2,08,1.02,153.1,M,-34.4,M,0000,0000*58
lng=-77.437759, lat=43.138282, altitude=153.10, speed=0.00, satellites=8, angle=171.0600, fixquality=2
$GPRMC,152414.400,A,4308.2970,N,07726.2655,W,0.00,171.06,240419,,,D*72
$GPGGA,152414.600,4308.2970,N,07726.2655,W,2,08,1.02,153.1,M,-34.4,M,0000,0000*5C
lng=-77.437759, lat=43.138282, altitude=153.10, speed=0.00, satellites=8, angle=171.0600, fixquality=2
$GPRMC,152414.800,A,4308.2970,N,07726.2655,W,0.00,171.06,240419,,,D*7E
$GPGGA,152415.000,4308.2970,N,07726.2655,W,2,08,1.02,153.1,M,-34.4,M,0000,0000*5B
lng=-77.437759, lat=43.138282, altitude=153.10, speed=0.00, satellites=8, angle=171.0600, fixquality=2
$GPRMC,152415.200,A,4308.2970,N,07726.2655,W,0.00,171.06,240419,,,D*75
$GPGGA,152415.400,4308.2970,N,07726.2655,W,2,08,1.02,153.1,M,-34.4,M,0000,0000*5F
lng=-77.437759, lat=43.138282, altitude=153.10, speed=0.00, satellites=8, angle=171.0600, fixquality=2
$GPRMC,152415.600,A,4308.2970,N,07726.2655,W,0.00,171.06,240419,,,D*71
$GPGGA,152415.800,4308.2970,N,07726.2655,W,2,08,1.02,153.1,M,-34.4,M,0000,0000*53
lng=-77.437759, lat=43.138282, altitude=153.10, speed=0.00, satellites=8, angle=171.0600, fixquality=2
$GPRMC,152416.000,A,4308.2970,N,07726.2655,W,0.00,171.06,240419,,,D*74
$GPGGA,152416.200,4308.2970,N,07726.2655,W,2,08,1.01,153.1,M,-34.4,M,0000,0000*59
lng=-77.437759, lat=43.138282, altitude=153.10, speed=0.00, satellites=8, angle=171.0600, fixquality=2
$GPRMC,152416.400,A,4308.2970,N,07726.2655,W,0.00,171.06,240419,,,D*70
$GPGGA,152416.600,4308.2970,N,07726.2655,W,2,08,1.02,153.1,M,-34.4,M,0000,0000*5E
lng=-77.437759, lat=43.138282, altitude=153.10, speed=0.00, satellites=8, angle=171.0600, fixquality=2
$GPRMC,152416.800,A,4308.2970,N,07726.2655,W,0.00,171.06,240419,,,D*7C
$GPGGA,152417.000,4308.2970,N,07726.2655,W,2,08,1.02,153.1,M,-34.4,M,0000,0000*59
lng=-77.437759, lat=43.138282, altitude=153.10, speed=0.00, satellites=8, angle=171.0600, fixquality=2
$GPRMC,152417.200,A,4308.2970,N,07726.2655,W,0.00,171.06,240419,,,D*77
$GPGGA,152417.400,4308.2970,N,07726.2655,W,2,08,1.02,153.1,M,-34.4,M,0000,0000*5D
lng=-77.437759, lat=43.138282, altitude=153.10, speed=0.00, satellites=8, angle=171.0600, fixquality=2
$GPRMC,152417.600,A,4308.2970,N,07726.2655,W,0.00,171.06,240419,,,D*73
$GPGGA,152417.800,4308.2970,N,07726.2655,W,2,08,1.02,153.1,M,-34.4,M,0000,0000*51
lng=-77.437759, lat=43.138282, altitude=153.10, speed=0.00, satellites=8, angle=171.0600, fixquality=2
$GPRMC,152418.000,A,4308.2970,N,07726.2655,W,0.00,171.06,240419,,,D*7A
$GPGGA,152418.200,4308.2970,N,07726.2655,W,2,08,1.02,153.0,M,-34.4,M,0000,0000*55
lng=-77.437759, lat=43.138282, altitude=153.10, speed=0.00, satellites=8, angle=171.0600, fixquality=2
$GPRMC,152418.400,A,4308.2970,N,07726.2655,W,0.00,171.06,240419,,,D*7E
$GPGGA,152418.600,4308.2970,N,07726.2655,W,2,08,1.02,153.0,M,-34.4,M,0000,0000*51
lng=-77.437759, lat=43.138282, altitude=153.00, speed=0.00, satellites=8, angle=171.0600, fixquality=2
$GPRMC,152418.800,A,4308.2970,N,07726.2655,W,0.00,171.06,240419,,,D*72
$GPGGA,152419.000,4308.2970,N,07726.2655,W,2,08,1.02,153.0,M,-34.4,M,0000,0000*56
lng=-77.437759, lat=43.138282, altitude=153.00, speed=0.00, satellites=8, angle=171.0600, fixquality=2
$GPRMC,152419.200,A,4308.2970,N,07726.2655,W,0.00,171.06,240419,,,D*79
$GPGGA,152419.400,4308.2970,N,07726.2655,W,2,08,1.02,153.0,M,-34.4,M,0000,0000*52
lng=-77.437759, lat=43.138282, altitude=153.00, speed=0.00, satellites=8, angle=171.0600, fixquality=2
$GPRMC,152419.600,A,4308.2970,N,07726.2655,W,0.00,171.06,240419,,,D*7D
$GPGGA,152419.800,4308.2970,N,07726.2655,W,2,08,1.02,153.0,M,-34.4,M,0000,0000*5E
lng=-77.437759, lat=43.138282, altitude=153.00, speed=0.00, satellites=8, angle=171.0600, fixquality=2
$GPRMC,152420.000,A,4308.2970,N,07726.2655,W,0.00,171.06,240419,,,D*71
$GPGGA,152420.200,4308.2970,N,07726.2655,W,2,08,1.02,153.0,M,-34.4,M,0000,0000*5E
lng=-77.437759, lat=43.138282, altitude=153.00, speed=0.00, satellites=8, angle=171.0600, fixquality=2
$GPRMC,152420.400,A,4308.2970,N,07726.2655,W,0.00,171.06,240419,,,D*75
$GPGGA,152420.600,4308.2970,N,07726.2655,W,2,08,1.02,153.0,M,-34.4,M,0000,0000*5A
lng=-77.437759, lat=43.138282, altitude=153.00, speed=0.00, satellites=8, angle=171.0600, fixquality=2
$GPRMC,152420.800,A,4308.2970,N,07726.2655,W,0.00,171.06,240419,,,D*79
$GPGGA,152421.000,4308.2970,N,07726.2655,W,2,08,1.02,153.0,M,-34.4,M,0000,0000*5D
lng=-77.437759, lat=43.138282, altitude=153.00, speed=0.00, satellites=8, angle=171.0600, fixquality=2
$GPRMC,152421.200,A,4308.2970,N,07726.2655,W,0.00,171.06,240419,,,D*72
$GPGGA,152421.400,4308.2970,N,07726.2655,W,2,08,1.02,153.0,M,-34.4,M,0000,0000*59
lng=-77.437759, lat=43.138282, altitude=153.00, speed=0.00, satellites=8, angle=171.0600, fixquality=2
$GPRMC,152421.600,A,4308.2970,N,07726.2655,W,0.00,171.06,240419,,,D*76
$GPGGA,152421.800,4308.2970,N,07726.2655,W,2,08,1.02,153.0,M,-34.4,M,0000,0000*55
lng=-77.437759, lat=43.138282, altitude=153.00, speed=0.00, satellites=8, angle=171.0600, fixquality=2
$GPRMC,152422.000,A,4308.2970,N,07726.2655,W,0.00,171.06,240419,,,D*73
$GPGGA,152422.200,4308.2970,N,07726.2655,W,2,08,1.02,153.0,M,-34.4,M,0000,0000*5C
lng=-77.437759, lat=43.138282, altitude=153.00, speed=0.00, satellites=8, angle=171.0600, fixquality=2
$GPRMC,152422.400,A,4308.2970,N,07726.2655,W,0.00,171.06,240419,,,D*77
$GPGGA,152422.600,4308.2970,N,07726.2655,W,2,08,1.02,153.0,M,-34.4,M,0000,0000*58
lng=-77.437759, lat=43.138282, altitude=153.00, speed=0.00, satellites=8, angle=171.0600, fixquality=2
$GPRMC,152422.800,A,4308.2970,N,07726.2655,W,0.02,171.06,240419,,,D*79
$GPGGA,152423.000,4308.2970,N,07726.2655,W,2,08,1.02,153.0,M,-34.4,M,0000,0000*5F
lng=-77.437759, lat=43.138282, altitude=153.00, speed=0.02, satellites=8, angle=171.0600, fixquality=2
$GPRMC,152423.200,A,4308.2970,N,07726.2655,W,0.01,171.06,240419,,,D*71
$GPGGA,152423.400,4308.2970,N,07726.2655,W,2,08,1.02,153.0,M,-34.4,M,0000,0000*5B
lng=-77.437759, lat=43.138282, altitude=153.00, speed=0.01, satellites=8, angle=171.0600, fixquality=2
$GPRMC,152423.600,A,4308.2970,N,07726.2655,W,0.01,171.06,240419,,,D*75
$GPGGA,152423.800,4308.2970,N,07726.2655,W,2,08,1.02,153.0,M,-34.4,M,0000,0000*57
lng=-77.437759, lat=43.138282, altitude=153.00, speed=0.01, satellites=8, angle=171.0600, fixquality=2
$GPRMC,152424.000,A,4308.2970,N,07726.2655,W,0.01,171.06,240419,,,D*74
$GPGGA,152424.200,4308.2970,N,07726.2655,W,2,08,1.02,153.0,M,-34.4,M,0000,0000*5A
lng=-77.437759, lat=43.138282, altitude=153.00, speed=0.01, satellites=8, angle=171.0600, fixquality=2
$GPRMC,152424.400,A,4308.2970,N,07726.2655,W,0.01,171.06,240419,,,D*70
$GPGGA,152424.600,4308.2970,N,07726.2655,W,2,08,1.02,153.0,M,-34.4,M,0000,0000*5E
lng=-77.437759, lat=43.138282, altitude=153.00, speed=0.01, satellites=8, angle=171.0600, fixquality=2
$GPRMC,152424.800,A,4308.2970,N,07726.2655,W,0.02,171.06,240419,,,D*7F
$GPGGA,152425.000,4308.2970,N,07726.2655,W,2,08,1.02,153.0,M,-34.4,M,0000,0000*59
lng=-77.437759, lat=43.138282, altitude=153.00, speed=0.02, satellites=8, angle=171.0600, fixquality=2
$GPRMC,152425.200,A,4308.2970,N,07726.2655,W,0.01,171.06,240419,,,D*77
$GPGGA,152425.400,4308.2970,N,07726.2655,W,2,08,1.02,153.0,M,-34.4,M,0000,0000*5D
lng=-77.437759, lat=43.138282, altitude=153.00, speed=0.01, satellites=8, angle=171.0600, fixquality=2
$GPRMC,152425.600,A,4308.2970,N,07726.2655,W,0.01,171.06,240419,,,D*73
$GPGGA,152425.800,4308.2970,N,07726.2655,W,2,08,1.02,153.0,M,-34.4,M,0000,0000*51
lng=-77.437759, lat=43.138282, altitude=153.00, speed=0.01, satellites=8, angle=171.0600, fixquality=2
$GPRMC,152426.000,A,4308.2970,N,07726.2655,W,0.11,171.06,240419,,,D*77
$GPGGA,152426.200,4308.2970,N,07726.2655,W,2,08,1.02,153.0,M,-34.4,M,0000,0000*58
lng=-77.437759, lat=43.138282, altitude=153.00, speed=0.11, satellites=8, angle=171.0600, fixquality=2
$GPRMC,152426.400,A,4308.2970,N,07726.2655,W,0.09,171.06,240419,,,D*7A
$GPGGA,152426.600,4308.2970,N,07726.2655,W,2,08,1.02,153.0,M,-34.4,M,0000,0000*5C
lng=-77.437759, lat=43.138282, altitude=153.00, speed=0.09, satellites=8, angle=171.0600, fixquality=2
$GPRMC,152426.800,A,4308.2971,N,07726.2655,W,0.13,171.06,240419,,,D*7C
$GPGGA,152427.000,4308.2971,N,07726.2655,W,2,08,1.02,153.0,M,-34.4,M,0000,0000*5A
lng=-77.437759, lat=43.138282, altitude=153.00, speed=0.13, satellites=8, angle=171.0600, fixquality=2
$GPRMC,152427.200,A,4308.2971,N,07726.2655,W,0.08,171.06,240419,,,D*7D
$GPGGA,152427.400,4308.2971,N,07726.2655,W,2,08,1.02,153.0,M,-34.4,M,0000,0000*5E
lng=-77.437759, lat=43.138282, altitude=153.00, speed=0.08, satellites=8, angle=171.0600, fixquality=2
$GPRMC,152427.600,A,4308.2971,N,07726.2655,W,0.09,171.06,240419,,,D*78
$GPGGA,152427.800,4308.2971,N,07726.2655,W,2,08,1.02,153.0,M,-34.4,M,0000,0000*52
lng=-77.437759, lat=43.138282, altitude=153.00, speed=0.09, satellites=8, angle=171.0600, fixquality=2
$GPRMC,152428.000,A,4308.2971,N,07726.2655,W,0.11,171.06,240419,,,D*78
$GPGGA,152428.200,4308.2971,N,07726.2655,W,2,08,1.02,153.0,M,-34.4,M,0000,0000*57
lng=-77.437759, lat=43.138282, altitude=153.00, speed=0.11, satellites=8, angle=171.0600, fixquality=2
$GPRMC,152428.400,A,4308.2971,N,07726.2655,W,0.07,171.06,240419,,,D*7B
$GPGGA,152428.600,4308.2972,N,07726.2655,W,2,08,1.02,153.0,M,-34.4,M,0000,0000*50
lng=-77.437759, lat=43.138282, altitude=153.00, speed=0.07, satellites=8, angle=171.0600, fixquality=2
$GPRMC,152428.800,A,4308.2972,N,07726.2655,W,0.09,171.06,240419,,,D*7A
$GPGGA,152429.000,4308.2972,N,07726.2655,W,2,08,1.02,153.0,M,-34.4,M,0000,0000*57
lng=-77.437759, lat=43.138290, altitude=153.00, speed=0.09, satellites=8, angle=171.0600, fixquality=2
$GPRMC,152429.200,A,4308.2972,N,07726.2655,W,0.14,171.06,240419,,,D*7D
$GPGGA,152429.400,4308.2972,N,07726.2655,W,2,08,1.02,153.0,M,-34.4,M,0000,0000*53
lng=-77.437759, lat=43.138290, altitude=153.00, speed=0.14, satellites=8, angle=171.0600, fixquality=2
$GPRMC,152429.600,A,4308.2972,N,07726.2655,W,0.34,171.06,240419,,,D*7B
$GPGGA,152429.800,4308.2972,N,07726.2655,W,2,08,1.02,153.0,M,-34.4,M,0000,0000*5F
lng=-77.437759, lat=43.138290, altitude=153.00, speed=0.34, satellites=8, angle=171.0600, fixquality=2
$GPRMC,152430.000,A,4308.2973,N,07726.2655,W,0.62,355.11,240419,,,D*75
$GPGGA,152430.200,4308.2975,N,07726.2655,W,2,08,1.02,153.0,M,-34.4,M,0000,0000*5A
lng=-77.437759, lat=43.138290, altitude=153.00, speed=0.62, satellites=8, angle=355.1100, fixquality=2
$GPRMC,152430.400,A,4308.2977,N,07726.2655,W,0.84,352.71,240419,,,D*7C
$GPGGA,152430.600,4308.2980,N,07726.2655,W,2,08,1.02,152.9,M,-34.4,M,0000,0000*5C
lng=-77.437759, lat=43.138298, altitude=153.00, speed=0.84, satellites=8, angle=352.7100, fixquality=2
$GPRMC,152430.800,A,4308.2983,N,07726.2655,W,1.15,353.94,240419,,,D*78
$GPGGA,152431.000,4308.2987,N,07726.2655,W,2,08,1.02,152.9,M,-34.4,M,0000,0000*5C
lng=-77.437759, lat=43.138305, altitude=152.90, speed=1.15, satellites=8, angle=353.9400, fixquality=2
$GPRMC,152431.200,A,4308.2990,N,07726.2655,W,1.92,350.98,240419,,,D*71
$GPGGA,152431.400,4308.2995,N,07726.2656,W,2,08,1.02,152.9,M,-34.4,M,0000,0000*58
lng=-77.437759, lat=43.138313, altitude=152.90, speed=1.92, satellites=8, angle=350.9800, fixquality=2
$GPRMC,152431.600,A,4308.2999,N,07726.2656,W,4.16,352.29,240419,,,D*7E
$GPGGA,152431.800,4308.3008,N,07726.2658,W,2,08,1.02,152.8,M,-34.4,M,0000,0000*57
lng=-77.437759, lat=43.138328, altitude=152.90, speed=4.16, satellites=8, angle=352.2900, fixquality=2
$GPRMC,152432.000,A,4308.3016,N,07726.2660,W,5.37,355.77,240419,,,D*7F
$GPGGA,152432.200,4308.3023,N,07726.2661,W,2,08,1.02,152.7,M,-34.4,M,0000,0000*52
lng=-77.437767, lat=43.138362, altitude=152.80, speed=5.37, satellites=8, angle=355.7700, fixquality=2
$GPRMC,152432.400,A,4308.3030,N,07726.2662,W,6.05,358.49,240419,,,D*7F
$GPGGA,152432.600,4308.3037,N,07726.2662,W,2,08,1.02,152.6,M,-34.4,M,0000,0000*51
lng=-77.437767, lat=43.138385, altitude=152.70, speed=6.05, satellites=8, angle=358.4900, fixquality=2
$GPRMC,152432.800,A,4308.3043,N,07726.2661,W,6.16,0.12,240419,,,D*76
$GPGGA,152433.000,4308.3049,N,07726.2661,W,2,08,1.02,152.5,M,-34.4,M,0000,0000*5F
lng=-77.437767, lat=43.138404, altitude=152.60, speed=6.16, satellites=8, angle=0.1200, fixquality=2
$GPRMC,152433.200,A,4308.3055,N,07726.2660,W,6.24,1.92,240419,,,D*73
$GPGGA,152433.400,4308.3060,N,07726.2660,W,2,08,1.02,152.4,M,-34.4,M,0000,0000*50
lng=-77.437767, lat=43.138427, altitude=152.50, speed=6.24, satellites=8, angle=1.9200, fixquality=2
$GPRMC,152433.600,A,4308.3065,N,07726.2659,W,6.02,4.39,240419,,,D*7E
$GPGGA,152433.800,4308.3070,N,07726.2658,W,2,08,1.02,152.3,M,-34.4,M,0000,0000*51
lng=-77.437767, lat=43.138442, altitude=152.40, speed=6.02, satellites=8, angle=4.3900, fixquality=2
$GPRMC,152434.000,A,4308.3075,N,07726.2658,W,5.67,6.69,240419,,,D*78
$GPGGA,152434.200,4308.3080,N,07726.2658,W,2,08,1.02,152.2,M,-34.4,M,0000,0000*52
lng=-77.437759, lat=43.138462, altitude=152.30, speed=5.67, satellites=8, angle=6.6900, fixquality=2
$GPRMC,152434.400,A,4308.3085,N,07726.2657,W,5.25,6.95,240419,,,D*79
$GPGGA,152434.600,4308.3090,N,07726.2656,W,2,08,1.02,152.0,M,-34.4,M,0000,0000*5B
lng=-77.437759, lat=43.138477, altitude=152.20, speed=5.25, satellites=8, angle=6.9500, fixquality=2
$GPRMC,152434.800,A,4308.3094,N,07726.2655,W,4.72,11.00,240419,,,D*4E
$GPGGA,152435.000,4308.3098,N,07726.2653,W,2,08,1.02,151.8,M,-34.4,M,0000,0000*5A
lng=-77.437759, lat=43.138492, altitude=152.00, speed=4.72, satellites=8, angle=11.0000, fixquality=2
$GPRMC,152435.200,A,4308.3101,N,07726.2652,W,4.20,13.20,240419,,,D*48
$GPGGA,152435.400,4308.3104,N,07726.2651,W,2,08,1.02,151.6,M,-34.4,M,0000,0000*56
lng=-77.437751, lat=43.138500, altitude=151.80, speed=4.20, satellites=8, angle=13.2000, fixquality=2
$GPRMC,152435.600,A,4308.3107,N,07726.2650,W,3.27,17.89,240419,,,D*4F
$GPGGA,152435.800,4308.3109,N,07726.2649,W,2,08,1.01,151.5,M,-34.4,M,0000,0000*5E
lng=-77.437751, lat=43.138507, altitude=151.60, speed=3.27, satellites=8, angle=17.8900, fixquality=2
$GPRMC,152436.000,A,4308.3110,N,07726.2648,W,2.22,23.64,240419,,,D*45
$GPGGA,152436.200,4308.3112,N,07726.2647,W,2,08,1.01,151.3,M,-34.4,M,0000,0000*55
lng=-77.437744, lat=43.138515, altitude=151.50, speed=2.22, satellites=8, angle=23.6400, fixquality=2
$GPRMC,152436.400,A,4308.3113,N,07726.2647,W,1.51,32.59,240419,,,D*44
$GPGGA,152436.600,4308.3114,N,07726.2646,W,2,08,1.01,151.2,M,-34.4,M,0000,0000*57
lng=-77.437744, lat=43.138526, altitude=151.30, speed=1.51, satellites=8, angle=32.5900, fixquality=2
$GPRMC,152436.800,A,4308.3115,N,07726.2645,W,0.90,59.11,240419,,,D*41
$GPGGA,152437.000,4308.3115,N,07726.2645,W,2,08,1.01,151.1,M,-34.4,M,0000,0000*51
lng=-77.437744, lat=43.138526, altitude=151.20, speed=0.90, satellites=8, angle=59.1100, fixquality=2
$GPRMC,152437.200,A,4308.3116,N,07726.2644,W,0.68,73.79,240419,,,D*49
$GPGGA,152437.400,4308.3116,N,07726.2644,W,2,08,1.01,150.9,M,-34.4,M,0000,0000*5E
lng=-77.437736, lat=43.138526, altitude=151.10, speed=0.68, satellites=8, angle=73.7900, fixquality=2
$GPRMC,152437.600,A,4308.3116,N,07726.2644,W,0.55,73.79,240419,,,D*43
$GPGGA,152437.800,4308.3117,N,07726.2643,W,2,08,1.01,150.9,M,-34.4,M,0000,0000*54
lng=-77.437736, lat=43.138526, altitude=150.90, speed=0.55, satellites=8, angle=73.7900, fixquality=2
$GPRMC,152438.000,A,4308.3117,N,07726.2643,W,0.35,73.79,240419,,,D*4A
$GPGGA,152438.200,4308.3118,N,07726.2642,W,2,08,1.01,150.7,M,-34.4,M,0000,0000*51
lng=-77.437736, lat=43.138526, altitude=150.90, speed=0.35, satellites=8, angle=73.7900, fixquality=2
$GPRMC,152438.400,A,4308.3118,N,07726.2641,W,0.31,73.79,240419,,,D*47
$GPGGA,152438.600,4308.3120,N,07726.2641,W,2,08,1.01,150.7,M,-34.4,M,0000,0000*5D
lng=-77.437736, lat=43.138534, altitude=150.70, speed=0.31, satellites=8, angle=73.7900, fixquality=2
$GPRMC,152438.800,A,4308.3121,N,07726.2640,W,0.49,73.79,240419,,,D*4F
$GPGGA,152439.000,4308.3123,N,07726.2638,W,2,08,1.01,150.6,M,-34.4,M,0000,0000*56
lng=-77.437736, lat=43.138534, altitude=150.70, speed=0.49, satellites=8, angle=73.7900, fixquality=2
$GPRMC,152439.200,A,4308.3123,N,07726.2637,W,0.83,28.80,240419,,,D*48
$GPGGA,152439.400,4308.3124,N,07726.2637,W,2,08,1.01,150.6,M,-34.4,M,0000,0000*5A
lng=-77.437728, lat=43.138542, altitude=150.60, speed=0.83, satellites=8, angle=28.8000, fixquality=2
$GPRMC,152439.600,A,4308.3126,N,07726.2635,W,1.20,31.03,240419,,,D*40
$GPGGA,152439.800,4308.3127,N,07726.2633,W,2,08,1.01,150.6,M,-34.4,M,0000,0000*51
lng=-77.437728, lat=43.138542, altitude=150.60, speed=1.20, satellites=8, angle=31.0300, fixquality=2
$GPRMC,152440.000,A,4308.3128,N,07726.2631,W,1.33,17.30,240419,,,D*44
$GPGGA,152440.200,4308.3129,N,07726.2630,W,2,08,1.01,150.7,M,-34.4,M,0000,0000*59
lng=-77.437721, lat=43.138549, altitude=150.60, speed=1.33, satellites=8, angle=17.3000, fixquality=2
$GPRMC,152440.400,A,4308.3130,N,07726.2628,W,1.38,19.84,240419,,,D*4B
$GPGGA,152440.600,4308.3131,N,07726.2624,W,2,08,1.02,150.8,M,-34.4,M,0000,0000*5D
lng=-77.437713, lat=43.138549, altitude=150.70, speed=1.38, satellites=8, angle=19.8400, fixquality=2
$GPRMC,152440.800,A,4308.3131,N,07726.2623,W,1.53,25.10,240419,,,D*42
$GPGGA,152441.000,4308.3132,N,07726.2620,W,2,08,1.02,150.9,M,-34.4,M,0000,0000*5C
lng=-77.437705, lat=43.138549, altitude=150.80, speed=1.53, satellites=8, angle=25.1000, fixquality=2
$GPRMC,152441.200,A,4308.3133,N,07726.2617,W,2.85,66.27,240419,,,D*47
$GPGGA,152441.400,4308.3135,N,07726.2615,W,2,07,1.06,150.9,M,-34.4,M,0000,0000*52
lng=-77.437698, lat=43.138557, altitude=150.90, speed=2.85, satellites=8, angle=66.2700, fixquality=2
$GPRMC,152441.600,A,4308.3135,N,07726.2612,W,2.91,80.50,240419,,,D*4D
$GPGGA,152441.800,4308.3135,N,07726.2607,W,2,08,1.01,150.8,M,-34.4,M,0000,0000*54
lng=-77.437690, lat=43.138557, altitude=150.90, speed=2.91, satellites=7, angle=80.5000, fixquality=2
$GPRMC,152442.000,A,4308.3135,N,07726.2604,W,2.95,86.36,240419,,,D*4D
$GPGGA,152442.200,4308.3135,N,07726.2600,W,2,08,1.01,150.8,M,-34.4,M,0000,0000*5A
lng=-77.437667, lat=43.138557, altitude=150.80, speed=2.95, satellites=8, angle=86.3600, fixquality=2
$GPRMC,152442.400,A,4308.3135,N,07726.2597,W,2.37,89.29,240419,,,D*49
$GPGGA,152442.600,4308.3135,N,07726.2595,W,2,08,1.01,150.8,M,-34.4,M,0000,0000*51
lng=-77.437660, lat=43.138557, altitude=150.80, speed=2.37, satellites=8, angle=89.2900, fixquality=2
$GPRMC,152442.800,A,4308.3134,N,07726.2593,W,1.29,94.49,240419,,,D*46
$GPGGA,152443.000,4308.3134,N,07726.2592,W,2,08,1.01,150.8,M,-34.4,M,0000,0000*50
lng=-77.437652, lat=43.138557, altitude=150.80, speed=1.29, satellites=8, angle=94.4900, fixquality=2
$GPRMC,152443.200,A,4308.3134,N,07726.2591,W,0.72,107.34,240419,,,D*71
$GPGGA,152443.400,4308.3134,N,07726.2591,W,2,08,1.01,150.8,M,-34.4,M,0000,0000*57
lng=-77.437652, lat=43.138557, altitude=150.80, speed=0.72, satellites=8, angle=107.3400, fixquality=2
$GPRMC,152443.600,A,4308.3134,N,07726.2593,W,0.46,107.34,240419,,,D*70
$GPGGA,152443.800,4308.3134,N,07726.2595,W,2,08,1.01,150.9,M,-34.4,M,0000,0000*5E
lng=-77.437652, lat=43.138557, altitude=150.80, speed=0.46, satellites=8, angle=107.3400, fixquality=2
$GPRMC,152444.000,A,4308.3134,N,07726.2597,W,1.57,260.92,240419,,,D*7A
$GPGGA,152444.200,4308.3134,N,07726.2599,W,2,08,1.01,150.9,M,-34.4,M,0000,0000*5F
lng=-77.437660, lat=43.138557, altitude=150.90, speed=1.57, satellites=8, angle=260.9200, fixquality=2
$GPRMC,152444.400,A,4308.3135,N,07726.2601,W,3.73,266.19,240419,,,D*72
$GPGGA,152444.600,4308.3135,N,07726.2605,W,2,08,1.01,151.0,M,-34.4,M,0000,0000*54
lng=-77.437667, lat=43.138557, altitude=150.90, speed=3.73, satellites=8, angle=266.1900, fixquality=2
$GPRMC,152444.800,A,4308.3136,N,07726.2609,W,5.44,266.65,240419,,,D*7C
$GPGGA,152445.000,4308.3135,N,07726.2614,W,2,08,1.02,151.1,M,-34.4,M,0000,0000*51
lng=-77.437675, lat=43.138557, altitude=151.00, speed=5.44, satellites=8, angle=266.6500, fixquality=2
$GPRMC,152445.200,A,4308.3136,N,07726.2619,W,6.22,267.48,240419,,,D*7B
$GPGGA,152445.400,4308.3136,N,07726.2624,W,2,08,1.02,151.1,M,-34.4,M,0000,0000*55
lng=-77.437698, lat=43.138557, altitude=151.10, speed=6.22, satellites=8, angle=267.4800, fixquality=2
$GPRMC,152445.600,A,4308.3137,N,07726.2629,W,6.99,269.30,240419,,,D*7C
$GPGGA,152445.800,4308.3137,N,07726.2634,W,2,08,1.02,151.2,M,-34.4,M,0000,0000*5A
lng=-77.437713, lat=43.138557, altitude=151.10, speed=6.99, satellites=8, angle=269.3000, fixquality=2
$GPRMC,152446.000,A,4308.3138,N,07726.2640,W,7.48,272.08,240419,,,D*75
$GPGGA,152446.200,4308.3138,N,07726.2646,W,2,08,1.01,151.3,M,-34.4,M,0000,0000*5B
lng=-77.437736, lat=43.138565, altitude=151.20, speed=7.48, satellites=8, angle=272.0800, fixquality=2
$GPRMC,152446.400,A,4308.3138,N,07726.2653,W,8.07,272.93,240419,,,D*75
$GPGGA,152446.600,4308.3137,N,07726.2660,W,2,08,1.02,151.4,M,-34.4,M,0000,0000*50
lng=-77.437751, lat=43.138565, altitude=151.30, speed=8.07, satellites=8, angle=272.9300, fixquality=2
$GPRMC,152446.800,A,4308.3137,N,07726.2668,W,9.00,274.08,240419,,,D*7C
$GPGGA,152447.000,4308.3137,N,07726.2677,W,2,08,1.02,151.5,M,-34.4,M,0000,0000*50
lng=-77.437774, lat=43.138557, altitude=151.40, speed=9.00, satellites=8, angle=274.0800, fixquality=2
$GPRMC,152447.200,A,4308.3138,N,07726.2685,W,9.66,275.67,240419,,,D*73
$GPGGA,152447.400,4308.3140,N,07726.2693,W,2,08,1.01,151.6,M,-34.4,M,0000,0000*5E
lng=-77.437812, lat=43.138565, altitude=151.50, speed=9.66, satellites=8, angle=275.6700, fixquality=2
$GPRMC,152447.600,A,4308.3144,N,07726.2704,W,10.53,279.75,240419,,,D*45
$GPGGA,152447.800,4308.3148,N,07726.2715,W,2,08,1.01,151.8,M,-34.4,M,0000,0000*5B
lng=-77.437843, lat=43.138572, altitude=151.60, speed=10.53, satellites=8, angle=279.7500, fixquality=2
$GPRMC,152448.000,A,4308.3150,N,07726.2726,W,11.67,281.95,240419,,,D*46
$GPGGA,152448.200,4308.3152,N,07726.2738,W,2,08,1.01,151.9,M,-34.4,M,0000,0000*5B
lng=-77.437873, lat=43.138584, altitude=151.80, speed=11.67, satellites=8, angle=281.9500, fixquality=2
$GPRMC,152448.400,A,4308.3154,N,07726.2751,W,12.91,283.34,240419,,,D*45
$GPGGA,152448.600,4308.3153,N,07726.2767,W,2,08,1.01,152.1,M,-34.4,M,0000,0000*5F
lng=-77.437911, lat=43.138591, altitude=151.90, speed=12.91, satellites=8, angle=283.3400, fixquality=2
$GPRMC,152448.800,A,4308.3153,N,07726.2781,W,14.63,282.52,240419,,,D*49
$GPGGA,152449.000,4308.3153,N,07726.2796,W,2,08,1.01,152.2,M,-34.4,M,0000,0000*55
lng=-77.437973, lat=43.138591, altitude=152.10, speed=14.63, satellites=8, angle=282.5200, fixquality=2
$GPRMC,152449.200,A,4308.3153,N,07726.2811,W,15.39,282.19,240419,,,D*45
$GPGGA,152449.400,4308.3154,N,07726.2825,W,2,08,1.01,152.3,M,-34.4,M,0000,0000*50
lng=-77.438018, lat=43.138591, altitude=152.20, speed=15.39, satellites=8, angle=282.1900, fixquality=2
$GPRMC,152449.600,A,4308.3155,N,07726.2840,W,16.61,283.72,240419,,,D*41
$GPGGA,152449.800,4308.3157,N,07726.2854,W,2,08,1.01,152.4,M,-34.4,M,0000,0000*5E
lng=-77.438072, lat=43.138591, altitude=152.30, speed=16.61, satellites=8, angle=283.7200, fixquality=2
$GPRMC,152450.000,A,4308.3160,N,07726.2869,W,18.00,285.55,240419,,,D*48
$GPGGA,152450.200,4308.3163,N,07726.2883,W,2,08,1.01,152.6,M,-34.4,M,0000,0000*53
lng=-77.438117, lat=43.138599, altitude=152.40, speed=18.00, satellites=8, angle=285.5500, fixquality=2
$GPRMC,152450.400,A,4308.3166,N,07726.2898,W,19.06,286.49,240419,,,D*4D
$GPGGA,152450.600,4308.3169,N,07726.2914,W,2,08,1.01,152.7,M,-34.4,M,0000,0000*53
lng=-77.438163, lat=43.138607, altitude=152.60, speed=19.06, satellites=8, angle=286.4900, fixquality=2
$GPRMC,152450.800,A,4308.3173,N,07726.2931,W,20.44,287.22,240419,,,D*47
$GPGGA,152451.000,4308.3178,N,07726.2948,W,2,08,1.01,152.8,M,-34.4,M,0000,0000*52
lng=-77.438217, lat=43.138622, altitude=152.70, speed=20.44, satellites=8, angle=287.2200, fixquality=2
$GPRMC,152451.200,A,4308.3183,N,07726.2964,W,21.45,289.56,240419,,,D*4E
$GPGGA,152451.400,4308.3189,N,07726.2982,W,2,07,1.15,153.0,M,-34.4,M,0000,0000*5D
lng=-77.438270, lat=43.138637, altitude=152.80, speed=21.45, satellites=8, angle=289.5600, fixquality=2
$GPRMC,152451.600,A,4308.3197,N,07726.2999,W,22.69,293.24,240419,,,D*4E
$GPGGA,152451.800,4308.3208,N,07726.3017,W,2,07,1.15,153.2,M,-34.4,M,0000,0000*5D
lng=-77.438331, lat=43.138664, altitude=153.00, speed=22.69, satellites=7, angle=293.2400, fixquality=2
$GPRMC,152452.000,A,4308.3219,N,07726.3034,W,23.97,298.13,240419,,,D*4E
$GPGGA,152452.200,4308.3227,N,07726.3051,W,2,07,1.14,153.4,M,-34.4,M,0000,0000*5C
lng=-77.438385, lat=43.138694, altitude=153.20, speed=23.97, satellites=7, angle=298.1300, fixquality=2
$GPRMC,152452.400,A,4308.3236,N,07726.3068,W,24.47,300.44,240419,,,D*46
$GPGGA,152452.600,4308.3245,N,07726.3085,W,2,07,1.23,153.6,M,-34.4,M,0000,0000*53
lng=-77.438446, lat=43.138729, altitude=153.40, speed=24.47, satellites=7, angle=300.4400, fixquality=2
$GPRMC,152452.800,A,4308.3253,N,07726.3102,W,24.76,302.84,240419,,,D*48
$GPGGA,152453.000,4308.3262,N,07726.3120,W,2,07,1.23,153.7,M,-34.4,M,0000,0000*5E
lng=-77.438499, lat=43.138751, altitude=153.60, speed=24.76, satellites=7, angle=302.8400, fixquality=2
$GPRMC,152453.200,A,4308.3271,N,07726.3137,W,25.31,304.33,240419,,,D*4D
$GPGGA,152453.400,4308.3280,N,07726.3154,W,2,07,1.23,153.8,M,-34.4,M,0000,0000*5A
lng=-77.438560, lat=43.138786, altitude=153.70, speed=25.31, satellites=7, angle=304.3300, fixquality=2
$GPRMC,152453.600,A,4308.3289,N,07726.3172,W,25.98,305.99,240419,,,D*4D
$GPGGA,152453.800,4308.3298,N,07726.3190,W,2,07,1.23,154.0,M,-34.4,M,0000,0000*58
lng=-77.438621, lat=43.138816, altitude=153.80, speed=25.98, satellites=7, angle=305.9900, fixquality=2
$GPRMC,152454.000,A,4308.3307,N,07726.3207,W,26.35,304.68,240419,,,D*41
$GPGGA,152454.200,4308.3316,N,07726.3224,W,2,07,1.15,154.1,M,-34.4,M,0000,0000*5A
lng=-77.438682, lat=43.138843, altitude=154.00, speed=26.35, satellites=7, angle=304.6800, fixquality=2
$GPRMC,152454.400,A,4308.3325,N,07726.3241,W,26.88,303.37,240419,,,D*4C
$GPGGA,152454.600,4308.3334,N,07726.3259,W,2,07,1.23,154.3,M,-34.4,M,0000,0000*53
lng=-77.438735, lat=43.138874, altitude=154.10, speed=26.88, satellites=7, angle=303.3700, fixquality=2
$GPRMC,152454.800,A,4308.3342,N,07726.3277,W,27.17,303.37,240419,,,D*43
$GPGGA,152455.000,4308.3351,N,07726.3296,W,2,07,1.23,154.4,M,-34.4,M,0000,0000*53
lng=-77.438796, lat=43.138900, altitude=154.30, speed=27.17, satellites=7, angle=303.3700, fixquality=2
$GPRMC,152455.200,A,4308.3361,N,07726.3314,W,27.50,303.63,240419,,,D*4F
$GPGGA,152455.400,4308.3370,N,07726.3333,W,2,07,1.14,154.6,M,-34.4,M,0000,0000*5C
lng=-77.438858, lat=43.138931, altitude=154.40, speed=27.50, satellites=7, angle=303.6300, fixquality=2
$GPRMC,152455.600,A,4308.3379,N,07726.3352,W,27.76,302.20,240419,,,D*42
$GPGGA,152455.800,4308.3388,N,07726.3371,W,2,07,1.15,154.8,M,-34.4,M,0000,0000*5E
lng=-77.438919, lat=43.138965, altitude=154.60, speed=27.76, satellites=7, angle=302.2000, fixquality=2
$GPRMC,152456.000,A,4308.3397,N,07726.3389,W,28.15,302.77,240419,,,D*49
$GPGGA,152456.200,4308.3406,N,07726.3406,W,2,07,1.14,155.0,M,-34.4,M,0000,0000*59
lng=-77.438980, lat=43.138996, altitude=154.80, speed=28.15, satellites=7, angle=302.7700, fixquality=2
$GPRMC,152456.400,A,4308.3415,N,07726.3426,W,28.10,302.39,240419,,,D*4D
$GPGGA,152456.600,4308.3425,N,07726.3445,W,2,07,1.14,155.3,M,-34.4,M,0000,0000*58
lng=-77.439048, lat=43.139022, altitude=155.00, speed=28.10, satellites=7, angle=302.3900, fixquality=2
$GPRMC,152456.800,A,4308.3434,N,07726.3464,W,27.89,302.42,240419,,,D*47
$GPGGA,152457.000,4308.3443,N,07726.3482,W,2,07,1.15,155.5,M,-34.4,M,0000,0000*53
lng=-77.439102, lat=43.139053, altitude=155.30, speed=27.89, satellites=7, angle=302.4200, fixquality=2
$GPRMC,152457.200,A,4308.3452,N,07726.3500,W,27.74,303.78,240419,,,D*45
$GPGGA,152457.400,4308.3461,N,07726.3517,W,2,07,1.15,155.7,M,-34.4,M,0000,0000*58
lng=-77.439170, lat=43.139087, altitude=155.50, speed=27.74, satellites=7, angle=303.7800, fixquality=2
$GPRMC,152457.600,A,4308.3470,N,07726.3535,W,27.47,305.70,240419,,,D*49
$GPGGA,152457.800,4308.3479,N,07726.3553,W,2,08,1.02,156.1,M,-34.4,M,0000,0000*51
lng=-77.439224, lat=43.139118, altitude=155.70, speed=27.47, satellites=7, angle=305.7000, fixquality=2
$GPRMC,152458.000,A,4308.3489,N,07726.3569,W,27.46,308.92,240419,,,D*4F
$GPGGA,152458.200,4308.3500,N,07726.3586,W,2,08,1.02,156.2,M,-34.4,M,0000,0000*50
lng=-77.439285, lat=43.139152, altitude=156.10, speed=27.46, satellites=8, angle=308.9200, fixquality=2
$GPRMC,152458.400,A,4308.3510,N,07726.3602,W,27.42,311.41,240419,,,D*46
$GPGGA,152458.600,4308.3521,N,07726.3616,W,2,08,1.02,156.4,M,-34.4,M,0000,0000*5B
lng=-77.439338, lat=43.139183, altitude=156.20, speed=27.42, satellites=8, angle=311.4100, fixquality=2
$GPRMC,152458.800,A,4308.3531,N,07726.3631,W,27.05,314.59,240419,,,D*46
$GPGGA,152459.000,4308.3543,N,07726.3645,W,2,08,1.02,156.6,M,-34.4,M,0000,0000*5C
lng=-77.439384, lat=43.139217, altitude=156.40, speed=27.05, satellites=8, angle=314.5900, fixquality=2
$GPRMC,152459.200,A,4308.3554,N,07726.3660,W,27.13,318.78,240419,,,D*42
$GPGGA,152459.400,4308.3566,N,07726.3673,W,2,08,1.02,156.8,M,-34.4,M,0000,0000*54
lng=-77.439437, lat=43.139259, altitude=156.60, speed=27.13, satellites=8, angle=318.7800, fixquality=2
$GPRMC,152459.600,A,4308.3578,N,07726.3686,W,27.27,323.57,240419,,,D*42
$GPGGA,152459.800,4308.3590,N,07726.3698,W,2,08,1.02,157.0,M,-34.4,M,0000,0000*5D
lng=-77.439476, lat=43.139297, altitude=156.80, speed=27.27, satellites=8, angle=323.5700, fixquality=2
$GPRMC,152500.000,A,4308.3603,N,07726.3710,W,27.28,327.75,240419,,,D*43
$GPGGA,152500.200,4308.3616,N,07726.3721,W,2,08,1.02,157.2,M,-34.4,M,0000,0000*56
lng=-77.439521, lat=43.139339, altitude=157.00, speed=27.28, satellites=8, angle=327.7500, fixquality=2
$GPRMC,152500.400,A,4308.3629,N,07726.3731,W,27.20,330.26,240419,,,D*44
$GPGGA,152500.600,4308.3642,N,07726.3741,W,2,08,1.02,157.4,M,-34.4,M,0000,0000*53
lng=-77.439552, lat=43.139381, altitude=157.20, speed=27.20, satellites=8, angle=330.2600, fixquality=2
$GPRMC,152500.800,A,4308.3655,N,07726.3751,W,26.78,331.31,240419,,,D*4E
$GPGGA,152501.000,4308.3669,N,07726.3761,W,2,08,1.02,157.6,M,-34.4,M,0000,0000*5D
lng=-77.439582, lat=43.139427, altitude=157.40, speed=26.78, satellites=8, angle=331.3100, fixquality=2
$GPRMC,152501.200,A,4308.3682,N,07726.3769,W,26.59,333.32,240419,,,D*46
$GPGGA,152501.400,4308.3696,N,07726.3777,W,2,08,1.01,157.8,M,-34.4,M,0000,0000*53
lng=-77.439613, lat=43.139469, altitude=157.60, speed=26.59, satellites=8, angle=333.3200, fixquality=2
$GPRMC,152501.600,A,4308.3710,N,07726.3784,W,26.55,337.27,240419,,,D*47
$GPGGA,152501.800,4308.3725,N,07726.3790,W,2,07,1.12,158.0,M,-34.4,M,0000,0000*55
lng=-77.439643, lat=43.139518, altitude=157.80, speed=26.55, satellites=8, angle=337.2700, fixquality=2
$GPRMC,152502.000,A,4308.3740,N,07726.3795,W,26.60,342.83,240419,,,D*4D
$GPGGA,152502.200,4308.3754,N,07726.3800,W,2,08,1.01,158.3,M,-34.4,M,0000,0000*52
lng=-77.439659, lat=43.139568, altitude=158.00, speed=26.60, satellites=7, angle=342.8300, fixquality=2
$GPRMC,152502.400,A,4308.3769,N,07726.3802,W,26.55,347.75,240419,,,D*49
$GPGGA,152502.600,4308.3785,N,07726.3805,W,2,08,1.02,158.4,M,-34.4,M,0000,0000*5B
lng=-77.439674, lat=43.139614, altitude=158.30, speed=26.55, satellites=8, angle=347.7500, fixquality=2
$GPRMC,152502.800,A,4308.3800,N,07726.3806,W,26.55,353.17,240419,,,D*40
$GPGGA,152503.000,4308.3815,N,07726.3808,W,2,08,1.02,158.3,M,-34.4,M,0000,0000*50
lng=-77.439674, lat=43.139663, altitude=158.40, speed=26.55, satellites=8, angle=353.1700, fixquality=2
$GPRMC,152503.200,A,4308.3830,N,07726.3810,W,26.58,355.35,240419,,,D*44
$GPGGA,152503.400,4308.3846,N,07726.3811,W,2,08,1.01,158.4,M,-34.4,M,0000,0000*5E
lng=-77.439682, lat=43.139713, altitude=158.30, speed=26.58, satellites=8, angle=355.3500, fixquality=2
$GPRMC,152503.600,A,4308.3861,N,07726.3810,W,26.66,359.11,240419,,,D*43
$GPGGA,152503.800,4308.3877,N,07726.3808,W,2,08,1.01,158.4,M,-34.4,M,0000,0000*58
lng=-77.439682, lat=43.139770, altitude=158.40, speed=26.66, satellites=8, angle=359.1100, fixquality=2
$GPRMC,152504.000,A,4308.3894,N,07726.3806,W,26.81,3.33,240419,,,D*4A
$GPGGA,152504.200,4308.3910,N,07726.3805,W,2,08,1.01,158.5,M,-34.4,M,0000,0000*59
lng=-77.439674, lat=43.139820, altitude=158.40, speed=26.81, satellites=8, angle=3.3300, fixquality=2
$GPRMC,152504.400,A,4308.3926,N,07726.3803,W,28.21,2.88,240419,,,D*46
$GPGGA,152504.600,4308.3943,N,07726.3800,W,2,08,1.02,158.4,M,-34.4,M,0000,0000*5C
lng=-77.439674, lat=43.139877, altitude=158.50, speed=28.21, satellites=8, angle=2.8800, fixquality=2
$GPRMC,152504.800,A,4308.3960,N,07726.3797,W,28.64,5.10,240419,,,D*4D
$GPGGA,152505.000,4308.3977,N,07726.3794,W,2,08,1.02,158.4,M,-34.4,M,0000,0000*5E
lng=-77.439666, lat=43.139934, altitude=158.40, speed=28.64, satellites=8, angle=5.1000, fixquality=2
$GPRMC,152505.200,A,4308.3994,N,07726.3790,W,29.07,7.48,240419,,,D*41
$GPGGA,152505.400,4308.4011,N,07726.3786,W,2,08,1.01,158.5,M,-34.4,M,0000,0000*55
lng=-77.439651, lat=43.139991, altitude=158.40, speed=29.07, satellites=8, angle=7.4800, fixquality=2
$GPRMC,152505.600,A,4308.4028,N,07726.3782,W,29.58,8.65,240419,,,D*45
$GPGGA,152505.800,4308.4045,N,07726.3778,W,2,08,1.02,158.5,M,-34.4,M,0000,0000*5A
lng=-77.439643, lat=43.140048, altitude=158.50, speed=29.58, satellites=8, angle=8.6500, fixquality=2
$GPRMC,152506.000,A,4308.4062,N,07726.3775,W,29.83,8.87,240419,,,D*4C
$GPGGA,152506.200,4308.4079,N,07726.3771,W,2,08,1.01,158.4,M,-34.4,M,0000,0000*57
lng=-77.439620, lat=43.140102, altitude=158.50, speed=29.83, satellites=8, angle=8.8700, fixquality=2
$GPRMC,152506.400,A,4308.4096,N,07726.3767,W,29.88,8.99,240419,,,D*44
$GPGGA,152506.600,4308.4114,N,07726.3763,W,2,08,1.02,158.3,M,-34.4,M,0000,0000*5E
lng=-77.439605, lat=43.140159, altitude=158.40, speed=29.88, satellites=8, angle=8.9900, fixquality=2
$GPRMC,152506.800,A,4308.4131,N,07726.3759,W,29.93,9.23,240419,,,D*43
$GPGGA,152507.000,4308.4148,N,07726.3755,W,2,08,1.02,158.3,M,-34.4,M,0000,0000*55
lng=-77.439598, lat=43.140216, altitude=158.30, speed=29.93, satellites=8, angle=9.2300, fixquality=2
$GPRMC,152507.200,A,4308.4165,N,07726.3751,W,29.97,9.57,240419,,,D*46
$GPGGA,152507.400,4308.4182,N,07726.3747,W,2,08,1.02,158.4,M,-34.4,M,0000,0000*53
lng=-77.439582, lat=43.140274, altitude=158.30, speed=29.97, satellites=8, angle=9.5700, fixquality=2
$GPRMC,152507.600,A,4308.4198,N,07726.3743,W,29.74,9.63,240419,,,D*49
$GPGGA,152507.800,4308.4215,N,07726.3739,W,2,08,1.02,158.5,M,-34.4,M,0000,0000*5A
lng=-77.439575, lat=43.140331, altitude=158.40, speed=29.74, satellites=8, angle=9.6300, fixquality=2
$GPRMC,152508.000,A,4308.4231,N,07726.3735,W,29.56,9.56,240419,,,D*47
$GPGGA,152508.200,4308.4248,N,07726.3731,W,2,08,1.02,158.5,M,-34.4,M,0000,0000*5F
lng=-77.439559, lat=43.140388, altitude=158.50, speed=29.56, satellites=8, angle=9.5600, fixquality=2
$GPRMC,152508.400,A,4308.4264,N,07726.3728,W,29.19,9.09,240419,,,D*4E
$GPGGA,152508.600,4308.4280,N,07726.3725,W,2,08,1.02,158.7,M,-34.4,M,0000,0000*58
lng=-77.439544, lat=43.140438, altitude=158.50, speed=29.19, satellites=8, angle=9.0900, fixquality=2
$GPRMC,152508.800,A,4308.4295,N,07726.3721,W,27.26,9.30,240419,,,D*4D
$GPGGA,152509.000,4308.4310,N,07726.3718,W,2,08,1.02,158.9,M,-34.4,M,0000,0000*57
lng=-77.439537, lat=43.140495, altitude=158.70, speed=27.26, satellites=8, angle=9.3000, fixquality=2
$GPRMC,152509.200,A,4308.4326,N,07726.3715,W,27.20,9.06,240419,,,D*4B
$GPGGA,152509.400,4308.4341,N,07726.3711,W,2,08,1.02,158.6,M,-34.4,M,0000,0000*51
lng=-77.439529, lat=43.140544, altitude=158.90, speed=27.20, satellites=8, angle=9.0600, fixquality=2
$GPRMC,152509.600,A,4308.4357,N,07726.3707,W,27.00,9.38,240419,,,D*45
$GPGGA,152509.800,4308.4372,N,07726.3703,W,2,08,1.02,158.6,M,-34.4,M,0000,0000*5E
lng=-77.439506, lat=43.140590, altitude=158.60, speed=27.00, satellites=8, angle=9.3800, fixquality=2
$GPRMC,152510.000,A,4308.4387,N,07726.3700,W,25.40,9.20,240419,,,D*4E
$GPGGA,152510.200,4308.4401,N,07726.3696,W,2,08,1.01,158.8,M,-34.4,M,0000,0000*5F
lng=-77.439498, lat=43.140640, altitude=158.60, speed=25.40, satellites=8, angle=9.2000, fixquality=2
$GPRMC,152510.400,A,4308.4415,N,07726.3693,W,23.91,10.01,240419,,,D*7C
$GPGGA,152510.600,4308.4428,N,07726.3690,W,2,08,1.02,158.8,M,-34.4,M,0000,0000*55
lng=-77.439483, lat=43.140689, altitude=158.80, speed=23.91, satellites=8, angle=10.0100, fixquality=2
$GPRMC,152510.800,A,4308.4440,N,07726.3687,W,21.90,10.16,240419,,,D*70
$GPGGA,152511.000,4308.4452,N,07726.3685,W,2,08,1.02,159.0,M,-34.4,M,0000,0000*52
lng=-77.439476, lat=43.140731, altitude=158.80, speed=21.90, satellites=8, angle=10.1600, fixquality=2
$GPRMC,152511.200,A,4308.4463,N,07726.3682,W,19.38,10.02,240419,,,D*73
$GPGGA,152511.400,4308.4474,N,07726.3680,W,2,08,1.02,159.1,M,-34.4,M,0000,0000*56
lng=-77.439468, lat=43.140769, altitude=159.00, speed=19.38, satellites=8, angle=10.0200, fixquality=2
$GPRMC,152511.600,A,4308.4483,N,07726.3678,W,16.95,10.45,240419,,,D*77
$GPGGA,152511.800,4308.4492,N,07726.3676,W,2,08,1.02,159.0,M,-34.4,M,0000,0000*5A
lng=-77.439460, lat=43.140804, altitude=159.10, speed=16.95, satellites=8, angle=10.4500, fixquality=2
$GPRMC,152512.000,A,4308.4501,N,07726.3674,W,14.11,10.54,240419,,,D*7B
$GPGGA,152512.200,4308.4509,N,07726.3674,W,2,08,1.02,159.0,M,-34.4,M,0000,0000*52
lng=-77.439453, lat=43.140834, altitude=159.00, speed=14.11, satellites=8, angle=10.5400, fixquality=2
$GPRMC,152512.400,A,4308.4516,N,07726.3673,W,11.32,11.09,240419,,,D*73
$GPGGA,152512.600,4308.4522,N,07726.3672,W,2,08,1.02,159.0,M,-34.4,M,0000,0000*59
lng=-77.439453, lat=43.140861, altitude=159.00, speed=11.32, satellites=8, angle=11.0900, fixquality=2
$GPRMC,152512.800,A,4308.4527,N,07726.3671,W,8.58,11.35,240419,,,D*44
$GPGGA,152513.000,4308.4532,N,07726.3671,W,2,08,1.02,159.0,M,-34.4,M,0000,0000*5C
lng=-77.439453, lat=43.140876, altitude=159.00, speed=8.58, satellites=8, angle=11.3500, fixquality=2
$GPRMC,152513.200,A,4308.4535,N,07726.3671,W,5.97,10.47,240419,,,D*46
$GPGGA,152513.400,4308.4538,N,07726.3670,W,2,08,1.02,159.0,M,-34.4,M,0000,0000*53
lng=-77.439453, lat=43.140892, altitude=159.00, speed=5.97, satellites=8, angle=10.4700, fixquality=2
$GPRMC,152513.600,A,4308.4540,N,07726.3669,W,3.83,14.64,240419,,,D*4F
$GPGGA,152513.800,4308.4542,N,07726.3668,W,2,08,1.02,159.1,M,-34.4,M,0000,0000*5A
lng=-77.439445, lat=43.140903, altitude=159.00, speed=3.83, satellites=8, angle=14.6400, fixquality=2
$GPRMC,152514.000,A,4308.4545,N,07726.3668,W,3.46,12.06,240419,,,D*41
$GPGGA,152514.200,4308.4547,N,07726.3667,W,2,07,1.20,159.1,M,-34.4,M,0000,0000*52
lng=-77.439445, lat=43.140911, altitude=159.10, speed=3.46, satellites=8, angle=12.0600, fixquality=2
$GPRMC,152514.400,A,4308.4549,N,07726.3666,W,4.78,8.96,240419,,,D*7F
$GPGGA,152514.600,4308.4552,N,07726.3665,W,2,08,1.02,159.2,M,-34.4,M,0000,0000*5C
lng=-77.439445, lat=43.140918, altitude=159.10, speed=4.78, satellites=7, angle=8.9600, fixquality=2
$GPRMC,152514.800,A,4308.4555,N,07726.3664,W,5.69,2.81,240419,,,D*71
$GPGGA,152515.000,4308.4559,N,07726.3664,W,2,08,1.02,159.3,M,-34.4,M,0000,0000*50
lng=-77.439437, lat=43.140926, altitude=159.20, speed=5.69, satellites=8, angle=2.8100, fixquality=2
$GPRMC,152515.200,A,4308.4562,N,07726.3664,W,6.33,358.98,240419,,,D*76
$GPGGA,152515.400,4308.4566,N,07726.3664,W,2,08,1.02,159.4,M,-34.4,M,0000,0000*5F
lng=-77.439437, lat=43.140933, altitude=159.30, speed=6.33, satellites=8, angle=358.9800, fixquality=2
$GPRMC,152515.600,A,4308.4570,N,07726.3665,W,7.19,350.12,240419,,,D*73
$GPGGA,152515.800,4308.4574,N,07726.3666,W,2,08,1.02,159.5,M,-34.4,M,0000,0000*53
lng=-77.439445, lat=43.140949, altitude=159.40, speed=7.19, satellites=8, angle=350.1200, fixquality=2
