Vers 57
USE_SERIAL_FEEDBACK=false
DEVELOPMENT_MODE=false
USE_RMC_ONLY=false

$GPRMC,135842.000,A,4308.3039,N,07726.2631,W,0.06,126.84,030519,,,A*70
$GPGGA,135842.200,4308.3039,N,07726.2631,W,1,09,0.86,152.7,M,-34.4,M,,*59
lng=-77.437721, lat=43.138393, altitude=152.80, speed=0.06, satellites=9, angle=126.8400, fixquality=1
$GPRMC,135842.400,A,4308.3039,N,07726.2631,W,0.10,133.44,030519,,,A*7B
$GPGGA,135842.600,4308.3039,N,07726.2631,W,1,09,0.86,152.8,M,-34.4,M,,*52
lng=-77.437721, lat=43.138393, altitude=152.70, speed=0.10, satellites=9, angle=133.4400, fixquality=1
$GPRMC,135842.800,A,4308.3039,N,07726.2631,W,0.08,120.97,030519,,,A*72
$GPGGA,135843.000,4308.3039,N,07726.2631,W,1,09,0.86,152.8,M,-34.4,M,,*55
lng=-77.437721, lat=43.138393, altitude=152.80, speed=0.08, satellites=9, angle=120.9700, fixquality=1
$GPRMC,135843.200,A,4308.3039,N,07726.2631,W,0.05,144.91,030519,,,A*70
$GPGGA,135843.400,4308.3040,N,07726.2631,W,1,08,0.92,152.8,M,-34.4,M,,*5B
lng=-77.437721, lat=43.138393, altitude=152.80, speed=0.05, satellites=9, angle=144.9100, fixquality=1
$GPRMC,135843.600,A,4308.3040,N,07726.2630,W,0.11,81.74,030519,,,A*4D
$GPGGA,135843.800,4308.3040,N,07726.2630,W,1,09,0.86,152.8,M,-34.4,M,,*52
lng=-77.437721, lat=43.138404, altitude=152.80, speed=0.11, satellites=8, angle=81.7400, fixquality=1
$GPRMC,135844.000,A,4308.3041,N,07726.2630,W,0.13,64.42,030519,,,A*41
$GPGGA,135844.200,4308.3040,N,07726.2630,W,1,09,0.86,152.8,M,-34.4,M,,*5F
lng=-77.437721, lat=43.138404, altitude=152.80, speed=0.13, satellites=9, angle=64.4200, fixquality=1
$GPRMC,135844.400,A,4308.3040,N,07726.2630,W,0.12,35.09,030519,,,A*4E
$GPGGA,135844.600,4308.3040,N,07726.2630,W,1,09,0.86,152.8,M,-34.4,M,,*5B
lng=-77.437721, lat=43.138404, altitude=152.80, speed=0.12, satellites=9, angle=35.0900, fixquality=1
$GPRMC,135844.800,A,4308.3040,N,07726.2630,W,0.08,25.76,030519,,,A*40
$GPGGA,135845.000,4308.3040,N,07726.2631,W,1,09,0.86,152.8,M,-34.4,M,,*5D
lng=-77.437721, lat=43.138404, altitude=152.80, speed=0.08, satellites=9, angle=25.7600, fixquality=1
$GPRMC,135845.200,A,4308.3040,N,07726.2631,W,0.15,38.74,030519,,,A*48
$GPGGA,135845.400,4308.3041,N,07726.2630,W,1,09,0.86,152.8,M,-34.4,M,,*59
lng=-77.437721, lat=43.138404, altitude=152.80, speed=0.15, satellites=9, angle=38.7400, fixquality=1
$GPRMC,135845.600,A,4308.3042,N,07726.2628,W,0.30,42.74,030519,,,A*4C
$GPGGA,135845.800,4308.3042,N,07726.2628,W,1,09,0.86,152.7,M,-34.4,M,,*50
lng=-77.437713, lat=43.138404, altitude=152.80, speed=0.30, satellites=9, angle=42.7400, fixquality=1
$GPRMC,135846.000,A,4308.3042,N,07726.2627,W,0.28,59.00,030519,,,A*46
$GPGGA,135846.200,4308.3042,N,07726.2627,W,1,09,0.86,152.7,M,-34.4,M,,*56
lng=-77.437713, lat=43.138404, altitude=152.70, speed=0.28, satellites=9, angle=59.0000, fixquality=1
$GPRMC,135846.400,A,4308.3042,N,07726.2626,W,0.19,105.05,030519,,,A*7C
$GPGGA,135846.600,4308.3043,N,07726.2626,W,1,09,0.86,152.7,M,-34.4,M,,*52
lng=-77.437713, lat=43.138404, altitude=152.70, speed=0.19, satellites=9, angle=105.0500, fixquality=1
$GPRMC,135846.800,A,4308.3043,N,07726.2625,W,0.15,111.21,030519,,,A*7D
$GPGGA,135847.000,4308.3043,N,07726.2625,W,1,09,0.86,152.7,M,-34.4,M,,*56
lng=-77.437713, lat=43.138404, altitude=152.70, speed=0.15, satellites=9, angle=111.2100, fixquality=1
$GPRMC,135847.200,A,4308.3044,N,07726.2625,W,0.08,156.46,030519,,,A*7F
$GPGGA,135847.400,4308.3043,N,07726.2625,W,1,09,0.86,152.7,M,-34.4,M,,*52
lng=-77.437713, lat=43.138404, altitude=152.70, speed=0.08, satellites=9, angle=156.4600, fixquality=1
$GPRMC,135847.600,A,4308.3044,N,07726.2625,W,0.12,195.59,030519,,,A*71
$GPGGA,135847.800,4308.3044,N,07726.2625,W,1,09,0.86,152.7,M,-34.4,M,,*59
lng=-77.437713, lat=43.138404, altitude=152.70, speed=0.12, satellites=9, angle=195.5900, fixquality=1
$GPRMC,135848.000,A,4308.3044,N,07726.2625,W,0.13,139.10,030519,,,A*72
$GPGGA,135848.200,4308.3044,N,07726.2624,W,1,09,0.86,152.7,M,-34.4,M,,*5D
lng=-77.437713, lat=43.138404, altitude=152.70, speed=0.13, satellites=9, angle=139.1000, fixquality=1
$GPRMC,135848.400,A,4308.3045,N,07726.2624,W,0.12,104.35,030519,,,A*7E
$GPGGA,135848.600,4308.3045,N,07726.2625,W,1,09,0.86,152.7,M,-34.4,M,,*59
lng=-77.437705, lat=43.138412, altitude=152.70, speed=0.12, satellites=9, angle=104.3500, fixquality=1
$GPRMC,135848.800,A,4308.3045,N,07726.2625,W,0.07,44.70,030519,,,A*43
$GPGGA,135849.000,4308.3046,N,07726.2625,W,1,09,0.86,152.7,M,-34.4,M,,*5D
lng=-77.437713, lat=43.138412, altitude=152.70, speed=0.07, satellites=9, angle=44.7000, fixquality=1
$GPRMC,135849.200,A,4308.3046,N,07726.2625,W,0.09,9.75,030519,,,A*79
$GPGGA,135849.400,4308.3046,N,07726.2626,W,1,09,0.86,152.7,M,-34.4,M,,*5A
lng=-77.437713, lat=43.138412, altitude=152.70, speed=0.09, satellites=9, angle=9.7500, fixquality=1
$GPRMC,135849.600,A,4308.3046,N,07726.2626,W,0.02,172.71,030519,,,A*7C
$GPGGA,135849.800,4308.3046,N,07726.2627,W,1,09,0.86,152.7,M,-34.4,M,,*57
lng=-77.437713, lat=43.138412, altitude=152.70, speed=0.02, satellites=9, angle=172.7100, fixquality=1
$GPRMC,135850.000,A,4308.3046,N,07726.2627,W,0.06,161.81,030519,,,A*7A
$GPGGA,135850.200,4308.3045,N,07726.2627,W,1,09,0.86,152.7,M,-34.4,M,,*56
lng=-77.437713, lat=43.138412, altitude=152.70, speed=0.06, satellites=9, angle=161.8100, fixquality=1
$GPRMC,135850.400,A,4308.3045,N,07726.2628,W,0.10,161.94,030519,,,A*71
$GPGGA,135850.600,4308.3045,N,07726.2628,W,1,09,0.86,152.7,M,-34.4,M,,*5D
lng=-77.437713, lat=43.138412, altitude=152.70, speed=0.10, satellites=9, angle=161.9400, fixquality=1
$GPRMC,135850.800,A,4308.3046,N,07726.2628,W,0.16,140.49,030519,,,A*7B
$GPGGA,135851.000,4308.3046,N,07726.2628,W,1,09,0.86,152.7,M,-34.4,M,,*59
lng=-77.437713, lat=43.138412, altitude=152.70, speed=0.16, satellites=9, angle=140.4900, fixquality=1
$GPRMC,135851.200,A,4308.3046,N,07726.2629,W,0.21,148.83,030519,,,A*7B
$GPGGA,135851.400,4308.3045,N,07726.2629,W,1,09,0.86,152.7,M,-34.4,M,,*5F
lng=-77.437713, lat=43.138412, altitude=152.70, speed=0.21, satellites=9, angle=148.8300, fixquality=1
$GPRMC,135851.600,A,4308.3046,N,07726.2630,W,0.19,144.73,030519,,,A*7F
$GPGGA,135851.800,4308.3046,N,07726.2630,W,1,09,0.86,152.7,M,-34.4,M,,*58
lng=-77.437721, lat=43.138412, altitude=152.70, speed=0.19, satellites=9, angle=144.7300, fixquality=1
$GPRMC,135852.000,A,4308.3047,N,07726.2630,W,0.06,181.73,030519,,,A*7C
$GPGGA,135852.200,4308.3048,N,07726.2631,W,1,09,0.86,152.6,M,-34.4,M,,*5F
lng=-77.437721, lat=43.138412, altitude=152.70, speed=0.06, satellites=9, angle=181.7300, fixquality=1
$GPRMC,135852.400,A,4308.3048,N,07726.2631,W,0.09,310.62,030519,,,A*73
$GPGGA,135852.600,4308.3049,N,07726.2631,W,1,09,0.86,152.6,M,-34.4,M,,*5A
lng=-77.437721, lat=43.138412, altitude=152.60, speed=0.09, satellites=9, angle=310.6200, fixquality=1
$GPRMC,135852.800,A,4308.3049,N,07726.2631,W,0.08,282.54,030519,,,A*70
$GPGGA,135853.000,4308.3049,N,07726.2632,W,1,09,0.86,152.6,M,-34.4,M,,*5E
lng=-77.437721, lat=43.138412, altitude=152.60, speed=0.08, satellites=9, angle=282.5400, fixquality=1
$GPRMC,135853.200,A,4308.3049,N,07726.2632,W,0.02,136.49,030519,,,A*72
$GPGGA,135853.400,4308.3050,N,07726.2632,W,1,09,0.86,152.6,M,-34.4,M,,*52
lng=-77.437721, lat=43.138412, altitude=152.60, speed=0.02, satellites=9, angle=136.4900, fixquality=1
$GPRMC,135853.600,A,4308.3051,N,07726.2632,W,0.10,358.38,030519,,,A*70
$GPGGA,135853.800,4308.3051,N,07726.2632,W,1,09,0.86,152.6,M,-34.4,M,,*5F
lng=-77.437721, lat=43.138420, altitude=152.60, speed=0.10, satellites=9, angle=358.3800, fixquality=1
$GPRMC,135854.000,A,4308.3052,N,07726.2632,W,0.19,6.49,030519,,,A*75
$GPGGA,135854.200,4308.3053,N,07726.2632,W,1,09,0.86,152.6,M,-34.4,M,,*50
lng=-77.437721, lat=43.138420, altitude=152.60, speed=0.19, satellites=9, angle=6.4900, fixquality=1
$GPRMC,135854.400,A,4308.3053,N,07726.2632,W,0.15,13.49,030519,,,A*48
$GPGGA,135854.600,4308.3053,N,07726.2631,W,1,09,0.86,152.6,M,-34.4,M,,*57
lng=-77.437721, lat=43.138420, altitude=152.60, speed=0.15, satellites=9, angle=13.4900, fixquality=1
$GPRMC,135854.800,A,4308.3053,N,07726.2632,W,0.05,10.86,030519,,,A*45
$GPGGA,135855.000,4308.3053,N,07726.2632,W,1,09,0.86,152.6,M,-34.4,M,,*53
lng=-77.437721, lat=43.138420, altitude=152.60, speed=0.05, satellites=9, angle=10.8600, fixquality=1
$GPRMC,135855.200,A,4308.3053,N,07726.2632,W,0.01,94.01,030519,,,A*49
$GPGGA,135855.400,4308.3053,N,07726.2632,W,1,09,0.86,152.6,M,-34.4,M,,*57
lng=-77.437721, lat=43.138420, altitude=152.60, speed=0.01, satellites=9, angle=94.0100, fixquality=1
$GPRMC,135855.600,A,4308.3054,N,07726.2632,W,0.03,179.76,030519,,,A*7A
$GPGGA,135855.800,4308.3053,N,07726.2632,W,1,09,0.86,152.6,M,-34.4,M,,*5B
lng=-77.437721, lat=43.138420, altitude=152.60, speed=0.03, satellites=9, angle=179.7600, fixquality=1
$GPRMC,135856.000,A,4308.3053,N,07726.2632,W,0.14,193.55,030519,,,A*7B
$GPGGA,135856.200,4308.3053,N,07726.2633,W,1,09,0.86,152.6,M,-34.4,M,,*53
lng=-77.437721, lat=43.138420, altitude=152.60, speed=0.14, satellites=9, angle=193.5500, fixquality=1
$GPRMC,135856.400,A,4308.3052,N,07726.2633,W,0.23,220.01,030519,,,A*71
$GPGGA,135856.600,4308.3053,N,07726.2633,W,1,09,0.86,152.6,M,-34.4,M,,*57
lng=-77.437721, lat=43.138420, altitude=152.60, speed=0.23, satellites=9, angle=220.0100, fixquality=1
$GPRMC,135856.800,A,4308.3053,N,07726.2633,W,0.18,189.67,030519,,,A*74
$GPGGA,135857.000,4308.3053,N,07726.2633,W,1,09,0.86,152.6,M,-34.4,M,,*50
lng=-77.437721, lat=43.138420, altitude=152.60, speed=0.18, satellites=9, angle=189.6700, fixquality=1
$GPRMC,135857.200,A,4308.3053,N,07726.2633,W,0.19,156.61,030519,,,A*7A
$GPGGA,135857.400,4308.3053,N,07726.2633,W,1,09,0.86,152.6,M,-34.4,M,,*54
lng=-77.437721, lat=43.138420, altitude=152.60, speed=0.19, satellites=9, angle=156.6100, fixquality=1
$GPRMC,135857.600,A,4308.3053,N,07726.2633,W,0.17,157.69,030519,,,A*79
$GPGGA,135857.800,4308.3052,N,07726.2633,W,1,09,0.86,152.6,M,-34.4,M,,*59
lng=-77.437721, lat=43.138420, altitude=152.60, speed=0.17, satellites=9, angle=157.6900, fixquality=1
$GPRMC,135858.000,A,4308.3052,N,07726.2633,W,0.23,167.82,030519,,,A*70
$GPGGA,135858.200,4308.3052,N,07726.2633,W,1,09,0.86,152.6,M,-34.4,M,,*5C
lng=-77.437721, lat=43.138420, altitude=152.60, speed=0.23, satellites=9, angle=167.8200, fixquality=1
$GPRMC,135858.400,A,4308.3052,N,07726.2633,W,0.19,181.13,030519,,,A*7D
$GPGGA,135858.600,4308.3052,N,07726.2633,W,1,09,0.86,152.6,M,-34.4,M,,*58
lng=-77.437721, lat=43.138420, altitude=152.60, speed=0.19, satellites=9, angle=181.1300, fixquality=1
$GPRMC,135858.800,A,4308.3052,N,07726.2633,W,0.18,190.30,030519,,,A*71
$GPGGA,135859.000,4308.3052,N,07726.2633,W,1,09,0.86,152.7,M,-34.4,M,,*5E
lng=-77.437721, lat=43.138420, altitude=152.60, speed=0.18, satellites=9, angle=190.3000, fixquality=1
$GPRMC,135859.200,A,4308.3052,N,07726.2633,W,0.19,195.95,030519,,,A*71
$GPGGA,135859.400,4308.3052,N,07726.2634,W,1,09,0.86,152.7,M,-34.4,M,,*5D
lng=-77.437721, lat=43.138420, altitude=152.70, speed=0.19, satellites=9, angle=195.9500, fixquality=1
$GPRMC,135859.600,A,4308.3053,N,07726.2634,W,0.19,227.44,030519,,,A*75
$GPGGA,135859.800,4308.3053,N,07726.2634,W,1,08,0.92,152.7,M,-34.4,M,,*54
lng=-77.437721, lat=43.138420, altitude=152.70, speed=0.19, satellites=9, angle=227.4400, fixquality=1
$GPRMC,135900.000,A,4308.3053,N,07726.2634,W,0.14,219.42,030519,,,A*78
$GPGGA,135900.200,4308.3053,N,07726.2634,W,1,08,0.92,152.7,M,-34.4,M,,*53
lng=-77.437721, lat=43.138420, altitude=152.70, speed=0.14, satellites=8, angle=219.4200, fixquality=1
$GPRMC,135900.400,A,4308.3054,N,07726.2634,W,0.11,250.13,030519,,,A*77
$GPGGA,135900.600,4308.3054,N,07726.2634,W,1,08,0.92,152.7,M,-34.4,M,,*50
lng=-77.437721, lat=43.138420, altitude=152.70, speed=0.11, satellites=8, angle=250.1300, fixquality=1
$GPRMC,135900.800,A,4308.3054,N,07726.2634,W,0.08,248.70,030519,,,A*7F
$GPGGA,135901.000,4308.3054,N,07726.2634,W,1,08,0.92,152.7,M,-34.4,M,,*57
lng=-77.437721, lat=43.138420, altitude=152.70, speed=0.08, satellites=8, angle=248.7000, fixquality=1
$GPRMC,135901.200,A,4308.3054,N,07726.2634,W,0.09,262.89,030519,,,A*7B
$GPGGA,135901.400,4308.3054,N,07726.2634,W,1,08,0.92,152.7,M,-34.4,M,,*53
lng=-77.437721, lat=43.138420, altitude=152.70, speed=0.09, satellites=8, angle=262.8900, fixquality=1
$GPRMC,135901.600,A,4308.3054,N,07726.2634,W,0.11,256.67,030519,,,A*71
$GPGGA,135901.800,4308.3055,N,07726.2634,W,1,08,0.92,152.7,M,-34.4,M,,*5E
lng=-77.437721, lat=43.138420, altitude=152.70, speed=0.11, satellites=8, angle=256.6700, fixquality=1
$GPRMC,135902.000,A,4308.3055,N,07726.2634,W,0.08,239.05,030519,,,A*70
$GPGGA,135902.200,4308.3054,N,07726.2635,W,1,08,0.92,152.7,M,-34.4,M,,*57
lng=-77.437721, lat=43.138427, altitude=152.70, speed=0.08, satellites=8, angle=239.0500, fixquality=1
$GPRMC,135902.400,A,4308.3054,N,07726.2635,W,0.17,219.01,030519,,,A*7C
$GPGGA,135902.600,4308.3054,N,07726.2635,W,1,09,0.86,152.7,M,-34.4,M,,*57
lng=-77.437728, lat=43.138420, altitude=152.70, speed=0.17, satellites=8, angle=219.0100, fixquality=1
$GPRMC,135902.800,A,4308.3055,N,07726.2635,W,0.13,233.56,030519,,,A*7F
$GPGGA,135903.000,4308.3055,N,07726.2635,W,1,09,0.86,152.7,M,-34.4,M,,*51
lng=-77.437728, lat=43.138427, altitude=152.70, speed=0.13, satellites=9, angle=233.5600, fixquality=1
$GPRMC,135903.200,A,4308.3056,N,07726.2635,W,0.15,288.00,030519,,,A*72
$GPGGA,135903.400,4308.3056,N,07726.2635,W,1,09,0.86,152.7,M,-34.4,M,,*56
lng=-77.437728, lat=43.138427, altitude=152.70, speed=0.15, satellites=9, angle=288.0000, fixquality=1
$GPRMC,135903.600,A,4308.3056,N,07726.2635,W,0.10,309.81,030519,,,A*72
$GPGGA,135903.800,4308.3056,N,07726.2636,W,1,09,0.86,152.7,M,-34.4,M,,*59
lng=-77.437728, lat=43.138427, altitude=152.70, speed=0.10, satellites=9, angle=309.8100, fixquality=1
$GPRMC,135904.000,A,4308.3056,N,07726.2636,W,0.14,284.51,030519,,,A*7D
$GPGGA,135904.200,4308.3056,N,07726.2636,W,1,09,0.86,152.7,M,-34.4,M,,*54
lng=-77.437728, lat=43.138427, altitude=152.70, speed=0.14, satellites=9, angle=284.5100, fixquality=1
$GPRMC,135904.400,A,4308.3056,N,07726.2635,W,0.03,161.84,030519,,,A*7C
$GPGGA,135904.600,4308.3056,N,07726.2636,W,1,09,0.86,152.7,M,-34.4,M,,*50
lng=-77.437728, lat=43.138427, altitude=152.70, speed=0.03, satellites=9, angle=161.8400, fixquality=1
$GPRMC,135904.800,A,4308.3056,N,07726.2636,W,0.04,281.66,030519,,,A*75
$GPGGA,135905.000,4308.3057,N,07726.2636,W,1,09,0.86,152.7,M,-34.4,M,,*56
lng=-77.437728, lat=43.138427, altitude=152.70, speed=0.04, satellites=9, angle=281.6600, fixquality=1
$GPRMC,135905.200,A,4308.3057,N,07726.2636,W,0.11,315.31,030519,,,A*75
$GPGGA,135905.400,4308.3058,N,07726.2636,W,1,09,0.86,152.7,M,-34.4,M,,*5D
lng=-77.437728, lat=43.138427, altitude=152.70, speed=0.11, satellites=9, angle=315.3100, fixquality=1
$GPRMC,135905.600,A,4308.3058,N,07726.2637,W,0.18,329.31,030519,,,A*79
$GPGGA,135905.800,4308.3058,N,07726.2637,W,1,09,0.86,152.7,M,-34.4,M,,*50
lng=-77.437728, lat=43.138427, altitude=152.70, speed=0.18, satellites=9, angle=329.3100, fixquality=1
$GPRMC,135906.000,A,4308.3058,N,07726.2637,W,0.22,335.82,030519,,,A*70
$GPGGA,135906.200,4308.3058,N,07726.2637,W,1,09,0.86,152.7,M,-34.4,M,,*59
lng=-77.437728, lat=43.138427, altitude=152.70, speed=0.22, satellites=9, angle=335.8200, fixquality=1
$GPRMC,135906.400,A,4308.3058,N,07726.2637,W,0.19,359.58,030519,,,A*71
$GPGGA,135906.600,4308.3058,N,07726.2637,W,1,09,0.86,152.7,M,-34.4,M,,*5D
lng=-77.437728, lat=43.138427, altitude=152.70, speed=0.19, satellites=9, angle=359.5800, fixquality=1
$GPRMC,135906.800,A,4308.3058,N,07726.2637,W,0.16,1.70,030519,,,A*76
$GPGGA,135907.000,4308.3059,N,07726.2637,W,1,09,0.86,152.7,M,-34.4,M,,*5B
lng=-77.437728, lat=43.138427, altitude=152.70, speed=0.16, satellites=9, angle=1.7000, fixquality=1
$GPRMC,135907.200,A,4308.3059,N,07726.2637,W,0.12,2.68,030519,,,A*72
$GPGGA,135907.400,4308.3058,N,07726.2637,W,1,09,0.86,152.7,M,-34.4,M,,*5E
lng=-77.437728, lat=43.138427, altitude=152.70, speed=0.12, satellites=9, angle=2.6800, fixquality=1
$GPRMC,135907.600,A,4308.3058,N,07726.2636,W,0.13,5.41,030519,,,A*7B
$GPGGA,135907.800,4308.3058,N,07726.2637,W,1,09,0.86,152.7,M,-34.4,M,,*52
lng=-77.437728, lat=43.138427, altitude=152.70, speed=0.13, satellites=9, angle=5.4100, fixquality=1
$GPRMC,135908.000,A,4308.3058,N,07726.2637,W,0.11,48.73,030519,,,A*49
$GPGGA,135908.200,4308.3058,N,07726.2637,W,1,09,0.86,152.7,M,-34.4,M,,*57
lng=-77.437728, lat=43.138427, altitude=152.70, speed=0.11, satellites=9, angle=48.7300, fixquality=1
$GPRMC,135908.400,A,4308.3059,N,07726.2637,W,0.07,42.23,030519,,,A*44
$GPGGA,135908.600,4308.3059,N,07726.2637,W,1,09,0.86,152.7,M,-34.4,M,,*52
lng=-77.437728, lat=43.138427, altitude=152.70, speed=0.07, satellites=9, angle=42.2300, fixquality=1
$GPRMC,135908.800,A,4308.3059,N,07726.2637,W,0.08,14.52,030519,,,A*42
$GPGGA,135909.000,4308.3060,N,07726.2637,W,1,09,0.86,152.6,M,-34.4,M,,*5E
lng=-77.437728, lat=43.138427, altitude=152.70, speed=0.08, satellites=9, angle=14.5200, fixquality=1
$GPRMC,135909.200,A,4308.3060,N,07726.2637,W,0.16,342.00,030519,,,A*7B
$GPGGA,135909.400,4308.3060,N,07726.2638,W,1,09,0.86,152.6,M,-34.4,M,,*55
lng=-77.437728, lat=43.138435, altitude=152.60, speed=0.16, satellites=9, angle=342.0000, fixquality=1
$GPRMC,135909.600,A,4308.3060,N,07726.2638,W,0.17,349.05,030519,,,A*7F
$GPGGA,135909.800,4308.3060,N,07726.2638,W,1,09,0.86,152.6,M,-34.4,M,,*59
lng=-77.437728, lat=43.138435, altitude=152.60, speed=0.17, satellites=9, angle=349.0500, fixquality=1
$GPRMC,135910.000,A,4308.3060,N,07726.2637,W,0.18,16.57,030519,,,A*4F
$GPGGA,135910.200,4308.3061,N,07726.2637,W,1,09,0.86,152.6,M,-34.4,M,,*55
lng=-77.437728, lat=43.138435, altitude=152.60, speed=0.18, satellites=9, angle=16.5700, fixquality=1
$GPRMC,135910.400,A,4308.3062,N,07726.2637,W,0.31,17.07,030519,,,A*46
$GPGGA,135910.600,4308.3062,N,07726.2637,W,1,09,0.86,152.6,M,-34.4,M,,*52
lng=-77.437728, lat=43.138435, altitude=152.60, speed=0.31, satellites=9, angle=17.0700, fixquality=1
$GPRMC,135910.800,A,4308.3062,N,07726.2638,W,0.25,2.92,030519,,,A*78
$GPGGA,135911.000,4308.3062,N,07726.2638,W,1,09,0.86,152.6,M,-34.4,M,,*5A
lng=-77.437728, lat=43.138435, altitude=152.60, speed=0.25, satellites=9, angle=2.9200, fixquality=1
$GPRMC,135911.200,A,4308.3062,N,07726.2638,W,0.28,6.55,030519,,,A*71
$GPGGA,135911.400,4308.3062,N,07726.2638,W,1,09,0.86,152.5,M,-34.4,M,,*5D
lng=-77.437728, lat=43.138435, altitude=152.60, speed=0.28, satellites=9, angle=6.5500, fixquality=1
$GPRMC,135911.600,A,4308.3061,N,07726.2638,W,0.25,8.30,030519,,,A*76
$GPGGA,135911.800,4308.3060,N,07726.2638,W,1,09,0.86,152.5,M,-34.4,M,,*53
lng=-77.437728, lat=43.138435, altitude=152.50, speed=0.25, satellites=9, angle=8.3000, fixquality=1
$GPRMC,135912.000,A,4308.3060,N,07726.2638,W,0.19,11.13,030519,,,A*44
$GPGGA,135912.200,4308.3060,N,07726.2638,W,1,09,0.86,152.4,M,-34.4,M,,*5B
lng=-77.437728, lat=43.138435, altitude=152.50, speed=0.19, satellites=9, angle=11.1300, fixquality=1
$GPRMC,135912.400,A,4308.3059,N,07726.2638,W,0.25,17.96,030519,,,A*4E
$GPGGA,135912.600,4308.3059,N,07726.2638,W,1,09,0.86,152.4,M,-34.4,M,,*55
lng=-77.437728, lat=43.138427, altitude=152.40, speed=0.25, satellites=9, angle=17.9600, fixquality=1
$GPRMC,135912.800,A,4308.3059,N,07726.2638,W,0.24,24.50,030519,,,A*49
$GPGGA,135913.000,4308.3060,N,07726.2637,W,1,09,0.86,152.3,M,-34.4,M,,*50
lng=-77.437728, lat=43.138427, altitude=152.40, speed=0.24, satellites=9, angle=24.5000, fixquality=1
$GPRMC,135913.200,A,4308.3060,N,07726.2637,W,0.44,32.06,030519,,,A*45
$GPGGA,135913.400,4308.3060,N,07726.2636,W,1,09,0.86,152.3,M,-34.4,M,,*55
lng=-77.437728, lat=43.138435, altitude=152.30, speed=0.44, satellites=9, angle=32.0600, fixquality=1
$GPRMC,135913.600,A,4308.3061,N,07726.2636,W,0.45,38.47,030519,,,A*4F
$GPGGA,135913.800,4308.3060,N,07726.2637,W,1,09,0.86,152.2,M,-34.4,M,,*59
lng=-77.437728, lat=43.138435, altitude=152.30, speed=0.45, satellites=9, angle=38.4700, fixquality=1
$GPRMC,135914.000,A,4308.3060,N,07726.2637,W,0.29,41.80,030519,,,A*41
$GPGGA,135914.200,4308.3060,N,07726.2637,W,1,09,0.86,152.2,M,-34.4,M,,*54
lng=-77.437728, lat=43.138435, altitude=152.20, speed=0.29, satellites=9, angle=41.8000, fixquality=1
$GPRMC,135914.400,A,4308.3060,N,07726.2636,W,0.28,42.63,030519,,,A*4B
$GPGGA,135914.600,4308.3061,N,07726.2636,W,1,09,0.86,152.2,M,-34.4,M,,*50
lng=-77.437728, lat=43.138435, altitude=152.20, speed=0.28, satellites=9, angle=42.6300, fixquality=1
$GPRMC,135914.800,A,4308.3061,N,07726.2636,W,0.30,42.27,030519,,,A*4F
$GPGGA,135915.000,4308.3061,N,07726.2636,W,1,09,0.86,152.2,M,-34.4,M,,*57
lng=-77.437728, lat=43.138435, altitude=152.20, speed=0.30, satellites=9, angle=42.2700, fixquality=1
$GPRMC,135915.200,A,4308.3061,N,07726.2636,W,0.41,41.90,030519,,,A*4D
$GPGGA,135915.400,4308.3061,N,07726.2636,W,1,09,0.86,152.1,M,-34.4,M,,*50
lng=-77.437728, lat=43.138435, altitude=152.20, speed=0.41, satellites=9, angle=41.9000, fixquality=1
$GPRMC,135915.600,A,4308.3060,N,07726.2636,W,0.30,42.72,030519,,,A*41
$GPGGA,135915.800,4308.3060,N,07726.2637,W,1,09,0.86,152.0,M,-34.4,M,,*5D
lng=-77.437728, lat=43.138435, altitude=152.10, speed=0.30, satellites=9, angle=42.7200, fixquality=1
$GPRMC,135916.000,A,4308.3060,N,07726.2637,W,0.25,42.79,030519,,,A*4A
$GPGGA,135916.200,4308.3059,N,07726.2638,W,1,09,0.86,151.9,M,-34.4,M,,*5B
lng=-77.437728, lat=43.138435, altitude=152.00, speed=0.25, satellites=9, angle=42.7900, fixquality=1
$GPRMC,135916.400,A,4308.3059,N,07726.2638,W,0.19,42.32,030519,,,A*4B
$GPGGA,135916.600,4308.3059,N,07726.2638,W,1,09,0.86,151.8,M,-34.4,M,,*5E
lng=-77.437728, lat=43.138427, altitude=151.90, speed=0.19, satellites=9, angle=42.3200, fixquality=1
$GPRMC,135916.800,A,4308.3060,N,07726.2638,W,0.18,41.09,030519,,,A*47
$GPGGA,135917.000,4308.3060,N,07726.2638,W,1,09,0.86,151.8,M,-34.4,M,,*53
lng=-77.437728, lat=43.138435, altitude=151.80, speed=0.18, satellites=9, angle=41.0900, fixquality=1
$GPRMC,135917.200,A,4308.3062,N,07726.2638,W,0.51,36.88,030519,,,A*4A
$GPGGA,135917.400,4308.3064,N,07726.2639,W,1,09,0.86,151.7,M,-34.4,M,,*5D
lng=-77.437728, lat=43.138435, altitude=151.80, speed=0.51, satellites=9, angle=36.8800, fixquality=1
$GPRMC,135917.600,A,4308.3065,N,07726.2638,W,0.87,28.37,030519,,,A*49
$GPGGA,135917.800,4308.3067,N,07726.2638,W,1,09,0.86,151.6,M,-34.4,M,,*52
lng=-77.437728, lat=43.138442, altitude=151.70, speed=0.87, satellites=9, angle=28.3700, fixquality=1
$GPRMC,135918.000,A,4308.3069,N,07726.2638,W,1.27,21.35,030519,,,A*4C
$GPGGA,135918.200,4308.3070,N,07726.2638,W,1,09,0.86,151.4,M,-34.4,M,,*53
lng=-77.437728, lat=43.138450, altitude=151.60, speed=1.27, satellites=9, angle=21.3500, fixquality=1
$GPRMC,135918.400,A,4308.3072,N,07726.2638,W,2.60,355.62,030519,,,A*70
$GPGGA,135918.600,4308.3074,N,07726.2638,W,1,09,0.86,151.3,M,-34.4,M,,*54
lng=-77.437728, lat=43.138450, altitude=151.40, speed=2.60, satellites=9, angle=355.6200, fixquality=1
$GPRMC,135918.800,A,4308.3075,N,07726.2637,W,3.70,1.37,030519,,,A*76
$GPGGA,135919.000,4308.3077,N,07726.2638,W,1,09,0.86,151.0,M,-34.4,M,,*53
lng=-77.437728, lat=43.138462, altitude=151.30, speed=3.70, satellites=9, angle=1.3700, fixquality=1
$GPRMC,135919.200,A,4308.3080,N,07726.2638,W,4.34,0.33,030519,,,A*7A
$GPGGA,135919.400,4308.3082,N,07726.2637,W,1,09,0.86,150.4,M,-34.4,M,,*57
lng=-77.437728, lat=43.138469, altitude=151.00, speed=4.34, satellites=9, angle=0.3300, fixquality=1
$GPRMC,135919.600,A,4308.3084,N,07726.2637,W,4.97,359.67,030519,,,A*72
$GPGGA,135919.800,4308.3087,N,07726.2639,W,1,09,0.86,149.8,M,-34.4,M,,*54
lng=-77.437728, lat=43.138477, altitude=150.40, speed=4.97, satellites=9, angle=359.6700, fixquality=1
$GPRMC,135920.000,A,4308.3089,N,07726.2640,W,5.41,352.38,030519,,,A*78
$GPGGA,135920.200,4308.3091,N,07726.2641,W,1,09,0.86,149.4,M,-34.4,M,,*50
lng=-77.437736, lat=43.138484, altitude=149.80, speed=5.41, satellites=9, angle=352.3800, fixquality=1
$GPRMC,135920.400,A,4308.3093,N,07726.2642,W,5.44,353.55,030519,,,A*7A
$GPGGA,135920.600,4308.3096,N,07726.2644,W,1,09,0.86,149.0,M,-34.4,M,,*52
lng=-77.437736, lat=43.138484, altitude=149.40, speed=5.44, satellites=9, angle=353.5500, fixquality=1
$GPRMC,135920.800,A,4308.3097,N,07726.2644,W,5.20,359.25,030519,,,A*7B
$GPGGA,135921.000,4308.3099,N,07726.2644,W,1,09,0.86,148.6,M,-34.4,M,,*5D
lng=-77.437736, lat=43.138492, altitude=149.00, speed=5.20, satellites=9, angle=359.2500, fixquality=1
$GPRMC,135921.200,A,4308.3101,N,07726.2645,W,5.22,357.99,030519,,,A*74
$GPGGA,135921.400,4308.3103,N,07726.2646,W,1,09,0.86,148.1,M,-34.4,M,,*5E
lng=-77.437744, lat=43.138500, altitude=148.60, speed=5.22, satellites=9, angle=357.9900, fixquality=1
$GPRMC,135921.600,A,4308.3105,N,07726.2644,W,4.89,357.37,030519,,,A*71
$GPGGA,135921.800,4308.3108,N,07726.2644,W,1,09,0.86,148.4,M,-34.4,M,,*5E
lng=-77.437736, lat=43.138507, altitude=148.10, speed=4.89, satellites=9, angle=357.3700, fixquality=1
$GPRMC,135922.000,A,4308.3111,N,07726.2644,W,4.75,0.50,030519,,,A*72
$GPGGA,135922.200,4308.3114,N,07726.2643,W,1,09,0.86,148.8,M,-34.4,M,,*51
lng=-77.437736, lat=43.138515, altitude=148.40, speed=4.75, satellites=9, angle=0.5000, fixquality=1
$GPRMC,135922.400,A,4308.3116,N,07726.2643,W,4.88,1.62,030519,,,A*74
$GPGGA,135922.600,4308.3121,N,07726.2640,W,1,09,0.86,149.0,M,-34.4,M,,*59
lng=-77.437736, lat=43.138526, altitude=148.80, speed=4.88, satellites=9, angle=1.6200, fixquality=1
$GPRMC,135922.800,A,4308.3125,N,07726.2637,W,4.69,5.09,030519,,,A*7D
$GPGGA,135923.000,4308.3128,N,07726.2636,W,1,09,0.86,149.1,M,-34.4,M,,*57
lng=-77.437728, lat=43.138542, altitude=149.00, speed=4.69, satellites=9, angle=5.0900, fixquality=1
$GPRMC,135923.200,A,4308.3131,N,07726.2635,W,4.24,8.57,030519,,,A*7E
$GPGGA,135923.400,4308.3134,N,07726.2634,W,1,09,0.86,149.2,M,-34.4,M,,*5F
lng=-77.437728, lat=43.138549, altitude=149.10, speed=4.24, satellites=9, angle=8.5700, fixquality=1
$GPRMC,135923.600,A,4308.3137,N,07726.2633,W,3.93,13.37,030519,,,A*4D
$GPGGA,135923.800,4308.3139,N,07726.2632,W,1,09,0.86,149.3,M,-34.4,M,,*59
lng=-77.437721, lat=43.138557, altitude=149.20, speed=3.93, satellites=9, angle=13.3700, fixquality=1
$GPRMC,135924.000,A,4308.3140,N,07726.2632,W,3.79,13.34,030519,,,A*4A
$GPGGA,135924.200,4308.3142,N,07726.2632,W,1,09,0.86,149.4,M,-34.4,M,,*5F
lng=-77.437721, lat=43.138565, altitude=149.30, speed=3.79, satellites=9, angle=13.3400, fixquality=1
$GPRMC,135924.400,A,4308.3143,N,07726.2632,W,3.82,4.14,030519,,,A*7D
$GPGGA,135924.600,4308.3144,N,07726.2632,W,1,09,0.86,149.5,M,-34.4,M,,*5C
lng=-77.437721, lat=43.138572, altitude=149.40, speed=3.82, satellites=9, angle=4.1400, fixquality=1
$GPRMC,135924.800,A,4308.3148,N,07726.2631,W,3.90,6.58,030519,,,A*70
$GPGGA,135925.000,4308.3151,N,07726.2630,W,1,09,0.86,149.7,M,-34.4,M,,*5F
lng=-77.437721, lat=43.138584, altitude=149.50, speed=3.90, satellites=9, angle=6.5800, fixquality=1
$GPRMC,135925.200,A,4308.3153,N,07726.2629,W,3.57,11.96,030519,,,A*47
$GPGGA,135925.400,4308.3155,N,07726.2628,W,1,09,0.86,149.6,M,-34.4,M,,*57
lng=-77.437713, lat=43.138591, altitude=149.70, speed=3.57, satellites=9, angle=11.9600, fixquality=1
$GPRMC,135925.600,A,4308.3157,N,07726.2628,W,3.14,10.61,030519,,,A*48
$GPGGA,135925.800,4308.3158,N,07726.2627,W,1,09,0.86,149.7,M,-34.4,M,,*58
lng=-77.437713, lat=43.138599, altitude=149.60, speed=3.14, satellites=9, angle=10.6100, fixquality=1
$GPRMC,135926.000,A,4308.3158,N,07726.2627,W,2.02,18.18,030519,,,A*4D
$GPGGA,135926.200,4308.3159,N,07726.2627,W,1,09,0.86,149.9,M,-34.4,M,,*5E
lng=-77.437713, lat=43.138599, altitude=149.70, speed=2.02, satellites=9, angle=18.1800, fixquality=1
$GPRMC,135926.400,A,4308.3160,N,07726.2628,W,1.88,4.03,030519,,,A*7B
$GPGGA,135926.600,4308.3161,N,07726.2628,W,1,09,0.86,149.9,M,-34.4,M,,*5E
lng=-77.437713, lat=43.138599, altitude=149.90, speed=1.88, satellites=9, angle=4.0300, fixquality=1
$GPRMC,135926.800,A,4308.3163,N,07726.2628,W,1.95,14.14,030519,,,A*4F
$GPGGA,135927.000,4308.3164,N,07726.2628,W,1,09,0.86,149.8,M,-34.4,M,,*5D
lng=-77.437713, lat=43.138607, altitude=149.90, speed=1.95, satellites=9, angle=14.1400, fixquality=1
$GPRMC,135927.200,A,4308.3165,N,07726.2627,W,2.37,18.55,030519,,,A*4F
$GPGGA,135927.400,4308.3166,N,07726.2626,W,1,09,0.86,149.8,M,-34.4,M,,*55
lng=-77.437713, lat=43.138607, altitude=149.80, speed=2.37, satellites=9, angle=18.5500, fixquality=1
$GPRMC,135927.600,A,4308.3167,N,07726.2626,W,2.51,19.90,030519,,,A*40
$GPGGA,135927.800,4308.3166,N,07726.2626,W,1,09,0.86,149.3,M,-34.4,M,,*52
lng=-77.437713, lat=43.138614, altitude=149.80, speed=2.51, satellites=9, angle=19.9000, fixquality=1
$GPRMC,135928.000,A,4308.3167,N,07726.2625,W,2.57,31.07,030519,,,A*48
$GPGGA,135928.200,4308.3168,N,07726.2624,W,1,09,0.86,149.4,M,-34.4,M,,*5C
lng=-77.437713, lat=43.138614, altitude=149.30, speed=2.57, satellites=9, angle=31.0700, fixquality=1
$GPRMC,135928.400,A,4308.3169,N,07726.2622,W,2.82,30.55,030519,,,A*4B
$GPGGA,135928.600,4308.3170,N,07726.2621,W,1,09,0.86,149.7,M,-34.4,M,,*57
lng=-77.437705, lat=43.138614, altitude=149.40, speed=2.82, satellites=9, angle=30.5500, fixquality=1
$GPRMC,135928.800,A,4308.3172,N,07726.2620,W,2.91,31.70,030519,,,A*4B
$GPGGA,135929.000,4308.3173,N,07726.2619,W,1,09,0.86,150.1,M,-34.4,M,,*56
lng=-77.437705, lat=43.138622, altitude=149.70, speed=2.91, satellites=9, angle=31.7000, fixquality=1
$GPRMC,135929.200,A,4308.3174,N,07726.2618,W,3.03,50.66,030519,,,A*47
$GPGGA,135929.400,4308.3175,N,07726.2616,W,1,09,0.86,150.4,M,-34.4,M,,*5E
lng=-77.437698, lat=43.138622, altitude=150.10, speed=3.03, satellites=9, angle=50.6600, fixquality=1
$GPRMC,135929.600,A,4308.3176,N,07726.2615,W,3.00,53.39,030519,,,A*46
$GPGGA,135929.800,4308.3176,N,07726.2613,W,1,09,0.86,150.3,M,-34.4,M,,*53
lng=-77.437698, lat=43.138622, altitude=150.40, speed=3.00, satellites=9, angle=53.3900, fixquality=1
$GPRMC,135930.000,A,4308.3177,N,07726.2612,W,2.70,57.00,030519,,,A*46
$GPGGA,135930.200,4308.3177,N,07726.2611,W,1,09,0.86,150.4,M,-34.4,M,,*55
lng=-77.437690, lat=43.138629, altitude=150.30, speed=2.70, satellites=9, angle=57.0000, fixquality=1
$GPRMC,135930.400,A,4308.3178,N,07726.2609,W,2.61,61.23,030519,,,A*43
$GPGGA,135930.600,4308.3178,N,07726.2607,W,1,09,0.86,150.4,M,-34.4,M,,*59
lng=-77.437675, lat=43.138629, altitude=150.40, speed=2.61, satellites=9, angle=61.2300, fixquality=1
$GPRMC,135930.800,A,4308.3178,N,07726.2605,W,2.63,65.97,030519,,,A*4A
$GPGGA,135931.000,4308.3178,N,07726.2603,W,1,09,0.86,150.4,M,-34.4,M,,*5A
lng=-77.437675, lat=43.138629, altitude=150.40, speed=2.63, satellites=9, angle=65.9700, fixquality=1
$GPRMC,135931.200,A,4308.3179,N,07726.2601,W,2.91,74.97,030519,,,A*49
$GPGGA,135931.400,4308.3178,N,07726.2600,W,1,10,0.79,150.1,M,-34.4,M,,*50
lng=-77.437667, lat=43.138629, altitude=150.40, speed=2.91, satellites=9, angle=74.9700, fixquality=1
$GPRMC,135931.600,A,4308.3178,N,07726.2598,W,2.92,83.18,030519,,,A*43
$GPGGA,135931.800,4308.3177,N,07726.2598,W,1,10,0.79,149.5,M,-34.4,M,,*5D
lng=-77.437660, lat=43.138629, altitude=150.10, speed=2.92, satellites=10, angle=83.1800, fixquality=1
$GPRMC,135932.000,A,4308.3177,N,07726.2597,W,2.06,81.62,030519,,,A*44
$GPGGA,135932.200,4308.3176,N,07726.2595,W,1,10,0.79,149.0,M,-34.4,M,,*5D
lng=-77.437660, lat=43.138629, altitude=149.50, speed=2.06, satellites=10, angle=81.6200, fixquality=1
$GPRMC,135932.400,A,4308.3176,N,07726.2595,W,1.89,95.44,030519,,,A*46
$GPGGA,135932.600,4308.3175,N,07726.2596,W,1,10,0.79,148.6,M,-34.4,M,,*5E
lng=-77.437652, lat=43.138622, altitude=149.00, speed=1.89, satellites=10, angle=95.4400, fixquality=1
$GPRMC,135932.800,A,4308.3175,N,07726.2597,W,1.20,121.77,030519,,,A*76
$GPGGA,135933.000,4308.3174,N,07726.2597,W,1,10,0.79,148.2,M,-34.4,M,,*5D
lng=-77.437660, lat=43.138622, altitude=148.60, speed=1.20, satellites=10, angle=121.7700, fixquality=1
$GPRMC,135933.200,A,4308.3174,N,07726.2597,W,0.67,150.14,030519,,,A*7D
$GPGGA,135933.400,4308.3174,N,07726.2598,W,2,10,0.79,147.9,M,-34.4,M,0000,0000*51
lng=-77.437660, lat=43.138622, altitude=148.20, speed=0.67, satellites=10, angle=150.1400, fixquality=1
$GPRMC,135933.600,A,4308.3174,N,07726.2599,W,0.41,180.47,030519,,,D*7D
$GPGGA,135933.800,4308.3174,N,07726.2600,W,2,10,0.79,147.7,M,-34.4,M,0000,0000*51
lng=-77.437660, lat=43.138622, altitude=147.90, speed=0.41, satellites=10, angle=180.4700, fixquality=2
$GPRMC,135934.000,A,4308.3174,N,07726.2602,W,0.68,241.13,030519,,,D*79
$GPGGA,135934.200,4308.3174,N,07726.2603,W,2,10,0.79,147.9,M,-34.4,M,0000,0000*51
lng=-77.437667, lat=43.138622, altitude=147.70, speed=0.68, satellites=10, angle=241.1300, fixquality=2
$GPRMC,135934.400,A,4308.3174,N,07726.2605,W,1.60,263.72,030519,,,D*74
$GPGGA,135934.600,4308.3174,N,07726.2607,W,2,10,0.79,148.0,M,-34.4,M,0000,0000*57
lng=-77.437675, lat=43.138622, altitude=147.90, speed=1.60, satellites=10, angle=263.7200, fixquality=2
$GPRMC,135934.800,A,4308.3175,N,07726.2610,W,3.94,269.36,030519,,,D*7E
$GPGGA,135935.000,4308.3174,N,07726.2614,W,2,10,0.80,148.0,M,-34.4,M,0000,0000*54
lng=-77.437690, lat=43.138622, altitude=148.00, speed=3.94, satellites=10, angle=269.3600, fixquality=2
$GPRMC,135935.200,A,4308.3173,N,07726.2619,W,6.12,265.68,030519,,,D*76
$GPGGA,135935.400,4308.3173,N,07726.2624,W,2,10,0.80,148.1,M,-34.4,M,0000,0000*55
lng=-77.437698, lat=43.138622, altitude=148.00, speed=6.12, satellites=10, angle=265.6800, fixquality=2
$GPRMC,135935.600,A,4308.3173,N,07726.2629,W,7.54,267.91,030519,,,D*76
$GPGGA,135935.800,4308.3173,N,07726.2635,W,2,10,0.80,148.2,M,-34.4,M,0000,0000*5A
lng=-77.437713, lat=43.138622, altitude=148.10, speed=7.54, satellites=10, angle=267.9100, fixquality=2
$GPRMC,135936.000,A,4308.3172,N,07726.2641,W,9.54,270.06,030519,,,D*7A
$GPGGA,135936.200,4308.3172,N,07726.2648,W,2,10,0.80,148.4,M,-34.4,M,0000,0000*5E
lng=-77.437736, lat=43.138622, altitude=148.20, speed=9.54, satellites=10, angle=270.0600, fixquality=2
$GPRMC,135936.400,A,4308.3172,N,07726.2656,W,11.03,274.02,030519,,,D*43
$GPGGA,135936.600,4308.3173,N,07726.2665,W,2,10,0.80,148.4,M,-34.4,M,0000,0000*54
lng=-77.437759, lat=43.138622, altitude=148.40, speed=11.03, satellites=10, angle=274.0200, fixquality=2
$GPRMC,135936.800,A,4308.3174,N,07726.2674,W,12.34,277.54,030519,,,D*4E
$GPGGA,135937.000,4308.3175,N,07726.2684,W,2,10,0.80,148.4,M,-34.4,M,0000,0000*5A
lng=-77.437789, lat=43.138622, altitude=148.40, speed=12.34, satellites=10, angle=277.5400, fixquality=2
$GPRMC,135937.200,A,4308.3176,N,07726.2695,W,13.47,279.34,030519,,,D*45
$GPGGA,135937.400,4308.3177,N,07726.2706,W,2,10,0.80,148.5,M,-34.4,M,0000,0000*56
lng=-77.437828, lat=43.138622, altitude=148.40, speed=13.47, satellites=10, angle=279.3400, fixquality=2
$GPRMC,135937.600,A,4308.3179,N,07726.2717,W,14.24,281.21,030519,,,D*44
$GPGGA,135937.800,4308.3181,N,07726.2728,W,2,10,0.80,148.6,M,-34.4,M,0000,0000*5C
lng=-77.437858, lat=43.138629, altitude=148.50, speed=14.24, satellites=10, angle=281.2100, fixquality=2
$GPRMC,135938.000,A,4308.3183,N,07726.2741,W,15.51,283.65,030519,,,D*4A
$GPGGA,135938.200,4308.3186,N,07726.2754,W,2,10,0.80,148.6,M,-34.4,M,0000,0000*55
lng=-77.437896, lat=43.138637, altitude=148.60, speed=15.51, satellites=10, angle=283.6500, fixquality=2
$GPRMC,135938.400,A,4308.3188,N,07726.2766,W,16.64,284.97,030519,,,D*4F
$GPGGA,135938.600,4308.3190,N,07726.2779,W,2,10,0.79,148.5,M,-34.4,M,0000,0000*5C
lng=-77.437942, lat=43.138648, altitude=148.60, speed=16.64, satellites=10, angle=284.9700, fixquality=2
$GPRMC,135938.800,A,4308.3193,N,07726.2792,W,17.46,285.88,030519,,,D*4C
$GPGGA,135939.000,4308.3196,N,07726.2805,W,2,10,0.80,148.5,M,-34.4,M,0000,0000*5F
lng=-77.437988, lat=43.138656, altitude=148.50, speed=17.46, satellites=10, angle=285.8800, fixquality=2
$GPRMC,135939.200,A,4308.3199,N,07726.2819,W,18.55,288.92,030519,,,D*4A
$GPGGA,135939.400,4308.3202,N,07726.2832,W,2,10,0.80,148.5,M,-34.4,M,0000,0000*51
lng=-77.438026, lat=43.138664, altitude=148.50, speed=18.55, satellites=10, angle=288.9200, fixquality=2
$GPRMC,135939.600,A,4308.3206,N,07726.2846,W,19.46,290.82,030519,,,D*4A
$GPGGA,135939.800,4308.3209,N,07726.2860,W,2,10,0.80,148.8,M,-34.4,M,0000,0000*5C
lng=-77.438079, lat=43.138679, altitude=148.50, speed=19.46, satellites=10, angle=290.8200, fixquality=2
$GPRMC,135940.000,A,4308.3212,N,07726.2874,W,20.61,291.80,030519,,,D*4A
$GPGGA,135940.200,4308.3216,N,07726.2889,W,2,10,0.80,149.1,M,-34.4,M,0000,0000*59
lng=-77.438125, lat=43.138687, altitude=148.80, speed=20.61, satellites=10, angle=291.8000, fixquality=2
$GPRMC,135940.400,A,4308.3220,N,07726.2903,W,21.31,293.05,030519,,,D*45
$GPGGA,135940.600,4308.3225,N,07726.2918,W,2,10,0.79,149.4,M,-34.4,M,0000,0000*57
lng=-77.438179, lat=43.138694, altitude=149.10, speed=21.31, satellites=10, angle=293.0500, fixquality=2
$GPRMC,135940.800,A,4308.3229,N,07726.2934,W,22.20,293.49,030519,,,D*4F
$GPGGA,135941.000,4308.3235,N,07726.2948,W,2,10,0.80,149.7,M,-34.4,M,0000,0000*51
lng=-77.438224, lat=43.138713, altitude=149.40, speed=22.20, satellites=10, angle=293.4900, fixquality=2
$GPRMC,135941.200,A,4308.3241,N,07726.2964,W,22.68,296.44,030519,,,D*4B
$GPGGA,135941.400,4308.3247,N,07726.2979,W,2,10,0.80,149.9,M,-34.4,M,0000,0000*5C
lng=-77.438270, lat=43.138736, altitude=149.70, speed=22.68, satellites=10, angle=296.4400, fixquality=2
$GPRMC,135941.600,A,4308.3253,N,07726.2994,W,23.02,298.48,030519,,,D*4C
$GPGGA,135941.800,4308.3260,N,07726.3010,W,2,10,0.80,150.1,M,-34.4,M,0000,0000*52
lng=-77.438323, lat=43.138751, altitude=149.90, speed=23.02, satellites=10, angle=298.4800, fixquality=2
$GPRMC,135942.000,A,4308.3267,N,07726.3025,W,23.96,300.15,030519,,,D*49
$GPGGA,135942.200,4308.3275,N,07726.3041,W,2,10,0.80,150.3,M,-34.4,M,0000,0000*59
lng=-77.438377, lat=43.138778, altitude=150.10, speed=23.96, satellites=10, angle=300.1500, fixquality=2
$GPRMC,135942.400,A,4308.3283,N,07726.3056,W,24.16,302.38,030519,,,D*41
$GPGGA,135942.600,4308.3290,N,07726.3072,W,2,10,0.80,150.6,M,-34.4,M,0000,0000*53
lng=-77.438430, lat=43.138801, altitude=150.30, speed=24.16, satellites=10, angle=302.3800, fixquality=2
$GPRMC,135942.800,A,4308.3298,N,07726.3088,W,24.83,302.59,030519,,,D*4F
$GPGGA,135943.000,4308.3306,N,07726.3103,W,2,10,0.80,150.8,M,-34.4,M,0000,0000*53
lng=-77.438476, lat=43.138828, altitude=150.60, speed=24.83, satellites=10, angle=302.5900, fixquality=2
$GPRMC,135943.200,A,4308.3313,N,07726.3119,W,25.62,302.27,030519,,,D*48
$GPGGA,135943.400,4308.3321,N,07726.3135,W,2,09,0.86,151.0,M,-34.4,M,0000,0000*50
lng=-77.438529, lat=43.138858, altitude=150.80, speed=25.62, satellites=10, angle=302.2700, fixquality=2
$GPRMC,135943.600,A,4308.3329,N,07726.3151,W,26.17,302.47,030519,,,D*4E
$GPGGA,135943.800,4308.3338,N,07726.3167,W,2,09,0.86,151.1,M,-34.4,M,0000,0000*52
lng=-77.438583, lat=43.138881, altitude=151.00, speed=26.17, satellites=9, angle=302.4700, fixquality=2
$GPRMC,135944.000,A,4308.3346,N,07726.3183,W,26.44,302.99,030519,,,D*4C
$GPGGA,135944.200,4308.3354,N,07726.3199,W,2,09,0.86,151.3,M,-34.4,M,0000,0000*56
lng=-77.438636, lat=43.138908, altitude=151.10, speed=26.44, satellites=9, angle=302.9900, fixquality=2
$GPRMC,135944.400,A,4308.3362,N,07726.3216,W,26.68,302.36,030519,,,D*4A
$GPGGA,135944.600,4308.3370,N,07726.3232,W,2,09,0.86,151.5,M,-34.4,M,0000,0000*50
lng=-77.438697, lat=43.138938, altitude=151.30, speed=26.68, satellites=9, angle=302.3600, fixquality=2
$GPRMC,135944.800,A,4308.3379,N,07726.3249,W,26.81,302.42,030519,,,D*42
$GPGGA,135945.000,4308.3387,N,07726.3265,W,2,09,0.86,151.9,M,-34.4,M,0000,0000*51
lng=-77.438743, lat=43.138965, altitude=151.50, speed=26.81, satellites=9, angle=302.4200, fixquality=2
$GPRMC,135945.200,A,4308.3396,N,07726.3282,W,27.01,302.01,030519,,,D*41
$GPGGA,135945.400,4308.3404,N,07726.3299,W,2,09,0.86,152.2,M,-34.4,M,0000,0000*52
lng=-77.438804, lat=43.138988, altitude=151.90, speed=27.01, satellites=9, angle=302.0100, fixquality=2
$GPRMC,135945.600,A,4308.3412,N,07726.3316,W,26.90,302.23,030519,,,D*4B
$GPGGA,135945.800,4308.3420,N,07726.3333,W,2,09,0.86,152.5,M,-34.4,M,0000,0000*5E
lng=-77.438858, lat=43.139022, altitude=152.20, speed=26.90, satellites=9, angle=302.2300, fixquality=2
$GPRMC,135946.000,A,4308.3428,N,07726.3349,W,26.21,302.49,030519,,,D*4B
$GPGGA,135946.200,4308.3436,N,07726.3365,W,2,09,0.86,152.7,M,-34.4,M,0000,0000*51
lng=-77.438919, lat=43.139045, altitude=152.50, speed=26.21, satellites=9, angle=302.4900, fixquality=2
$GPRMC,135946.400,A,4308.3445,N,07726.3381,W,25.79,303.45,030519,,,D*43
$GPGGA,135946.600,4308.3453,N,07726.3397,W,2,10,0.80,153.0,M,-34.4,M,0000,0000*53
lng=-77.438964, lat=43.139080, altitude=152.70, speed=25.79, satellites=9, angle=303.4500, fixquality=2
$GPRMC,135946.800,A,4308.3461,N,07726.3412,W,25.19,304.09,030519,,,D*4D
$GPGGA,135947.000,4308.3469,N,07726.3428,W,2,10,0.80,153.2,M,-34.4,M,0000,0000*5C
lng=-77.439018, lat=43.139102, altitude=153.00, speed=25.19, satellites=10, angle=304.0900, fixquality=2
$GPRMC,135947.200,A,4308.3477,N,07726.3443,W,24.62,304.77,030519,,,D*41
$GPGGA,135947.400,4308.3485,N,07726.3457,W,2,10,0.80,153.4,M,-34.4,M,0000,0000*54
lng=-77.439071, lat=43.139125, altitude=153.20, speed=24.62, satellites=10, angle=304.7700, fixquality=2
$GPRMC,135947.600,A,4308.3493,N,07726.3472,W,24.36,305.14,030519,,,D*48
$GPGGA,135947.800,4308.3501,N,07726.3487,W,2,10,0.80,153.6,M,-34.4,M,0000,0000*5A
lng=-77.439117, lat=43.139152, altitude=153.40, speed=24.36, satellites=10, angle=305.1400, fixquality=2
$GPRMC,135948.000,A,4308.3509,N,07726.3502,W,24.28,305.50,030519,,,D*4A
$GPGGA,135948.200,4308.3517,N,07726.3516,W,2,10,0.80,153.8,M,-34.4,M,0000,0000*5F
lng=-77.439170, lat=43.139183, altitude=153.60, speed=24.28, satellites=10, angle=305.5000, fixquality=2
$GPRMC,135948.400,A,4308.3525,N,07726.3531,W,23.78,305.92,030519,,,D*4C
$GPGGA,135948.600,4308.3533,N,07726.3545,W,2,10,0.79,154.0,M,-34.4,M,0000,0000*52
lng=-77.439216, lat=43.139209, altitude=153.80, speed=23.78, satellites=10, angle=305.9200, fixquality=2
$GPRMC,135948.800,A,4308.3541,N,07726.3559,W,23.45,306.73,030519,,,D*4E
$GPGGA,135949.000,4308.3550,N,07726.3572,W,2,10,0.80,154.2,M,-34.4,M,0000,0000*50
lng=-77.439262, lat=43.139232, altitude=154.00, speed=23.45, satellites=10, angle=306.7300, fixquality=2
$GPRMC,135949.200,A,4308.3558,N,07726.3585,W,23.09,309.15,030519,,,D*4B
$GPGGA,135949.400,4308.3567,N,07726.3598,W,2,10,0.80,154.5,M,-34.4,M,0000,0000*53
lng=-77.439308, lat=43.139266, altitude=154.20, speed=23.09, satellites=10, angle=309.1500, fixquality=2
$GPRMC,135949.600,A,4308.3576,N,07726.3610,W,22.60,311.53,030519,,,D*49
$GPGGA,135949.800,4308.3585,N,07726.3622,W,2,10,0.80,154.8,M,-34.4,M,0000,0000*5C
lng=-77.439346, lat=43.139289, altitude=154.50, speed=22.60, satellites=10, angle=311.5300, fixquality=2
$GPRMC,135950.000,A,4308.3594,N,07726.3634,W,22.37,314.95,030519,,,D*40
$GPGGA,135950.200,4308.3605,N,07726.3644,W,2,10,0.80,155.1,M,-34.4,M,0000,0000*5D
lng=-77.439384, lat=43.139324, altitude=154.80, speed=22.37, satellites=10, angle=314.9500, fixquality=2
$GPRMC,135950.400,A,4308.3614,N,07726.3655,W,21.99,319.74,030519,,,D*4D
$GPGGA,135950.600,4308.3624,N,07726.3666,W,2,10,0.80,155.2,M,-34.4,M,0000,0000*59
lng=-77.439430, lat=43.139354, altitude=155.10, speed=21.99, satellites=10, angle=319.7400, fixquality=2
$GPRMC,135950.800,A,4308.3634,N,07726.3676,W,21.65,322.96,030519,,,D*45
$GPGGA,135951.000,4308.3645,N,07726.3685,W,2,10,0.80,155.5,M,-34.4,M,0000,0000*53
lng=-77.439460, lat=43.139389, altitude=155.20, speed=21.65, satellites=10, angle=322.9600, fixquality=2
$GPRMC,135951.200,A,4308.3656,N,07726.3693,W,21.87,326.69,030519,,,D*49
$GPGGA,135951.400,4308.3667,N,07726.3702,W,2,10,0.80,155.8,M,-34.4,M,0000,0000*54
lng=-77.439483, lat=43.139427, altitude=155.50, speed=21.87, satellites=10, angle=326.6900, fixquality=2
$GPRMC,135951.600,A,4308.3678,N,07726.3710,W,22.17,329.30,030519,,,D*42
$GPGGA,135951.800,4308.3689,N,07726.3718,W,2,10,0.80,155.9,M,-34.4,M,0000,0000*52
lng=-77.439521, lat=43.139461, altitude=155.80, speed=22.17, satellites=10, angle=329.3000, fixquality=2
$GPRMC,135952.000,A,4308.3700,N,07726.3725,W,22.34,333.46,030519,,,D*44
$GPGGA,135952.200,4308.3712,N,07726.3732,W,2,10,0.80,156.1,M,-34.4,M,0000,0000*5B
lng=-77.439544, lat=43.139503, altitude=155.90, speed=22.34, satellites=10, angle=333.4600, fixquality=2
$GPRMC,135952.400,A,4308.3724,N,07726.3739,W,22.62,337.87,030519,,,D*41
$GPGGA,135952.600,4308.3736,N,07726.3745,W,2,10,0.79,156.0,M,-34.4,M,0000,0000*5E
lng=-77.439567, lat=43.139541, altitude=156.10, speed=22.62, satellites=10, angle=337.8700, fixquality=2
$GPRMC,135952.800,A,4308.3748,N,07726.3750,W,23.08,340.71,030519,,,D*4C
$GPGGA,135953.000,4308.3761,N,07726.3756,W,2,10,0.80,156.1,M,-34.4,M,0000,0000*5E
lng=-77.439582, lat=43.139583, altitude=156.00, speed=23.08, satellites=10, angle=340.7100, fixquality=2
$GPRMC,135953.200,A,4308.3773,N,07726.3760,W,23.03,345.17,030519,,,D*42
$GPGGA,135953.400,4308.3786,N,07726.3764,W,2,10,0.80,156.2,M,-34.4,M,0000,0000*51
lng=-77.439598, lat=43.139625, altitude=156.10, speed=23.03, satellites=10, angle=345.1700, fixquality=2
$GPRMC,135953.600,A,4308.3799,N,07726.3767,W,23.11,347.63,030519,,,D*47
$GPGGA,135953.800,4308.3811,N,07726.3769,W,2,10,0.80,156.2,M,-34.4,M,0000,0000*51
lng=-77.439605, lat=43.139663, altitude=156.20, speed=23.11, satellites=10, angle=347.6300, fixquality=2
$GPRMC,135954.000,A,4308.3825,N,07726.3771,W,23.43,353.25,030519,,,D*49
$GPGGA,135954.200,4308.3838,N,07726.3774,W,2,10,0.80,156.3,M,-34.4,M,0000,0000*5A
lng=-77.439613, lat=43.139705, altitude=156.20, speed=23.43, satellites=10, angle=353.2500, fixquality=2
$GPRMC,135954.400,A,4308.3852,N,07726.3774,W,24.07,357.99,030519,,,D*4C
$GPGGA,135954.600,4308.3865,N,07726.3775,W,2,10,0.80,156.6,M,-34.4,M,0000,0000*52
lng=-77.439620, lat=43.139755, altitude=156.30, speed=24.07, satellites=10, angle=357.9900, fixquality=2
$GPRMC,135954.800,A,4308.3879,N,07726.3776,W,24.07,358.21,030519,,,D*47
$GPGGA,135955.000,4308.3892,N,07726.3776,W,2,10,0.80,156.7,M,-34.4,M,0000,0000*5F
lng=-77.439620, lat=43.139793, altitude=156.60, speed=24.07, satellites=10, angle=358.2100, fixquality=2
$GPRMC,135955.200,A,4308.3906,N,07726.3775,W,24.14,0.66,030519,,,D*49
$GPGGA,135955.400,4308.3920,N,07726.3774,W,2,10,0.80,156.6,M,-34.4,M,0000,0000*50
lng=-77.439620, lat=43.139842, altitude=156.70, speed=24.14, satellites=10, angle=0.6600, fixquality=2
$GPRMC,135955.600,A,4308.3934,N,07726.3773,W,24.61,2.42,030519,,,D*4C
$GPGGA,135955.800,4308.3949,N,07726.3772,W,2,10,0.80,156.5,M,-34.4,M,0000,0000*56
lng=-77.439620, lat=43.139892, altitude=156.60, speed=24.61, satellites=10, angle=2.4200, fixquality=2
$GPRMC,135956.000,A,4308.3963,N,07726.3770,W,25.11,4.96,030519,,,D*41
$GPGGA,135956.200,4308.3978,N,07726.3768,W,2,10,0.80,156.5,M,-34.4,M,0000,0000*56
lng=-77.439613, lat=43.139942, altitude=156.50, speed=25.11, satellites=10, angle=4.9600, fixquality=2
$GPRMC,135956.400,A,4308.3993,N,07726.3766,W,25.79,6.47,030519,,,D*4D
$GPGGA,135956.600,4308.4008,N,07726.3763,W,2,10,0.79,156.5,M,-34.4,M,0000,0000*56
lng=-77.439605, lat=43.139991, altitude=156.50, speed=25.79, satellites=10, angle=6.4700, fixquality=2
$GPRMC,135956.800,A,4308.4023,N,07726.3761,W,26.08,7.80,030519,,,D*4C
$GPGGA,135957.000,4308.4038,N,07726.3758,W,2,10,0.80,156.5,M,-34.4,M,0000,0000*5C
lng=-77.439598, lat=43.140037, altitude=156.50, speed=26.08, satellites=10, angle=7.8000, fixquality=2
$GPRMC,135957.200,A,4308.4053,N,07726.3755,W,26.64,8.03,030519,,,D*49
$GPGGA,135957.400,4308.4068,N,07726.3752,W,2,10,0.80,156.5,M,-34.4,M,0000,0000*57
lng=-77.439590, lat=43.140087, altitude=156.50, speed=26.64, satellites=10, angle=8.0300, fixquality=2
$GPRMC,135957.600,A,4308.4083,N,07726.3749,W,26.64,8.51,030519,,,D*4A
$GPGGA,135957.800,4308.4097,N,07726.3745,W,2,10,0.80,156.6,M,-34.4,M,0000,0000*5E
lng=-77.439582, lat=43.140136, altitude=156.50, speed=26.64, satellites=10, angle=8.5100, fixquality=2
$GPRMC,135958.000,A,4308.4112,N,07726.3742,W,26.17,9.43,030519,,,D*47
$GPGGA,135958.200,4308.4126,N,07726.3738,W,2,10,0.80,156.8,M,-34.4,M,0000,0000*54
lng=-77.439567, lat=43.140186, altitude=156.60, speed=26.17, satellites=10, angle=9.4300, fixquality=2
$GPRMC,135958.400,A,4308.4140,N,07726.3735,W,25.43,9.33,030519,,,D*41
$GPGGA,135958.600,4308.4154,N,07726.3731,W,2,10,0.80,157.0,M,-34.4,M,0000,0000*55
lng=-77.439559, lat=43.140235, altitude=156.80, speed=25.43, satellites=10, angle=9.3300, fixquality=2
$GPRMC,135958.800,A,4308.4168,N,07726.3728,W,24.79,9.77,030519,,,D*43
$GPGGA,135959.000,4308.4182,N,07726.3725,W,2,10,0.80,157.2,M,-34.4,M,0000,0000*5E
lng=-77.439544, lat=43.140281, altitude=157.00, speed=24.79, satellites=10, angle=9.7700, fixquality=2
$GPRMC,135959.200,A,4308.4195,N,07726.3722,W,24.44,9.42,030519,,,D*48
$GPGGA,135959.400,4308.4208,N,07726.3718,W,2,10,0.80,157.2,M,-34.4,M,0000,0000*55
lng=-77.439537, lat=43.140323, altitude=157.20, speed=24.44, satellites=10, angle=9.4200, fixquality=2
$GPRMC,135959.600,A,4308.4222,N,07726.3715,W,24.17,9.48,030519,,,D*4B
$GPGGA,135959.800,4308.4235,N,07726.3712,W,2,10,0.80,157.2,M,-34.4,M,0000,0000*5D
lng=-77.439529, lat=43.140373, altitude=157.20, speed=24.17, satellites=10, angle=9.4800, fixquality=2
$GPRMC,140000.000,A,4308.4248,N,07726.3709,W,23.73,9.48,030519,,,D*4E
$GPGGA,140000.200,4308.4262,N,07726.3705,W,2,10,0.80,156.9,M,-34.4,M,0000,0000*5E
lng=-77.439521, lat=43.140415, altitude=157.20, speed=23.73, satellites=10, angle=9.4800, fixquality=2
$GPRMC,140000.400,A,4308.4275,N,07726.3702,W,23.47,9.18,030519,,,D*4D
$GPGGA,140000.600,4308.4288,N,07726.3699,W,2,10,0.80,156.7,M,-34.4,M,0000,0000*54
lng=-77.439498, lat=43.140460, altitude=156.90, speed=23.47, satellites=10, angle=9.1800, fixquality=2
$GPRMC,140000.800,A,4308.4300,N,07726.3697,W,22.79,8.89,030519,,,D*4A
$GPGGA,140001.000,4308.4313,N,07726.3694,W,2,10,0.80,156.7,M,-34.4,M,0000,0000*5D
lng=-77.439491, lat=43.140502, altitude=156.70, speed=22.79, satellites=10, angle=8.8900, fixquality=2
$GPRMC,140001.200,A,4308.4325,N,07726.3692,W,22.25,8.93,030519,,,D*41
$GPGGA,140001.400,4308.4337,N,07726.3689,W,2,10,0.80,156.7,M,-34.4,M,0000,0000*53
lng=-77.439483, lat=43.140544, altitude=156.70, speed=22.25, satellites=10, angle=8.9300, fixquality=2
$GPRMC,140001.600,A,4308.4349,N,07726.3686,W,21.24,9.95,030519,,,D*4F
$GPGGA,140001.800,4308.4360,N,07726.3684,W,2,10,0.80,156.8,M,-34.4,M,0000,0000*5F
lng=-77.439476, lat=43.140583, altitude=156.70, speed=21.24, satellites=10, angle=9.9500, fixquality=2
$GPRMC,140002.000,A,4308.4371,N,07726.3681,W,19.84,9.59,030519,,,D*47
$GPGGA,140002.200,4308.4381,N,07726.3679,W,2,10,0.80,157.0,M,-34.4,M,0000,0000*52
lng=-77.439468, lat=43.140617, altitude=156.80, speed=19.84, satellites=10, angle=9.5900, fixquality=2
$GPRMC,140002.400,A,4308.4391,N,07726.3676,W,18.31,9.74,030519,,,D*45
$GPGGA,140002.600,4308.4401,N,07726.3674,W,2,10,0.80,156.9,M,-34.4,M,0000,0000*5C
lng=-77.439460, lat=43.140647, altitude=157.00, speed=18.31, satellites=10, angle=9.7400, fixquality=2
$GPRMC,140002.800,A,4308.4411,N,07726.3672,W,17.26,8.65,030519,,,D*4A
$GPGGA,140003.000,4308.4420,N,07726.3670,W,2,10,0.80,156.9,M,-34.4,M,0000,0000*5C
lng=-77.439453, lat=43.140682, altitude=156.90, speed=17.26, satellites=10, angle=8.6500, fixquality=2
$GPRMC,140003.200,A,4308.4429,N,07726.3668,W,16.75,8.24,030519,,,D*43
$GPGGA,140003.400,4308.4437,N,07726.3666,W,1,10,0.80,157.0,M,-34.4,M,,*52
lng=-77.439445, lat=43.140712, altitude=156.90, speed=16.75, satellites=10, angle=8.2400, fixquality=2
$GPRMC,140003.600,A,4308.4445,N,07726.3665,W,15.71,7.32,030519,,,A*4A
$GPGGA,140003.800,4308.4453,N,07726.3664,W,1,10,0.80,157.0,M,-34.4,M,,*5E
lng=-77.439445, lat=43.140739, altitude=157.00, speed=15.71, satellites=10, angle=7.3200, fixquality=1
$GPRMC,140004.000,A,4308.4461,N,07726.3663,W,14.30,5.64,030519,,,A*4E
$GPGGA,140004.200,4308.4467,N,07726.3661,W,1,10,0.80,157.0,M,-34.4,M,,*51
lng=-77.439437, lat=43.140769, altitude=157.00, speed=14.30, satellites=10, angle=5.6400, fixquality=1
$GPRMC,140004.400,A,4308.4474,N,07726.3658,W,12.73,8.43,030519,,,A*4F
$GPGGA,140004.600,4308.4480,N,07726.3657,W,1,10,0.80,157.0,M,-34.4,M,,*59
lng=-77.439430, lat=43.140789, altitude=157.00, speed=12.73, satellites=10, angle=8.4300, fixquality=1
$GPRMC,140004.800,A,4308.4487,N,07726.3655,W,12.02,9.08,030519,,,A*4A
$GPGGA,140005.000,4308.4493,N,07726.3653,W,1,10,0.80,157.1,M,-34.4,M,,*59
lng=-77.439430, lat=43.140811, altitude=157.00, speed=12.02, satellites=10, angle=9.0800, fixquality=1
$GPRMC,140005.200,A,4308.4499,N,07726.3652,W,11.35,9.37,030519,,,A*42
$GPGGA,140005.400,4308.4504,N,07726.3650,W,1,10,0.80,157.2,M,-34.4,M,,*52
lng=-77.439422, lat=43.140827, altitude=157.10, speed=11.35, satellites=10, angle=9.3700, fixquality=1
$GPRMC,140005.600,A,4308.4510,N,07726.3648,W,10.48,9.71,030519,,,A*44
$GPGGA,140005.800,4308.4515,N,07726.3647,W,1,10,0.80,157.2,M,-34.4,M,,*58
lng=-77.439414, lat=43.140853, altitude=157.20, speed=10.48, satellites=10, angle=9.7100, fixquality=1
$GPRMC,140006.000,A,4308.4521,N,07726.3645,W,9.13,9.76,030519,,,A*7F
$GPGGA,140006.200,4308.4525,N,07726.3645,W,1,10,0.80,157.2,M,-34.4,M,,*50
lng=-77.439407, lat=43.140869, altitude=157.20, speed=9.13, satellites=10, angle=9.7600, fixquality=1
$GPRMC,140006.400,A,4308.4529,N,07726.3643,W,7.28,10.67,030519,,,A*4B
$GPGGA,140006.600,4308.4532,N,07726.3642,W,1,10,0.80,157.2,M,-34.4,M,,*55
lng=-77.439407, lat=43.140884, altitude=157.20, speed=7.28, satellites=10, angle=10.6700, fixquality=1
$GPRMC,140006.800,A,4308.4535,N,07726.3641,W,5.52,11.19,030519,,,A*4F
$GPGGA,140007.000,4308.4538,N,07726.3640,W,1,10,0.80,157.3,M,-34.4,M,,*5B
lng=-77.439407, lat=43.140892, altitude=157.20, speed=5.52, satellites=10, angle=11.1900, fixquality=1
$GPRMC,140007.200,A,4308.4540,N,07726.3639,W,3.82,11.14,030519,,,A*4F
$GPGGA,140007.400,4308.4543,N,07726.3638,W,1,10,0.80,157.3,M,-34.4,M,,*5C
lng=-77.439399, lat=43.140903, altitude=157.30, speed=3.82, satellites=10, angle=11.1400, fixquality=1
$GPRMC,140007.600,A,4308.4545,N,07726.3637,W,3.14,8.19,030519,,,A*7A
$GPGGA,140007.800,4308.4547,N,07726.3637,W,1,10,0.80,157.5,M,-34.4,M,,*5D
lng=-77.439399, lat=43.140911, altitude=157.30, speed=3.14, satellites=10, angle=8.1900, fixquality=1
$GPRMC,140008.000,A,4308.4549,N,07726.3636,W,3.31,8.95,030519,,,A*7D
$GPGGA,140008.200,4308.4551,N,07726.3635,W,1,10,0.80,157.4,M,-34.4,M,,*5C
lng=-77.439399, lat=43.140918, altitude=157.50, speed=3.31, satellites=10, angle=8.9500, fixquality=1
$GPRMC,140008.400,A,4308.4553,N,07726.3635,W,3.58,9.15,030519,,,A*77
$GPGGA,140008.600,4308.4555,N,07726.3634,W,1,10,0.80,157.5,M,-34.4,M,,*5C
lng=-77.439384, lat=43.140918, altitude=157.40, speed=3.58, satellites=10, angle=9.1500, fixquality=1
$GPRMC,140008.800,A,4308.4558,N,07726.3634,W,4.47,10.22,030519,,,A*44
$GPGGA,140009.000,4308.4561,N,07726.3633,W,1,10,0.80,157.6,M,-34.4,M,,*58
lng=-77.439384, lat=43.140926, altitude=157.50, speed=4.47, satellites=10, angle=10.2200, fixquality=1
$GPRMC,140009.200,A,4308.4565,N,07726.3630,W,4.80,8.50,030519,,,A*72
$GPGGA,140009.400,4308.4570,N,07726.3629,W,1,10,0.80,157.7,M,-34.4,M,,*56
lng=-77.439376, lat=43.140941, altitude=157.60, speed=4.80, satellites=10, angle=8.5000, fixquality=1
$GPRMC,140009.600,A,4308.4573,N,07726.3629,W,5.59,2.73,030519,,,A*77
$GPGGA,140009.800,4308.4577,N,07726.3629,W,1,10,0.80,157.8,M,-34.4,M,,*52
lng=-77.439376, lat=43.140956, altitude=157.70, speed=5.59, satellites=10, angle=2.7300, fixquality=1
$GPRMC,140010.000,A,4308.4581,N,07726.3629,W,6.17,351.98,030519,,,A*7D
$GPGGA,140010.200,4308.4585,N,07726.3629,W,1,10,0.80,157.8,M,-34.4,M,,*5D
lng=-77.439376, lat=43.140968, altitude=157.80, speed=6.17, satellites=10, angle=351.9800, fixquality=1
$GPRMC,140010.400,A,4308.4588,N,07726.3630,W,6.50,342.16,030519,,,A*7F
$GPGGA,140010.600,4308.4592,N,07726.3633,W,1,10,0.80,157.8,M,-34.4,M,,*54
lng=-77.439376, lat=43.140983, altitude=157.80, speed=6.50, satellites=10, angle=342.1600, fixquality=1
$GPRMC,140010.800,A,4308.4596,N,07726.3636,W,7.83,329.24,030519,,,A*79
$GPGGA,140011.000,4308.4600,N,07726.3638,W,1,10,0.80,157.8,M,-34.4,M,,*50
lng=-77.439399, lat=43.140991, altitude=157.80, speed=7.83, satellites=10, angle=329.2400, fixquality=1
$GPRMC,140011.200,A,4308.4603,N,07726.3640,W,7.53,324.85,030519,,,A*77
$GPGGA,140011.400,4308.4606,N,07726.3642,W,1,10,0.80,157.7,M,-34.4,M,,*50
lng=-77.439399, lat=43.141006, altitude=157.80, speed=7.53, satellites=10, angle=324.8500, fixquality=1
$GPRMC,140011.600,A,4308.4610,N,07726.3642,W,8.27,319.06,030519,,,A*7A
$GPGGA,140011.800,4308.4614,N,07726.3644,W,1,10,0.80,157.5,M,-34.4,M,,*5B
lng=-77.439407, lat=43.141014, altitude=157.70, speed=8.27, satellites=10, angle=319.0600, fixquality=1
$GPRMC,140012.000,A,4308.4618,N,07726.3649,W,10.19,308.63,030519,,,A*4B
$GPGGA,140012.200,4308.4621,N,07726.3654,W,1,10,0.80,157.5,M,-34.4,M,,*55
lng=-77.439414, lat=43.141033, altitude=157.50, speed=10.19, satellites=10, angle=308.6300, fixquality=1
$GPRMC,140012.400,A,4308.4624,N,07726.3661,W,10.76,299.29,030519,,,A*44
$GPGGA,140012.600,4308.4628,N,07726.3669,W,1,10,0.80,157.4,M,-34.4,M,,*57
lng=-77.439437, lat=43.141040, altitude=157.50, speed=10.76, satellites=10, angle=299.2900, fixquality=1
$GPRMC,140012.800,A,4308.4630,N,07726.3676,W,11.00,297.11,030519,,,A*4E
$GPGGA,140013.000,4308.4633,N,07726.3684,W,1,10,0.80,157.3,M,-34.4,M,,*5E
lng=-77.439460, lat=43.141048, altitude=157.40, speed=11.00, satellites=10, angle=297.1100, fixquality=1
$GPRMC,140013.200,A,4308.4635,N,07726.3692,W,11.54,290.95,030519,,,A*40
$GPGGA,140013.400,4308.4636,N,07726.3701,W,1,10,0.80,157.2,M,-34.4,M,,*52
lng=-77.439483, lat=43.141056, altitude=157.30, speed=11.54, satellites=10, angle=290.9500, fixquality=1
$GPRMC,140013.600,A,4308.4638,N,07726.3711,W,12.58,286.00,030519,,,A*47
$GPGGA,140013.800,4308.4639,N,07726.3720,W,1,10,0.80,157.1,M,-34.4,M,,*51
lng=-77.439521, lat=43.141063, altitude=157.20, speed=12.58, satellites=10, angle=286.0000, fixquality=1
$GPRMC,140014.000,A,4308.4641,N,07726.3730,W,12.90,282.51,030519,,,A*4F
$GPGGA,140014.200,4308.4643,N,07726.3739,W,1,10,0.80,157.0,M,-34.4,M,,*58
lng=-77.439552, lat=43.141063, altitude=157.10, speed=12.90, satellites=10, angle=282.5100, fixquality=1
$GPRMC,140014.400,A,4308.4644,N,07726.3748,W,13.10,281.14,030519,,,A*4A
$GPGGA,140014.600,4308.4646,N,07726.3758,W,1,10,0.80,156.8,M,-34.4,M,,*57
lng=-77.439582, lat=43.141071, altitude=157.00, speed=13.10, satellites=10, angle=281.1400, fixquality=1
$GPRMC,140014.800,A,4308.4647,N,07726.3768,W,13.18,280.67,030519,,,A*4A
$GPGGA,140015.000,4308.4648,N,07726.3777,W,1,10,0.80,156.6,M,-34.4,M,,*5D
lng=-77.439613, lat=43.141078, altitude=156.80, speed=13.18, satellites=10, angle=280.6700, fixquality=1
$GPRMC,140015.200,A,4308.4649,N,07726.3787,W,13.21,277.73,030519,,,A*49
$GPGGA,140015.400,4308.4650,N,07726.3797,W,1,10,0.80,156.4,M,-34.4,M,,*5C
lng=-77.439651, lat=43.141078, altitude=156.60, speed=13.21, satellites=10, angle=277.7300, fixquality=1
$GPRMC,140015.600,A,4308.4652,N,07726.3807,W,13.23,276.16,030519,,,A*40
$GPGGA,140015.800,4308.4655,N,07726.3818,W,1,10,0.80,156.2,M,-34.4,M,,*5B
lng=-77.439682, lat=43.141090, altitude=156.40, speed=13.23, satellites=10, angle=276.1600, fixquality=1
$GPRMC,140016.000,A,4308.4657,N,07726.3829,W,13.47,277.40,030519,,,A*4C
$GPGGA,140016.200,4308.4659,N,07726.3839,W,1,10,0.80,156.0,M,-34.4,M,,*5F
lng=-77.439712, lat=43.141098, altitude=156.20, speed=13.47, satellites=10, angle=277.4000, fixquality=1
$GPRMC,140016.400,A,4308.4661,N,07726.3849,W,13.52,277.34,030519,,,A*4C
$GPGGA,140016.600,4308.4662,N,07726.3859,W,1,10,0.80,155.8,M,-34.4,M,,*5E
lng=-77.439743, lat=43.141105, altitude=156.00, speed=13.52, satellites=10, angle=277.3400, fixquality=1
$GPRMC,140016.800,A,4308.4663,N,07726.3869,W,14.03,278.58,030519,,,A*46
$GPGGA,140017.000,4308.4663,N,07726.3879,W,1,10,0.80,155.6,M,-34.4,M,,*54
lng=-77.439781, lat=43.141105, altitude=155.80, speed=14.03, satellites=10, angle=278.5800, fixquality=1
$GPRMC,140017.200,A,4308.4664,N,07726.3890,W,14.34,278.71,030519,,,A*43
$GPGGA,140017.400,4308.4664,N,07726.3901,W,1,10,0.80,155.4,M,-34.4,M,,*5B
lng=-77.439819, lat=43.141105, altitude=155.60, speed=14.34, satellites=10, angle=278.7100, fixquality=1
$GPRMC,140017.600,A,4308.4666,N,07726.3912,W,14.47,278.36,030519,,,A*49
