Vers 81
USE_SERIAL_FEEDBACK=true
DEVELOPMENT_MODE=false
USE_RMC_ONLY=false

$GPRMC,125707.250,A,4308.3121,N,07726.2613,W,0.04,16.79,300819,,,A*4F
$GPGGA,125707.500,4308.3121,N,07726.2613,W,1,05,2.75,171.1,M,-34.4,M,,*5C
$GPRMC,125707.750,A,4308.3120,N,07726.2614,W,0.02,138.28,300819,,,A*73
$GPGGA,125708.000,4308.3120,N,07726.2614,W,1,05,2.75,171.2,M,-34.4,M,,*53
$GPRMC,125708.250,A,4308.3119,N,07726.2615,W,0.03,134.60,300819,,,A*73
$GPGGA,125708.500,4308.3120,N,07726.2615,W,1,05,2.74,171.2,M,-34.4,M,,*56
$GPRMC,125708.750,A,4308.3120,N,07726.2616,W,0.08,162.19,300819,,,A*79
$GPGGA,125709.000,4308.3120,N,07726.2616,W,1,05,2.74,171.3,M,-34.4,M,,*50
$GPRMC,125709.250,A,4308.3120,N,07726.2616,W,0.06,164.48,300819,,,A*71
$GPGGA,125709.500,4308.3120,N,07726.2617,W,1,05,2.75,171.2,M,-34.4,M,,*54
$GPRMC,125709.750,A,4308.3121,N,07726.2617,W,0.03,260.98,300819,,,A*7B
$GPGGA,125710.000,4308.3121,N,07726.2617,W,1,05,2.74,171.2,M,-34.4,M,,*59
$GPRMC,125710.250,A,4308.3122,N,07726.2617,W,0.01,142.91,300819,,,A*7D
$GPGGA,125710.500,4308.3123,N,07726.2617,W,1,05,2.74,171.3,M,-34.4,M,,*5F
$GPRMC,125710.750,A,4308.3123,N,07726.2617,W,0.07,181.94,300819,,,A*75
$GPGGA,125711.000,4308.3123,N,07726.2617,W,1,05,2.74,171.5,M,-34.4,M,,*5D
$GPRMC,125711.250,A,4308.3124,N,07726.2617,W,0.08,214.08,300819,,,A*73
$GPGGA,125711.500,4308.3125,N,07726.2617,W,1,05,2.74,171.7,M,-34.4,M,,*5C
$GPRMC,125711.750,A,4308.3126,N,07726.2616,W,0.04,220.36,300819,,,A*73
$GPGGA,125712.000,4308.3127,N,07726.2616,W,1,05,2.74,172.0,M,-34.4,M,,*5D
$GPRMC,125712.250,A,4308.3128,N,07726.2615,W,0.02,228.74,300819,,,A*70
$GPGGA,125712.500,4308.3128,N,07726.2615,W,1,05,2.74,172.2,M,-34.4,M,,*56
$GPRMC,125712.750,A,4308.3129,N,07726.2615,W,0.01,198.85,300819,,,A*71
$GPGGA,125713.000,4308.3129,N,07726.2614,W,1,05,2.74,172.2,M,-34.4,M,,*52
$GPRMC,125713.250,A,4308.3131,N,07726.2614,W,0.10,23.70,300819,,,A*46
$GPGGA,125713.500,4308.3131,N,07726.2614,W,1,05,2.74,172.3,M,-34.4,M,,*5F
$GPRMC,125713.750,A,4308.3131,N,07726.2614,W,0.06,160.57,300819,,,A*77
$GPGGA,125714.000,4308.3131,N,07726.2615,W,1,05,2.74,172.4,M,-34.4,M,,*5B
$GPRMC,125714.250,A,4308.3132,N,07726.2614,W,0.03,260.01,300819,,,A*73
$GPGGA,125714.500,4308.3132,N,07726.2614,W,1,05,2.74,172.5,M,-34.4,M,,*5D
$GPRMC,125714.750,A,4308.3133,N,07726.2614,W,0.02,55.07,300819,,,A*44
$GPGGA,125715.000,4308.3133,N,07726.2614,W,1,05,2.74,172.7,M,-34.4,M,,*5A
$GPRMC,125715.250,A,4308.3134,N,07726.2614,W,0.04,100.54,300819,,,A*76
$GPGGA,125715.500,4308.3134,N,07726.2614,W,1,05,2.74,172.8,M,-34.4,M,,*57
$GPRMC,125715.750,A,4308.3135,N,07726.2614,W,0.05,174.74,300819,,,A*72
$GPGGA,125716.000,4308.3135,N,07726.2614,W,1,05,2.74,172.9,M,-34.4,M,,*51
$GPRMC,125716.250,A,4308.3136,N,07726.2614,W,0.06,132.22,300819,,,A*75
$GPGGA,125716.500,4308.3136,N,07726.2614,W,1,05,2.74,173.1,M,-34.4,M,,*5E
$GPRMC,125716.750,A,4308.3136,N,07726.2614,W,0.04,181.74,300819,,,A*79
$GPGGA,125717.000,4308.3137,N,07726.2614,W,1,05,2.74,173.3,M,-34.4,M,,*59
$GPRMC,125717.250,A,4308.3137,N,07726.2614,W,0.04,192.56,300819,,,A*7E
$GPGGA,125717.500,4308.3138,N,07726.2614,W,1,05,2.74,173.6,M,-34.4,M,,*56
$GPRMC,125717.750,A,4308.3138,N,07726.2614,W,0.09,223.56,300819,,,A*70
$GPGGA,125718.000,4308.3139,N,07726.2613,W,1,05,2.74,174.0,M,-34.4,M,,*5B
$GPRMC,125718.250,A,4308.3140,N,07726.2613,W,0.07,207.61,300819,,,A*7E
$GPGGA,125718.500,4308.3141,N,07726.2613,W,1,05,2.74,174.4,M,-34.4,M,,*55
$GPRMC,125718.750,A,4308.3141,N,07726.2612,W,0.12,123.64,300819,,,A*7F
$GPGGA,125719.000,4308.3142,N,07726.2612,W,1,05,2.74,174.7,M,-34.4,M,,*50
$GPRMC,125719.250,A,4308.3143,N,07726.2611,W,0.08,121.28,300819,,,A*7B
$GPGGA,125719.500,4308.3144,N,07726.2612,W,1,05,2.74,175.1,M,-34.4,M,,*54
$GPRMC,125719.750,A,4308.3145,N,07726.2612,W,0.10,249.52,300819,,,A*72
$GPGGA,125720.000,4308.3145,N,07726.2612,W,1,05,2.73,175.3,M,-34.4,M,,*5F
$GPRMC,125720.250,A,4308.3146,N,07726.2611,W,0.04,156.69,300819,,,A*7D
$GPGGA,125720.500,4308.3146,N,07726.2611,W,1,05,2.74,175.4,M,-34.4,M,,*5A
$GPRMC,125720.750,A,4308.3146,N,07726.2611,W,0.05,216.66,300819,,,A*71
$GPGGA,125721.000,4308.3147,N,07726.2611,W,1,05,2.74,175.5,M,-34.4,M,,*5E
$GPRMC,125721.250,A,4308.3148,N,07726.2611,W,0.10,275.31,300819,,,A*78
$GPGGA,125721.500,4308.3148,N,07726.2611,W,1,05,2.74,175.7,M,-34.4,M,,*56
$GPRMC,125721.750,A,4308.3148,N,07726.2611,W,0.08,247.29,300819,,,A*7C
$GPGGA,125722.000,4308.3148,N,07726.2611,W,1,05,2.73,175.8,M,-34.4,M,,*58
$GPRMC,125722.250,A,4308.3148,N,07726.2611,W,0.09,295.27,300819,,,A*7A
$GPGGA,125722.500,4308.3149,N,07726.2610,W,1,05,2.74,175.8,M,-34.4,M,,*5A
$GPRMC,125722.750,A,4308.3149,N,07726.2610,W,0.13,337.22,300819,,,A*78
$GPGGA,125723.000,4308.3150,N,07726.2610,W,1,05,2.74,175.8,M,-34.4,M,,*56
$GPRMC,125723.250,A,4308.3151,N,07726.2609,W,0.22,352.68,300819,,,A*72
$GPGGA,125723.500,4308.3153,N,07726.2608,W,1,05,3.24,175.9,M,-34.4,M,,*5C
$GPRMC,125723.750,A,4308.3154,N,07726.2607,W,0.37,14.59,300819,,,A*4B
$GPGGA,125724.000,4308.3154,N,07726.2606,W,1,05,3.24,176.0,M,-34.4,M,,*5D
$GPRMC,125724.250,A,4308.3154,N,07726.2606,W,0.30,11.34,300819,,,A*41
$GPGGA,125724.500,4308.3155,N,07726.2606,W,1,05,3.24,176.1,M,-34.4,M,,*58
$GPRMC,125724.750,A,4308.3155,N,07726.2606,W,0.26,6.37,300819,,,A*77
$GPGGA,125725.000,4308.3155,N,07726.2605,W,1,05,3.25,176.2,M,-34.4,M,,*5D
$GPRMC,125725.250,A,4308.3155,N,07726.2605,W,0.25,6.52,300819,,,A*70
$GPGGA,125725.500,4308.3155,N,07726.2605,W,1,05,3.24,176.2,M,-34.4,M,,*59
$GPRMC,125725.750,A,4308.3155,N,07726.2605,W,0.11,334.36,300819,,,A*72
$GPGGA,125726.000,4308.3155,N,07726.2605,W,1,05,2.73,176.2,M,-34.4,M,,*5C
$GPRMC,125726.250,A,4308.3155,N,07726.2605,W,0.08,339.08,300819,,,A*7C
$GPGGA,125726.500,4308.3154,N,07726.2605,W,1,05,2.73,176.1,M,-34.4,M,,*5B
$GPRMC,125726.750,A,4308.3154,N,07726.2605,W,0.07,270.67,300819,,,A*72
$GPGGA,125727.000,4308.3154,N,07726.2605,W,1,05,2.73,176.0,M,-34.4,M,,*5E
$GPRMC,125727.250,A,4308.3154,N,07726.2605,W,0.05,297.32,300819,,,A*7D
$GPGGA,125727.500,4308.3154,N,07726.2605,W,1,05,2.73,176.0,M,-34.4,M,,*5B
$GPRMC,125727.750,A,4308.3155,N,07726.2604,W,0.12,17.47,300819,,,A*46
$GPGGA,125728.000,4308.3155,N,07726.2604,W,1,05,2.73,176.0,M,-34.4,M,,*51
$GPRMC,125728.250,A,4308.3155,N,07726.2604,W,0.08,22.83,300819,,,A*49
$GPGGA,125728.500,4308.3155,N,07726.2603,W,1,05,2.73,176.0,M,-34.4,M,,*53
$GPRMC,125728.750,A,4308.3155,N,07726.2603,W,0.12,55.28,300819,,,A*41
$GPGGA,125729.000,4308.3154,N,07726.2603,W,1,05,2.73,175.8,M,-34.4,M,,*5D
$GPRMC,125729.250,A,4308.3153,N,07726.2602,W,0.12,114.08,300819,,,A*74
$GPGGA,125729.500,4308.3152,N,07726.2602,W,1,05,2.73,175.7,M,-34.4,M,,*50
$GPRMC,125729.750,A,4308.3151,N,07726.2602,W,0.23,135.45,300819,,,A*7B
$GPGGA,125730.000,4308.3151,N,07726.2602,W,1,05,2.73,175.6,M,-34.4,M,,*5F
$GPRMC,125730.250,A,4308.3150,N,07726.2602,W,0.25,141.84,300819,,,A*7F
$GPGGA,125730.500,4308.3149,N,07726.2602,W,1,05,2.73,175.4,M,-34.4,M,,*51
$GPRMC,125730.750,A,4308.3148,N,07726.2602,W,0.27,173.25,300819,,,A*7B
$GPGGA,125731.000,4308.3147,N,07726.2602,W,1,05,2.73,175.1,M,-34.4,M,,*5E
$GPRMC,125731.250,A,4308.3146,N,07726.2602,W,0.34,175.24,300819,,,A*74
$GPGGA,125731.500,4308.3145,N,07726.2602,W,1,05,2.73,174.9,M,-34.4,M,,*50
$GPRMC,125731.750,A,4308.3144,N,07726.2602,W,0.42,163.96,300819,,,A*7C
$GPGGA,125732.000,4308.3144,N,07726.2602,W,1,05,2.73,174.6,M,-34.4,M,,*58
$GPRMC,125732.250,A,4308.3143,N,07726.2602,W,0.44,159.12,300819,,,A*7E
$GPGGA,125732.500,4308.3142,N,07726.2602,W,1,05,2.73,174.4,M,-34.4,M,,*59
$GPRMC,125732.750,A,4308.3142,N,07726.2602,W,0.38,157.32,300819,,,A*7D
$GPGGA,125733.000,4308.3142,N,07726.2602,W,1,05,2.73,174.3,M,-34.4,M,,*5A
$GPRMC,125733.250,A,4308.3142,N,07726.2602,W,0.33,163.77,300819,,,A*74
$GPGGA,125733.500,4308.3142,N,07726.2603,W,1,05,2.73,174.1,M,-34.4,M,,*5C
$GPRMC,125733.750,A,4308.3142,N,07726.2604,W,0.17,184.35,300819,,,A*7E
$GPGGA,125734.000,4308.3142,N,07726.2604,W,1,05,2.73,174.0,M,-34.4,M,,*58
$GPRMC,125734.250,A,4308.3142,N,07726.2605,W,0.18,216.47,300819,,,A*7F
$GPGGA,125734.500,4308.3140,N,07726.2605,W,1,05,2.73,173.8,M,-34.4,M,,*51
$GPRMC,125734.750,A,4308.3140,N,07726.2606,W,0.32,222.05,300819,,,A*72
$GPGGA,125735.000,4308.3139,N,07726.2606,W,1,05,2.73,173.7,M,-34.4,M,,*57
$GPRMC,125735.250,A,4308.3138,N,07726.2606,W,0.31,206.11,300819,,,A*79
$GPGGA,125735.500,4308.3137,N,07726.2606,W,1,05,2.73,173.6,M,-34.4,M,,*5D
$GPRMC,125735.750,A,4308.3137,N,07726.2606,W,0.25,192.89,300819,,,A*79
$GPGGA,125736.000,4308.3137,N,07726.2606,W,1,05,2.72,173.6,M,-34.4,M,,*5A
$GPRMC,125736.250,A,4308.3137,N,07726.2606,W,0.26,179.93,300819,,,A*72
$GPGGA,125736.500,4308.3137,N,07726.2606,W,1,05,2.72,173.5,M,-34.4,M,,*5C
$GPRMC,125736.750,A,4308.3137,N,07726.2606,W,0.27,171.18,300819,,,A*7D
$GPGGA,125737.000,4308.3136,N,07726.2606,W,1,05,2.72,173.5,M,-34.4,M,,*59
$GPRMC,125737.250,A,4308.3136,N,07726.2606,W,0.28,165.13,300819,,,A*79
$GPGGA,125737.500,4308.3136,N,07726.2606,W,1,05,2.72,173.5,M,-34.4,M,,*5C
$GPRMC,125737.750,A,4308.3136,N,07726.2606,W,0.24,165.21,300819,,,A*71
$GPGGA,125738.000,4308.3136,N,07726.2606,W,1,05,2.72,173.5,M,-34.4,M,,*56
$GPRMC,125738.250,A,4308.3135,N,07726.2605,W,0.31,152.69,300819,,,A*77
$GPGGA,125738.500,4308.3135,N,07726.2605,W,1,05,2.72,173.5,M,-34.4,M,,*53
$GPRMC,125738.750,A,4308.3135,N,07726.2605,W,0.25,168.64,300819,,,A*73
$GPGGA,125739.000,4308.3135,N,07726.2605,W,1,05,2.72,173.5,M,-34.4,M,,*57
$GPRMC,125739.250,A,4308.3135,N,07726.2605,W,0.25,177.14,300819,,,A*7E
$GPGGA,125739.500,4308.3134,N,07726.2605,W,1,05,2.72,173.5,M,-34.4,M,,*53
$GPRMC,125739.750,A,4308.3134,N,07726.2605,W,0.31,175.06,300819,,,A*7E
$GPGGA,125740.000,4308.3134,N,07726.2605,W,1,05,2.72,173.5,M,-34.4,M,,*58
$GPRMC,125740.250,A,4308.3134,N,07726.2605,W,0.26,173.49,300819,,,A*7E
$GPGGA,125740.500,4308.3134,N,07726.2605,W,1,05,2.72,173.5,M,-34.4,M,,*5D
$GPRMC,125740.750,A,4308.3134,N,07726.2605,W,0.22,174.18,300819,,,A*7C
$GPGGA,125741.000,4308.3133,N,07726.2605,W,1,05,2.72,173.5,M,-34.4,M,,*5E
$GPRMC,125741.250,A,4308.3133,N,07726.2605,W,0.16,178.02,300819,,,A*7F
$GPGGA,125741.500,4308.3133,N,07726.2605,W,1,05,2.72,173.5,M,-34.4,M,,*5B
$GPRMC,125741.750,A,4308.3133,N,07726.2605,W,0.12,214.66,300819,,,A*75
$GPGGA,125742.000,4308.3133,N,07726.2605,W,1,05,2.72,173.5,M,-34.4,M,,*5D
$GPRMC,125742.250,A,4308.3133,N,07726.2605,W,0.13,225.87,300819,,,A*7F
$GPGGA,125742.500,4308.3133,N,07726.2605,W,1,05,2.72,173.5,M,-34.4,M,,*58
$GPRMC,125742.750,A,4308.3133,N,07726.2605,W,0.25,195.45,300819,,,A*79
$GPGGA,125743.000,4308.3133,N,07726.2605,W,1,05,2.72,173.5,M,-34.4,M,,*5C
$GPRMC,125743.250,A,4308.3132,N,07726.2605,W,0.23,171.06,300819,,,A*77
$GPGGA,125743.500,4308.3132,N,07726.2605,W,1,05,2.72,173.5,M,-34.4,M,,*58
$GPRMC,125743.750,A,4308.3132,N,07726.2605,W,0.19,187.11,300819,,,A*74
$GPGGA,125744.000,4308.3132,N,07726.2605,W,1,05,2.72,173.5,M,-34.4,M,,*5A
$GPRMC,125744.250,A,4308.3132,N,07726.2605,W,0.14,207.55,300819,,,A*70
$GPGGA,125744.500,4308.3132,N,07726.2606,W,1,05,2.72,173.5,M,-34.4,M,,*5C
$GPRMC,125744.750,A,4308.3132,N,07726.2606,W,0.09,205.74,300819,,,A*7B
$GPGGA,125745.000,4308.3132,N,07726.2606,W,1,05,2.72,173.6,M,-34.4,M,,*5B
$GPRMC,125745.250,A,4308.3132,N,07726.2606,W,0.14,205.50,300819,,,A*75
$GPGGA,125745.500,4308.3132,N,07726.2606,W,1,05,2.72,173.6,M,-34.4,M,,*5E
$GPRMC,125745.750,A,4308.3131,N,07726.2606,W,0.14,203.91,300819,,,A*78
$GPGGA,125746.000,4308.3131,N,07726.2606,W,1,05,2.72,173.6,M,-34.4,M,,*5B
$GPRMC,125746.250,A,4308.3131,N,07726.2606,W,0.09,174.17,300819,,,A*7F
$GPGGA,125746.500,4308.3131,N,07726.2606,W,1,05,2.72,173.6,M,-34.4,M,,*5E
$GPRMC,125746.750,A,4308.3131,N,07726.2606,W,0.05,234.37,300819,,,A*73
$GPGGA,125747.000,4308.3131,N,07726.2606,W,1,05,2.72,173.6,M,-34.4,M,,*5A
$GPRMC,125747.250,A,4308.3131,N,07726.2606,W,0.10,234.72,300819,,,A*72
$GPGGA,125747.500,4308.3131,N,07726.2606,W,1,05,2.71,173.6,M,-34.4,M,,*5C
$GPRMC,125747.750,A,4308.3131,N,07726.2606,W,0.06,229.85,300819,,,A*74
$GPGGA,125748.000,4308.3131,N,07726.2606,W,1,05,2.72,173.6,M,-34.4,M,,*55
$GPRMC,125748.250,A,4308.3131,N,07726.2606,W,0.03,152.25,300819,,,A*7E
$GPGGA,125748.500,4308.3131,N,07726.2606,W,1,05,2.72,173.6,M,-34.4,M,,*50
$GPRMC,125748.750,A,4308.3131,N,07726.2606,W,0.04,65.05,300819,,,A*4B
$GPGGA,125749.000,4308.3131,N,07726.2606,W,1,05,2.72,173.6,M,-34.4,M,,*54
$GPRMC,125749.250,A,4308.3131,N,07726.2606,W,0.09,48.93,300819,,,A*42
$GPGGA,125749.500,4308.3131,N,07726.2606,W,1,05,2.72,173.6,M,-34.4,M,,*51
$GPRMC,125749.750,A,4308.3131,N,07726.2606,W,0.28,20.27,300819,,,A*45
$GPGGA,125750.000,4308.3132,N,07726.2606,W,1,05,2.72,173.6,M,-34.4,M,,*5F
$GPRMC,125750.250,A,4308.3132,N,07726.2606,W,0.50,23.39,300819,,,A*48
$GPGGA,125750.500,4308.3132,N,07726.2605,W,1,05,2.71,173.6,M,-34.4,M,,*5A
$GPRMC,125750.750,A,4308.3133,N,07726.2605,W,0.67,25.24,300819,,,A*41
$GPGGA,125751.000,4308.3134,N,07726.2605,W,1,05,2.71,173.6,M,-34.4,M,,*58
$GPRMC,125751.250,A,4308.3135,N,07726.2604,W,0.80,20.20,300819,,,A*4A
$GPGGA,125751.500,4308.3137,N,07726.2604,W,1,05,2.71,173.4,M,-34.4,M,,*5D
$GPRMC,125751.750,A,4308.3139,N,07726.2603,W,1.13,18.03,300819,,,A*45
$GPGGA,125752.000,4308.3141,N,07726.2603,W,1,05,2.71,173.3,M,-34.4,M,,*5A
$GPRMC,125752.250,A,4308.3144,N,07726.2602,W,1.48,16.53,300819,,,A*4D
$GPGGA,125752.500,4308.3147,N,07726.2601,W,1,05,2.71,173.2,M,-34.4,M,,*5A
$GPRMC,125752.750,A,4308.3150,N,07726.2601,W,1.85,16.81,300819,,,A*40
$GPGGA,125753.000,4308.3152,N,07726.2600,W,1,05,2.71,173.1,M,-34.4,M,,*58
$GPRMC,125753.250,A,4308.3154,N,07726.2600,W,2.20,15.93,300819,,,A*4D
$GPGGA,125753.500,4308.3156,N,07726.2599,W,1,05,2.71,172.9,M,-34.4,M,,*53
$GPRMC,125753.750,A,4308.3158,N,07726.2598,W,2.77,16.20,300819,,,A*4F
$GPGGA,125754.000,4308.3160,N,07726.2597,W,1,05,2.71,172.9,M,-34.4,M,,*5A
$GPRMC,125754.250,A,4308.3163,N,07726.2597,W,3.23,18.30,300819,,,A*45
$GPGGA,125754.500,4308.3166,N,07726.2596,W,1,05,2.71,172.8,M,-34.4,M,,*59
$GPRMC,125754.750,A,4308.3170,N,07726.2596,W,4.34,13.86,300819,,,A*44
$GPGGA,125755.000,4308.3174,N,07726.2595,W,1,05,3.25,172.7,M,-34.4,M,,*52
$GPRMC,125755.250,A,4308.3176,N,07726.2594,W,4.30,10.70,300819,,,A*4A
$GPGGA,125755.500,4308.3180,N,07726.2594,W,1,05,3.25,172.6,M,-34.4,M,,*5C
$GPRMC,125755.750,A,4308.3182,N,07726.2593,W,4.20,11.28,300819,,,A*4E
$GPGGA,125756.000,4308.3185,N,07726.2593,W,1,05,3.25,172.4,M,-34.4,M,,*5A
$GPRMC,125756.250,A,4308.3187,N,07726.2592,W,3.84,9.95,300819,,,A*7A
$GPGGA,125756.500,4308.3189,N,07726.2592,W,1,05,3.24,172.3,M,-34.4,M,,*54
$GPRMC,125756.750,A,4308.3191,N,07726.2592,W,3.41,5.82,300819,,,A*7B
$GPGGA,125757.000,4308.3193,N,07726.2591,W,1,05,3.24,172.3,M,-34.4,M,,*58
$GPRMC,125757.250,A,4308.3195,N,07726.2591,W,3.08,8.71,300819,,,A*74
$GPGGA,125757.500,4308.3197,N,07726.2591,W,1,05,3.25,172.2,M,-34.4,M,,*59
$GPRMC,125757.750,A,4308.3200,N,07726.2590,W,3.23,9.34,300819,,,A*76
$GPGGA,125758.000,4308.3201,N,07726.2590,W,1,05,3.25,172.2,M,-34.4,M,,*5E
$GPRMC,125758.250,A,4308.3203,N,07726.2589,W,2.79,8.17,300819,,,A*79
$GPGGA,125758.500,4308.3204,N,07726.2589,W,1,05,3.25,172.2,M,-34.4,M,,*56
$GPRMC,125758.750,A,4308.3204,N,07726.2589,W,1.81,351.97,300819,,,A*78
$GPGGA,125759.000,4308.3204,N,07726.2589,W,1,05,3.25,172.2,M,-34.4,M,,*52
$GPRMC,125759.250,A,4308.3204,N,07726.2589,W,1.05,342.81,300819,,,A*75
$GPGGA,125759.500,4308.3204,N,07726.2588,W,1,05,2.71,172.2,M,-34.4,M,,*56
$GPRMC,125759.750,A,4308.3204,N,07726.2588,W,0.67,342.58,300819,,,A*70
$GPGGA,125800.000,4308.3203,N,07726.2588,W,1,05,2.71,172.1,M,-34.4,M,,*54
$GPRMC,125800.250,A,4308.3203,N,07726.2588,W,0.50,349.26,300819,,,A*77
$GPGGA,125800.500,4308.3204,N,07726.2587,W,1,05,3.24,172.1,M,-34.4,M,,*58
$GPRMC,125800.750,A,4308.3203,N,07726.2587,W,0.51,3.39,300819,,,A*7F
$GPGGA,125801.000,4308.3203,N,07726.2587,W,1,05,3.25,172.0,M,-34.4,M,,*5B
$GPRMC,125801.250,A,4308.3203,N,07726.2586,W,0.40,2.69,300819,,,A*7E
$GPGGA,125801.500,4308.3202,N,07726.2586,W,1,05,3.25,171.9,M,-34.4,M,,*54
$GPRMC,125801.750,A,4308.3202,N,07726.2585,W,0.29,24.38,300819,,,A*46
$GPGGA,125802.000,4308.3202,N,07726.2585,W,1,05,2.70,171.8,M,-34.4,M,,*51
$GPRMC,125802.250,A,4308.3202,N,07726.2585,W,0.34,16.25,300819,,,A*41
$GPGGA,125802.500,4308.3202,N,07726.2585,W,1,05,2.71,171.7,M,-34.4,M,,*5A
$GPRMC,125802.750,A,4308.3201,N,07726.2585,W,0.16,4.28,300819,,,A*79
$GPGGA,125803.000,4308.3200,N,07726.2585,W,1,05,3.24,171.6,M,-34.4,M,,*5C
$GPRMC,125803.250,A,4308.3200,N,07726.2585,W,0.14,2.54,300819,,,A*73
$GPGGA,125803.500,4308.3200,N,07726.2585,W,1,05,3.25,171.6,M,-34.4,M,,*58
$GPRMC,125803.750,A,4308.3200,N,07726.2585,W,0.11,0.51,300819,,,A*74
$GPGGA,125804.000,4308.3200,N,07726.2585,W,1,05,3.25,171.6,M,-34.4,M,,*5A
$GPRMC,125804.250,A,4308.3200,N,07726.2585,W,0.11,4.79,300819,,,A*78
$GPGGA,125804.500,4308.3200,N,07726.2585,W,1,05,3.24,171.6,M,-34.4,M,,*5E
$GPRMC,125804.750,A,4308.3200,N,07726.2585,W,0.07,35.84,300819,,,A*4A
$GPGGA,125805.000,4308.3200,N,07726.2585,W,1,05,2.70,171.6,M,-34.4,M,,*5A
$GPRMC,125805.250,A,4308.3200,N,07726.2584,W,0.02,128.71,300819,,,A*7D
$GPGGA,125805.500,4308.3200,N,07726.2584,W,1,05,2.70,171.6,M,-34.4,M,,*5E
$GPRMC,125805.750,A,4308.3200,N,07726.2584,W,0.02,12.62,300819,,,A*42
$GPGGA,125806.000,4308.3200,N,07726.2584,W,1,05,3.25,171.6,M,-34.4,M,,*59
$GPRMC,125806.250,A,4308.3200,N,07726.2584,W,0.02,330.54,300819,,,A*72
$GPGGA,125806.500,4308.3200,N,07726.2584,W,1,05,2.70,171.6,M,-34.4,M,,*5D
$GPRMC,125806.750,A,4308.3200,N,07726.2584,W,0.03,155.22,300819,,,A*76
$GPGGA,125807.000,4308.3200,N,07726.2584,W,1,05,2.70,171.6,M,-34.4,M,,*59
$GPRMC,125807.250,A,4308.3200,N,07726.2584,W,0.02,340.84,300819,,,A*79
$GPGGA,125807.500,4308.3200,N,07726.2584,W,1,05,2.70,171.6,M,-34.4,M,,*5C
$GPRMC,125807.750,A,4308.3200,N,07726.2584,W,0.02,147.77,300819,,,A*75
$GPGGA,125808.000,4308.3200,N,07726.2584,W,1,05,2.70,171.6,M,-34.4,M,,*56
$GPRMC,125808.250,A,4308.3200,N,07726.2584,W,0.05,335.75,300819,,,A*7D
$GPGGA,125808.500,4308.3200,N,07726.2584,W,1,05,2.70,171.6,M,-34.4,M,,*53
$GPRMC,125808.750,A,4308.3200,N,07726.2584,W,0.04,141.94,300819,,,A*77
$GPGGA,125809.000,4308.3200,N,07726.2584,W,1,05,2.70,171.6,M,-34.4,M,,*57
$GPRMC,125809.250,A,4308.3200,N,07726.2584,W,0.08,124.69,300819,,,A*7E
$GPGGA,125809.500,4308.3200,N,07726.2584,W,1,05,2.70,171.6,M,-34.4,M,,*52
$GPRMC,125809.750,A,4308.3200,N,07726.2584,W,0.12,94.02,300819,,,A*47
$GPGGA,125810.000,4308.3200,N,07726.2584,W,1,05,2.70,171.6,M,-34.4,M,,*5F
$GPRMC,125810.250,A,4308.3200,N,07726.2584,W,0.08,110.49,300819,,,A*73
$GPGGA,125810.500,4308.3200,N,07726.2584,W,1,05,2.70,171.6,M,-34.4,M,,*5A
$GPRMC,125810.750,A,4308.3200,N,07726.2584,W,0.15,96.34,300819,,,A*4F
$GPGGA,125811.000,4308.3200,N,07726.2584,W,1,05,2.70,171.6,M,-34.4,M,,*5E
$GPRMC,125811.250,A,4308.3200,N,07726.2583,W,0.10,53.47,300819,,,A*44
$GPGGA,125811.500,4308.3200,N,07726.2583,W,1,05,2.70,171.6,M,-34.4,M,,*5C
$GPRMC,125811.750,A,4308.3200,N,07726.2583,W,0.08,282.51,300819,,,A*71
$GPGGA,125812.000,4308.3200,N,07726.2583,W,1,05,2.70,171.6,M,-34.4,M,,*5A
$GPRMC,125812.250,A,4308.3200,N,07726.2583,W,0.04,285.17,300819,,,A*7E
$GPGGA,125812.500,4308.3200,N,07726.2583,W,1,05,2.70,171.6,M,-34.4,M,,*5F
$GPRMC,125812.750,A,4308.3200,N,07726.2584,W,0.07,251.64,300819,,,A*72
$GPGGA,125813.000,4308.3200,N,07726.2584,W,1,05,2.70,171.6,M,-34.4,M,,*5C
$GPRMC,125813.250,A,4308.3200,N,07726.2584,W,0.03,229.54,300819,,,A*7E
$GPGGA,125813.500,4308.3200,N,07726.2584,W,1,05,2.70,171.6,M,-34.4,M,,*59
$GPRMC,125813.750,A,4308.3200,N,07726.2584,W,0.04,213.82,300819,,,A*7E
$GPGGA,125814.000,4308.3200,N,07726.2584,W,1,05,2.70,171.6,M,-34.4,M,,*5B
$GPRMC,125814.250,A,4308.3200,N,07726.2584,W,0.03,197.55,300819,,,A*7E
$GPGGA,125814.500,4308.3200,N,07726.2584,W,1,05,2.70,171.6,M,-34.4,M,,*5E
$GPRMC,125814.750,A,4308.3200,N,07726.2584,W,0.04,148.00,300819,,,A*7E
$GPGGA,125815.000,4308.3200,N,07726.2584,W,1,05,2.70,171.6,M,-34.4,M,,*5A
$GPRMC,125815.250,A,4308.3200,N,07726.2584,W,0.03,148.64,300819,,,A*7F
$GPGGA,125815.500,4308.3200,N,07726.2584,W,1,05,2.70,171.6,M,-34.4,M,,*5F
$GPRMC,125815.750,A,4308.3200,N,07726.2584,W,0.04,165.19,300819,,,A*78
$GPGGA,125816.000,4308.3200,N,07726.2584,W,1,05,2.70,171.6,M,-34.4,M,,*59
$GPRMC,125816.250,A,4308.3200,N,07726.2584,W,0.09,164.14,300819,,,A*7F
$GPGGA,125816.500,4308.3200,N,07726.2584,W,1,05,2.70,171.6,M,-34.4,M,,*5C
$GPRMC,125816.750,A,4308.3200,N,07726.2584,W,0.09,188.12,300819,,,A*7E
$GPGGA,125817.000,4308.3200,N,07726.2584,W,1,05,2.70,171.6,M,-34.4,M,,*58
$GPRMC,125817.250,A,4308.3200,N,07726.2584,W,0.05,176.76,300819,,,A*75
$GPGGA,125817.500,4308.3200,N,07726.2584,W,1,05,2.69,171.6,M,-34.4,M,,*55
$GPRMC,125817.750,A,4308.3200,N,07726.2584,W,0.02,0.93,300819,,,A*7C
$GPGGA,125818.000,4308.3200,N,07726.2584,W,1,05,3.24,171.6,M,-34.4,M,,*57
$GPRMC,125818.250,A,4308.3200,N,07726.2584,W,0.16,11.52,300819,,,A*4E
$GPGGA,125818.500,4308.3200,N,07726.2584,W,1,05,3.25,171.6,M,-34.4,M,,*53
$GPRMC,125818.750,A,4308.3200,N,07726.2583,W,0.54,12.60,300819,,,A*48
$GPGGA,125819.000,4308.3201,N,07726.2583,W,1,05,3.25,171.6,M,-34.4,M,,*51
$GPRMC,125819.250,A,4308.3201,N,07726.2583,W,1.49,9.44,300819,,,A*7C
$GPGGA,125819.500,4308.3203,N,07726.2583,W,1,05,3.25,171.6,M,-34.4,M,,*56
$GPRMC,125819.750,A,4308.3204,N,07726.2583,W,1.99,15.65,300819,,,A*4F
$GPGGA,125820.000,4308.3205,N,07726.2582,W,1,05,2.69,171.5,M,-34.4,M,,*54
$GPRMC,125820.250,A,4308.3207,N,07726.2582,W,2.03,14.85,300819,,,A*4D
$GPGGA,125820.500,4308.3208,N,07726.2581,W,1,05,3.25,171.5,M,-34.4,M,,*56
$GPRMC,125820.750,A,4308.3211,N,07726.2580,W,2.93,15.64,300819,,,A*4A
$GPGGA,125821.000,4308.3214,N,07726.2579,W,1,05,2.69,171.6,M,-34.4,M,,*52
$GPRMC,125821.250,A,4308.3216,N,07726.2577,W,3.22,36.01,300819,,,A*48
$GPGGA,125821.500,4308.3220,N,07726.2576,W,1,05,2.69,171.8,M,-34.4,M,,*51
$GPRMC,125821.750,A,4308.3223,N,07726.2575,W,3.69,30.73,300819,,,A*45
$GPGGA,125822.000,4308.3226,N,07726.2573,W,1,05,2.69,171.9,M,-34.4,M,,*55
$GPRMC,125822.250,A,4308.3228,N,07726.2571,W,3.48,33.20,300819,,,A*4A
$GPGGA,125822.500,4308.3229,N,07726.2569,W,1,05,2.69,172.0,M,-34.4,M,,*5E
$GPRMC,125822.750,A,4308.3231,N,07726.2568,W,3.00,38.99,300819,,,A*4A
$GPGGA,125823.000,4308.3232,N,07726.2566,W,1,05,2.69,172.0,M,-34.4,M,,*5F
$GPRMC,125823.250,A,4308.3233,N,07726.2564,W,2.82,47.98,300819,,,A*42
$GPGGA,125823.500,4308.3234,N,07726.2561,W,1,05,2.69,172.0,M,-34.4,M,,*5B
$GPRMC,125823.750,A,4308.3236,N,07726.2559,W,3.40,51.78,300819,,,A*4A
$GPGGA,125824.000,4308.3237,N,07726.2556,W,1,05,2.69,171.9,M,-34.4,M,,*54
$GPRMC,125824.250,A,4308.3238,N,07726.2554,W,2.93,53.35,300819,,,A*4F
$GPGGA,125824.500,4308.3239,N,07726.2553,W,1,05,2.69,171.9,M,-34.4,M,,*5A
$GPRMC,125824.750,A,4308.3240,N,07726.2551,W,2.43,39.15,300819,,,A*43
$GPGGA,125825.000,4308.3241,N,07726.2551,W,1,05,2.69,171.9,M,-34.4,M,,*53
$GPRMC,125825.250,A,4308.3242,N,07726.2552,W,1.94,8.56,300819,,,A*7A
$GPGGA,125825.500,4308.3242,N,07726.2553,W,1,05,3.24,171.9,M,-34.4,M,,*5F
$GPRMC,125825.750,A,4308.3241,N,07726.2556,W,1.73,302.54,300819,,,A*7A
$GPGGA,125826.000,4308.3239,N,07726.2559,W,1,05,2.69,171.8,M,-34.4,M,,*56
$GPRMC,125826.250,A,4308.3238,N,07726.2563,W,2.75,269.31,300819,,,A*7E
$GPGGA,125826.500,4308.3236,N,07726.2567,W,1,05,2.69,171.8,M,-34.4,M,,*51
$GPRMC,125826.750,A,4308.3235,N,07726.2571,W,3.78,263.31,300819,,,A*73
$GPGGA,125827.000,4308.3235,N,07726.2575,W,1,05,2.69,171.7,M,-34.4,M,,*5A
$GPRMC,125827.250,A,4308.3235,N,07726.2579,W,4.43,266.85,300819,,,A*7A
$GPGGA,125827.500,4308.3235,N,07726.2584,W,1,05,3.25,171.7,M,-34.4,M,,*58
$GPRMC,125827.750,A,4308.3235,N,07726.2590,W,5.07,269.49,300819,,,A*76
$GPGGA,125828.000,4308.3235,N,07726.2596,W,1,05,3.25,171.7,M,-34.4,M,,*51
$GPRMC,125828.250,A,4308.3235,N,07726.2602,W,6.17,271.64,300819,,,A*70
$GPGGA,125828.500,4308.3236,N,07726.2609,W,1,05,3.25,171.7,M,-34.4,M,,*52
$GPRMC,125828.750,A,4308.3237,N,07726.2616,W,6.96,276.64,300819,,,A*7C
$GPGGA,125829.000,4308.3238,N,07726.2624,W,1,05,3.25,171.6,M,-34.4,M,,*56
$GPRMC,125829.250,A,4308.3239,N,07726.2631,W,7.56,277.68,300819,,,A*73
$GPGGA,125829.500,4308.3239,N,07726.2639,W,1,05,3.24,171.6,M,-34.4,M,,*5F
$GPRMC,125829.750,A,4308.3240,N,07726.2647,W,8.20,278.54,300819,,,A*77
$GPGGA,125830.000,4308.3241,N,07726.2655,W,1,05,3.24,171.6,M,-34.4,M,,*57
$GPRMC,125830.250,A,4308.3242,N,07726.2664,W,8.41,278.95,300819,,,A*73
$GPGGA,125830.500,4308.3243,N,07726.2672,W,1,05,3.25,171.5,M,-34.4,M,,*57
$GPRMC,125830.750,A,4308.3245,N,07726.2681,W,8.87,281.11,300819,,,A*7A
$GPGGA,125831.000,4308.3247,N,07726.2690,W,1,05,3.24,171.5,M,-34.4,M,,*5A
$GPRMC,125831.250,A,4308.3249,N,07726.2699,W,9.49,283.69,300819,,,A*75
$GPGGA,125831.500,4308.3252,N,07726.2708,W,1,05,3.25,171.4,M,-34.4,M,,*5B
$GPRMC,125831.750,A,4308.3255,N,07726.2718,W,10.28,286.34,300819,,,A*47
$GPGGA,125832.000,4308.3258,N,07726.2728,W,1,05,2.68,171.3,M,-34.4,M,,*5A
$GPRMC,125832.250,A,4308.3262,N,07726.2739,W,11.31,287.53,300819,,,A*4F
$GPGGA,125832.500,4308.3266,N,07726.2750,W,1,05,2.68,171.3,M,-34.4,M,,*5D
$GPRMC,125832.750,A,4308.3269,N,07726.2761,W,12.13,289.68,300819,,,A*49
$GPGGA,125833.000,4308.3272,N,07726.2772,W,1,05,2.68,171.2,M,-34.4,M,,*5D
$GPRMC,125833.250,A,4308.3276,N,07726.2784,W,12.56,290.52,300819,,,A*48
$GPGGA,125833.500,4308.3279,N,07726.2795,W,1,05,2.69,171.1,M,-34.4,M,,*58
$GPRMC,125833.750,A,4308.3283,N,07726.2807,W,13.05,290.87,300819,,,A*4C
$GPGGA,125834.000,4308.3286,N,07726.2819,W,1,05,2.68,171.0,M,-34.4,M,,*51
$GPRMC,125834.250,A,4308.3290,N,07726.2831,W,13.46,291.76,300819,,,A*41
$GPGGA,125834.500,4308.3293,N,07726.2844,W,1,05,2.68,170.9,M,-34.4,M,,*50
$GPRMC,125834.750,A,4308.3297,N,07726.2856,W,13.68,292.58,300819,,,A*41
$GPGGA,125835.000,4308.3301,N,07726.2869,W,1,05,2.68,170.9,M,-34.4,M,,*51
$GPRMC,125835.250,A,4308.3305,N,07726.2881,W,13.92,293.42,300819,,,A*4A
$GPGGA,125835.500,4308.3309,N,07726.2894,W,1,05,2.68,170.8,M,-34.4,M,,*5F
$GPRMC,125835.750,A,4308.3313,N,07726.2907,W,14.02,294.66,300819,,,A*48
$GPGGA,125836.000,4308.3317,N,07726.2920,W,1,05,2.68,170.8,M,-34.4,M,,*58
$GPRMC,125836.250,A,4308.3320,N,07726.2933,W,14.46,294.80,300819,,,A*41
$GPGGA,125836.500,4308.3324,N,07726.2946,W,1,05,2.68,170.7,M,-34.4,M,,*52
$GPRMC,125836.750,A,4308.3328,N,07726.2960,W,14.74,295.09,300819,,,A*4B
$GPGGA,125837.000,4308.3332,N,07726.2973,W,1,05,2.68,170.7,M,-34.4,M,,*57
$GPRMC,125837.250,A,4308.3336,N,07726.2987,W,14.85,295.43,300819,,,A*49
$GPGGA,125837.500,4308.3342,N,07726.2999,W,1,05,2.68,170.6,M,-34.4,M,,*50
$GPRMC,125837.750,A,4308.3347,N,07726.3012,W,14.86,297.32,300819,,,A*49
$GPGGA,125838.000,4308.3352,N,07726.3025,W,1,05,2.68,170.6,M,-34.4,M,,*54
$GPRMC,125838.250,A,4308.3357,N,07726.3037,W,14.85,298.20,300819,,,A*4A
$GPGGA,125838.500,4308.3363,N,07726.3049,W,1,05,2.68,170.6,M,-34.4,M,,*59
$GPRMC,125838.750,A,4308.3371,N,07726.3061,W,14.60,301.53,300819,,,A*46
$GPGGA,125839.000,4308.3378,N,07726.3072,W,1,05,2.68,170.5,M,-34.4,M,,*5C
$GPRMC,125839.250,A,4308.3384,N,07726.3083,W,14.41,303.84,300819,,,A*4F
$GPGGA,125839.500,4308.3390,N,07726.3095,W,1,05,3.25,170.4,M,-34.4,M,,*5F
$GPRMC,125839.750,A,4308.3397,N,07726.3106,W,14.65,304.85,300819,,,A*44
$GPGGA,125840.000,4308.3403,N,07726.3118,W,1,05,2.68,170.4,M,-34.4,M,,*55
$GPRMC,125840.250,A,4308.3410,N,07726.3129,W,15.03,305.29,300819,,,A*4C
$GPGGA,125840.500,4308.3417,N,07726.3141,W,1,05,2.68,170.4,M,-34.4,M,,*59
$GPRMC,125840.750,A,4308.3424,N,07726.3153,W,15.16,305.59,300819,,,A*40
$GPGGA,125841.000,4308.3430,N,07726.3166,W,1,05,2.68,170.4,M,-34.4,M,,*5D
$GPRMC,125841.250,A,4308.3436,N,07726.3178,W,15.25,305.61,300819,,,A*45
$GPGGA,125841.500,4308.3442,N,07726.3190,W,1,05,2.68,170.4,M,-34.4,M,,*54
$GPRMC,125841.750,A,4308.3447,N,07726.3203,W,15.35,304.47,300819,,,A*4D
$GPGGA,125842.000,4308.3452,N,07726.3215,W,1,05,2.68,170.4,M,-34.4,M,,*5D
$GPRMC,125842.250,A,4308.3457,N,07726.3227,W,15.36,303.39,300819,,,A*41
$GPGGA,125842.500,4308.3461,N,07726.3240,W,1,05,2.68,170.4,M,-34.4,M,,*58
$GPRMC,125842.750,A,4308.3466,N,07726.3252,W,15.17,302.30,300819,,,A*4F
$GPGGA,125843.000,4308.3471,N,07726.3265,W,1,05,2.68,170.5,M,-34.4,M,,*5B
$GPRMC,125843.250,A,4308.3476,N,07726.3277,W,15.02,301.82,300819,,,A*43
$GPGGA,125843.500,4308.3481,N,07726.3289,W,1,05,2.68,170.6,M,-34.4,M,,*50
$GPRMC,125843.750,A,4308.3486,N,07726.3301,W,14.81,301.44,300819,,,A*49
$GPGGA,125844.000,4308.3491,N,07726.3313,W,1,05,2.67,170.7,M,-34.4,M,,*5F
$GPRMC,125844.250,A,4308.3496,N,07726.3325,W,14.73,301.56,300819,,,A*42
$GPGGA,125844.500,4308.3501,N,07726.3336,W,1,05,2.67,170.7,M,-34.4,M,,*55
$GPRMC,125844.750,A,4308.3506,N,07726.3347,W,14.61,302.89,300819,,,A*49
$GPGGA,125845.000,4308.3512,N,07726.3358,W,1,05,2.68,170.7,M,-34.4,M,,*54
$GPRMC,125845.250,A,4308.3517,N,07726.3370,W,14.59,303.55,300819,,,A*42
$GPGGA,125845.500,4308.3524,N,07726.3381,W,1,05,2.67,170.7,M,-34.4,M,,*5F
$GPRMC,125845.750,A,4308.3530,N,07726.3392,W,14.84,304.99,300819,,,A*49
$GPGGA,125846.000,4308.3536,N,07726.3405,W,1,05,2.68,170.7,M,-34.4,M,,*5E
$GPRMC,125846.250,A,4308.3541,N,07726.3417,W,15.36,304.30,300819,,,A*48
$GPGGA,125846.500,4308.3547,N,07726.3430,W,1,05,2.67,170.7,M,-34.4,M,,*54
$GPRMC,125846.750,A,4308.3553,N,07726.3443,W,15.73,304.26,300819,,,A*49
$GPGGA,125847.000,4308.3559,N,07726.3455,W,1,05,2.67,170.8,M,-34.4,M,,*53
$GPRMC,125847.250,A,4308.3565,N,07726.3469,W,16.23,304.09,300819,,,A*4B
$GPGGA,125847.500,4308.3571,N,07726.3482,W,1,05,2.67,170.8,M,-34.4,M,,*56
$GPRMC,125847.750,A,4308.3579,N,07726.3495,W,16.68,305.06,300819,,,A*41
$GPGGA,125848.000,4308.3587,N,07726.3508,W,1,05,2.67,170.9,M,-34.4,M,,*57
$GPRMC,125848.250,A,4308.3596,N,07726.3521,W,17.06,307.29,300819,,,A*42
$GPGGA,125848.500,4308.3604,N,07726.3534,W,1,05,3.25,170.9,M,-34.4,M,,*52
$GPRMC,125848.750,A,4308.3612,N,07726.3548,W,17.44,308.49,300819,,,A*48
$GPGGA,125849.000,4308.3620,N,07726.3561,W,1,05,2.67,171.0,M,-34.4,M,,*5F
$GPRMC,125849.250,A,4308.3628,N,07726.3574,W,17.44,309.33,300819,,,A*46
$GPGGA,125849.500,4308.3636,N,07726.3586,W,1,05,2.67,171.2,M,-34.4,M,,*56
$GPRMC,125849.750,A,4308.3643,N,07726.3599,W,17.22,310.64,300819,,,A*47
$GPGGA,125850.000,4308.3652,N,07726.3611,W,1,05,2.67,171.3,M,-34.4,M,,*55
$GPRMC,125850.250,A,4308.3660,N,07726.3622,W,16.71,313.09,300819,,,A*47
$GPGGA,125850.500,4308.3668,N,07726.3632,W,1,05,2.67,171.5,M,-34.4,M,,*5E
$GPRMC,125850.750,A,4308.3677,N,07726.3642,W,15.84,316.64,300819,,,A*45
$GPGGA,125851.000,4308.3689,N,07726.3651,W,1,05,2.67,171.7,M,-34.4,M,,*52
$GPRMC,125851.250,A,4308.3702,N,07726.3660,W,16.10,322.79,300819,,,A*47
$GPGGA,125851.500,4308.3716,N,07726.3668,W,1,05,2.67,171.9,M,-34.4,M,,*54
$GPRMC,125851.750,A,4308.3729,N,07726.3676,W,17.06,329.37,300819,,,A*4B
$GPGGA,125852.000,4308.3741,N,07726.3684,W,1,05,2.67,172.1,M,-34.4,M,,*59
$GPRMC,125852.250,A,4308.3754,N,07726.3692,W,17.58,332.30,300819,,,A*4B
$GPGGA,125852.500,4308.3766,N,07726.3699,W,1,05,2.67,172.3,M,-34.4,M,,*57
$GPRMC,125852.750,A,4308.3780,N,07726.3706,W,18.02,334.87,300819,,,A*41
$GPGGA,125853.000,4308.3793,N,07726.3713,W,1,05,2.67,172.5,M,-34.4,M,,*5C
$GPRMC,125853.250,A,4308.3806,N,07726.3719,W,18.15,337.19,300819,,,A*48
$GPGGA,125853.500,4308.3817,N,07726.3726,W,1,05,2.67,172.7,M,-34.4,M,,*5E
$GPRMC,125853.750,A,4308.3829,N,07726.3731,W,17.66,338.84,300819,,,A*4A
$GPGGA,125854.000,4308.3843,N,07726.3735,W,1,05,2.67,172.9,M,-34.4,M,,*51
$GPRMC,125854.250,A,4308.3858,N,07726.3738,W,18.12,343.80,300819,,,A*43
$GPGGA,125854.500,4308.3872,N,07726.3742,W,1,05,2.67,173.0,M,-34.4,M,,*5E
$GPRMC,125854.750,A,4308.3884,N,07726.3745,W,18.09,346.75,300819,,,A*48
$GPGGA,125855.000,4308.3896,N,07726.3749,W,1,04,5.23,173.2,M,-34.4,M,,*5F
$GPRMC,125855.250,A,4308.3908,N,07726.3753,W,17.97,347.78,300819,,,A*4A
$GPGGA,125855.500,4308.3921,N,07726.3756,W,1,04,5.22,173.4,M,-34.4,M,,*5E
$GPRMC,125855.750,A,4308.3934,N,07726.3759,W,18.00,349.03,300819,,,A*49
$GPGGA,125856.000,4308.3947,N,07726.3761,W,1,05,3.25,173.5,M,-34.4,M,,*5D
$GPRMC,125856.250,A,4308.3961,N,07726.3763,W,18.39,351.37,300819,,,A*42
$GPGGA,125856.500,4308.3974,N,07726.3764,W,1,05,3.24,173.7,M,-34.4,M,,*5E
$GPRMC,125856.750,A,4308.3987,N,07726.3765,W,18.38,354.66,300819,,,A*49
$GPGGA,125857.000,4308.4000,N,07726.3764,W,1,05,3.25,173.8,M,-34.4,M,,*59
$GPRMC,125857.250,A,4308.4012,N,07726.3765,W,18.62,357.34,300819,,,A*44
$GPGGA,125857.500,4308.4025,N,07726.3765,W,1,04,5.22,174.0,M,-34.4,M,,*55
$GPRMC,125857.750,A,4308.4037,N,07726.3766,W,18.59,358.26,300819,,,A*41
$GPGGA,125858.000,4308.4050,N,07726.3766,W,1,04,5.22,174.2,M,-34.4,M,,*5C
$GPRMC,125858.250,A,4308.4063,N,07726.3766,W,18.77,359.09,300819,,,A*4A
$GPGGA,125858.500,4308.4075,N,07726.3765,W,1,04,5.22,174.4,M,-34.4,M,,*5B
$GPRMC,125858.750,A,4308.4088,N,07726.3764,W,18.71,0.75,300819,,,A*4A
$GPGGA,125859.000,4308.4101,N,07726.3763,W,1,04,5.22,174.6,M,-34.4,M,,*59
$GPRMC,125859.250,A,4308.4114,N,07726.3761,W,18.73,2.59,300819,,,A*41
$GPGGA,125859.500,4308.4127,N,07726.3758,W,1,04,5.22,174.7,M,-34.4,M,,*51
$GPRMC,125859.750,A,4308.4138,N,07726.3745,W,20.30,10.40,300819,,,A*7B
$GPGGA,125900.000,4308.4151,N,07726.3736,W,1,04,5.22,173.8,M,-34.4,M,,*58
$GPRMC,125900.250,A,4308.4166,N,07726.3727,W,21.10,10.93,300819,,,A*71
$GPGGA,125900.500,4308.4179,N,07726.3719,W,1,04,5.22,173.3,M,-34.4,M,,*51
$GPRMC,125900.750,A,4308.4193,N,07726.3712,W,21.09,10.42,300819,,,A*7C
$GPGGA,125901.000,4308.4208,N,07726.3707,W,1,04,5.21,172.7,M,-34.4,M,,*59
$GPRMC,125901.250,A,4308.4223,N,07726.3702,W,21.40,10.38,300819,,,A*71
$GPGGA,125901.500,4308.4237,N,07726.3696,W,1,04,5.22,172.4,M,-34.4,M,,*59
$GPRMC,125901.750,A,4308.4252,N,07726.3692,W,21.64,10.26,300819,,,A*73
$GPGGA,125902.000,4308.4266,N,07726.3688,W,1,04,5.21,171.9,M,-34.4,M,,*59
$GPRMC,125902.250,A,4308.4280,N,07726.3683,W,21.62,9.68,300819,,,A*4E
$GPGGA,125902.500,4308.4295,N,07726.3679,W,1,04,5.21,171.4,M,-34.4,M,,*53
$GPRMC,125902.750,A,4308.4308,N,07726.3676,W,21.66,9.20,300819,,,A*48
$GPGGA,125903.000,4308.4323,N,07726.3672,W,1,04,5.21,171.1,M,-34.4,M,,*55
$GPRMC,125903.250,A,4308.4337,N,07726.3669,W,21.65,9.62,300819,,,A*4B
$GPGGA,125903.500,4308.4351,N,07726.3666,W,1,04,5.21,170.7,M,-34.4,M,,*57
$GPRMC,125903.750,A,4308.4365,N,07726.3662,W,21.43,10.26,300819,,,A*7E
$GPGGA,125904.000,4308.4379,N,07726.3659,W,1,04,5.21,170.2,M,-34.4,M,,*56
$GPRMC,125904.250,A,4308.4392,N,07726.3655,W,21.10,10.92,300819,,,A*79
$GPGGA,125904.500,4308.4404,N,07726.3652,W,1,04,5.21,170.0,M,-34.4,M,,*57
$GPRMC,125904.750,A,4308.4417,N,07726.3648,W,20.70,11.98,300819,,,A*76
$GPGGA,125905.000,4308.4431,N,07726.3642,W,1,04,5.21,169.7,M,-34.4,M,,*5B
$GPRMC,125905.250,A,4308.4444,N,07726.3638,W,20.34,12.44,300819,,,A*71
$GPGGA,125905.500,4308.4455,N,07726.3635,W,1,04,5.21,169.3,M,-34.4,M,,*58
$GPRMC,125905.750,A,4308.4466,N,07726.3631,W,19.20,13.59,300819,,,A*7F
$GPGGA,125906.000,4308.4477,N,07726.3628,W,1,04,5.21,168.5,M,-34.4,M,,*55
$GPRMC,125906.250,A,4308.4486,N,07726.3625,W,18.36,13.56,300819,,,A*7B
$GPGGA,125906.500,4308.4494,N,07726.3624,W,1,04,5.21,167.8,M,-34.4,M,,*53
$GPRMC,125906.750,A,4308.4502,N,07726.3623,W,16.97,12.55,300819,,,A*72
$GPGGA,125907.000,4308.4511,N,07726.3621,W,1,04,5.21,167.1,M,-34.4,M,,*57
$GPRMC,125907.250,A,4308.4518,N,07726.3620,W,16.20,12.39,300819,,,A*78
$GPGGA,125907.500,4308.4525,N,07726.3621,W,1,04,5.20,165.6,M,-34.4,M,,*51
$GPRMC,125907.750,A,4308.4533,N,07726.3621,W,15.34,11.74,300819,,,A*79
$GPGGA,125908.000,4308.4536,N,07726.3625,W,1,04,5.20,163.2,M,-34.4,M,,*5F
$GPRMC,125908.250,A,4308.4540,N,07726.3627,W,14.52,10.65,300819,,,A*71
$GPGGA,125908.500,4308.4545,N,07726.3629,W,1,04,5.20,161.4,M,-34.4,M,,*56
$GPRMC,125908.750,A,4308.4549,N,07726.3630,W,13.46,11.25,300819,,,A*7C
$GPGGA,125909.000,4308.4556,N,07726.3630,W,1,04,5.20,160.0,M,-34.4,M,,*5D
$GPRMC,125909.250,A,4308.4562,N,07726.3629,W,12.81,12.25,300819,,,A*70
$GPGGA,125909.500,4308.4566,N,07726.3627,W,1,04,5.20,159.3,M,-34.4,M,,*54
$GPRMC,125909.750,A,4308.4569,N,07726.3626,W,11.65,15.15,300819,,,A*7C
$GPGGA,125910.000,4308.4573,N,07726.3624,W,1,05,2.66,159.2,M,-34.4,M,,*5B
$GPRMC,125910.250,A,4308.4574,N,07726.3624,W,10.39,15.47,300819,,,A*70
$GPGGA,125910.500,4308.4573,N,07726.3626,W,1,05,2.66,159.6,M,-34.4,M,,*58
$GPRMC,125910.750,A,4308.4573,N,07726.3627,W,8.67,15.64,300819,,,A*42
$GPGGA,125911.000,4308.4579,N,07726.3627,W,1,05,2.66,159.6,M,-34.4,M,,*57
$GPRMC,125911.250,A,4308.4582,N,07726.3625,W,5.28,16.48,300819,,,A*41
$GPGGA,125911.500,4308.4585,N,07726.3624,W,1,04,4.69,159.5,M,-34.4,M,,*59
$GPRMC,125911.750,A,4308.4588,N,07726.3625,W,4.48,10.03,300819,,,A*40
$GPGGA,125912.000,4308.4588,N,07726.3625,W,1,04,5.19,159.3,M,-34.4,M,,*53
$GPRMC,125912.250,A,4308.4588,N,07726.3626,W,2.59,2.31,300819,,,A*71
$GPGGA,125912.500,4308.4592,N,07726.3627,W,1,04,5.19,159.2,M,-34.4,M,,*5E
$GPRMC,125912.750,A,4308.4595,N,07726.3629,W,3.53,338.99,300819,,,A*74
$GPGGA,125913.000,4308.4586,N,07726.3638,W,1,04,4.68,159.1,M,-34.4,M,,*55
$GPRMC,125913.250,A,4308.4578,N,07726.3648,W,5.38,270.32,300819,,,A*73
$GPGGA,125913.500,4308.4593,N,07726.3655,W,1,04,4.68,158.8,M,-34.4,M,,*57
$GPRMC,125913.750,A,4308.4600,N,07726.3665,W,8.93,291.36,300819,,,A*72
$GPGGA,125914.000,4308.4600,N,07726.3675,W,1,05,2.65,158.7,M,-34.4,M,,*5B
$GPRMC,125914.250,A,4308.4600,N,07726.3686,W,10.70,287.04,300819,,,A*4F
$GPGGA,125914.500,4308.4603,N,07726.3701,W,1,05,2.65,158.8,M,-34.4,M,,*50
$GPRMC,125914.750,A,4308.4611,N,07726.3717,W,15.57,285.17,300819,,,A*43
$GPGGA,125915.000,4308.4614,N,07726.3736,W,1,05,2.65,158.8,M,-34.4,M,,*56
$GPRMC,125915.250,A,4308.4618,N,07726.3757,W,19.30,283.62,300819,,,A*43
$GPGGA,125915.500,4308.4622,N,07726.3779,W,1,05,2.65,159.0,M,-34.4,M,,*54
$GPRMC,125915.750,A,4308.4624,N,07726.3802,W,22.59,281.78,300819,,,A*48
$GPGGA,125916.000,4308.4625,N,07726.3826,W,1,05,2.65,159.0,M,-34.4,M,,*50
$GPRMC,125916.250,A,4308.4629,N,07726.3850,W,24.88,280.49,300819,,,A*4D
$GPGGA,125916.500,4308.4633,N,07726.3875,W,1,05,2.65,159.3,M,-34.4,M,,*57
$GPRMC,125916.750,A,4308.4636,N,07726.3900,W,26.67,280.08,300819,,,A*44
$GPGGA,125917.000,4308.4640,N,07726.3925,W,1,05,2.65,159.5,M,-34.4,M,,*55
$GPRMC,125917.250,A,4308.4642,N,07726.3951,W,27.17,279.54,300819,,,A*4E
$GPGGA,125917.500,4308.4645,N,07726.3977,W,1,05,2.65,159.4,M,-34.4,M,,*53
$GPRMC,125917.750,A,4308.4648,N,07726.4002,W,26.93,279.05,300819,,,A*40
$GPGGA,125918.000,4308.4650,N,07726.4028,W,1,05,2.65,159.4,M,-34.4,M,,*59
$GPRMC,125918.250,A,4308.4652,N,07726.4052,W,25.67,278.40,300819,,,A*4C
$GPGGA,125918.500,4308.4655,N,07726.4076,W,1,05,2.65,159.2,M,-34.4,M,,*54
$GPRMC,125918.750,A,4308.4659,N,07726.4098,W,24.45,279.54,300819,,,A*41
$GPGGA,125919.000,4308.4662,N,07726.4120,W,1,05,2.65,159.3,M,-34.4,M,,*57
$GPRMC,125919.250,A,4308.4665,N,07726.4141,W,23.29,280.56,300819,,,A*46
$GPGGA,125919.500,4308.4666,N,07726.4161,W,1,05,2.65,159.2,M,-34.4,M,,*52
$GPRMC,125919.750,A,4308.4669,N,07726.4180,W,21.75,281.19,300819,,,A*43
$GPGGA,125920.000,4308.4671,N,07726.4199,W,1,05,2.65,159.2,M,-34.4,M,,*5C
$GPRMC,125920.250,A,4308.4672,N,07726.4217,W,20.22,280.93,300819,,,A*4B
$GPGGA,125920.500,4308.4671,N,07726.4233,W,1,05,2.65,159.1,M,-34.4,M,,*59
$GPRMC,125920.750,A,4308.4672,N,07726.4247,W,17.35,280.96,300819,,,A*4C
$GPGGA,125921.000,4308.4675,N,07726.4262,W,1,05,2.65,159.1,M,-34.4,M,,*5D
$GPRMC,125921.250,A,4308.4677,N,07726.4277,W,15.11,282.67,300819,,,A*46
$GPGGA,125921.500,4308.4677,N,07726.4290,W,1,05,2.65,159.1,M,-34.4,M,,*57
$GPRMC,125921.750,A,4308.4678,N,07726.4302,W,13.35,283.03,300819,,,A*4C
$GPGGA,125922.000,4308.4679,N,07726.4313,W,1,05,2.65,159.2,M,-34.4,M,,*56
$GPRMC,125922.250,A,4308.4681,N,07726.4324,W,11.76,284.17,300819,,,A*4F
$GPGGA,125922.500,4308.4681,N,07726.4334,W,1,05,2.65,159.1,M,-34.4,M,,*52
$GPRMC,125922.750,A,4308.4682,N,07726.4344,W,11.00,284.93,300819,,,A*42
$GPGGA,125923.000,4308.4672,N,07726.4354,W,1,05,2.65,159.1,M,-34.4,M,,*5C
$GPRMC,125923.250,A,4308.4672,N,07726.4363,W,9.28,274.43,300819,,,A*7D
$GPGGA,125923.500,4308.4673,N,07726.4371,W,1,05,2.65,159.1,M,-34.4,M,,*5F
$GPRMC,125923.750,A,4308.4673,N,07726.4379,W,8.87,276.94,300819,,,A*7E
$GPGGA,125924.000,4308.4674,N,07726.4387,W,1,05,2.65,159.0,M,-34.4,M,,*52
$GPRMC,125924.250,A,4308.4675,N,07726.4394,W,7.97,279.25,300819,,,A*72
$GPGGA,125924.500,4308.4676,N,07726.4400,W,1,05,2.65,158.6,M,-34.4,M,,*5A
$GPRMC,125924.750,A,4308.4677,N,07726.4405,W,6.37,283.70,300819,,,A*74
$GPGGA,125925.000,4308.4678,N,07726.4409,W,1,05,2.65,158.5,M,-34.4,M,,*5A
$GPRMC,125925.250,A,4308.4679,N,07726.4413,W,5.21,285.21,300819,,,A*7F
$GPGGA,125925.500,4308.4679,N,07726.4416,W,1,05,2.65,158.4,M,-34.4,M,,*51
$GPRMC,125925.750,A,4308.4679,N,07726.4418,W,3.72,286.29,300819,,,A*7A
$GPGGA,125926.000,4308.4679,N,07726.4419,W,1,05,2.64,158.5,M,-34.4,M,,*58
$GPRMC,125926.250,A,4308.4680,N,07726.4419,W,2.26,287.87,300819,,,A*7E
$GPGGA,125926.500,4308.4680,N,07726.4419,W,1,05,2.65,158.6,M,-34.4,M,,*59
$GPRMC,125926.750,A,4308.4680,N,07726.4418,W,1.10,287.87,300819,,,A*7C
$GPGGA,125927.000,4308.4680,N,07726.4417,W,1,05,2.64,158.8,M,-34.4,M,,*5C
$GPRMC,125927.250,A,4308.4680,N,07726.4416,W,0.39,287.87,300819,,,A*7C
$GPGGA,125927.500,4308.4680,N,07726.4415,W,1,05,2.65,158.9,M,-34.4,M,,*5B
$GPRMC,125927.750,A,4308.4682,N,07726.4413,W,0.35,287.87,300819,,,A*72
$GPGGA,125928.000,4308.4683,N,07726.4412,W,1,05,2.64,159.0,M,-34.4,M,,*5C
$GPRMC,125928.250,A,4308.4685,N,07726.4410,W,0.62,287.87,300819,,,A*7E
$GPGGA,125928.500,4308.4687,N,07726.4408,W,1,05,2.64,159.1,M,-34.4,M,,*57
$GPRMC,125928.750,A,4308.4689,N,07726.4407,W,0.84,287.87,300819,,,A*79
$GPGGA,125929.000,4308.4691,N,07726.4406,W,1,05,2.64,159.2,M,-34.4,M,,*59
$GPRMC,125929.250,A,4308.4692,N,07726.4404,W,0.92,287.87,300819,,,A*73
$GPGGA,125929.500,4308.4694,N,07726.4402,W,1,05,2.64,159.3,M,-34.4,M,,*5C
$GPRMC,125929.750,A,4308.4695,N,07726.4401,W,0.96,287.87,300819,,,A*70
$GPGGA,125930.000,4308.4696,N,07726.4400,W,1,05,2.64,159.4,M,-34.4,M,,*56
$GPRMC,125930.250,A,4308.4697,N,07726.4400,W,1.00,287.87,300819,,,A*70
$GPGGA,125930.500,4308.4697,N,07726.4400,W,1,05,2.64,159.4,M,-34.4,M,,*52
$GPRMC,125930.750,A,4308.4698,N,07726.4399,W,0.99,287.87,300819,,,A*7C
$GPGGA,125931.000,4308.4698,N,07726.4399,W,1,05,2.64,159.4,M,-34.4,M,,*5E
$GPRMC,125931.250,A,4308.4699,N,07726.4398,W,0.96,287.87,300819,,,A*77
$GPGGA,125931.500,4308.4700,N,07726.4398,W,1,05,2.64,159.4,M,-34.4,M,,*5A
$GPRMC,125931.750,A,4308.4700,N,07726.4397,W,0.83,287.87,300819,,,A*78
$GPGGA,125932.000,4308.4701,N,07726.4397,W,1,05,2.64,159.4,M,-34.4,M,,*52
$GPRMC,125932.250,A,4308.4701,N,07726.4397,W,0.80,287.87,300819,,,A*7C
$GPGGA,125932.500,4308.4702,N,07726.4396,W,1,05,2.64,159.5,M,-34.4,M,,*54
$GPRMC,125932.750,A,4308.4702,N,07726.4396,W,0.80,287.87,300819,,,A*7B
$GPGGA,125933.000,4308.4703,N,07726.4396,W,1,05,2.64,159.5,M,-34.4,M,,*51
$GPRMC,125933.250,A,4308.4703,N,07726.4395,W,0.67,287.87,300819,,,A*74
$GPGGA,125933.500,4308.4704,N,07726.4395,W,1,05,2.64,159.5,M,-34.4,M,,*50
$GPRMC,125933.750,A,4308.4704,N,07726.4395,W,0.56,287.87,300819,,,A*74
$GPGGA,125934.000,4308.4704,N,07726.4394,W,1,05,2.64,159.6,M,-34.4,M,,*50
$GPRMC,125934.250,A,4308.4704,N,07726.4394,W,0.53,287.87,300819,,,A*72
$GPGGA,125934.500,4308.4705,N,07726.4394,W,1,05,2.64,159.6,M,-34.4,M,,*54
$GPRMC,125934.750,A,4308.4705,N,07726.4393,W,0.47,287.87,300819,,,A*74
$GPGGA,125935.000,4308.4705,N,07726.4393,W,1,05,2.64,159.6,M,-34.4,M,,*57
$GPRMC,125935.250,A,4308.4705,N,07726.4393,W,0.45,287.87,300819,,,A*72
$GPGGA,125935.500,4308.4706,N,07726.4393,W,1,05,2.64,159.6,M,-34.4,M,,*51
$GPRMC,125935.750,A,4308.4706,N,07726.4392,W,0.47,287.87,300819,,,A*77
$GPGGA,125936.000,4308.4706,N,07726.4392,W,1,05,2.64,159.6,M,-34.4,M,,*56
$GPRMC,125936.250,A,4308.4706,N,07726.4392,W,0.44,287.87,300819,,,A*72
$GPGGA,125936.500,4308.4707,N,07726.4391,W,1,05,2.64,159.7,M,-34.4,M,,*50
$GPRMC,125936.750,A,4308.4707,N,07726.4391,W,0.44,287.87,300819,,,A*75
$GPGGA,125937.000,4308.4707,N,07726.4391,W,1,05,2.64,159.7,M,-34.4,M,,*54
$GPRMC,125937.250,A,4308.4707,N,07726.4391,W,0.48,287.87,300819,,,A*7D
$GPGGA,125937.500,4308.4708,N,07726.4390,W,1,05,2.64,159.7,M,-34.4,M,,*5F
$GPRMC,125937.750,A,4308.4708,N,07726.4390,W,0.51,287.87,300819,,,A*7E
$GPGGA,125938.000,4308.4708,N,07726.4390,W,1,05,2.64,159.7,M,-34.4,M,,*55
$GPRMC,125938.250,A,4308.4709,N,07726.4390,W,0.49,287.87,300819,,,A*7C
$GPGGA,125938.500,4308.4709,N,07726.4390,W,1,05,2.64,159.7,M,-34.4,M,,*51
$GPRMC,125938.750,A,4308.4709,N,07726.4390,W,0.54,287.87,300819,,,A*75
$GPGGA,125939.000,4308.4710,N,07726.4390,W,1,05,3.25,159.7,M,-34.4,M,,*59
$GPRMC,125939.250,A,4308.4710,N,07726.4390,W,0.74,287.87,300819,,,A*7B
$GPGGA,125939.500,4308.4711,N,07726.4390,W,1,05,2.64,159.7,M,-34.4,M,,*59
$GPRMC,125939.750,A,4308.4711,N,07726.4391,W,1.10,287.87,300819,,,A*7D
$GPGGA,125940.000,4308.4712,N,07726.4392,W,1,05,2.64,159.7,M,-34.4,M,,*53
$GPRMC,125940.250,A,4308.4712,N,07726.4393,W,1.69,287.87,300819,,,A*79
$GPGGA,125940.500,4308.4713,N,07726.4394,W,1,05,2.63,159.8,M,-34.4,M,,*59
$GPRMC,125940.750,A,4308.4716,N,07726.4399,W,2.64,299.31,300819,,,A*7E
$GPGGA,125941.000,4308.4718,N,07726.4404,W,1,05,2.64,159.9,M,-34.4,M,,*5E
$GPRMC,125941.250,A,4308.4721,N,07726.4411,W,4.30,293.55,300819,,,A*76
$GPGGA,125941.500,4308.4727,N,07726.4418,W,1,05,2.63,160.4,M,-34.4,M,,*5A
$GPRMC,125941.750,A,4308.4731,N,07726.4426,W,6.44,294.61,300819,,,A*77
$GPGGA,125942.000,4308.4736,N,07726.4434,W,1,05,2.63,160.9,M,-34.4,M,,*5F
$GPRMC,125942.250,A,4308.4738,N,07726.4442,W,7.17,292.56,300819,,,A*7F
$GPGGA,125942.500,4308.4738,N,07726.4449,W,1,05,2.63,161.3,M,-34.4,M,,*55
$GPRMC,125942.750,A,4308.4737,N,07726.4457,W,7.03,287.02,300819,,,A*71
$GPGGA,125943.000,4308.4738,N,07726.4464,W,1,05,2.63,161.5,M,-34.4,M,,*58
$GPRMC,125943.250,A,4308.4739,N,07726.4471,W,7.13,286.47,300819,,,A*7E
$GPGGA,125943.500,4308.4741,N,07726.4478,W,1,05,2.63,161.8,M,-34.4,M,,*53
$GPRMC,125943.750,A,4308.4740,N,07726.4485,W,7.11,282.00,300819,,,A*7B
$GPGGA,125944.000,4308.4740,N,07726.4492,W,1,05,2.63,161.9,M,-34.4,M,,*55
$GPRMC,125944.250,A,4308.4739,N,07726.4499,W,6.48,275.74,300819,,,A*7C
$GPGGA,125944.500,4308.4736,N,07726.4507,W,1,05,3.25,161.9,M,-34.4,M,,*5F
$GPRMC,125944.750,A,4308.4731,N,07726.4515,W,6.59,259.96,300819,,,A*76
$GPGGA,125945.000,4308.4728,N,07726.4522,W,1,05,2.63,161.9,M,-34.4,M,,*50
$GPRMC,125945.250,A,4308.4723,N,07726.4528,W,6.61,246.71,300819,,,A*73
$GPGGA,125945.500,4308.4718,N,07726.4535,W,1,05,2.63,162.0,M,-34.4,M,,*5A
$GPRMC,125945.750,A,4308.4713,N,07726.4541,W,7.10,234.29,300819,,,A*75
$GPGGA,125946.000,4308.4708,N,07726.4547,W,1,05,2.63,162.1,M,-34.4,M,,*59
$GPRMC,125946.250,A,4308.4701,N,07726.4554,W,8.23,223.62,300819,,,A*72
$GPGGA,125946.500,4308.4694,N,07726.4560,W,1,05,2.63,162.5,M,-34.4,M,,*59
$GPRMC,125946.750,A,4308.4688,N,07726.4566,W,9.77,214.85,300819,,,A*7B
$GPGGA,125947.000,4308.4679,N,07726.4572,W,1,05,2.63,162.9,M,-34.4,M,,*51
$GPRMC,125947.250,A,4308.4668,N,07726.4579,W,12.74,208.89,300819,,,A*47
$GPGGA,125947.500,4308.4655,N,07726.4586,W,1,05,3.25,163.1,M,-34.4,M,,*5B
$GPRMC,125947.750,A,4308.4644,N,07726.4592,W,15.31,203.65,300819,,,A*46
$GPGGA,125948.000,4308.4632,N,07726.4598,W,1,05,2.63,163.4,M,-34.4,M,,*59
$GPRMC,125948.250,A,4308.4619,N,07726.4604,W,17.21,201.05,300819,,,A*4F
$GPGGA,125948.500,4308.4604,N,07726.4611,W,1,05,3.25,163.7,M,-34.4,M,,*5B
$GPRMC,125948.750,A,4308.4588,N,07726.4618,W,20.51,200.33,300819,,,A*4B
$GPGGA,125949.000,4308.4573,N,07726.4625,W,1,05,2.63,164.0,M,-34.4,M,,*58
$GPRMC,125949.250,A,4308.4556,N,07726.4633,W,22.63,200.58,300819,,,A*4B
$GPGGA,125949.500,4308.4538,N,07726.4641,W,1,05,3.25,164.2,M,-34.4,M,,*51
$GPRMC,125949.750,A,4308.4520,N,07726.4649,W,25.23,200.09,300819,,,A*45
$GPGGA,125950.000,4308.4502,N,07726.4657,W,1,05,2.63,164.3,M,-34.4,M,,*50
$GPRMC,125950.250,A,4308.4483,N,07726.4666,W,27.04,200.28,300819,,,A*49
$GPGGA,125950.500,4308.4464,N,07726.4675,W,1,05,3.25,164.5,M,-34.4,M,,*51
$GPRMC,125950.750,A,4308.4445,N,07726.4684,W,28.61,199.86,300819,,,A*41
$GPGGA,125951.000,4308.4426,N,07726.4694,W,1,05,2.63,164.6,M,-34.4,M,,*5C
$GPRMC,125951.250,A,4308.4406,N,07726.4703,W,29.41,199.54,300819,,,A*40
$GPGGA,125951.500,4308.4385,N,07726.4713,W,1,05,2.63,164.7,M,-34.4,M,,*58
$GPRMC,125951.750,A,4308.4365,N,07726.4722,W,30.22,200.12,300819,,,A*48
$GPGGA,125952.000,4308.4344,N,07726.4732,W,1,05,2.63,164.8,M,-34.4,M,,*5F
$GPRMC,125952.250,A,4308.4324,N,07726.4742,W,31.04,199.89,300819,,,A*49
$GPGGA,125952.500,4308.4302,N,07726.4752,W,1,05,2.63,165.0,M,-34.4,M,,*57
$GPRMC,125952.750,A,4308.4281,N,07726.4762,W,31.82,199.53,300819,,,A*49
$GPGGA,125953.000,4308.4259,N,07726.4773,W,1,05,2.63,165.2,M,-34.4,M,,*5D
$GPRMC,125953.250,A,4308.4236,N,07726.4783,W,33.01,198.88,300819,,,A*40
$GPGGA,125953.500,4308.4214,N,07726.4794,W,1,05,2.62,165.3,M,-34.4,M,,*58
$GPRMC,125953.750,A,4308.4191,N,07726.4804,W,34.15,198.70,300819,,,A*4E
$GPGGA,125954.000,4308.4169,N,07726.4814,W,1,05,2.63,165.5,M,-34.4,M,,*53
$GPRMC,125954.250,A,4308.4146,N,07726.4825,W,34.42,198.35,300819,,,A*46
$GPGGA,125954.500,4308.4123,N,07726.4835,W,1,05,2.63,165.7,M,-34.4,M,,*59
$GPRMC,125954.750,A,4308.4100,N,07726.4845,W,34.80,198.17,300819,,,A*49
$GPGGA,125955.000,4308.4077,N,07726.4855,W,1,05,2.63,165.9,M,-34.4,M,,*55
$GPRMC,125955.250,A,4308.4053,N,07726.4866,W,36.03,197.39,300819,,,A*41
$GPGGA,125955.500,4308.4029,N,07726.4875,W,1,05,3.25,166.1,M,-34.4,M,,*51
$GPRMC,125955.750,A,4308.4005,N,07726.4885,W,36.30,196.77,300819,,,A*41
$GPGGA,125956.000,4308.3981,N,07726.4895,W,1,05,2.62,166.2,M,-34.4,M,,*54
$GPRMC,125956.250,A,4308.3957,N,07726.4905,W,36.71,196.01,300819,,,A*43
$GPGGA,125956.500,4308.3933,N,07726.4914,W,1,05,3.25,166.4,M,-34.4,M,,*54
$GPRMC,125956.750,A,4308.3908,N,07726.4922,W,36.75,193.90,300819,,,A*40
$GPGGA,125957.000,4308.3883,N,07726.4931,W,1,05,2.62,166.7,M,-34.4,M,,*5C
$GPRMC,125957.250,A,4308.3858,N,07726.4938,W,37.04,192.71,300819,,,A*42
$GPGGA,125957.500,4308.3833,N,07726.4946,W,1,05,2.62,167.0,M,-34.4,M,,*54
$GPRMC,125957.750,A,4308.3807,N,07726.4953,W,37.26,191.82,300819,,,A*4F
$GPGGA,125958.000,4308.3781,N,07726.4960,W,1,05,2.62,167.2,M,-34.4,M,,*5E
$GPRMC,125958.250,A,4308.3755,N,07726.4967,W,38.22,190.77,300819,,,A*4A
$GPGGA,125958.500,4308.3729,N,07726.4974,W,1,05,2.62,167.4,M,-34.4,M,,*5A
$GPRMC,125958.750,A,4308.3702,N,07726.4980,W,38.21,189.39,300819,,,A*45
$GPGGA,125959.000,4308.3676,N,07726.4986,W,1,05,2.62,167.5,M,-34.4,M,,*59
$GPRMC,125959.250,A,4308.3650,N,07726.4991,W,38.52,188.38,300819,,,A*43
$GPGGA,125959.500,4308.3623,N,07726.4997,W,1,05,2.62,167.8,M,-34.4,M,,*51
$GPRMC,125959.750,A,4308.3597,N,07726.5002,W,38.69,187.89,300819,,,A*41
$GPGGA,130000.000,4308.3569,N,07726.5008,W,1,05,2.62,167.9,M,-34.4,M,,*57
$GPRMC,130000.250,A,4308.3542,N,07726.5013,W,38.72,187.16,300819,,,A*41
$GPGGA,130000.500,4308.3515,N,07726.5018,W,1,05,3.25,168.0,M,-34.4,M,,*5C
$GPRMC,130000.750,A,4308.3488,N,07726.5023,W,38.69,186.36,300819,,,A*49
$GPGGA,130001.000,4308.3461,N,07726.5026,W,1,05,2.62,168.1,M,-34.4,M,,*54
$GPRMC,130001.250,A,4308.3433,N,07726.5031,W,38.73,185.40,300819,,,A*47
$GPGGA,130001.500,4308.3405,N,07726.5035,W,1,05,2.62,168.0,M,-34.4,M,,*50
$GPRMC,130001.750,A,4308.3377,N,07726.5038,W,38.86,184.88,300819,,,A*43
$GPGGA,130002.000,4308.3349,N,07726.5041,W,1,05,2.62,168.3,M,-34.4,M,,*59
$GPRMC,130002.250,A,4308.3322,N,07726.5044,W,38.98,184.46,300819,,,A*43
$GPGGA,130002.500,4308.3294,N,07726.5047,W,1,05,2.62,168.7,M,-34.4,M,,*5F
$GPRMC,130002.750,A,4308.3266,N,07726.5049,W,39.76,183.17,300819,,,A*48
$GPGGA,130003.000,4308.3239,N,07726.5051,W,1,05,2.62,169.1,M,-34.4,M,,*5C
$GPRMC,130003.250,A,4308.3210,N,07726.5052,W,39.73,182.28,300819,,,A*4F
$GPGGA,130003.500,4308.3183,N,07726.5054,W,1,05,2.62,169.6,M,-34.4,M,,*59
$GPRMC,130003.750,A,4308.3154,N,07726.5055,W,40.00,181.61,300819,,,A*4A
$GPGGA,130004.000,4308.3127,N,07726.5056,W,1,05,2.62,169.8,M,-34.4,M,,*59
$GPRMC,130004.250,A,4308.3099,N,07726.5057,W,39.94,181.14,300819,,,A*4B
$GPGGA,130004.500,4308.3071,N,07726.5058,W,1,05,2.62,170.2,M,-34.4,M,,*52
$GPRMC,130004.750,A,4308.3044,N,07726.5059,W,39.92,180.93,300819,,,A*48
$GPGGA,130005.000,4308.3017,N,07726.5060,W,1,05,2.62,170.7,M,-34.4,M,,*58
$GPRMC,130005.250,A,4308.2990,N,07726.5061,W,39.57,181.14,300819,,,A*41
$GPGGA,130005.500,4308.2961,N,07726.5061,W,1,05,2.62,171.0,M,-34.4,M,,*53
$GPRMC,130005.750,A,4308.2934,N,07726.5062,W,39.73,180.65,300819,,,A*48
$GPGGA,130006.000,4308.2907,N,07726.5062,W,1,05,2.62,171.4,M,-34.4,M,,*52
$GPRMC,130006.250,A,4308.2879,N,07726.5062,W,39.54,180.40,300819,,,A*44
$GPGGA,130006.500,4308.2852,N,07726.5062,W,1,05,3.25,171.8,M,-34.4,M,,*58
$GPRMC,130006.750,A,4308.2825,N,07726.5062,W,39.57,180.57,300819,,,A*4D
$GPGGA,130007.000,4308.2798,N,07726.5062,W,1,05,2.62,172.3,M,-34.4,M,,*5F
$GPRMC,130007.250,A,4308.2770,N,07726.5063,W,39.59,180.76,300819,,,A*4A
$GPGGA,130007.500,4308.2743,N,07726.5063,W,1,05,2.62,172.6,M,-34.4,M,,*58
$GPRMC,130007.750,A,4308.2715,N,07726.5063,W,39.57,180.52,300819,,,A*44
$GPGGA,130008.000,4308.2688,N,07726.5063,W,1,05,2.62,172.8,M,-34.4,M,,*5A
$GPRMC,130008.250,A,4308.2660,N,07726.5064,W,39.75,180.48,300819,,,A*41
$GPGGA,130008.500,4308.2633,N,07726.5064,W,1,05,2.62,173.1,M,-34.4,M,,*50
$GPRMC,130008.750,A,4308.2604,N,07726.5064,W,39.80,180.56,300819,,,A*43
$GPGGA,130009.000,4308.2576,N,07726.5064,W,1,05,2.61,173.4,M,-34.4,M,,*50
$GPRMC,130009.250,A,4308.2547,N,07726.5065,W,40.24,180.75,300819,,,A*43
$GPGGA,130009.500,4308.2518,N,07726.5066,W,1,05,2.61,173.7,M,-34.4,M,,*5C
$GPRMC,130009.750,A,4308.2489,N,07726.5066,W,40.52,181.22,300819,,,A*44
$GPGGA,130010.000,4308.2461,N,07726.5067,W,1,05,2.61,174.0,M,-34.4,M,,*5F
$GPRMC,130010.250,A,4308.2432,N,07726.5068,W,41.05,181.20,300819,,,A*46
$GPGGA,130010.500,4308.2402,N,07726.5069,W,1,05,3.25,174.1,M,-34.4,M,,*51
$GPRMC,130010.750,A,4308.2373,N,07726.5069,W,41.23,180.94,300819,,,A*4A
$GPGGA,130011.000,4308.2343,N,07726.5070,W,1,05,2.61,174.4,M,-34.4,M,,*5B
$GPRMC,130011.250,A,4308.2314,N,07726.5070,W,41.67,180.67,300819,,,A*4B
$GPGGA,130011.500,4308.2284,N,07726.5071,W,1,05,2.61,174.6,M,-34.4,M,,*57
$GPRMC,130011.750,A,4308.2254,N,07726.5071,W,42.07,180.59,300819,,,A*42
$GPGGA,130012.000,4308.2225,N,07726.5072,W,1,05,2.61,174.9,M,-34.4,M,,*56
$GPRMC,130012.250,A,4308.2195,N,07726.5072,W,42.22,180.61,300819,,,A*45
$GPGGA,130012.500,4308.2165,N,07726.5073,W,1,05,3.25,175.2,M,-34.4,M,,*5E
$GPRMC,130012.750,A,4308.2136,N,07726.5074,W,42.27,180.62,300819,,,A*49
$GPGGA,130013.000,4308.2106,N,07726.5074,W,1,05,2.61,175.4,M,-34.4,M,,*5F
$GPRMC,130013.250,A,4308.2076,N,07726.5074,W,42.30,180.35,300819,,,A*4C
$GPGGA,130013.500,4308.2046,N,07726.5074,W,1,05,2.61,175.7,M,-34.4,M,,*5C
$GPRMC,130013.750,A,4308.2017,N,07726.5075,W,42.10,180.41,300819,,,A*4E
$GPGGA,130014.000,4308.1987,N,07726.5076,W,1,05,2.61,175.8,M,-34.4,M,,*54
$GPRMC,130014.250,A,4308.1958,N,07726.5077,W,41.97,180.61,300819,,,A*41
$GPGGA,130014.500,4308.1928,N,07726.5078,W,1,05,2.61,176.0,M,-34.4,M,,*51
$GPRMC,130014.750,A,4308.1898,N,07726.5078,W,41.93,180.82,300819,,,A*4F
$GPGGA,130015.000,4308.1868,N,07726.5079,W,1,05,2.61,176.2,M,-34.4,M,,*53
$GPRMC,130015.250,A,4308.1838,N,07726.5079,W,41.89,180.68,300819,,,A*4F
$GPGGA,130015.500,4308.1809,N,07726.5080,W,1,05,3.25,176.3,M,-34.4,M,,*57
$GPRMC,130015.750,A,4308.1779,N,07726.5081,W,41.36,180.81,300819,,,A*44
$GPGGA,130016.000,4308.1750,N,07726.5081,W,1,05,2.61,176.5,M,-34.4,M,,*54
$GPRMC,130016.250,A,4308.1721,N,07726.5082,W,41.08,180.81,300819,,,A*41
$GPGGA,130016.500,4308.1693,N,07726.5083,W,1,05,3.25,176.7,M,-34.4,M,,*5E
$GPRMC,130016.750,A,4308.1664,N,07726.5084,W,40.64,180.93,300819,,,A*4A
$GPGGA,130017.000,4308.1635,N,07726.5085,W,1,05,2.61,176.9,M,-34.4,M,,*5F
$GPRMC,130017.250,A,4308.1607,N,07726.5086,W,40.62,180.97,300819,,,A*4B
$GPGGA,130017.500,4308.1578,N,07726.5087,W,1,05,2.61,176.9,M,-34.4,M,,*52
$GPRMC,130017.750,A,4308.1550,N,07726.5088,W,40.39,181.12,300819,,,A*43
$GPGGA,130018.000,4308.1522,N,07726.5089,W,1,05,2.61,177.0,M,-34.4,M,,*51
$GPRMC,130018.250,A,4308.1494,N,07726.5090,W,40.38,180.99,300819,,,A*4A
$GPGGA,130018.500,4308.1466,N,07726.5090,W,1,05,3.25,177.1,M,-34.4,M,,*5D
$GPRMC,130018.750,A,4308.1438,N,07726.5091,W,40.20,180.70,300819,,,A*46
$GPGGA,130019.000,4308.1411,N,07726.5092,W,1,05,2.61,177.2,M,-34.4,M,,*59
$GPRMC,130019.250,A,4308.1384,N,07726.5092,W,38.81,180.39,300819,,,A*48
$GPGGA,130019.500,4308.1357,N,07726.5093,W,1,05,3.25,177.2,M,-34.4,M,,*59
$GPRMC,130019.750,A,4308.1329,N,07726.5093,W,38.43,180.93,300819,,,A*45
$GPGGA,130020.000,4308.1303,N,07726.5094,W,1,05,2.61,177.3,M,-34.4,M,,*50
$GPRMC,130020.250,A,4308.1276,N,07726.5095,W,37.94,181.63,300819,,,A*4C
$GPGGA,130020.500,4308.1250,N,07726.5097,W,1,05,3.25,177.3,M,-34.4,M,,*50
$GPRMC,130020.750,A,4308.1224,N,07726.5099,W,37.73,182.37,300819,,,A*49
$GPGGA,130021.000,4308.1198,N,07726.5100,W,1,05,2.61,177.4,M,-34.4,M,,*5A
$GPRMC,130021.250,A,4308.1172,N,07726.5102,W,37.44,183.07,300819,,,A*48
$GPGGA,130021.500,4308.1147,N,07726.5104,W,1,05,2.61,177.5,M,-34.4,M,,*58
$GPRMC,130021.750,A,4308.1123,N,07726.5106,W,35.12,182.50,300819,,,A*4F
$GPGGA,130022.000,4308.1098,N,07726.5108,W,1,05,2.61,177.6,M,-34.4,M,,*52
$GPRMC,130022.250,A,4308.1075,N,07726.5109,W,34.80,181.27,300819,,,A*4D
$GPGGA,130022.500,4308.1052,N,07726.5110,W,1,05,2.61,177.6,M,-34.4,M,,*58
$GPRMC,130022.750,A,4308.1029,N,07726.5110,W,31.29,179.51,300819,,,A*49
$GPGGA,130023.000,4308.1007,N,07726.5110,W,1,05,2.61,177.7,M,-34.4,M,,*5D
$GPRMC,130023.250,A,4308.0986,N,07726.5110,W,28.96,178.02,300819,,,A*4B
$GPGGA,130023.500,4308.0966,N,07726.5109,W,1,05,2.61,177.7,M,-34.4,M,,*5F
$GPRMC,130023.750,A,4308.0946,N,07726.5109,W,26.06,177.54,300819,,,A*41
$GPGGA,130024.000,4308.0928,N,07726.5108,W,1,05,2.60,177.7,M,-34.4,M,,*57
$GPRMC,130024.250,A,4308.0911,N,07726.5107,W,23.67,176.26,300819,,,A*49
$GPGGA,130024.500,4308.0895,N,07726.5106,W,1,05,3.25,177.8,M,-34.4,M,,*54
$GPRMC,130024.750,A,4308.0880,N,07726.5105,W,20.68,176.16,300819,,,A*48
$GPGGA,130025.000,4308.0866,N,07726.5105,W,1,05,3.25,177.9,M,-34.4,M,,*5E
$GPRMC,130025.250,A,4308.0852,N,07726.5104,W,18.19,176.80,300819,,,A*40
$GPGGA,130025.500,4308.0840,N,07726.5104,W,1,05,2.60,177.8,M,-34.4,M,,*5F
$GPRMC,130025.750,A,4308.0829,N,07726.5103,W,15.95,177.12,300819,,,A*4D
$GPGGA,130026.000,4308.0817,N,07726.5103,W,1,05,2.60,177.8,M,-34.4,M,,*5C
$GPRMC,130026.250,A,4308.0807,N,07726.5103,W,14.50,179.71,300819,,,A*44
$GPGGA,130026.500,4308.0797,N,07726.5104,W,1,05,2.60,178.0,M,-34.4,M,,*5E
$GPRMC,130026.750,A,4308.0788,N,07726.5104,W,13.30,183.80,300819,,,A*44
$GPGGA,130027.000,4308.0778,N,07726.5107,W,1,05,3.25,177.8,M,-34.4,M,,*5F
$GPRMC,130027.250,A,4308.0769,N,07726.5109,W,12.52,191.70,300819,,,A*4B
$GPGGA,130027.500,4308.0761,N,07726.5112,W,1,05,3.25,178.0,M,-34.4,M,,*51
$GPRMC,130027.750,A,4308.0754,N,07726.5116,W,11.44,202.13,300819,,,A*46
$GPGGA,130028.000,4308.0748,N,07726.5120,W,1,05,2.60,178.2,M,-34.4,M,,*53
$GPRMC,130028.250,A,4308.0741,N,07726.5126,W,10.53,211.77,300819,,,A*4C
$GPGGA,130028.500,4308.0735,N,07726.5132,W,1,05,3.25,178.2,M,-34.4,M,,*5F
$GPRMC,130028.750,A,4308.0730,N,07726.5140,W,10.55,225.56,300819,,,A*4D
$GPGGA,130029.000,4308.0724,N,07726.5149,W,1,05,2.60,178.1,M,-34.4,M,,*54
$GPRMC,130029.250,A,4308.0719,N,07726.5158,W,11.78,231.72,300819,,,A*46
$GPGGA,130029.500,4308.0714,N,07726.5168,W,1,05,2.60,178.2,M,-34.4,M,,*52
$GPRMC,130029.750,A,4308.0710,N,07726.5179,W,12.55,238.08,300819,,,A*41
$GPGGA,130030.000,4308.0706,N,07726.5189,W,1,05,2.60,178.1,M,-34.4,M,,*50
$GPRMC,130030.250,A,4308.0704,N,07726.5199,W,11.59,244.93,300819,,,A*41
$GPGGA,130030.500,4308.0704,N,07726.5210,W,1,05,3.25,178.1,M,-34.4,M,,*54
$GPRMC,130030.750,A,4308.0703,N,07726.5221,W,10.84,254.68,300819,,,A*47
$GPGGA,130031.000,4308.0703,N,07726.5231,W,1,05,2.60,178.0,M,-34.4,M,,*55
$GPRMC,130031.250,A,4308.0703,N,07726.5242,W,10.86,261.44,300819,,,A*4C
$GPGGA,130031.500,4308.0704,N,07726.5253,W,1,05,2.60,177.9,M,-34.4,M,,*55
$GPRMC,130031.750,A,4308.0705,N,07726.5263,W,10.16,269.77,300819,,,A*4D
$GPGGA,130032.000,4308.0706,N,07726.5273,W,1,05,2.60,177.9,M,-34.4,M,,*53
$GPRMC,130032.250,A,4308.0707,N,07726.5283,W,9.73,274.05,300819,,,A*75
$GPGGA,130032.500,4308.0708,N,07726.5292,W,1,05,3.25,177.9,M,-34.4,M,,*57
$GPRMC,130032.750,A,4308.0708,N,07726.5302,W,9.23,274.96,300819,,,A*78
$GPGGA,130033.000,4308.0708,N,07726.5311,W,1,05,2.60,177.9,M,-34.4,M,,*59
$GPRMC,130033.250,A,4308.0709,N,07726.5320,W,9.16,275.14,300819,,,A*70
