Vers 57
USE_SERIAL_FEEDBACK=false
DEVELOPMENT_MODE=false
USE_RMC_ONLY=false

$GPRMC,144006.600,A,4308.3005,N,07726.2634,W,0.01,50.97,060419,,,A*43
$GPGGA,144006.800,4308.3005,N,07726.2634,W,1,09,0.93,146.1,M,-34.4,M,,*50
lng=-77.437721, lat=43.138339, altitude=146.10, speed=0.01, satellites=9, angle=50.9700, fixquality=1
$GPRMC,144007.000,A,4308.3005,N,07726.2634,W,0.01,318.19,060419,,,A*7D
$GPGGA,144007.200,4308.3005,N,07726.2634,W,1,09,0.93,146.1,M,-34.4,M,,*5B
lng=-77.437721, lat=43.138339, altitude=146.10, speed=0.01, satellites=9, angle=318.1900, fixquality=1
$GPRMC,144007.400,A,4308.3005,N,07726.2634,W,0.00,3.49,060419,,,A*74
$GPGGA,144007.600,4308.3005,N,07726.2634,W,1,09,0.93,146.1,M,-34.4,M,,*5F
lng=-77.437721, lat=43.138339, altitude=146.10, speed=0.00, satellites=9, angle=3.4900, fixquality=1
$GPRMC,144007.800,A,4308.3005,N,07726.2634,W,0.00,67.85,060419,,,A*4A
$GPGGA,144008.000,4308.3005,N,07726.2634,W,1,09,0.93,146.1,M,-34.4,M,,*56
lng=-77.437721, lat=43.138339, altitude=146.10, speed=0.00, satellites=9, angle=67.8500, fixquality=1
$GPRMC,144008.200,A,4308.3005,N,07726.2634,W,0.00,0.00,060419,,,A*73
$GPGGA,144008.400,4308.3005,N,07726.2634,W,1,09,0.93,146.1,M,-34.4,M,,*52
lng=-77.437721, lat=43.138339, altitude=146.10, speed=0.00, satellites=9, angle=0.0000, fixquality=1
$GPRMC,144008.600,A,4308.3005,N,07726.2634,W,0.01,82.98,060419,,,A*4D
$GPGGA,144008.800,4308.3005,N,07726.2634,W,1,09,0.93,146.1,M,-34.4,M,,*5E
lng=-77.437721, lat=43.138339, altitude=146.10, speed=0.01, satellites=9, angle=82.9800, fixquality=1
$GPRMC,144009.000,A,4308.3005,N,07726.2634,W,0.01,289.88,060419,,,A*72
$GPGGA,144009.200,4308.3005,N,07726.2634,W,1,09,0.93,146.1,M,-34.4,M,,*55
lng=-77.437721, lat=43.138339, altitude=146.10, speed=0.01, satellites=9, angle=289.8800, fixquality=1
$GPRMC,144009.400,A,4308.3005,N,07726.2634,W,0.01,341.58,060419,,,A*7E
$GPGGA,144009.600,4308.3005,N,07726.2634,W,1,09,0.93,146.1,M,-34.4,M,,*51
lng=-77.437721, lat=43.138339, altitude=146.10, speed=0.01, satellites=9, angle=341.5800, fixquality=1
$GPRMC,144009.800,A,4308.3005,N,07726.2634,W,0.00,358.47,060419,,,A*75
$GPGGA,144010.000,4308.3005,N,07726.2634,W,1,09,0.93,146.1,M,-34.4,M,,*5F
lng=-77.437721, lat=43.138339, altitude=146.10, speed=0.00, satellites=9, angle=358.4700, fixquality=1
$GPRMC,144010.200,A,4308.3005,N,07726.2634,W,0.01,254.97,060419,,,A*76
$GPGGA,144010.400,4308.3005,N,07726.2634,W,1,09,0.93,146.1,M,-34.4,M,,*5B
lng=-77.437721, lat=43.138339, altitude=146.10, speed=0.01, satellites=9, angle=254.9700, fixquality=1
$GPRMC,144010.600,A,4308.3005,N,07726.2634,W,0.01,267.05,060419,,,A*79
$GPGGA,144010.800,4308.3005,N,07726.2634,W,1,09,0.93,146.1,M,-34.4,M,,*57
lng=-77.437721, lat=43.138339, altitude=146.10, speed=0.01, satellites=9, angle=267.0500, fixquality=1
$GPRMC,144011.000,A,4308.3005,N,07726.2634,W,0.01,266.94,060419,,,A*77
$GPGGA,144011.200,4308.3005,N,07726.2634,W,1,09,0.93,146.1,M,-34.4,M,,*5C
lng=-77.437721, lat=43.138339, altitude=146.10, speed=0.01, satellites=9, angle=266.9400, fixquality=1
$GPRMC,144011.400,A,4308.3005,N,07726.2634,W,0.01,302.90,060419,,,A*74
$GPGGA,144011.600,4308.3005,N,07726.2634,W,1,09,0.93,146.1,M,-34.4,M,,*58
lng=-77.437721, lat=43.138339, altitude=146.10, speed=0.01, satellites=9, angle=302.9000, fixquality=1
$GPRMC,144011.800,A,4308.3005,N,07726.2634,W,0.01,308.29,060419,,,A*70
$GPGGA,144012.000,4308.3005,N,07726.2634,W,1,09,0.93,146.1,M,-34.4,M,,*5D
lng=-77.437721, lat=43.138339, altitude=146.10, speed=0.01, satellites=9, angle=308.2900, fixquality=1
$GPRMC,144012.200,A,4308.3005,N,07726.2634,W,0.01,305.41,060419,,,A*7A
$GPGGA,144012.400,4308.3005,N,07726.2634,W,1,09,0.93,146.1,M,-34.4,M,,*59
lng=-77.437721, lat=43.138339, altitude=146.10, speed=0.01, satellites=9, angle=305.4100, fixquality=1
$GPRMC,144012.600,A,4308.3005,N,07726.2634,W,0.01,321.71,060419,,,A*7B
$GPGGA,144012.800,4308.3005,N,07726.2634,W,1,09,0.93,146.1,M,-34.4,M,,*55
lng=-77.437721, lat=43.138339, altitude=146.10, speed=0.01, satellites=9, angle=321.7100, fixquality=1
$GPRMC,144013.000,A,4308.3005,N,07726.2634,W,0.01,293.05,060419,,,A*77
$GPGGA,144013.200,4308.3005,N,07726.2634,W,1,09,0.93,146.1,M,-34.4,M,,*5E
lng=-77.437721, lat=43.138339, altitude=146.10, speed=0.01, satellites=9, angle=293.0500, fixquality=1
$GPRMC,144013.400,A,4308.3005,N,07726.2634,W,0.01,311.11,060419,,,A*7D
$GPGGA,144013.600,4308.3005,N,07726.2634,W,1,09,0.93,146.1,M,-34.4,M,,*5A
lng=-77.437721, lat=43.138339, altitude=146.10, speed=0.01, satellites=9, angle=311.1100, fixquality=1
$GPRMC,144013.800,A,4308.3005,N,07726.2634,W,0.00,323.08,060419,,,A*79
$GPGGA,144014.000,4308.3005,N,07726.2635,W,1,09,0.93,146.1,M,-34.4,M,,*5A
lng=-77.437721, lat=43.138339, altitude=146.10, speed=0.00, satellites=9, angle=323.0800, fixquality=1
$GPRMC,144014.200,A,4308.3005,N,07726.2635,W,0.00,314.35,060419,,,A*7F
$GPGGA,144014.400,4308.3005,N,07726.2635,W,1,09,0.93,146.1,M,-34.4,M,,*5E
lng=-77.437728, lat=43.138339, altitude=146.10, speed=0.00, satellites=9, angle=314.3500, fixquality=1
$GPRMC,144014.600,A,4308.3005,N,07726.2635,W,0.01,6.29,060419,,,A*77
$GPGGA,144014.800,4308.3005,N,07726.2635,W,1,09,0.93,146.1,M,-34.4,M,,*52
lng=-77.437728, lat=43.138339, altitude=146.10, speed=0.01, satellites=9, angle=6.2900, fixquality=1
$GPRMC,144015.000,A,4308.3005,N,07726.2635,W,0.00,327.97,060419,,,A*74
$GPGGA,144015.200,4308.3005,N,07726.2635,W,1,09,0.93,146.1,M,-34.4,M,,*59
lng=-77.437728, lat=43.138339, altitude=146.10, speed=0.00, satellites=9, angle=327.9700, fixquality=1
$GPRMC,144015.400,A,4308.3005,N,07726.2635,W,0.01,278.68,060419,,,A*7A
$GPGGA,144015.600,4308.3005,N,07726.2635,W,1,09,0.93,146.1,M,-34.4,M,,*5D
lng=-77.437728, lat=43.138339, altitude=146.10, speed=0.01, satellites=9, angle=278.6800, fixquality=1
$GPRMC,144015.800,A,4308.3005,N,07726.2635,W,0.00,122.14,060419,,,A*70
$GPGGA,144016.000,4308.3005,N,07726.2635,W,1,09,0.93,146.1,M,-34.4,M,,*58
lng=-77.437728, lat=43.138339, altitude=146.10, speed=0.00, satellites=9, angle=122.1400, fixquality=1
$GPRMC,144016.200,A,4308.3005,N,07726.2635,W,0.00,174.63,060419,,,A*7A
$GPGGA,144016.400,4308.3005,N,07726.2635,W,1,09,0.93,146.1,M,-34.4,M,,*5C
lng=-77.437728, lat=43.138339, altitude=146.10, speed=0.00, satellites=9, angle=174.6300, fixquality=1
$GPRMC,144016.600,A,4308.3005,N,07726.2635,W,0.00,303.82,060419,,,A*73
$GPGGA,144016.800,4308.3005,N,07726.2635,W,1,09,0.93,146.1,M,-34.4,M,,*50
lng=-77.437728, lat=43.138339, altitude=146.10, speed=0.00, satellites=9, angle=303.8200, fixquality=1
$GPRMC,144017.000,A,4308.3005,N,07726.2635,W,0.00,329.84,060419,,,A*7A
$GPGGA,144017.200,4308.3005,N,07726.2635,W,1,09,0.93,146.1,M,-34.4,M,,*5B
lng=-77.437728, lat=43.138339, altitude=146.10, speed=0.00, satellites=9, angle=329.8400, fixquality=1
$GPRMC,144017.400,A,4308.3005,N,07726.2635,W,0.01,45.13,060419,,,A*48
$GPGGA,144017.600,4308.3005,N,07726.2635,W,1,09,0.93,146.1,M,-34.4,M,,*5F
lng=-77.437728, lat=43.138339, altitude=146.10, speed=0.01, satellites=9, angle=45.1300, fixquality=1
$GPRMC,144017.800,A,4308.3005,N,07726.2635,W,0.01,282.85,060419,,,A*72
$GPGGA,144018.000,4308.3005,N,07726.2635,W,1,09,0.93,146.1,M,-34.4,M,,*56
lng=-77.437728, lat=43.138339, altitude=146.10, speed=0.01, satellites=9, angle=282.8500, fixquality=1
$GPRMC,144018.200,A,4308.3005,N,07726.2635,W,0.01,252.29,060419,,,A*7C
$GPGGA,144018.400,4308.3005,N,07726.2635,W,1,09,0.93,146.1,M,-34.4,M,,*52
lng=-77.437728, lat=43.138339, altitude=146.10, speed=0.01, satellites=9, angle=252.2900, fixquality=1
$GPRMC,144018.600,A,4308.3005,N,07726.2635,W,0.01,201.98,060419,,,A*74
$GPGGA,144018.800,4308.3005,N,07726.2635,W,1,09,0.93,146.1,M,-34.4,M,,*5E
lng=-77.437728, lat=43.138339, altitude=146.10, speed=0.01, satellites=9, angle=201.9800, fixquality=1
$GPRMC,144019.000,A,4308.3005,N,07726.2635,W,0.00,345.79,060419,,,A*7C
$GPGGA,144019.200,4308.3005,N,07726.2635,W,1,09,0.93,146.1,M,-34.4,M,,*55
lng=-77.437728, lat=43.138339, altitude=146.10, speed=0.00, satellites=9, angle=345.7900, fixquality=1
$GPRMC,144019.400,A,4308.3005,N,07726.2635,W,0.01,32.11,060419,,,A*44
$GPGGA,144019.600,4308.3005,N,07726.2635,W,1,09,0.93,146.1,M,-34.4,M,,*51
lng=-77.437728, lat=43.138339, altitude=146.10, speed=0.01, satellites=9, angle=32.1100, fixquality=1
$GPRMC,144019.800,A,4308.3005,N,07726.2635,W,0.01,332.74,060419,,,A*78
$GPGGA,144020.000,4308.3005,N,07726.2635,W,1,09,0.93,146.1,M,-34.4,M,,*5D
lng=-77.437728, lat=43.138339, altitude=146.10, speed=0.01, satellites=9, angle=332.7400, fixquality=1
$GPRMC,144020.200,A,4308.3005,N,07726.2635,W,0.00,252.69,060419,,,A*72
$GPGGA,144020.400,4308.3005,N,07726.2635,W,1,09,0.93,146.1,M,-34.4,M,,*59
lng=-77.437728, lat=43.138339, altitude=146.10, speed=0.00, satellites=9, angle=252.6900, fixquality=1
$GPRMC,144020.600,A,4308.3005,N,07726.2635,W,0.00,27.70,060419,,,A*4E
$GPGGA,144020.800,4308.3005,N,07726.2635,W,1,09,0.93,146.1,M,-34.4,M,,*55
lng=-77.437728, lat=43.138339, altitude=146.10, speed=0.00, satellites=9, angle=27.7000, fixquality=1
$GPRMC,144021.000,A,4308.3005,N,07726.2635,W,0.00,56.42,060419,,,A*4E
$GPGGA,144021.200,4308.3005,N,07726.2635,W,1,09,0.93,146.1,M,-34.4,M,,*5E
lng=-77.437728, lat=43.138339, altitude=146.10, speed=0.00, satellites=9, angle=56.4200, fixquality=1
$GPRMC,144021.400,A,4308.3005,N,07726.2635,W,0.00,26.16,060419,,,A*4C
$GPGGA,144021.600,4308.3005,N,07726.2635,W,1,09,0.93,146.1,M,-34.4,M,,*5A
lng=-77.437728, lat=43.138339, altitude=146.10, speed=0.00, satellites=9, angle=26.1600, fixquality=1
$GPRMC,144021.800,A,4308.3005,N,07726.2635,W,0.00,94.25,060419,,,A*49
$GPGGA,144022.000,4308.3005,N,07726.2635,W,1,09,0.93,146.1,M,-34.4,M,,*5F
lng=-77.437728, lat=43.138339, altitude=146.10, speed=0.00, satellites=9, angle=94.2500, fixquality=1
$GPRMC,144022.200,A,4308.3005,N,07726.2635,W,0.01,140.38,060419,,,A*75
$GPGGA,144022.400,4308.3005,N,07726.2635,W,1,09,0.93,146.1,M,-34.4,M,,*5B
lng=-77.437728, lat=43.138339, altitude=146.10, speed=0.01, satellites=9, angle=140.3800, fixquality=1
$GPRMC,144022.600,A,4308.3005,N,07726.2635,W,0.00,49.60,060419,,,A*45
$GPGGA,144022.800,4308.3005,N,07726.2635,W,1,09,0.93,146.1,M,-34.4,M,,*57
lng=-77.437728, lat=43.138339, altitude=146.10, speed=0.00, satellites=9, angle=49.6000, fixquality=1
$GPRMC,144023.000,A,4308.3005,N,07726.2635,W,0.01,266.22,060419,,,A*7A
$GPGGA,144023.200,4308.3005,N,07726.2635,W,1,09,0.93,146.1,M,-34.4,M,,*5C
lng=-77.437728, lat=43.138339, altitude=146.10, speed=0.01, satellites=9, angle=266.2200, fixquality=1
$GPRMC,144023.400,A,4308.3005,N,07726.2635,W,0.00,254.41,060419,,,A*7B
$GPGGA,144023.600,4308.3005,N,07726.2635,W,1,09,0.93,146.1,M,-34.4,M,,*58
lng=-77.437728, lat=43.138339, altitude=146.10, speed=0.00, satellites=9, angle=254.4100, fixquality=1
$GPRMC,144023.800,A,4308.3005,N,07726.2635,W,0.01,52.67,060419,,,A*46
$GPGGA,144024.000,4308.3005,N,07726.2635,W,1,09,0.93,146.1,M,-34.4,M,,*59
lng=-77.437728, lat=43.138339, altitude=146.10, speed=0.01, satellites=9, angle=52.6700, fixquality=1
$GPRMC,144024.200,A,4308.3005,N,07726.2635,W,0.00,296.26,060419,,,A*75
$GPGGA,144024.400,4308.3005,N,07726.2635,W,1,09,0.93,146.1,M,-34.4,M,,*5D
lng=-77.437728, lat=43.138339, altitude=146.10, speed=0.00, satellites=9, angle=296.2600, fixquality=1
$GPRMC,144024.600,A,4308.3005,N,07726.2635,W,0.00,29.34,060419,,,A*44
$GPGGA,144024.800,4308.3005,N,07726.2635,W,1,09,0.93,146.1,M,-34.4,M,,*51
lng=-77.437728, lat=43.138339, altitude=146.10, speed=0.00, satellites=9, angle=29.3400, fixquality=1
$GPRMC,144025.000,A,4308.3005,N,07726.2635,W,0.00,114.35,060419,,,A*7D
$GPGGA,144025.200,4308.3005,N,07726.2635,W,1,09,0.93,146.1,M,-34.4,M,,*5A
lng=-77.437728, lat=43.138339, altitude=146.10, speed=0.00, satellites=9, angle=114.3500, fixquality=1
$GPRMC,144025.400,A,4308.3005,N,07726.2635,W,0.00,176.23,060419,,,A*7A
$GPGGA,144025.600,4308.3005,N,07726.2635,W,1,09,0.93,146.1,M,-34.4,M,,*5E
lng=-77.437728, lat=43.138339, altitude=146.10, speed=0.00, satellites=9, angle=176.2300, fixquality=1
$GPRMC,144025.800,A,4308.3005,N,07726.2635,W,0.01,147.11,060419,,,A*74
$GPGGA,144026.000,4308.3005,N,07726.2635,W,1,09,0.93,146.1,M,-34.4,M,,*5B
lng=-77.437728, lat=43.138339, altitude=146.10, speed=0.01, satellites=9, angle=147.1100, fixquality=1
$GPRMC,144026.200,A,4308.3005,N,07726.2635,W,0.00,54.94,060419,,,A*42
$GPGGA,144026.400,4308.3005,N,07726.2635,W,1,09,0.93,146.1,M,-34.4,M,,*5F
lng=-77.437728, lat=43.138339, altitude=146.10, speed=0.00, satellites=9, angle=54.9400, fixquality=1
$GPRMC,144026.600,A,4308.3005,N,07726.2635,W,0.00,0.00,060419,,,A*7A
$GPGGA,144026.800,4308.3005,N,07726.2635,W,1,09,0.93,146.1,M,-34.4,M,,*53
lng=-77.437728, lat=43.138339, altitude=146.10, speed=0.00, satellites=9, angle=0.0000, fixquality=1
$GPRMC,144027.000,A,4308.3005,N,07726.2635,W,0.00,0.00,060419,,,A*7D
$GPGGA,144027.200,4308.3005,N,07726.2635,W,1,09,0.93,146.1,M,-34.4,M,,*58
lng=-77.437728, lat=43.138339, altitude=146.10, speed=0.00, satellites=9, angle=0.0000, fixquality=1
$GPRMC,144027.400,A,4308.3005,N,07726.2635,W,0.00,13.30,060419,,,A*48
$GPGGA,144027.600,4308.3005,N,07726.2635,W,1,09,0.93,146.1,M,-34.4,M,,*5C
lng=-77.437728, lat=43.138339, altitude=146.10, speed=0.00, satellites=9, angle=13.3000, fixquality=1
$GPRMC,144027.800,A,4308.3005,N,07726.2635,W,0.00,45.17,060419,,,A*42
$GPGGA,144028.000,4308.3005,N,07726.2635,W,1,09,0.93,146.1,M,-34.4,M,,*55
lng=-77.437728, lat=43.138339, altitude=146.10, speed=0.00, satellites=9, angle=45.1700, fixquality=1
$GPRMC,144028.200,A,4308.3005,N,07726.2635,W,0.00,264.23,060419,,,A*71
$GPGGA,144028.400,4308.3005,N,07726.2635,W,1,09,0.93,146.1,M,-34.4,M,,*51
lng=-77.437728, lat=43.138339, altitude=146.10, speed=0.00, satellites=9, angle=264.2300, fixquality=1
$GPRMC,144028.600,A,4308.3005,N,07726.2635,W,0.01,208.71,060419,,,A*79
$GPGGA,144028.800,4308.3005,N,07726.2635,W,1,09,0.93,146.1,M,-34.4,M,,*5D
lng=-77.437728, lat=43.138339, altitude=146.10, speed=0.01, satellites=9, angle=208.7100, fixquality=1
$GPRMC,144029.000,A,4308.3005,N,07726.2635,W,0.01,214.94,060419,,,A*78
$GPGGA,144029.200,4308.3005,N,07726.2635,W,1,09,0.93,146.1,M,-34.4,M,,*56
lng=-77.437728, lat=43.138339, altitude=146.10, speed=0.01, satellites=9, angle=214.9400, fixquality=1
$GPRMC,144029.400,A,4308.3005,N,07726.2635,W,0.01,343.94,060419,,,A*7F
$GPGGA,144029.600,4308.3005,N,07726.2635,W,1,09,0.93,146.1,M,-34.4,M,,*52
lng=-77.437728, lat=43.138339, altitude=146.10, speed=0.01, satellites=9, angle=343.9400, fixquality=1
$GPRMC,144029.800,A,4308.3005,N,07726.2635,W,0.01,2.94,060419,,,A*75
$GPGGA,144030.000,4308.3005,N,07726.2635,W,1,09,0.93,146.1,M,-34.4,M,,*5C
lng=-77.437728, lat=43.138339, altitude=146.10, speed=0.01, satellites=9, angle=2.9400, fixquality=1
$GPRMC,144030.200,A,4308.3006,N,07726.2635,W,0.01,15.62,060419,,,A*4B
$GPGGA,144030.400,4308.3006,N,07726.2635,W,1,09,0.93,146.1,M,-34.4,M,,*5B
lng=-77.437728, lat=43.138347, altitude=146.10, speed=0.01, satellites=9, angle=15.6200, fixquality=1
$GPRMC,144030.600,A,4308.3006,N,07726.2635,W,0.01,283.77,060419,,,A*76
$GPGGA,144030.800,4308.3006,N,07726.2635,W,1,09,0.93,146.1,M,-34.4,M,,*57
lng=-77.437728, lat=43.138347, altitude=146.10, speed=0.01, satellites=9, angle=283.7700, fixquality=1
$GPRMC,144031.000,A,4308.3006,N,07726.2635,W,0.02,319.67,060419,,,A*71
$GPGGA,144031.200,4308.3006,N,07726.2635,W,1,09,0.93,146.1,M,-34.4,M,,*5C
lng=-77.437728, lat=43.138347, altitude=146.10, speed=0.02, satellites=9, angle=319.6700, fixquality=1
$GPRMC,144031.400,A,4308.3006,N,07726.2635,W,0.01,13.32,060419,,,A*4F
$GPGGA,144031.600,4308.3006,N,07726.2635,W,1,09,0.93,146.1,M,-34.4,M,,*58
lng=-77.437728, lat=43.138347, altitude=146.10, speed=0.01, satellites=9, angle=13.3200, fixquality=1
$GPRMC,144031.800,A,4308.3006,N,07726.2635,W,0.00,347.21,060419,,,A*72
$GPGGA,144032.000,4308.3006,N,07726.2635,W,1,09,0.93,146.1,M,-34.4,M,,*5D
lng=-77.437728, lat=43.138347, altitude=146.10, speed=0.00, satellites=9, angle=347.2100, fixquality=1
$GPRMC,144032.200,A,4308.3006,N,07726.2635,W,0.00,325.88,060419,,,A*7C
$GPGGA,144032.400,4308.3006,N,07726.2635,W,1,09,0.93,146.1,M,-34.4,M,,*59
lng=-77.437728, lat=43.138347, altitude=146.10, speed=0.00, satellites=9, angle=325.8800, fixquality=1
$GPRMC,144032.600,A,4308.3006,N,07726.2635,W,0.01,259.69,060419,,,A*7C
$GPGGA,144032.800,4308.3006,N,07726.2635,W,1,09,0.93,146.1,M,-34.4,M,,*55
lng=-77.437728, lat=43.138347, altitude=146.10, speed=0.01, satellites=9, angle=259.6900, fixquality=1
$GPRMC,144033.000,A,4308.3006,N,07726.2635,W,0.01,257.47,060419,,,A*79
$GPGGA,144033.200,4308.3006,N,07726.2635,W,1,09,0.93,146.1,M,-34.4,M,,*5E
lng=-77.437728, lat=43.138347, altitude=146.10, speed=0.01, satellites=9, angle=257.4700, fixquality=1
$GPRMC,144033.400,A,4308.3006,N,07726.2635,W,0.00,271.91,060419,,,A*73
$GPGGA,144033.600,4308.3006,N,07726.2635,W,1,09,0.93,146.1,M,-34.4,M,,*5A
lng=-77.437728, lat=43.138347, altitude=146.10, speed=0.00, satellites=9, angle=271.9100, fixquality=1
$GPRMC,144033.800,A,4308.3006,N,07726.2635,W,0.00,298.74,060419,,,A*73
$GPGGA,144034.000,4308.3006,N,07726.2635,W,1,09,0.93,146.1,M,-34.4,M,,*5B
lng=-77.437728, lat=43.138347, altitude=146.10, speed=0.00, satellites=9, angle=298.7400, fixquality=1
$GPRMC,144034.200,A,4308.3006,N,07726.2635,W,0.00,356.23,060419,,,A*7F
$GPGGA,144034.400,4308.3006,N,07726.2635,W,1,09,0.93,146.1,M,-34.4,M,,*5F
lng=-77.437728, lat=43.138347, altitude=146.10, speed=0.00, satellites=9, angle=356.2300, fixquality=1
$GPRMC,144034.600,A,4308.3006,N,07726.2635,W,0.01,339.09,060419,,,A*7B
$GPGGA,144034.800,4308.3006,N,07726.2635,W,1,09,0.93,146.1,M,-34.4,M,,*53
lng=-77.437728, lat=43.138347, altitude=146.10, speed=0.01, satellites=9, angle=339.0900, fixquality=1
$GPRMC,144035.000,A,4308.3006,N,07726.2635,W,0.00,19.48,060419,,,A*49
$GPGGA,144035.200,4308.3006,N,07726.2635,W,1,09,0.93,146.1,M,-34.4,M,,*58
lng=-77.437728, lat=43.138347, altitude=146.10, speed=0.00, satellites=9, angle=19.4800, fixquality=1
$GPRMC,144035.400,A,4308.3006,N,07726.2635,W,0.01,19.78,060419,,,A*4F
$GPGGA,144035.600,4308.3006,N,07726.2635,W,1,09,0.93,146.1,M,-34.4,M,,*5C
lng=-77.437728, lat=43.138347, altitude=146.10, speed=0.01, satellites=9, angle=19.7800, fixquality=1
$GPRMC,144035.800,A,4308.3006,N,07726.2635,W,0.00,352.54,060419,,,A*70
$GPGGA,144036.000,4308.3006,N,07726.2635,W,1,09,0.93,146.1,M,-34.4,M,,*59
lng=-77.437728, lat=43.138347, altitude=146.10, speed=0.00, satellites=9, angle=352.5400, fixquality=1
$GPRMC,144036.200,A,4308.3006,N,07726.2635,W,0.01,24.31,060419,,,A*49
$GPGGA,144036.400,4308.3006,N,07726.2635,W,1,09,0.93,146.1,M,-34.4,M,,*5D
lng=-77.437728, lat=43.138347, altitude=146.10, speed=0.01, satellites=9, angle=24.3100, fixquality=1
$GPRMC,144036.600,A,4308.3006,N,07726.2635,W,0.01,349.76,060419,,,A*76
$GPGGA,144036.800,4308.3006,N,07726.2635,W,1,09,0.93,146.1,M,-34.4,M,,*51
lng=-77.437728, lat=43.138347, altitude=146.10, speed=0.01, satellites=9, angle=349.7600, fixquality=1
$GPRMC,144037.000,A,4308.3006,N,07726.2635,W,0.00,13.96,060419,,,A*42
$GPGGA,144037.200,4308.3006,N,07726.2635,W,1,09,0.93,146.1,M,-34.4,M,,*5A
lng=-77.437728, lat=43.138347, altitude=146.10, speed=0.00, satellites=9, angle=13.9600, fixquality=1
$GPRMC,144037.400,A,4308.3006,N,07726.2635,W,0.00,36.06,060419,,,A*48
$GPGGA,144037.600,4308.3006,N,07726.2635,W,1,09,0.93,146.1,M,-34.4,M,,*5E
lng=-77.437728, lat=43.138347, altitude=146.10, speed=0.00, satellites=9, angle=36.0600, fixquality=1
$GPRMC,144037.800,A,4308.3006,N,07726.2635,W,0.01,34.12,060419,,,A*42
$GPGGA,144038.000,4308.3006,N,07726.2635,W,1,09,0.93,146.1,M,-34.4,M,,*57
lng=-77.437728, lat=43.138347, altitude=146.10, speed=0.01, satellites=9, angle=34.1200, fixquality=1
$GPRMC,144038.200,A,4308.3006,N,07726.2635,W,0.01,4.28,060419,,,A*7D
$GPGGA,144038.400,4308.3006,N,07726.2635,W,1,09,0.93,146.1,M,-34.4,M,,*53
lng=-77.437728, lat=43.138347, altitude=146.10, speed=0.01, satellites=9, angle=4.2800, fixquality=1
$GPRMC,144038.600,A,4308.3006,N,07726.2635,W,0.02,349.24,060419,,,A*7C
$GPGGA,144038.800,4308.3006,N,07726.2635,W,1,09,0.93,146.1,M,-34.4,M,,*5F
lng=-77.437728, lat=43.138347, altitude=146.10, speed=0.02, satellites=9, angle=349.2400, fixquality=1
$GPRMC,144039.000,A,4308.3006,N,07726.2635,W,0.02,357.48,060419,,,A*7E
$GPGGA,144039.200,4308.3006,N,07726.2635,W,1,09,0.93,146.1,M,-34.4,M,,*54
lng=-77.437728, lat=43.138347, altitude=146.10, speed=0.02, satellites=9, angle=357.4800, fixquality=1
$GPRMC,144039.400,A,4308.3006,N,07726.2635,W,0.03,1.41,060419,,,A*72
$GPGGA,144039.600,4308.3006,N,07726.2635,W,1,09,0.93,146.1,M,-34.4,M,,*50
lng=-77.437728, lat=43.138347, altitude=146.10, speed=0.03, satellites=9, angle=1.4100, fixquality=1
$GPRMC,144039.800,A,4308.3006,N,07726.2635,W,0.07,348.71,060419,,,A*77
$GPGGA,144040.000,4308.3006,N,07726.2635,W,1,09,0.93,146.1,M,-34.4,M,,*58
lng=-77.437728, lat=43.138347, altitude=146.10, speed=0.07, satellites=9, angle=348.7100, fixquality=1
$GPRMC,144040.200,A,4308.3006,N,07726.2635,W,0.02,23.31,060419,,,A*4C
$GPGGA,144040.400,4308.3006,N,07726.2635,W,1,09,0.93,146.1,M,-34.4,M,,*5C
lng=-77.437728, lat=43.138347, altitude=146.10, speed=0.02, satellites=9, angle=23.3100, fixquality=1
$GPRMC,144040.600,A,4308.3006,N,07726.2635,W,0.06,356.75,060419,,,A*7D
$GPGGA,144040.800,4308.3006,N,07726.2635,W,1,09,0.93,146.1,M,-34.4,M,,*50
lng=-77.437728, lat=43.138347, altitude=146.10, speed=0.06, satellites=9, angle=356.7500, fixquality=1
$GPRMC,144041.000,A,4308.3006,N,07726.2635,W,0.07,9.07,060419,,,A*77
$GPGGA,144041.200,4308.3006,N,07726.2635,W,1,09,0.93,146.0,M,-34.4,M,,*5A
lng=-77.437728, lat=43.138347, altitude=146.10, speed=0.07, satellites=9, angle=9.0700, fixquality=1
$GPRMC,144041.400,A,4308.3006,N,07726.2635,W,0.07,7.68,060419,,,A*74
$GPGGA,144041.600,4308.3006,N,07726.2635,W,1,09,0.93,146.0,M,-34.4,M,,*5E
lng=-77.437728, lat=43.138347, altitude=146.00, speed=0.07, satellites=9, angle=7.6800, fixquality=1
$GPRMC,144041.800,A,4308.3006,N,07726.2635,W,0.26,359.37,060419,,,A*79
$GPGGA,144042.000,4308.3006,N,07726.2635,W,1,09,0.93,146.0,M,-34.4,M,,*5B
lng=-77.437728, lat=43.138347, altitude=146.00, speed=0.26, satellites=9, angle=359.3700, fixquality=1
$GPRMC,144042.200,A,4308.3007,N,07726.2635,W,0.56,355.84,060419,,,A*72
$GPGGA,144042.400,4308.3007,N,07726.2635,W,1,09,0.93,146.0,M,-34.4,M,,*5E
lng=-77.437728, lat=43.138347, altitude=146.00, speed=0.56, satellites=9, angle=355.8400, fixquality=1
$GPRMC,144042.600,A,4308.3010,N,07726.2636,W,1.00,357.95,060419,,,A*73
$GPGGA,144042.800,4308.3012,N,07726.2636,W,1,09,0.93,145.8,M,-34.4,M,,*5E
lng=-77.437728, lat=43.138347, altitude=146.00, speed=1.00, satellites=9, angle=357.9500, fixquality=1
$GPRMC,144043.000,A,4308.3014,N,07726.2635,W,1.49,10.35,060419,,,A*44
$GPGGA,144043.200,4308.3016,N,07726.2635,W,1,09,0.93,145.5,M,-34.4,M,,*5F
lng=-77.437728, lat=43.138355, altitude=145.80, speed=1.49, satellites=9, angle=10.3500, fixquality=1
$GPRMC,144043.400,A,4308.3019,N,07726.2634,W,2.24,7.43,060419,,,A*73
$GPGGA,144043.600,4308.3021,N,07726.2634,W,1,09,0.93,145.0,M,-34.4,M,,*5B
lng=-77.437721, lat=43.138362, altitude=145.50, speed=2.24, satellites=9, angle=7.4300, fixquality=1
$GPRMC,144043.800,A,4308.3023,N,07726.2634,W,2.68,2.03,060419,,,A*7F
$GPGGA,144044.000,4308.3026,N,07726.2634,W,1,09,0.93,144.8,M,-34.4,M,,*54
lng=-77.437721, lat=43.138370, altitude=145.00, speed=2.68, satellites=9, angle=2.0300, fixquality=1
$GPRMC,144044.200,A,4308.3029,N,07726.2634,W,3.03,4.33,060419,,,A*71
$GPGGA,144044.400,4308.3031,N,07726.2633,W,1,09,0.93,144.6,M,-34.4,M,,*5F
lng=-77.437721, lat=43.138378, altitude=144.80, speed=3.03, satellites=9, angle=4.3300, fixquality=1
$GPRMC,144044.600,A,4308.3033,N,07726.2633,W,3.25,4.58,060419,,,A*70
$GPGGA,144044.800,4308.3036,N,07726.2633,W,1,09,0.93,144.5,M,-34.4,M,,*57
lng=-77.437721, lat=43.138385, altitude=144.60, speed=3.25, satellites=9, angle=4.5800, fixquality=1
$GPRMC,144045.000,A,4308.3038,N,07726.2633,W,3.45,3.17,060419,,,A*76
$GPGGA,144045.200,4308.3041,N,07726.2633,W,1,09,0.93,144.4,M,-34.4,M,,*5D
lng=-77.437721, lat=43.138393, altitude=144.50, speed=3.45, satellites=9, angle=3.1700, fixquality=1
$GPRMC,144045.400,A,4308.3043,N,07726.2632,W,3.67,6.58,060419,,,A*71
$GPGGA,144045.600,4308.3046,N,07726.2632,W,1,09,0.93,144.4,M,-34.4,M,,*5F
lng=-77.437721, lat=43.138404, altitude=144.40, speed=3.67, satellites=9, angle=6.5800, fixquality=1
$GPRMC,144045.800,A,4308.3048,N,07726.2632,W,3.88,4.95,060419,,,A*74
$GPGGA,144046.000,4308.3051,N,07726.2631,W,1,09,0.93,144.4,M,-34.4,M,,*5F
lng=-77.437721, lat=43.138412, altitude=144.40, speed=3.88, satellites=9, angle=4.9500, fixquality=1
$GPRMC,144046.200,A,4308.3053,N,07726.2631,W,4.38,6.16,060419,,,A*71
$GPGGA,144046.400,4308.3056,N,07726.2631,W,1,09,0.93,144.4,M,-34.4,M,,*5C
lng=-77.437721, lat=43.138420, altitude=144.40, speed=4.38, satellites=9, angle=6.1600, fixquality=1
$GPRMC,144046.600,A,4308.3059,N,07726.2631,W,4.53,5.83,060419,,,A*7D
$GPGGA,144046.800,4308.3062,N,07726.2630,W,1,09,0.93,144.3,M,-34.4,M,,*51
lng=-77.437721, lat=43.138427, altitude=144.40, speed=4.53, satellites=9, angle=5.8300, fixquality=1
$GPRMC,144047.000,A,4308.3065,N,07726.2630,W,4.72,5.48,060419,,,A*70
$GPGGA,144047.200,4308.3068,N,07726.2630,W,1,09,0.93,144.3,M,-34.4,M,,*50
lng=-77.437721, lat=43.138442, altitude=144.30, speed=4.72, satellites=9, angle=5.4800, fixquality=1
$GPRMC,144047.400,A,4308.3071,N,07726.2629,W,4.99,5.34,060419,,,A*77
$GPGGA,144047.600,4308.3074,N,07726.2629,W,1,09,0.93,144.2,M,-34.4,M,,*50
lng=-77.437713, lat=43.138450, altitude=144.30, speed=4.99, satellites=9, angle=5.3400, fixquality=1
$GPRMC,144047.800,A,4308.3077,N,07726.2628,W,4.67,4.99,060419,,,A*7B
$GPGGA,144048.000,4308.3080,N,07726.2628,W,1,09,0.93,144.1,M,-34.4,M,,*50
lng=-77.437713, lat=43.138462, altitude=144.20, speed=4.67, satellites=9, angle=4.9900, fixquality=1
$GPRMC,144048.200,A,4308.3083,N,07726.2627,W,4.75,5.53,060419,,,A*7E
$GPGGA,144048.400,4308.3086,N,07726.2626,W,1,09,0.93,144.1,M,-34.4,M,,*5C
lng=-77.437713, lat=43.138469, altitude=144.10, speed=4.75, satellites=9, angle=5.5300, fixquality=1
$GPRMC,144048.600,A,4308.3089,N,07726.2626,W,4.91,6.57,060419,,,A*7C
$GPGGA,144048.800,4308.3091,N,07726.2625,W,1,09,0.93,144.0,M,-34.4,M,,*54
lng=-77.437713, lat=43.138484, altitude=144.10, speed=4.91, satellites=9, angle=6.5700, fixquality=1
$GPRMC,144049.000,A,4308.3094,N,07726.2624,W,4.91,6.29,060419,,,A*7C
$GPGGA,144049.200,4308.3097,N,07726.2623,W,1,09,0.93,143.9,M,-34.4,M,,*51
lng=-77.437705, lat=43.138492, altitude=144.00, speed=4.91, satellites=9, angle=6.2900, fixquality=1
$GPRMC,144049.400,A,4308.3099,N,07726.2623,W,3.92,6.72,060419,,,A*78
$GPGGA,144049.600,4308.3101,N,07726.2622,W,1,09,0.93,143.8,M,-34.4,M,,*5B
lng=-77.437705, lat=43.138500, altitude=143.90, speed=3.92, satellites=9, angle=6.7200, fixquality=1
$GPRMC,144049.800,A,4308.3103,N,07726.2622,W,3.02,6.75,060419,,,A*79
$GPGGA,144050.000,4308.3105,N,07726.2621,W,1,09,0.93,143.8,M,-34.4,M,,*52
lng=-77.437705, lat=43.138500, altitude=143.80, speed=3.02, satellites=9, angle=6.7500, fixquality=1
$GPRMC,144050.200,A,4308.3106,N,07726.2620,W,2.13,6.19,060419,,,A*77
$GPGGA,144050.400,4308.3107,N,07726.2620,W,1,09,0.93,143.8,M,-34.4,M,,*55
lng=-77.437705, lat=43.138507, altitude=143.80, speed=2.13, satellites=9, angle=6.1900, fixquality=1
$GPRMC,144050.600,A,4308.3108,N,07726.2619,W,1.03,6.81,060419,,,A*74
$GPGGA,144050.800,4308.3108,N,07726.2619,W,1,09,0.93,143.8,M,-34.4,M,,*5C
lng=-77.437698, lat=43.138515, altitude=143.80, speed=1.03, satellites=9, angle=6.8100, fixquality=1
$GPRMC,144051.000,A,4308.3108,N,07726.2619,W,0.39,17.15,060419,,,A*46
$GPGGA,144051.200,4308.3108,N,07726.2619,W,1,09,0.92,143.9,M,-34.4,M,,*57
lng=-77.437698, lat=43.138515, altitude=143.80, speed=0.39, satellites=9, angle=17.1500, fixquality=1
$GPRMC,144051.400,A,4308.3108,N,07726.2619,W,0.25,4.87,060419,,,A*76
$GPGGA,144051.600,4308.3108,N,07726.2618,W,1,09,0.93,144.0,M,-34.4,M,,*5D
lng=-77.437698, lat=43.138515, altitude=143.90, speed=0.25, satellites=9, angle=4.8700, fixquality=1
$GPRMC,144051.800,A,4308.3108,N,07726.2618,W,0.04,353.07,060419,,,A*71
$GPGGA,144052.000,4308.3108,N,07726.2618,W,1,09,0.93,144.1,M,-34.4,M,,*59
lng=-77.437698, lat=43.138515, altitude=144.00, speed=0.04, satellites=9, angle=353.0700, fixquality=1
$GPRMC,144052.200,A,4308.3108,N,07726.2618,W,0.03,242.57,060419,,,A*7B
$GPGGA,144052.400,4308.3108,N,07726.2618,W,1,09,0.92,144.3,M,-34.4,M,,*5E
lng=-77.437698, lat=43.138515, altitude=144.10, speed=0.03, satellites=9, angle=242.5700, fixquality=1
$GPRMC,144052.600,A,4308.3107,N,07726.2617,W,0.06,137.76,060419,,,A*78
$GPGGA,144052.800,4308.3107,N,07726.2617,W,1,09,0.92,144.3,M,-34.4,M,,*52
lng=-77.437698, lat=43.138507, altitude=144.30, speed=0.06, satellites=9, angle=137.7600, fixquality=1
$GPRMC,144053.000,A,4308.3107,N,07726.2617,W,0.04,9.06,060419,,,A*76
$GPGGA,144053.200,4308.3107,N,07726.2617,W,1,09,0.93,144.4,M,-34.4,M,,*5F
lng=-77.437698, lat=43.138507, altitude=144.30, speed=0.04, satellites=9, angle=9.0600, fixquality=1
$GPRMC,144053.400,A,4308.3107,N,07726.2617,W,0.04,44.57,060419,,,A*4F
$GPGGA,144053.600,4308.3107,N,07726.2616,W,1,09,0.92,144.4,M,-34.4,M,,*5B
lng=-77.437698, lat=43.138507, altitude=144.40, speed=0.04, satellites=9, angle=44.5700, fixquality=1
$GPRMC,144053.800,A,4308.3107,N,07726.2616,W,0.05,60.69,060419,,,A*48
$GPGGA,144054.000,4308.3107,N,07726.2616,W,1,09,0.92,144.4,M,-34.4,M,,*5A
lng=-77.437698, lat=43.138507, altitude=144.40, speed=0.05, satellites=9, angle=60.6900, fixquality=1
$GPRMC,144054.200,A,4308.3107,N,07726.2616,W,0.03,251.67,060419,,,A*7D
$GPGGA,144054.400,4308.3107,N,07726.2616,W,1,09,0.92,144.4,M,-34.4,M,,*5E
lng=-77.437698, lat=43.138507, altitude=144.40, speed=0.03, satellites=9, angle=251.6700, fixquality=1
$GPRMC,144054.600,A,4308.3107,N,07726.2616,W,0.04,149.58,060419,,,A*78
$GPGGA,144054.800,4308.3107,N,07726.2616,W,1,09,0.92,144.4,M,-34.4,M,,*52
lng=-77.437698, lat=43.138507, altitude=144.40, speed=0.04, satellites=9, angle=149.5800, fixquality=1
$GPRMC,144055.000,A,4308.3107,N,07726.2616,W,0.06,1.12,060419,,,A*7E
$GPGGA,144055.200,4308.3107,N,07726.2616,W,1,09,0.93,144.4,M,-34.4,M,,*58
lng=-77.437698, lat=43.138507, altitude=144.40, speed=0.06, satellites=9, angle=1.1200, fixquality=1
$GPRMC,144055.400,A,4308.3107,N,07726.2616,W,0.03,353.96,060419,,,A*77
$GPGGA,144055.600,4308.3107,N,07726.2616,W,1,09,0.93,144.4,M,-34.4,M,,*5C
lng=-77.437698, lat=43.138507, altitude=144.40, speed=0.03, satellites=9, angle=353.9600, fixquality=1
$GPRMC,144055.800,A,4308.3107,N,07726.2615,W,0.45,17.81,060419,,,A*4F
$GPGGA,144056.000,4308.3107,N,07726.2615,W,1,09,0.92,144.4,M,-34.4,M,,*5B
lng=-77.437698, lat=43.138507, altitude=144.40, speed=0.45, satellites=9, angle=17.8100, fixquality=1
$GPRMC,144056.200,A,4308.3107,N,07726.2615,W,1.39,8.17,060419,,,A*7D
$GPGGA,144056.400,4308.3108,N,07726.2615,W,1,09,0.93,144.4,M,-34.4,M,,*51
lng=-77.437698, lat=43.138507, altitude=144.40, speed=1.39, satellites=9, angle=8.1700, fixquality=1
$GPRMC,144056.600,A,4308.3109,N,07726.2614,W,2.10,6.84,060419,,,A*7A
$GPGGA,144056.800,4308.3110,N,07726.2614,W,1,09,0.93,144.4,M,-34.4,M,,*55
lng=-77.437690, lat=43.138515, altitude=144.40, speed=2.10, satellites=9, angle=6.8400, fixquality=1
$GPRMC,144057.000,A,4308.3112,N,07726.2613,W,2.43,8.29,060419,,,A*7F
$GPGGA,144057.200,4308.3113,N,07726.2613,W,1,09,0.93,144.4,M,-34.4,M,,*5A
lng=-77.437690, lat=43.138515, altitude=144.40, speed=2.43, satellites=9, angle=8.2900, fixquality=1
$GPRMC,144057.400,A,4308.3115,N,07726.2612,W,2.76,9.43,060419,,,A*76
$GPGGA,144057.600,4308.3116,N,07726.2611,W,1,09,0.93,144.3,M,-34.4,M,,*5E
lng=-77.437690, lat=43.138526, altitude=144.40, speed=2.76, satellites=9, angle=9.4300, fixquality=1
$GPRMC,144057.800,A,4308.3118,N,07726.2611,W,3.18,8.53,060419,,,A*7D
$GPGGA,144058.000,4308.3119,N,07726.2610,W,1,09,0.93,144.4,M,-34.4,M,,*5E
lng=-77.437690, lat=43.138534, altitude=144.30, speed=3.18, satellites=9, angle=8.5300, fixquality=1
$GPRMC,144058.200,A,4308.3122,N,07726.2610,W,3.40,11.29,060419,,,A*48
$GPGGA,144058.400,4308.3124,N,07726.2609,W,1,09,0.93,144.5,M,-34.4,M,,*5D
lng=-77.437690, lat=43.138534, altitude=144.40, speed=3.40, satellites=9, angle=11.2900, fixquality=1
$GPRMC,144058.600,A,4308.3126,N,07726.2609,W,3.61,13.02,060419,,,A*48
$GPGGA,144058.800,4308.3128,N,07726.2608,W,1,09,0.93,144.6,M,-34.4,M,,*5F
lng=-77.437675, lat=43.138542, altitude=144.50, speed=3.61, satellites=9, angle=13.0200, fixquality=1
$GPRMC,144059.000,A,4308.3130,N,07726.2606,W,3.84,19.48,060419,,,A*48
$GPGGA,144059.200,4308.3132,N,07726.2605,W,1,09,0.92,144.7,M,-34.4,M,,*52
lng=-77.437675, lat=43.138549, altitude=144.60, speed=3.84, satellites=9, angle=19.4800, fixquality=1
$GPRMC,144059.400,A,4308.3135,N,07726.2604,W,4.15,18.50,060419,,,A*4C
$GPGGA,144059.600,4308.3137,N,07726.2603,W,1,09,0.93,144.9,M,-34.4,M,,*5A
lng=-77.437667, lat=43.138557, altitude=144.70, speed=4.15, satellites=9, angle=18.5000, fixquality=1
$GPRMC,144059.800,A,4308.3140,N,07726.2602,W,4.57,23.60,060419,,,A*49
$GPGGA,144100.000,4308.3142,N,07726.2600,W,1,09,0.93,145.0,M,-34.4,M,,*58
lng=-77.437667, lat=43.138565, altitude=144.90, speed=4.57, satellites=9, angle=23.6000, fixquality=1
$GPRMC,144100.200,A,4308.3144,N,07726.2598,W,3.81,26.05,060419,,,A*40
$GPGGA,144100.400,4308.3146,N,07726.2596,W,1,09,0.92,145.1,M,-34.4,M,,*54
lng=-77.437660, lat=43.138572, altitude=145.00, speed=3.81, satellites=9, angle=26.0500, fixquality=1
$GPRMC,144100.600,A,4308.3148,N,07726.2594,W,4.28,33.41,060419,,,A*44
$GPGGA,144100.800,4308.3150,N,07726.2592,W,1,09,0.93,145.2,M,-34.4,M,,*59
lng=-77.437652, lat=43.138584, altitude=145.10, speed=4.28, satellites=9, angle=33.4100, fixquality=1
$GPRMC,144101.000,A,4308.3152,N,07726.2590,W,4.52,41.15,060419,,,A*45
$GPGGA,144101.200,4308.3153,N,07726.2587,W,1,09,0.93,145.2,M,-34.4,M,,*55
lng=-77.437644, lat=43.138591, altitude=145.20, speed=4.52, satellites=9, angle=41.1500, fixquality=1
$GPRMC,144101.400,A,4308.3155,N,07726.2585,W,4.45,47.44,060419,,,A*46
$GPGGA,144101.600,4308.3156,N,07726.2582,W,1,09,0.93,145.0,M,-34.4,M,,*53
lng=-77.437637, lat=43.138591, altitude=145.20, speed=4.45, satellites=9, angle=47.4400, fixquality=1
$GPRMC,144101.800,A,4308.3157,N,07726.2580,W,4.35,57.30,060419,,,A*48
$GPGGA,144102.000,4308.3159,N,07726.2577,W,1,09,0.93,144.9,M,-34.4,M,,*5B
lng=-77.437629, lat=43.138599, altitude=145.00, speed=4.35, satellites=9, angle=57.3000, fixquality=1
$GPRMC,144102.200,A,4308.3159,N,07726.2574,W,3.74,64.53,060419,,,A*43
$GPGGA,144102.400,4308.3160,N,07726.2571,W,1,09,0.92,144.9,M,-34.4,M,,*52
lng=-77.437622, lat=43.138599, altitude=144.90, speed=3.74, satellites=9, angle=64.5300, fixquality=1
$GPRMC,144102.600,A,4308.3161,N,07726.2568,W,3.82,68.09,060419,,,A*4B
$GPGGA,144102.800,4308.3161,N,07726.2565,W,1,09,0.92,144.7,M,-34.4,M,,*54
lng=-77.437614, lat=43.138599, altitude=144.90, speed=3.82, satellites=9, angle=68.0900, fixquality=1
$GPRMC,144103.000,A,4308.3161,N,07726.2562,W,4.02,78.25,060419,,,A*46
$GPGGA,144103.200,4308.3161,N,07726.2560,W,1,09,0.93,144.7,M,-34.4,M,,*5B
lng=-77.437606, lat=43.138599, altitude=144.70, speed=4.02, satellites=9, angle=78.2500, fixquality=1
$GPRMC,144103.400,A,4308.3161,N,07726.2557,W,4.00,88.76,060419,,,A*4F
$GPGGA,144103.600,4308.3161,N,07726.2554,W,1,09,0.93,144.6,M,-34.4,M,,*59
lng=-77.437599, lat=43.138599, altitude=144.70, speed=4.00, satellites=9, angle=88.7600, fixquality=1
$GPRMC,144103.800,A,4308.3161,N,07726.2551,W,3.65,92.79,060419,,,A*45
$GPGGA,144104.000,4308.3161,N,07726.2549,W,1,09,0.92,144.6,M,-34.4,M,,*55
lng=-77.437583, lat=43.138599, altitude=144.60, speed=3.65, satellites=9, angle=92.7900, fixquality=1
$GPRMC,144104.200,A,4308.3160,N,07726.2548,W,2.42,100.60,060419,,,A*77
$GPGGA,144104.400,4308.3160,N,07726.2546,W,1,09,0.92,144.5,M,-34.4,M,,*5C
lng=-77.437583, lat=43.138599, altitude=144.60, speed=2.42, satellites=9, angle=100.6000, fixquality=1
$GPRMC,144104.600,A,4308.3160,N,07726.2546,W,1.30,109.53,060419,,,A*72
$GPGGA,144104.800,4308.3159,N,07726.2545,W,1,09,0.92,144.4,M,-34.4,M,,*58
lng=-77.437576, lat=43.138599, altitude=144.50, speed=1.30, satellites=9, angle=109.5300, fixquality=1
$GPRMC,144105.000,A,4308.3159,N,07726.2546,W,0.79,129.10,060419,,,A*76
$GPGGA,144105.200,4308.3159,N,07726.2547,W,1,09,0.92,144.4,M,-34.4,M,,*51
lng=-77.437576, lat=43.138599, altitude=144.40, speed=0.79, satellites=9, angle=129.1000, fixquality=1
$GPRMC,144105.400,A,4308.3160,N,07726.2549,W,0.45,254.52,060419,,,A*77
$GPGGA,144105.600,4308.3160,N,07726.2551,W,1,09,0.92,144.4,M,-34.4,M,,*58
lng=-77.437583, lat=43.138599, altitude=144.40, speed=0.45, satellites=9, angle=254.5200, fixquality=1
$GPRMC,144105.800,A,4308.3160,N,07726.2552,W,1.02,273.56,060419,,,A*72
$GPGGA,144106.000,4308.3161,N,07726.2555,W,1,09,0.92,144.4,M,-34.4,M,,*58
lng=-77.437591, lat=43.138599, altitude=144.40, speed=1.02, satellites=9, angle=273.5600, fixquality=1
$GPRMC,144106.200,A,4308.3161,N,07726.2560,W,3.61,271.50,060419,,,A*78
$GPGGA,144106.400,4308.3162,N,07726.2564,W,1,09,0.92,144.5,M,-34.4,M,,*5C
lng=-77.437599, lat=43.138599, altitude=144.40, speed=3.61, satellites=9, angle=271.5000, fixquality=1
$GPRMC,144106.600,A,4308.3162,N,07726.2569,W,6.16,271.97,060419,,,A*78
$GPGGA,144106.800,4308.3162,N,07726.2575,W,1,09,0.93,144.6,M,-34.4,M,,*52
lng=-77.437614, lat=43.138607, altitude=144.50, speed=6.16, satellites=9, angle=271.9700, fixquality=1
$GPRMC,144107.000,A,4308.3162,N,07726.2581,W,7.51,272.65,060419,,,A*75
$GPGGA,144107.200,4308.3163,N,07726.2588,W,1,09,0.93,144.6,M,-34.4,M,,*5A
lng=-77.437637, lat=43.138607, altitude=144.60, speed=7.51, satellites=9, angle=272.6500, fixquality=1
$GPRMC,144107.400,A,4308.3163,N,07726.2595,W,9.20,272.78,060419,,,A*71
$GPGGA,144107.600,4308.3163,N,07726.2603,W,1,09,0.93,144.7,M,-34.4,M,,*5F
lng=-77.437652, lat=43.138607, altitude=144.60, speed=9.20, satellites=9, angle=272.7800, fixquality=1
$GPRMC,144107.800,A,4308.3164,N,07726.2612,W,10.09,274.06,060419,,,A*4A
$GPGGA,144108.000,4308.3163,N,07726.2623,W,1,09,0.93,144.7,M,-34.4,M,,*54
lng=-77.437690, lat=43.138607, altitude=144.70, speed=10.09, satellites=9, angle=274.0600, fixquality=1
$GPRMC,144108.200,A,4308.3164,N,07726.2634,W,11.89,275.18,060419,,,A*4C
$GPGGA,144108.400,4308.3164,N,07726.2645,W,1,09,0.93,144.7,M,-34.4,M,,*57
lng=-77.437721, lat=43.138607, altitude=144.70, speed=11.89, satellites=9, angle=275.1800, fixquality=1
$GPRMC,144108.600,A,4308.3164,N,07726.2657,W,13.68,277.13,060419,,,A*49
$GPGGA,144108.800,4308.3165,N,07726.2668,W,1,09,0.93,144.7,M,-34.4,M,,*55
lng=-77.437759, lat=43.138607, altitude=144.70, speed=13.68, satellites=9, angle=277.1300, fixquality=1
$GPRMC,144109.000,A,4308.3166,N,07726.2680,W,14.91,279.67,060419,,,A*4A
$GPGGA,144109.200,4308.3167,N,07726.2692,W,1,09,0.93,144.7,M,-34.4,M,,*59
lng=-77.437797, lat=43.138607, altitude=144.70, speed=14.91, satellites=9, angle=279.6700, fixquality=1
$GPRMC,144109.400,A,4308.3169,N,07726.2704,W,16.15,281.49,060419,,,A*49
$GPGGA,144109.600,4308.3171,N,07726.2717,W,1,09,0.93,144.7,M,-34.4,M,,*56
lng=-77.437843, lat=43.138614, altitude=144.70, speed=16.15, satellites=9, angle=281.4900, fixquality=1
$GPRMC,144109.800,A,4308.3173,N,07726.2729,W,17.08,283.19,060419,,,A*4B
$GPGGA,144110.000,4308.3175,N,07726.2742,W,1,09,0.93,144.7,M,-34.4,M,,*5C
lng=-77.437881, lat=43.138622, altitude=144.70, speed=17.08, satellites=9, angle=283.1900, fixquality=1
$GPRMC,144110.200,A,4308.3178,N,07726.2756,W,18.02,285.46,060419,,,A*43
$GPGGA,144110.400,4308.3181,N,07726.2769,W,1,09,0.93,144.7,M,-34.4,M,,*5A
lng=-77.437919, lat=43.138629, altitude=144.70, speed=18.02, satellites=9, angle=285.4600, fixquality=1
$GPRMC,144110.600,A,4308.3184,N,07726.2783,W,18.96,287.36,060419,,,A*44
$GPGGA,144110.800,4308.3187,N,07726.2798,W,1,09,0.93,144.7,M,-34.4,M,,*5E
lng=-77.437973, lat=43.138637, altitude=144.70, speed=18.96, satellites=9, angle=287.3600, fixquality=1
$GPRMC,144111.000,A,4308.3190,N,07726.2812,W,19.69,288.97,060419,,,A*44
$GPGGA,144111.200,4308.3194,N,07726.2827,W,1,09,0.93,144.6,M,-34.4,M,,*5D
lng=-77.438018, lat=43.138648, altitude=144.70, speed=19.69, satellites=9, angle=288.9700, fixquality=1
$GPRMC,144111.400,A,4308.3198,N,07726.2842,W,20.50,289.07,060419,,,A*45
$GPGGA,144111.600,4308.3203,N,07726.2858,W,1,09,0.93,144.5,M,-34.4,M,,*5F
lng=-77.438072, lat=43.138664, altitude=144.60, speed=20.50, satellites=9, angle=289.0700, fixquality=1
$GPRMC,144111.800,A,4308.3207,N,07726.2873,W,20.67,291.25,060419,,,A*43
$GPGGA,144112.000,4308.3211,N,07726.2889,W,1,09,0.93,144.4,M,-34.4,M,,*54
lng=-77.438117, lat=43.138679, altitude=144.50, speed=20.67, satellites=9, angle=291.2500, fixquality=1
$GPRMC,144112.200,A,4308.3216,N,07726.2904,W,21.24,292.40,060419,,,A*4D
$GPGGA,144112.400,4308.3221,N,07726.2920,W,1,09,0.93,144.3,M,-34.4,M,,*56
lng=-77.438179, lat=43.138694, altitude=144.40, speed=21.24, satellites=9, angle=292.4000, fixquality=1
$GPRMC,144112.600,A,4308.3226,N,07726.2935,W,21.78,294.69,060419,,,A*4C
$GPGGA,144112.800,4308.3231,N,07726.2951,W,1,09,0.93,144.2,M,-34.4,M,,*5C
lng=-77.438224, lat=43.138713, altitude=144.30, speed=21.78, satellites=9, angle=294.6900, fixquality=1
$GPRMC,144113.000,A,4308.3237,N,07726.2966,W,22.03,297.13,060419,,,A*4C
$GPGGA,144113.200,4308.3242,N,07726.2982,W,1,09,0.93,144.3,M,-34.4,M,,*5C
lng=-77.438270, lat=43.138729, altitude=144.20, speed=22.03, satellites=9, angle=297.1300, fixquality=1
$GPRMC,144113.400,A,4308.3248,N,07726.2997,W,22.57,299.15,060419,,,A*47
$GPGGA,144113.600,4308.3254,N,07726.3013,W,1,09,0.93,144.5,M,-34.4,M,,*59
lng=-77.438331, lat=43.138744, altitude=144.30, speed=22.57, satellites=9, angle=299.1500, fixquality=1
$GPRMC,144113.800,A,4308.3260,N,07726.3029,W,22.82,299.94,060419,,,A*4D
$GPGGA,144114.000,4308.3266,N,07726.3046,W,1,09,0.92,144.7,M,-34.4,M,,*5A
lng=-77.438377, lat=43.138771, altitude=144.50, speed=22.82, satellites=9, angle=299.9400, fixquality=1
$GPRMC,144114.200,A,4308.3272,N,07726.3062,W,23.43,300.43,060419,,,A*4B
$GPGGA,144114.400,4308.3279,N,07726.3078,W,1,09,0.93,145.3,M,-34.4,M,,*59
lng=-77.438438, lat=43.138786, altitude=144.70, speed=23.43, satellites=9, angle=300.4300, fixquality=1
$GPRMC,144114.600,A,4308.3286,N,07726.3093,W,23.69,301.03,060419,,,A*47
$GPGGA,144114.800,4308.3293,N,07726.3109,W,1,09,0.93,145.6,M,-34.4,M,,*53
lng=-77.438484, lat=43.138809, altitude=145.30, speed=23.69, satellites=9, angle=301.0300, fixquality=1
$GPRMC,144115.000,A,4308.3300,N,07726.3125,W,23.84,301.57,060419,,,A*41
$GPGGA,144115.200,4308.3307,N,07726.3141,W,1,09,0.93,145.8,M,-34.4,M,,*56
lng=-77.438545, lat=43.138835, altitude=145.60, speed=23.84, satellites=9, angle=301.5700, fixquality=1
$GPRMC,144115.400,A,4308.3314,N,07726.3156,W,24.16,302.38,060419,,,A*42
$GPGGA,144115.600,4308.3321,N,07726.3172,W,1,09,0.93,146.0,M,-34.4,M,,*5D
lng=-77.438591, lat=43.138858, altitude=145.80, speed=24.16, satellites=9, angle=302.3800, fixquality=1
$GPRMC,144115.800,A,4308.3328,N,07726.3188,W,24.41,302.32,060419,,,A*4A
$GPGGA,144116.000,4308.3336,N,07726.3203,W,1,09,0.93,146.2,M,-34.4,M,,*59
lng=-77.438644, lat=43.138881, altitude=146.00, speed=24.41, satellites=9, angle=302.3200, fixquality=1
$GPRMC,144116.200,A,4308.3343,N,07726.3219,W,24.50,302.69,060419,,,A*4B
$GPGGA,144116.400,4308.3351,N,07726.3235,W,1,09,0.93,146.4,M,-34.4,M,,*5F
lng=-77.438697, lat=43.138908, altitude=146.20, speed=24.50, satellites=9, angle=302.6900, fixquality=1
$GPRMC,144116.600,A,4308.3359,N,07726.3251,W,24.91,302.74,060419,,,A*49
$GPGGA,144116.800,4308.3367,N,07726.3267,W,1,09,0.93,146.7,M,-34.4,M,,*52
lng=-77.438751, lat=43.138931, altitude=146.40, speed=24.91, satellites=9, angle=302.7400, fixquality=1
$GPRMC,144117.000,A,4308.3375,N,07726.3283,W,25.32,303.00,060419,,,A*45
$GPGGA,144117.200,4308.3383,N,07726.3299,W,1,09,0.93,146.8,M,-34.4,M,,*5D
lng=-77.438804, lat=43.138957, altitude=146.70, speed=25.32, satellites=9, angle=303.0000, fixquality=1
$GPRMC,144117.400,A,4308.3391,N,07726.3315,W,25.42,303.23,060419,,,A*43
$GPGGA,144117.600,4308.3399,N,07726.3331,W,1,09,0.93,147.0,M,-34.4,M,,*58
lng=-77.438858, lat=43.138980, altitude=146.80, speed=25.42, satellites=9, angle=303.2300, fixquality=1
$GPRMC,144117.800,A,4308.3407,N,07726.3347,W,25.79,304.11,060419,,,A*4E
$GPGGA,144118.000,4308.3415,N,07726.3363,W,1,09,0.93,147.1,M,-34.4,M,,*54
lng=-77.438911, lat=43.139015, altitude=147.00, speed=25.79, satellites=9, angle=304.1100, fixquality=1
$GPRMC,144118.200,A,4308.3424,N,07726.3380,W,25.78,304.47,060419,,,A*43
$GPGGA,144118.400,4308.3432,N,07726.3396,W,1,09,0.93,147.2,M,-34.4,M,,*5C
lng=-77.438964, lat=43.139038, altitude=147.10, speed=25.78, satellites=9, angle=304.4700, fixquality=1
$GPRMC,144118.600,A,4308.3441,N,07726.3412,W,25.97,305.25,060419,,,A*4C
$GPGGA,144118.800,4308.3450,N,07726.3428,W,1,09,0.93,147.2,M,-34.4,M,,*56
lng=-77.439018, lat=43.139072, altitude=147.20, speed=25.97, satellites=9, angle=305.2500, fixquality=1
$GPRMC,144119.000,A,4308.3458,N,07726.3444,W,25.96,306.32,060419,,,A*44
$GPGGA,144119.200,4308.3467,N,07726.3460,W,1,09,0.93,147.3,M,-34.4,M,,*54
lng=-77.439071, lat=43.139095, altitude=147.20, speed=25.96, satellites=9, angle=306.3200, fixquality=1
$GPRMC,144119.400,A,4308.3476,N,07726.3476,W,25.51,306.79,060419,,,A*49
$GPGGA,144119.600,4308.3485,N,07726.3491,W,1,09,0.93,147.2,M,-34.4,M,,*53
lng=-77.439125, lat=43.139125, altitude=147.30, speed=25.51, satellites=9, angle=306.7900, fixquality=1
$GPRMC,144119.800,A,4308.3495,N,07726.3507,W,26.20,308.43,060419,,,A*4D
$GPGGA,144120.000,4308.3504,N,07726.3522,W,1,09,0.93,147.1,M,-34.4,M,,*5D
lng=-77.439178, lat=43.139160, altitude=147.20, speed=26.20, satellites=9, angle=308.4300, fixquality=1
$GPRMC,144120.200,A,4308.3514,N,07726.3538,W,26.73,310.48,060419,,,A*4D
$GPGGA,144120.400,4308.3524,N,07726.3554,W,1,09,0.93,147.0,M,-34.4,M,,*5B
lng=-77.439231, lat=43.139194, altitude=147.10, speed=26.73, satellites=9, angle=310.4800, fixquality=1
$GPRMC,144120.600,A,4308.3534,N,07726.3569,W,25.85,312.80,060419,,,A*43
$GPGGA,144120.800,4308.3545,N,07726.3583,W,1,09,0.93,146.9,M,-34.4,M,,*52
lng=-77.439285, lat=43.139225, altitude=147.00, speed=25.85, satellites=9, angle=312.8000, fixquality=1
$GPRMC,144121.000,A,4308.3555,N,07726.3598,W,25.85,315.19,060419,,,A*4A
$GPGGA,144121.200,4308.3566,N,07726.3611,W,1,09,0.93,146.7,M,-34.4,M,,*5E
lng=-77.439331, lat=43.139259, altitude=146.90, speed=25.85, satellites=9, angle=315.1900, fixquality=1
$GPRMC,144121.400,A,4308.3578,N,07726.3624,W,25.22,319.11,060419,,,A*4C
$GPGGA,144121.600,4308.3589,N,07726.3637,W,1,09,0.93,146.6,M,-34.4,M,,*5E
lng=-77.439369, lat=43.139297, altitude=146.70, speed=25.22, satellites=9, angle=319.1100, fixquality=1
$GPRMC,144121.800,A,4308.3600,N,07726.3648,W,24.72,322.90,060419,,,A*43
$GPGGA,144122.000,4308.3611,N,07726.3659,W,1,09,0.93,146.6,M,-34.4,M,,*51
lng=-77.439414, lat=43.139331, altitude=146.60, speed=24.72, satellites=9, angle=322.9000, fixquality=1
$GPRMC,144122.200,A,4308.3623,N,07726.3670,W,24.21,325.55,060419,,,A*48
$GPGGA,144122.400,4308.3634,N,07726.3680,W,1,09,0.93,146.5,M,-34.4,M,,*55
lng=-77.439453, lat=43.139369, altitude=146.60, speed=24.21, satellites=9, angle=325.5500, fixquality=1
$GPRMC,144122.600,A,4308.3646,N,07726.3690,W,24.20,329.61,060419,,,A*4B
$GPGGA,144122.800,4308.3658,N,07726.3699,W,1,09,0.93,146.4,M,-34.4,M,,*5A
lng=-77.439483, lat=43.139411, altitude=146.50, speed=24.20, satellites=9, angle=329.6100, fixquality=1
$GPRMC,144123.000,A,4308.3670,N,07726.3708,W,24.14,333.79,060419,,,A*4C
$GPGGA,144123.200,4308.3683,N,07726.3716,W,1,09,0.93,146.4,M,-34.4,M,,*51
lng=-77.439506, lat=43.139453, altitude=146.40, speed=24.14, satellites=9, angle=333.7900, fixquality=1
$GPRMC,144123.400,A,4308.3695,N,07726.3723,W,24.37,337.61,060419,,,A*46
$GPGGA,144123.600,4308.3708,N,07726.3730,W,1,09,0.93,146.4,M,-34.4,M,,*53
lng=-77.439537, lat=43.139492, altitude=146.40, speed=24.37, satellites=9, angle=337.6100, fixquality=1
$GPRMC,144123.800,A,4308.3721,N,07726.3737,W,24.60,340.20,060419,,,A*46
$GPGGA,144124.000,4308.3734,N,07726.3742,W,1,09,0.93,146.4,M,-34.4,M,,*58
lng=-77.439559, lat=43.139533, altitude=146.40, speed=24.60, satellites=9, angle=340.2000, fixquality=1
$GPRMC,144124.200,A,4308.3748,N,07726.3748,W,25.02,343.47,060419,,,A*4B
$GPGGA,144124.400,4308.3761,N,07726.3753,W,1,09,0.93,146.4,M,-34.4,M,,*5C
lng=-77.439582, lat=43.139583, altitude=146.40, speed=25.02, satellites=9, angle=343.4700, fixquality=1
$GPRMC,144124.600,A,4308.3774,N,07726.3757,W,24.80,346.51,060419,,,A*47
$GPGGA,144124.800,4308.3788,N,07726.3760,W,1,09,0.93,146.3,M,-34.4,M,,*50
lng=-77.439590, lat=43.139625, altitude=146.40, speed=24.80, satellites=9, angle=346.5100, fixquality=1
$GPRMC,144125.000,A,4308.3801,N,07726.3764,W,24.75,348.80,060419,,,A*45
$GPGGA,144125.200,4308.3815,N,07726.3767,W,1,09,0.93,146.4,M,-34.4,M,,*50
lng=-77.439605, lat=43.139663, altitude=146.30, speed=24.75, satellites=9, angle=348.8000, fixquality=1
$GPRMC,144125.400,A,4308.3829,N,07726.3770,W,24.92,350.31,060419,,,A*44
$GPGGA,144125.600,4308.3843,N,07726.3773,W,1,09,0.93,146.5,M,-34.4,M,,*53
lng=-77.439613, lat=43.139713, altitude=146.40, speed=24.92, satellites=9, angle=350.3100, fixquality=1
$GPRMC,144125.800,A,4308.3857,N,07726.3775,W,24.99,351.68,060419,,,A*42
$GPGGA,144126.000,4308.3871,N,07726.3776,W,1,09,0.93,146.6,M,-34.4,M,,*51
lng=-77.439620, lat=43.139762, altitude=146.50, speed=24.99, satellites=9, angle=351.6800, fixquality=1
$GPRMC,144126.200,A,4308.3885,N,07726.3776,W,25.03,356.50,060419,,,A*49
$GPGGA,144126.400,4308.3899,N,07726.3776,W,1,09,0.93,146.7,M,-34.4,M,,*52
lng=-77.439620, lat=43.139812, altitude=146.60, speed=25.03, satellites=9, angle=356.5000, fixquality=1
$GPRMC,144126.600,A,4308.3912,N,07726.3776,W,24.79,359.26,060419,,,A*40
$GPGGA,144126.800,4308.3926,N,07726.3776,W,1,09,0.93,146.8,M,-34.4,M,,*54
lng=-77.439620, lat=43.139850, altitude=146.70, speed=24.79, satellites=9, angle=359.2600, fixquality=1
$GPRMC,144127.000,A,4308.3940,N,07726.3774,W,24.85,2.96,060419,,,A*47
$GPGGA,144127.200,4308.3953,N,07726.3771,W,1,09,0.93,146.9,M,-34.4,M,,*5B
lng=-77.439620, lat=43.139900, altitude=146.80, speed=24.85, satellites=9, angle=2.9600, fixquality=1
$GPRMC,144127.400,A,4308.3968,N,07726.3769,W,25.32,6.81,060419,,,A*4A
$GPGGA,144127.600,4308.3982,N,07726.3766,W,1,09,0.93,147.0,M,-34.4,M,,*5D
lng=-77.439613, lat=43.139949, altitude=146.90, speed=25.32, satellites=9, angle=6.8100, fixquality=1
$GPRMC,144127.800,A,4308.3997,N,07726.3763,W,25.89,7.76,060419,,,A*45
$GPGGA,144128.000,4308.4011,N,07726.3759,W,1,09,0.93,147.1,M,-34.4,M,,*5D
lng=-77.439605, lat=43.139999, altitude=147.00, speed=25.89, satellites=9, angle=7.7600, fixquality=1
$GPRMC,144128.200,A,4308.4026,N,07726.3756,W,26.08,9.40,060419,,,A*43
$GPGGA,144128.400,4308.4041,N,07726.3752,W,1,09,0.93,147.1,M,-34.4,M,,*57
lng=-77.439590, lat=43.140048, altitude=147.10, speed=26.08, satellites=9, angle=9.4000, fixquality=1
$GPRMC,144128.600,A,4308.4056,N,07726.3748,W,27.34,9.72,060419,,,A*40
$GPGGA,144128.800,4308.4071,N,07726.3744,W,1,09,0.92,147.2,M,-34.4,M,,*5D
lng=-77.439582, lat=43.140094, altitude=147.10, speed=27.34, satellites=9, angle=9.7200, fixquality=1
$GPRMC,144129.000,A,4308.4086,N,07726.3740,W,27.31,9.72,060419,,,A*47
$GPGGA,144129.200,4308.4101,N,07726.3736,W,1,09,0.93,147.3,M,-34.4,M,,*55
lng=-77.439567, lat=43.140144, altitude=147.20, speed=27.31, satellites=9, angle=9.7200, fixquality=1
$GPRMC,144129.400,A,4308.4116,N,07726.3731,W,27.41,10.38,060419,,,A*7C
$GPGGA,144129.600,4308.4131,N,07726.3727,W,1,09,0.93,147.4,M,-34.4,M,,*55
lng=-77.439552, lat=43.140193, altitude=147.30, speed=27.41, satellites=9, angle=10.3800, fixquality=1
$GPRMC,144129.800,A,4308.4146,N,07726.3724,W,27.09,9.44,060419,,,A*4E
$GPGGA,144130.000,4308.4161,N,07726.3720,W,1,09,0.93,147.7,M,-34.4,M,,*5A
lng=-77.439544, lat=43.140243, altitude=147.40, speed=27.09, satellites=9, angle=9.4400, fixquality=1
$GPRMC,144130.200,A,4308.4176,N,07726.3715,W,26.85,10.06,060419,,,A*76
$GPGGA,144130.400,4308.4191,N,07726.3711,W,1,09,0.93,147.9,M,-34.4,M,,*5D
lng=-77.439529, lat=43.140293, altitude=147.70, speed=26.85, satellites=9, angle=10.0600, fixquality=1
$GPRMC,144130.600,A,4308.4205,N,07726.3707,W,26.65,10.52,060419,,,A*79
$GPGGA,144130.800,4308.4220,N,07726.3702,W,1,09,0.92,148.2,M,-34.4,M,,*5F
lng=-77.439506, lat=43.140338, altitude=147.90, speed=26.65, satellites=9, angle=10.5200, fixquality=1
$GPRMC,144131.000,A,4308.4235,N,07726.3698,W,26.42,10.17,060419,,,A*7E
$GPGGA,144131.200,4308.4249,N,07726.3694,W,1,09,0.93,148.6,M,-34.4,M,,*50
lng=-77.439491, lat=43.140388, altitude=148.20, speed=26.42, satellites=9, angle=10.1700, fixquality=1
$GPRMC,144131.400,A,4308.4263,N,07726.3690,W,25.38,10.58,060419,,,A*74
$GPGGA,144131.600,4308.4277,N,07726.3686,W,1,09,0.93,148.8,M,-34.4,M,,*54
lng=-77.439483, lat=43.140438, altitude=148.60, speed=25.38, satellites=9, angle=10.5800, fixquality=1
$GPRMC,144131.800,A,4308.4291,N,07726.3682,W,25.26,10.42,060419,,,A*72
$GPGGA,144132.000,4308.4305,N,07726.3678,W,1,09,0.93,149.1,M,-34.4,M,,*5C
lng=-77.439468, lat=43.140487, altitude=148.80, speed=25.26, satellites=9, angle=10.4200, fixquality=1
$GPRMC,144132.200,A,4308.4319,N,07726.3674,W,24.72,10.07,060419,,,A*72
$GPGGA,144132.400,4308.4332,N,07726.3670,W,1,09,0.93,149.4,M,-34.4,M,,*51
lng=-77.439453, lat=43.140537, altitude=149.10, speed=24.72, satellites=9, angle=10.0700, fixquality=1
$GPRMC,144132.600,A,4308.4346,N,07726.3667,W,24.48,9.92,060419,,,A*43
$GPGGA,144132.800,4308.4359,N,07726.3663,W,1,09,0.93,149.2,M,-34.4,M,,*54
lng=-77.439445, lat=43.140575, altitude=149.40, speed=24.48, satellites=9, angle=9.9200, fixquality=1
$GPRMC,144133.000,A,4308.4372,N,07726.3660,W,24.07,9.49,060419,,,A*49
$GPGGA,144133.200,4308.4385,N,07726.3656,W,1,09,0.93,149.6,M,-34.4,M,,*5C
lng=-77.439437, lat=43.140617, altitude=149.20, speed=24.07, satellites=9, angle=9.4900, fixquality=1
$GPRMC,144133.400,A,4308.4398,N,07726.3653,W,23.02,9.38,060419,,,A*4D
$GPGGA,144133.600,4308.4411,N,07726.3649,W,1,09,0.93,150.0,M,-34.4,M,,*52
lng=-77.439422, lat=43.140666, altitude=149.60, speed=23.02, satellites=9, angle=9.3800, fixquality=1
$GPRMC,144133.800,A,4308.4423,N,07726.3646,W,21.92,9.93,060419,,,A*48
$GPGGA,144134.000,4308.4435,N,07726.3643,W,1,09,0.93,150.0,M,-34.4,M,,*5F
lng=-77.439414, lat=43.140705, altitude=150.00, speed=21.92, satellites=9, angle=9.9300, fixquality=1
$GPRMC,144134.200,A,4308.4446,N,07726.3639,W,20.54,9.91,060419,,,A*47
$GPGGA,144134.400,4308.4458,N,07726.3636,W,1,09,0.93,150.2,M,-34.4,M,,*50
lng=-77.439399, lat=43.140747, altitude=150.00, speed=20.54, satellites=9, angle=9.9100, fixquality=1
$GPRMC,144134.600,A,4308.4468,N,07726.3633,W,19.13,9.96,060419,,,A*4B
$GPGGA,144134.800,4308.4479,N,07726.3630,W,1,09,0.93,150.4,M,-34.4,M,,*5F
lng=-77.439384, lat=43.140781, altitude=150.20, speed=19.13, satellites=9, angle=9.9600, fixquality=1
$GPRMC,144135.000,A,4308.4489,N,07726.3627,W,17.53,10.04,060419,,,A*7F
$GPGGA,144135.200,4308.4498,N,07726.3625,W,1,09,0.93,150.6,M,-34.4,M,,*5D
lng=-77.439376, lat=43.140811, altitude=150.40, speed=17.53, satellites=9, angle=10.0400, fixquality=1
$GPRMC,144135.400,A,4308.4507,N,07726.3622,W,15.58,10.54,060419,,,A*75
$GPGGA,144135.600,4308.4515,N,07726.3618,W,1,09,0.93,150.8,M,-34.4,M,,*5D
lng=-77.439369, lat=43.140846, altitude=150.60, speed=15.58, satellites=9, angle=10.5400, fixquality=1
$GPRMC,144135.800,A,4308.4524,N,07726.3615,W,13.90,9.76,060419,,,A*46
$GPGGA,144136.000,4308.4531,N,07726.3612,W,1,09,0.93,150.9,M,-34.4,M,,*55
lng=-77.439353, lat=43.140876, altitude=150.80, speed=13.90, satellites=9, angle=9.7600, fixquality=1
$GPRMC,144136.200,A,4308.4539,N,07726.3610,W,11.66,10.62,060419,,,A*70
$GPGGA,144136.400,4308.4545,N,07726.3608,W,1,09,0.93,150.9,M,-34.4,M,,*59
lng=-77.439346, lat=43.140903, altitude=150.90, speed=11.66, satellites=9, angle=10.6200, fixquality=1
$GPRMC,144136.600,A,4308.4551,N,07726.3607,W,9.49,10.36,060419,,,A*49
$GPGGA,144136.800,4308.4556,N,07726.3605,W,1,09,0.93,151.0,M,-34.4,M,,*52
lng=-77.439346, lat=43.140918, altitude=150.90, speed=9.49, satellites=9, angle=10.3600, fixquality=1
$GPRMC,144137.000,A,4308.4561,N,07726.3604,W,7.47,8.56,060419,,,A*71
$GPGGA,144137.200,4308.4564,N,07726.3603,W,1,09,0.93,151.2,M,-34.4,M,,*5C
lng=-77.439338, lat=43.140933, altitude=151.00, speed=7.47, satellites=9, angle=8.5600, fixquality=1
$GPRMC,144137.400,A,4308.4568,N,07726.3602,W,5.48,8.96,060419,,,A*7B
$GPGGA,144137.600,4308.4570,N,07726.3601,W,1,09,0.93,151.2,M,-34.4,M,,*5F
lng=-77.439338, lat=43.140949, altitude=151.20, speed=5.48, satellites=9, angle=8.9600, fixquality=1
$GPRMC,144137.800,A,4308.4572,N,07726.3600,W,3.50,8.14,060419,,,A*7B
$GPGGA,144138.000,4308.4574,N,07726.3599,W,1,09,0.93,151.2,M,-34.4,M,,*50
lng=-77.439331, lat=43.140949, altitude=151.20, speed=3.50, satellites=9, angle=8.1400, fixquality=1
$GPRMC,144138.200,A,4308.4576,N,07726.3599,W,2.41,4.78,060419,,,A*7E
$GPGGA,144138.400,4308.4577,N,07726.3599,W,1,09,0.93,151.3,M,-34.4,M,,*56
lng=-77.439331, lat=43.140956, altitude=151.20, speed=2.41, satellites=9, angle=4.7800, fixquality=1
$GPRMC,144138.600,A,4308.4578,N,07726.3598,W,2.62,4.78,060419,,,A*74
$GPGGA,144138.800,4308.4580,N,07726.3598,W,1,09,0.93,151.3,M,-34.4,M,,*53
lng=-77.439331, lat=43.140968, altitude=151.30, speed=2.62, satellites=9, angle=4.7800, fixquality=1
$GPRMC,144139.000,A,4308.4581,N,07726.3598,W,3.68,3.04,060419,,,A*72
$GPGGA,144139.200,4308.4584,N,07726.3598,W,1,09,0.93,151.3,M,-34.4,M,,*5C
lng=-77.439331, lat=43.140968, altitude=151.30, speed=3.68, satellites=9, angle=3.0400, fixquality=1
$GPRMC,144139.400,A,4308.4586,N,07726.3599,W,4.35,357.98,060419,,,A*78
$GPGGA,144139.600,4308.4589,N,07726.3599,W,1,09,0.93,151.3,M,-34.4,M,,*54
lng=-77.439331, lat=43.140975, altitude=151.30, speed=4.35, satellites=9, angle=357.9800, fixquality=1
$GPRMC,144139.800,A,4308.4593,N,07726.3600,W,5.23,357.00,060419,,,A*74
$GPGGA,144140.000,4308.4597,N,07726.3601,W,1,09,0.93,151.2,M,-34.4,M,,*50
lng=-77.439331, lat=43.140991, altitude=151.30, speed=5.23, satellites=9, angle=357.0000, fixquality=1
$GPRMC,144140.200,A,4308.4601,N,07726.3603,W,5.96,342.77,060419,,,A*71
$GPGGA,144140.400,4308.4605,N,07726.3606,W,1,09,0.93,151.0,M,-34.4,M,,*59
lng=-77.439338, lat=43.140998, altitude=151.20, speed=5.96, satellites=9, angle=342.7700, fixquality=1
$GPRMC,144140.600,A,4308.4609,N,07726.3609,W,7.98,337.09,060419,,,A*70
$GPGGA,144140.800,4308.4615,N,07726.3612,W,1,09,0.93,150.8,M,-34.4,M,,*58
lng=-77.439346, lat=43.141014, altitude=151.00, speed=7.98, satellites=9, angle=337.0900, fixquality=1
$GPRMC,144141.000,A,4308.4620,N,07726.3616,W,8.94,326.61,060419,,,A*7F
$GPGGA,144141.200,4308.4624,N,07726.3621,W,1,09,0.93,150.5,M,-34.4,M,,*5C
lng=-77.439361, lat=43.141033, altitude=150.80, speed=8.94, satellites=9, angle=326.6100, fixquality=1
$GPRMC,144141.400,A,4308.4627,N,07726.3627,W,9.93,314.91,060419,,,A*76
$GPGGA,144141.600,4308.4630,N,07726.3632,W,1,09,0.93,150.0,M,-34.4,M,,*5A
lng=-77.439376, lat=43.141048, altitude=150.50, speed=9.93, satellites=9, angle=314.9100, fixquality=1
$GPRMC,144141.800,A,4308.4633,N,07726.3638,W,10.86,312.96,060419,,,A*4C
$GPGGA,144142.000,4308.4636,N,07726.3647,W,1,09,0.93,149.5,M,-34.4,M,,*56
lng=-77.439399, lat=43.141056, altitude=150.00, speed=10.86, satellites=9, angle=312.9600, fixquality=1
$GPRMC,144142.200,A,4308.4639,N,07726.3657,W,12.46,299.97,060419,,,A*4B
$GPGGA,144142.400,4308.4642,N,07726.3668,W,1,09,0.93,149.3,M,-34.4,M,,*5A
lng=-77.439430, lat=43.141063, altitude=149.50, speed=12.46, satellites=9, angle=299.9700, fixquality=1
$GPRMC,144142.600,A,4308.4644,N,07726.3679,W,14.28,291.08,060419,,,A*49
$GPGGA,144142.800,4308.4647,N,07726.3690,W,1,09,0.93,148.8,M,-34.4,M,,*5E
lng=-77.439460, lat=43.141071, altitude=149.30, speed=14.28, satellites=9, angle=291.0800, fixquality=1
$GPRMC,144143.000,A,4308.4650,N,07726.3701,W,15.14,287.99,060419,,,A*44
$GPGGA,144143.200,4308.4652,N,07726.3713,W,1,09,0.93,148.5,M,-34.4,M,,*56
lng=-77.439498, lat=43.141078, altitude=148.80, speed=15.14, satellites=9, angle=287.9900, fixquality=1
$GPRMC,144143.400,A,4308.4654,N,07726.3725,W,16.44,284.61,060419,,,A*40
