Vers 81
USE_SERIAL_FEEDBACK=true
DEVELOPMENT_MODE=false
USE_RMC_ONLY=false

$GPRMC,125829.500,A,4308.3058,N,07726.2644,W,0.02,96.96,021019,,,A*44
$GPGGA,125829.750,4308.3058,N,07726.2645,W,1,07,1.62,151.4,M,-34.4,M,,*54
$GPRMC,125830.000,A,4308.3058,N,07726.2645,W,0.02,350.34,021019,,,A*79
$GPGGA,125830.250,4308.3057,N,07726.2645,W,1,07,1.86,151.4,M,-34.4,M,,*5C
$GPRMC,125830.500,A,4308.3057,N,07726.2645,W,0.04,136.87,021019,,,A*7F
$GPGGA,125830.750,4308.3057,N,07726.2645,W,1,07,1.62,151.4,M,-34.4,M,,*53
$GPRMC,125831.000,A,4308.3056,N,07726.2645,W,0.01,202.73,021019,,,A*70
$GPGGA,125831.250,4308.3056,N,07726.2645,W,1,07,1.62,151.4,M,-34.4,M,,*56
$GPRMC,125831.500,A,4308.3056,N,07726.2645,W,0.03,215.41,021019,,,A*70
$GPGGA,125831.750,4308.3056,N,07726.2645,W,1,07,1.62,151.4,M,-34.4,M,,*53
$GPRMC,125832.000,A,4308.3056,N,07726.2645,W,0.02,96.26,021019,,,A*4F
$GPGGA,125832.250,4308.3056,N,07726.2645,W,1,07,1.62,151.4,M,-34.4,M,,*55
$GPRMC,125832.500,A,4308.3056,N,07726.2645,W,0.04,344.49,021019,,,A*79
$GPGGA,125832.750,4308.3056,N,07726.2645,W,1,07,1.62,151.4,M,-34.4,M,,*50
$GPRMC,125833.000,A,4308.3056,N,07726.2645,W,0.05,351.85,021019,,,A*78
$GPGGA,125833.250,4308.3056,N,07726.2645,W,1,07,1.86,151.4,M,-34.4,M,,*5E
$GPRMC,125833.500,A,4308.3056,N,07726.2645,W,0.04,169.74,021019,,,A*7B
$GPGGA,125833.750,4308.3056,N,07726.2645,W,1,07,1.62,151.4,M,-34.4,M,,*51
$GPRMC,125834.000,A,4308.3056,N,07726.2645,W,0.05,163.82,021019,,,A*7B
$GPGGA,125834.250,4308.3056,N,07726.2645,W,1,07,1.62,151.4,M,-34.4,M,,*53
$GPRMC,125834.500,A,4308.3056,N,07726.2645,W,0.02,332.34,021019,,,A*72
$GPGGA,125834.750,4308.3056,N,07726.2645,W,1,07,1.62,151.3,M,-34.4,M,,*51
$GPRMC,125835.000,A,4308.3056,N,07726.2645,W,0.04,49.64,021019,,,A*4A
$GPGGA,125835.250,4308.3056,N,07726.2645,W,1,07,1.62,151.3,M,-34.4,M,,*55
$GPRMC,125835.500,A,4308.3056,N,07726.2645,W,0.04,206.83,021019,,,A*7F
$GPGGA,125835.750,4308.3056,N,07726.2644,W,1,07,1.62,151.3,M,-34.4,M,,*51
$GPRMC,125836.000,A,4308.3056,N,07726.2644,W,0.01,115.69,021019,,,A*78
$GPGGA,125836.250,4308.3056,N,07726.2644,W,1,07,1.62,151.3,M,-34.4,M,,*57
$GPRMC,125836.500,A,4308.3056,N,07726.2644,W,0.03,30.75,021019,,,A*44
$GPGGA,125836.750,4308.3056,N,07726.2644,W,1,07,1.62,151.3,M,-34.4,M,,*52
$GPRMC,125837.000,A,4308.3057,N,07726.2644,W,0.01,69.63,021019,,,A*48
$GPGGA,125837.250,4308.3057,N,07726.2643,W,1,07,1.62,151.3,M,-34.4,M,,*50
$GPRMC,125837.500,A,4308.3057,N,07726.2643,W,0.06,114.08,021019,,,A*7B
$GPGGA,125837.750,4308.3057,N,07726.2643,W,1,07,1.62,151.3,M,-34.4,M,,*55
$GPRMC,125838.000,A,4308.3057,N,07726.2643,W,0.04,168.89,021019,,,A*71
$GPGGA,125838.250,4308.3057,N,07726.2643,W,1,07,1.62,151.2,M,-34.4,M,,*5E
$GPRMC,125838.500,A,4308.3058,N,07726.2643,W,0.05,55.40,021019,,,A*40
$GPGGA,125838.750,4308.3058,N,07726.2643,W,1,07,1.62,151.2,M,-34.4,M,,*54
$GPRMC,125839.000,A,4308.3058,N,07726.2643,W,0.02,18.07,021019,,,A*49
$GPGGA,125839.250,4308.3058,N,07726.2642,W,1,07,1.62,151.2,M,-34.4,M,,*51
$GPRMC,125839.500,A,4308.3058,N,07726.2642,W,0.05,145.55,021019,,,A*74
$GPGGA,125839.750,4308.3059,N,07726.2642,W,1,07,1.62,151.2,M,-34.4,M,,*55
$GPRMC,125840.000,A,4308.3059,N,07726.2642,W,0.02,351.37,021019,,,A*7A
$GPGGA,125840.250,4308.3059,N,07726.2642,W,1,07,1.86,151.1,M,-34.4,M,,*57
$GPRMC,125840.500,A,4308.3059,N,07726.2642,W,0.07,57.12,021019,,,A*48
$GPGGA,125840.750,4308.3059,N,07726.2642,W,1,07,1.62,151.1,M,-34.4,M,,*58
$GPRMC,125841.000,A,4308.3060,N,07726.2641,W,0.03,202.05,021019,,,A*75
$GPGGA,125841.250,4308.3060,N,07726.2641,W,1,07,1.62,151.1,M,-34.4,M,,*55
$GPRMC,125841.500,A,4308.3060,N,07726.2641,W,0.02,187.63,021019,,,A*7F
$GPGGA,125841.750,4308.3060,N,07726.2641,W,1,07,1.62,151.0,M,-34.4,M,,*51
$GPRMC,125842.000,A,4308.3061,N,07726.2641,W,0.02,163.84,021019,,,A*7B
$GPGGA,125842.250,4308.3061,N,07726.2641,W,1,07,1.62,151.0,M,-34.4,M,,*56
$GPRMC,125842.500,A,4308.3061,N,07726.2640,W,0.07,205.43,021019,,,A*72
$GPGGA,125842.750,4308.3061,N,07726.2640,W,1,07,1.62,151.0,M,-34.4,M,,*52
$GPRMC,125843.000,A,4308.3061,N,07726.2640,W,0.05,293.70,021019,,,A*7B
$GPGGA,125843.250,4308.3062,N,07726.2640,W,1,07,1.62,150.9,M,-34.4,M,,*5D
$GPRMC,125843.500,A,4308.3062,N,07726.2640,W,0.03,308.08,021019,,,A*77
$GPGGA,125843.750,4308.3062,N,07726.2640,W,1,07,1.62,150.9,M,-34.4,M,,*58
$GPRMC,125844.000,A,4308.3062,N,07726.2640,W,0.04,174.46,021019,,,A*71
$GPGGA,125844.250,4308.3062,N,07726.2640,W,1,07,1.62,150.9,M,-34.4,M,,*5A
$GPRMC,125844.500,A,4308.3063,N,07726.2640,W,0.01,338.41,021019,,,A*7D
$GPGGA,125844.750,4308.3063,N,07726.2640,W,1,07,1.62,150.8,M,-34.4,M,,*5F
$GPRMC,125845.000,A,4308.3063,N,07726.2640,W,0.02,241.65,021019,,,A*73
$GPGGA,125845.250,4308.3063,N,07726.2640,W,1,07,1.62,150.8,M,-34.4,M,,*5B
$GPRMC,125845.500,A,4308.3063,N,07726.2640,W,0.02,319.06,021019,,,A*7F
$GPGGA,125845.750,4308.3063,N,07726.2640,W,1,07,1.62,150.7,M,-34.4,M,,*51
$GPRMC,125846.000,A,4308.3063,N,07726.2640,W,0.05,311.26,021019,,,A*74
$GPGGA,125846.250,4308.3064,N,07726.2640,W,1,07,1.62,150.7,M,-34.4,M,,*50
$GPRMC,125846.500,A,4308.3064,N,07726.2641,W,0.02,263.76,021019,,,A*71
$GPGGA,125846.750,4308.3064,N,07726.2641,W,1,07,1.62,150.7,M,-34.4,M,,*54
$GPRMC,125847.000,A,4308.3064,N,07726.2641,W,0.03,267.17,021019,,,A*77
$GPGGA,125847.250,4308.3064,N,07726.2641,W,1,07,1.62,150.7,M,-34.4,M,,*50
$GPRMC,125847.500,A,4308.3064,N,07726.2641,W,0.06,159.32,021019,,,A*7E
$GPGGA,125847.750,4308.3064,N,07726.2642,W,1,07,1.62,150.6,M,-34.4,M,,*57
$GPRMC,125848.000,A,4308.3064,N,07726.2642,W,0.02,288.67,021019,,,A*7C
$GPGGA,125848.250,4308.3064,N,07726.2642,W,1,07,1.62,150.6,M,-34.4,M,,*5D
$GPRMC,125848.500,A,4308.3064,N,07726.2642,W,0.03,65.03,021019,,,A*4B
$GPGGA,125848.750,4308.3064,N,07726.2642,W,1,07,1.62,150.6,M,-34.4,M,,*58
$GPRMC,125849.000,A,4308.3064,N,07726.2642,W,0.06,231.32,021019,,,A*7B
$GPGGA,125849.250,4308.3064,N,07726.2642,W,1,07,1.62,150.6,M,-34.4,M,,*5C
$GPRMC,125849.500,A,4308.3064,N,07726.2642,W,0.01,25.09,021019,,,A*46
$GPGGA,125849.750,4308.3064,N,07726.2642,W,1,07,1.62,150.6,M,-34.4,M,,*59
$GPRMC,125850.000,A,4308.3064,N,07726.2642,W,0.04,245.94,021019,,,A*7E
$GPGGA,125850.250,4308.3064,N,07726.2642,W,1,07,1.62,150.6,M,-34.4,M,,*54
$GPRMC,125850.500,A,4308.3064,N,07726.2642,W,0.02,33.95,021019,,,A*4F
$GPGGA,125850.750,4308.3064,N,07726.2642,W,1,07,1.62,150.6,M,-34.4,M,,*51
$GPRMC,125851.000,A,4308.3064,N,07726.2642,W,0.01,272.70,021019,,,A*74
$GPGGA,125851.250,4308.3064,N,07726.2642,W,1,07,1.62,150.6,M,-34.4,M,,*55
$GPRMC,125851.500,A,4308.3064,N,07726.2642,W,0.02,230.91,021019,,,A*7B
$GPGGA,125851.750,4308.3064,N,07726.2642,W,1,07,1.62,150.6,M,-34.4,M,,*50
$GPRMC,125852.000,A,4308.3064,N,07726.2642,W,0.02,89.81,021019,,,A*4C
$GPGGA,125852.250,4308.3064,N,07726.2642,W,1,07,1.62,150.6,M,-34.4,M,,*56
$GPRMC,125852.500,A,4308.3064,N,07726.2642,W,0.09,325.26,021019,,,A*7A
$GPGGA,125852.750,4308.3064,N,07726.2642,W,1,07,1.62,150.6,M,-34.4,M,,*53
$GPRMC,125853.000,A,4308.3064,N,07726.2642,W,0.04,348.79,021019,,,A*72
$GPGGA,125853.250,4308.3064,N,07726.2642,W,1,07,1.87,150.6,M,-34.4,M,,*5C
$GPRMC,125853.500,A,4308.3064,N,07726.2642,W,0.05,240.36,021019,,,A*74
$GPGGA,125853.750,4308.3064,N,07726.2642,W,1,07,1.62,150.6,M,-34.4,M,,*52
$GPRMC,125854.000,A,4308.3064,N,07726.2642,W,0.01,209.63,021019,,,A*7F
$GPGGA,125854.250,4308.3064,N,07726.2642,W,1,07,1.62,150.6,M,-34.4,M,,*50
$GPRMC,125854.500,A,4308.3064,N,07726.2642,W,0.05,184.22,021019,,,A*7D
$GPGGA,125854.750,4308.3064,N,07726.2642,W,1,07,1.62,150.6,M,-34.4,M,,*55
$GPRMC,125855.000,A,4308.3064,N,07726.2642,W,0.07,202.54,021019,,,A*77
$GPGGA,125855.250,4308.3064,N,07726.2642,W,1,07,1.62,150.6,M,-34.4,M,,*51
$GPRMC,125855.500,A,4308.3064,N,07726.2642,W,0.08,173.28,021019,,,A*73
$GPGGA,125855.750,4308.3064,N,07726.2642,W,1,07,1.62,150.6,M,-34.4,M,,*54
$GPRMC,125856.000,A,4308.3064,N,07726.2642,W,0.12,309.65,021019,,,A*78
$GPGGA,125856.250,4308.3064,N,07726.2642,W,1,07,1.62,150.7,M,-34.4,M,,*53
$GPRMC,125856.500,A,4308.3064,N,07726.2642,W,0.02,59.35,021019,,,A*4F
$GPGGA,125856.750,4308.3064,N,07726.2642,W,1,07,1.87,150.7,M,-34.4,M,,*5D
$GPRMC,125857.000,A,4308.3064,N,07726.2642,W,0.02,324.60,021019,,,A*72
$GPGGA,125857.250,4308.3064,N,07726.2642,W,1,07,1.87,150.7,M,-34.4,M,,*59
$GPRMC,125857.500,A,4308.3064,N,07726.2642,W,0.00,82.52,021019,,,A*4B
$GPGGA,125857.750,4308.3064,N,07726.2642,W,1,07,1.87,150.7,M,-34.4,M,,*5C
$GPRMC,125858.000,A,4308.3064,N,07726.2642,W,0.01,217.81,021019,,,A*70
$GPGGA,125858.250,4308.3064,N,07726.2642,W,1,07,1.87,150.7,M,-34.4,M,,*56
$GPRMC,125858.500,A,4308.3064,N,07726.2642,W,0.01,213.56,021019,,,A*7B
$GPGGA,125858.750,4308.3064,N,07726.2642,W,1,07,1.87,150.7,M,-34.4,M,,*53
$GPRMC,125859.000,A,4308.3064,N,07726.2642,W,0.01,153.23,021019,,,A*7A
$GPGGA,125859.250,4308.3064,N,07726.2642,W,1,07,1.87,150.7,M,-34.4,M,,*57
$GPRMC,125859.500,A,4308.3064,N,07726.2642,W,0.01,44.64,021019,,,A*4B
$GPGGA,125859.750,4308.3064,N,07726.2642,W,1,07,1.87,150.7,M,-34.4,M,,*52
$GPRMC,125900.000,A,4308.3064,N,07726.2642,W,0.01,267.53,021019,,,A*74
$GPGGA,125900.250,4308.3064,N,07726.2642,W,1,07,1.87,150.7,M,-34.4,M,,*5A
$GPRMC,125900.500,A,4308.3064,N,07726.2642,W,0.01,175.76,021019,,,A*76
$GPGGA,125900.750,4308.3064,N,07726.2642,W,1,07,1.87,150.7,M,-34.4,M,,*5F
$GPRMC,125901.000,A,4308.3064,N,07726.2642,W,0.01,145.36,021019,,,A*75
$GPGGA,125901.250,4308.3064,N,07726.2642,W,1,07,1.87,150.7,M,-34.4,M,,*5B
$GPRMC,125901.500,A,4308.3064,N,07726.2642,W,0.00,197.69,021019,,,A*74
$GPGGA,125901.750,4308.3064,N,07726.2642,W,1,07,1.87,150.7,M,-34.4,M,,*5E
$GPRMC,125902.000,A,4308.3064,N,07726.2642,W,0.02,240.56,021019,,,A*75
$GPGGA,125902.250,4308.3064,N,07726.2642,W,1,07,1.87,150.7,M,-34.4,M,,*58
$GPRMC,125902.500,A,4308.3064,N,07726.2642,W,0.01,264.19,021019,,,A*7E
$GPGGA,125902.750,4308.3064,N,07726.2642,W,1,07,1.87,150.7,M,-34.4,M,,*5D
$GPRMC,125903.000,A,4308.3064,N,07726.2642,W,0.02,270.26,021019,,,A*70
$GPGGA,125903.250,4308.3064,N,07726.2642,W,1,07,1.87,150.7,M,-34.4,M,,*59
$GPRMC,125903.500,A,4308.3064,N,07726.2642,W,0.01,250.86,021019,,,A*7E
$GPGGA,125903.750,4308.3064,N,07726.2642,W,1,07,1.87,150.7,M,-34.4,M,,*5C
$GPRMC,125904.000,A,4308.3064,N,07726.2642,W,0.02,145.03,021019,,,A*75
$GPGGA,125904.250,4308.3064,N,07726.2642,W,1,07,1.87,150.7,M,-34.4,M,,*5E
$GPRMC,125904.500,A,4308.3064,N,07726.2642,W,0.01,144.76,021019,,,A*70
$GPGGA,125904.750,4308.3064,N,07726.2642,W,1,07,1.87,150.7,M,-34.4,M,,*5B
$GPRMC,125905.000,A,4308.3064,N,07726.2642,W,0.01,78.61,021019,,,A*4C
$GPGGA,125905.250,4308.3064,N,07726.2642,W,1,07,1.87,150.7,M,-34.4,M,,*5F
$GPRMC,125905.500,A,4308.3064,N,07726.2642,W,0.01,225.98,021019,,,A*75
$GPGGA,125905.750,4308.3064,N,07726.2642,W,1,07,1.87,150.7,M,-34.4,M,,*5A
$GPRMC,125906.000,A,4308.3064,N,07726.2642,W,0.01,122.93,021019,,,A*7C
$GPGGA,125906.250,4308.3064,N,07726.2642,W,1,07,1.87,150.7,M,-34.4,M,,*5C
$GPRMC,125906.500,A,4308.3064,N,07726.2642,W,0.00,119.92,021019,,,A*71
$GPGGA,125906.750,4308.3064,N,07726.2642,W,1,07,1.87,150.7,M,-34.4,M,,*59
$GPRMC,125907.000,A,4308.3064,N,07726.2642,W,0.00,252.30,021019,,,A*71
$GPGGA,125907.250,4308.3064,N,07726.2642,W,1,07,1.87,150.7,M,-34.4,M,,*5D
$GPRMC,125907.500,A,4308.3064,N,07726.2642,W,0.01,95.22,021019,,,A*4F
$GPGGA,125907.750,4308.3064,N,07726.2642,W,1,07,1.87,150.7,M,-34.4,M,,*58
$GPRMC,125908.000,A,4308.3064,N,07726.2642,W,0.01,7.23,021019,,,A*7F
$GPGGA,125908.250,4308.3064,N,07726.2642,W,1,07,1.87,150.7,M,-34.4,M,,*52
$GPRMC,125908.500,A,4308.3064,N,07726.2642,W,0.01,287.54,021019,,,A*70
$GPGGA,125908.750,4308.3064,N,07726.2642,W,1,07,1.87,150.7,M,-34.4,M,,*57
$GPRMC,125909.000,A,4308.3064,N,07726.2642,W,0.01,102.53,021019,,,A*7D
$GPGGA,125909.250,4308.3064,N,07726.2642,W,1,07,1.87,150.7,M,-34.4,M,,*53
$GPRMC,125909.500,A,4308.3064,N,07726.2642,W,0.00,19.26,021019,,,A*40
$GPGGA,125909.750,4308.3064,N,07726.2642,W,1,07,1.87,150.7,M,-34.4,M,,*56
$GPRMC,125910.000,A,4308.3064,N,07726.2642,W,0.01,354.98,021019,,,A*73
$GPGGA,125910.250,4308.3064,N,07726.2642,W,1,07,1.87,150.7,M,-34.4,M,,*5B
$GPRMC,125910.500,A,4308.3064,N,07726.2642,W,0.01,153.65,021019,,,A*71
$GPGGA,125910.750,4308.3064,N,07726.2642,W,1,07,1.87,150.7,M,-34.4,M,,*5E
$GPRMC,125911.000,A,4308.3064,N,07726.2642,W,0.01,93.61,021019,,,A*4C
$GPGGA,125911.250,4308.3064,N,07726.2642,W,1,07,1.87,150.7,M,-34.4,M,,*5A
$GPRMC,125911.500,A,4308.3064,N,07726.2642,W,0.01,51.63,021019,,,A*45
$GPGGA,125911.750,4308.3064,N,07726.2642,W,1,07,1.87,150.6,M,-34.4,M,,*5E
$GPRMC,125912.000,A,4308.3064,N,07726.2642,W,0.01,287.31,021019,,,A*7D
$GPGGA,125912.250,4308.3064,N,07726.2642,W,1,07,1.87,150.6,M,-34.4,M,,*58
$GPRMC,125912.500,A,4308.3064,N,07726.2642,W,0.00,46.09,021019,,,A*4D
$GPGGA,125912.750,4308.3064,N,07726.2642,W,1,07,1.87,150.6,M,-34.4,M,,*5D
$GPRMC,125913.000,A,4308.3064,N,07726.2642,W,0.01,346.99,021019,,,A*72
$GPGGA,125913.250,4308.3064,N,07726.2642,W,1,07,1.87,150.6,M,-34.4,M,,*59
$GPRMC,125913.500,A,4308.3064,N,07726.2642,W,0.00,0.00,021019,,,A*77
$GPGGA,125913.750,4308.3064,N,07726.2642,W,1,07,1.87,150.6,M,-34.4,M,,*5C
$GPRMC,125914.000,A,4308.3064,N,07726.2642,W,0.01,183.74,021019,,,A*7D
$GPGGA,125914.250,4308.3064,N,07726.2642,W,1,07,1.87,150.6,M,-34.4,M,,*5E
$GPRMC,125914.500,A,4308.3064,N,07726.2642,W,0.00,235.79,021019,,,A*7A
$GPGGA,125914.750,4308.3064,N,07726.2642,W,1,07,1.87,150.6,M,-34.4,M,,*5B
$GPRMC,125915.000,A,4308.3064,N,07726.2642,W,0.01,271.71,021019,,,A*77
$GPGGA,125915.250,4308.3064,N,07726.2642,W,1,07,1.87,150.6,M,-34.4,M,,*5F
$GPRMC,125915.500,A,4308.3064,N,07726.2642,W,0.01,179.40,021019,,,A*7B
$GPGGA,125915.750,4308.3064,N,07726.2642,W,1,07,1.87,150.6,M,-34.4,M,,*5A
$GPRMC,125916.000,A,4308.3064,N,07726.2642,W,0.01,195.83,021019,,,A*70
$GPGGA,125916.250,4308.3064,N,07726.2642,W,1,07,1.87,150.6,M,-34.4,M,,*5C
$GPRMC,125916.500,A,4308.3064,N,07726.2642,W,0.01,140.44,021019,,,A*76
$GPGGA,125916.750,4308.3064,N,07726.2642,W,1,07,1.87,150.6,M,-34.4,M,,*59
$GPRMC,125917.000,A,4308.3064,N,07726.2642,W,0.00,35.73,021019,,,A*44
$GPGGA,125917.250,4308.3064,N,07726.2642,W,1,07,1.87,150.6,M,-34.4,M,,*5D
$GPRMC,125917.500,A,4308.3064,N,07726.2642,W,0.00,322.14,021019,,,A*75
$GPGGA,125917.750,4308.3064,N,07726.2642,W,1,07,1.87,150.6,M,-34.4,M,,*58
$GPRMC,125918.000,A,4308.3064,N,07726.2642,W,0.01,286.00,021019,,,A*74
$GPGGA,125918.250,4308.3064,N,07726.2642,W,1,07,1.87,150.6,M,-34.4,M,,*52
$GPRMC,125918.500,A,4308.3064,N,07726.2642,W,0.01,328.31,021019,,,A*76
$GPGGA,125918.750,4308.3064,N,07726.2642,W,1,07,1.87,150.6,M,-34.4,M,,*57
$GPRMC,125919.000,A,4308.3064,N,07726.2642,W,0.01,322.84,021019,,,A*76
$GPGGA,125919.250,4308.3064,N,07726.2642,W,1,07,1.87,150.6,M,-34.4,M,,*53
$GPRMC,125919.500,A,4308.3064,N,07726.2642,W,0.00,331.35,021019,,,A*7A
$GPGGA,125919.750,4308.3064,N,07726.2642,W,1,07,1.87,150.6,M,-34.4,M,,*56
$GPRMC,125920.000,A,4308.3064,N,07726.2642,W,0.01,175.54,021019,,,A*71
$GPGGA,125920.250,4308.3064,N,07726.2642,W,1,07,1.87,150.6,M,-34.4,M,,*59
$GPRMC,125920.500,A,4308.3064,N,07726.2642,W,0.00,235.46,021019,,,A*71
$GPGGA,125920.750,4308.3064,N,07726.2642,W,1,07,1.87,150.6,M,-34.4,M,,*5C
$GPRMC,125921.000,A,4308.3064,N,07726.2642,W,0.01,0.33,021019,,,A*72
$GPGGA,125921.250,4308.3064,N,07726.2642,W,1,07,1.87,150.6,M,-34.4,M,,*58
$GPRMC,125921.500,A,4308.3064,N,07726.2642,W,0.01,81.18,021019,,,A*47
$GPGGA,125921.750,4308.3064,N,07726.2642,W,1,07,1.87,150.6,M,-34.4,M,,*5D
$GPRMC,125922.000,A,4308.3064,N,07726.2642,W,0.01,166.59,021019,,,A*7C
$GPGGA,125922.250,4308.3064,N,07726.2642,W,1,07,1.87,150.6,M,-34.4,M,,*5B
$GPRMC,125922.500,A,4308.3064,N,07726.2642,W,0.00,116.81,021019,,,A*7A
$GPGGA,125922.750,4308.3064,N,07726.2642,W,1,07,1.87,150.6,M,-34.4,M,,*5E
$GPRMC,125923.000,A,4308.3064,N,07726.2642,W,0.00,193.01,021019,,,A*7B
$GPGGA,125923.250,4308.3064,N,07726.2642,W,1,07,1.87,150.6,M,-34.4,M,,*5A
$GPRMC,125923.500,A,4308.3064,N,07726.2642,W,0.01,177.94,021019,,,A*79
$GPGGA,125923.750,4308.3064,N,07726.2642,W,1,07,1.87,150.6,M,-34.4,M,,*5F
$GPRMC,125924.000,A,4308.3064,N,07726.2642,W,0.01,140.20,021019,,,A*70
$GPGGA,125924.250,4308.3064,N,07726.2642,W,1,07,1.87,150.6,M,-34.4,M,,*5D
$GPRMC,125924.500,A,4308.3064,N,07726.2642,W,0.01,101.88,021019,,,A*72
$GPGGA,125924.750,4308.3064,N,07726.2642,W,1,07,1.87,150.6,M,-34.4,M,,*58
$GPRMC,125925.000,A,4308.3064,N,07726.2642,W,0.01,251.05,021019,,,A*75
$GPGGA,125925.250,4308.3064,N,07726.2642,W,1,07,1.87,150.6,M,-34.4,M,,*5C
$GPRMC,125925.500,A,4308.3064,N,07726.2642,W,0.01,187.75,021019,,,A*7F
$GPGGA,125925.750,4308.3064,N,07726.2642,W,1,07,1.87,150.6,M,-34.4,M,,*59
$GPRMC,125926.000,A,4308.3064,N,07726.2642,W,0.01,191.64,021019,,,A*7E
$GPGGA,125926.250,4308.3064,N,07726.2642,W,1,07,1.87,150.6,M,-34.4,M,,*5F
$GPRMC,125926.500,A,4308.3064,N,07726.2642,W,0.01,211.78,021019,,,A*7D
$GPGGA,125926.750,4308.3064,N,07726.2642,W,1,07,1.87,150.6,M,-34.4,M,,*5A
$GPRMC,125927.000,A,4308.3064,N,07726.2642,W,0.01,228.01,021019,,,A*7D
$GPGGA,125927.250,4308.3064,N,07726.2642,W,1,07,1.87,150.6,M,-34.4,M,,*5E
$GPRMC,125927.500,A,4308.3064,N,07726.2642,W,0.01,208.25,021019,,,A*7C
$GPGGA,125927.750,4308.3064,N,07726.2642,W,1,07,1.88,150.6,M,-34.4,M,,*54
$GPRMC,125928.000,A,4308.3064,N,07726.2642,W,0.01,56.25,021019,,,A*4F
$GPGGA,125928.250,4308.3064,N,07726.2642,W,1,07,1.88,150.6,M,-34.4,M,,*5E
$GPRMC,125928.500,A,4308.3064,N,07726.2642,W,0.01,205.42,021019,,,A*7F
$GPGGA,125928.750,4308.3064,N,07726.2642,W,1,07,1.88,150.6,M,-34.4,M,,*5B
$GPRMC,125929.000,A,4308.3064,N,07726.2642,W,0.01,141.04,021019,,,A*7A
$GPGGA,125929.250,4308.3064,N,07726.2642,W,1,07,1.88,150.6,M,-34.4,M,,*5F
$GPRMC,125929.500,A,4308.3064,N,07726.2642,W,0.01,199.28,021019,,,A*74
$GPGGA,125929.750,4308.3064,N,07726.2642,W,1,07,1.87,150.6,M,-34.4,M,,*55
$GPRMC,125930.000,A,4308.3064,N,07726.2642,W,0.00,163.01,021019,,,A*76
$GPGGA,125930.250,4308.3064,N,07726.2642,W,1,07,1.87,150.6,M,-34.4,M,,*58
$GPRMC,125930.500,A,4308.3064,N,07726.2642,W,0.01,203.36,021019,,,A*73
$GPGGA,125930.750,4308.3064,N,07726.2642,W,1,07,1.88,150.6,M,-34.4,M,,*52
$GPRMC,125931.000,A,4308.3064,N,07726.2642,W,0.01,204.02,021019,,,A*77
$GPGGA,125931.250,4308.3064,N,07726.2642,W,1,07,1.88,150.6,M,-34.4,M,,*56
$GPRMC,125931.500,A,4308.3064,N,07726.2642,W,0.01,186.18,021019,,,A*70
$GPGGA,125931.750,4308.3064,N,07726.2642,W,1,07,1.88,150.6,M,-34.4,M,,*53
$GPRMC,125932.000,A,4308.3064,N,07726.2642,W,0.01,162.84,021019,,,A*79
$GPGGA,125932.250,4308.3064,N,07726.2642,W,1,07,1.88,150.6,M,-34.4,M,,*55
$GPRMC,125932.500,A,4308.3064,N,07726.2642,W,0.01,153.08,021019,,,A*7A
$GPGGA,125932.750,4308.3064,N,07726.2642,W,1,08,1.05,150.6,M,-34.4,M,,*5A
$GPRMC,125933.000,A,4308.3064,N,07726.2642,W,0.01,220.49,021019,,,A*7C
$GPGGA,125933.250,4308.3064,N,07726.2642,W,1,08,1.05,150.6,M,-34.4,M,,*5E
$GPRMC,125933.500,A,4308.3064,N,07726.2642,W,0.01,204.16,021019,,,A*75
$GPGGA,125933.750,4308.3063,N,07726.2642,W,1,08,1.05,150.6,M,-34.4,M,,*5C
$GPRMC,125934.000,A,4308.3063,N,07726.2642,W,0.01,258.99,021019,,,A*7E
$GPGGA,125934.250,4308.3063,N,07726.2643,W,1,08,1.05,150.6,M,-34.4,M,,*5F
$GPRMC,125934.500,A,4308.3063,N,07726.2643,W,0.00,350.95,021019,,,A*7E
$GPGGA,125934.750,4308.3063,N,07726.2643,W,1,08,1.05,150.6,M,-34.4,M,,*5A
$GPRMC,125935.000,A,4308.3063,N,07726.2642,W,0.01,32.77,021019,,,A*41
$GPGGA,125935.250,4308.3064,N,07726.2642,W,1,08,1.05,150.6,M,-34.4,M,,*58
$GPRMC,125935.500,A,4308.3064,N,07726.2642,W,0.22,334.44,021019,,,A*77
$GPGGA,125935.750,4308.3065,N,07726.2642,W,1,08,1.02,150.5,M,-34.4,M,,*58
$GPRMC,125936.000,A,4308.3066,N,07726.2643,W,1.67,343.21,021019,,,A*71
$GPGGA,125936.250,4308.3070,N,07726.2642,W,1,08,1.02,150.4,M,-34.4,M,,*5B
$GPRMC,125936.500,A,4308.3073,N,07726.2641,W,3.68,5.99,021019,,,A*7D
$GPGGA,125936.750,4308.3077,N,07726.2640,W,1,08,1.05,150.3,M,-34.4,M,,*5B
$GPRMC,125937.000,A,4308.3082,N,07726.2639,W,5.25,8.51,021019,,,A*7E
$GPGGA,125937.250,4308.3089,N,07726.2637,W,1,08,1.05,150.2,M,-34.4,M,,*5F
$GPRMC,125937.500,A,4308.3094,N,07726.2636,W,6.67,11.00,021019,,,A*4A
$GPGGA,125937.750,4308.3098,N,07726.2634,W,1,08,1.05,150.1,M,-34.4,M,,*5A
$GPRMC,125938.000,A,4308.3103,N,07726.2631,W,6.68,18.57,021019,,,A*4C
$GPGGA,125938.250,4308.3108,N,07726.2628,W,1,07,1.88,150.0,M,-34.4,M,,*5E
$GPRMC,125938.500,A,4308.3112,N,07726.2625,W,6.95,27.76,021019,,,A*41
$GPGGA,125938.750,4308.3116,N,07726.2621,W,1,07,1.88,150.1,M,-34.4,M,,*5C
$GPRMC,125939.000,A,4308.3120,N,07726.2617,W,6.82,36.71,021019,,,A*44
$GPGGA,125939.250,4308.3123,N,07726.2613,W,1,08,1.05,150.0,M,-34.4,M,,*54
$GPRMC,125939.500,A,4308.3126,N,07726.2608,W,6.52,44.18,021019,,,A*4E
$GPGGA,125939.750,4308.3128,N,07726.2603,W,1,08,1.05,150.0,M,-34.4,M,,*5B
$GPRMC,125940.000,A,4308.3130,N,07726.2598,W,6.00,53.89,021019,,,A*41
$GPGGA,125940.250,4308.3132,N,07726.2595,W,1,08,1.05,149.9,M,-34.4,M,,*56
$GPRMC,125940.500,A,4308.3133,N,07726.2592,W,3.92,50.15,021019,,,A*45
$GPGGA,125940.750,4308.3133,N,07726.2591,W,1,07,1.88,149.8,M,-34.4,M,,*5D
$GPRMC,125941.000,A,4308.3133,N,07726.2591,W,1.54,30.26,021019,,,A*4C
$GPGGA,125941.250,4308.3133,N,07726.2591,W,1,07,1.62,149.7,M,-34.4,M,,*52
$GPRMC,125941.500,A,4308.3133,N,07726.2593,W,1.08,300.14,021019,,,A*73
$GPGGA,125941.750,4308.3132,N,07726.2596,W,1,07,1.62,149.6,M,-34.4,M,,*50
$GPRMC,125942.000,A,4308.3132,N,07726.2601,W,2.63,275.61,021019,,,A*73
$GPGGA,125942.250,4308.3133,N,07726.2606,W,1,07,1.62,149.4,M,-34.4,M,,*5F
$GPRMC,125942.500,A,4308.3131,N,07726.2612,W,6.07,270.03,021019,,,A*70
$GPGGA,125942.750,4308.3131,N,07726.2620,W,1,08,1.05,149.3,M,-34.4,M,,*55
$GPRMC,125943.000,A,4308.3131,N,07726.2629,W,9.08,272.68,021019,,,A*73
$GPGGA,125943.250,4308.3131,N,07726.2639,W,1,08,1.05,149.2,M,-34.4,M,,*58
$GPRMC,125943.500,A,4308.3132,N,07726.2649,W,10.23,274.52,021019,,,A*4D
$GPGGA,125943.750,4308.3128,N,07726.2661,W,1,08,1.02,149.0,M,-34.4,M,,*5D
$GPRMC,125944.000,A,4308.3127,N,07726.2674,W,11.49,274.01,021019,,,A*4E
$GPGGA,125944.250,4308.3126,N,07726.2687,W,1,08,1.02,148.9,M,-34.4,M,,*51
$GPRMC,125944.500,A,4308.3125,N,07726.2700,W,12.62,274.38,021019,,,A*4B
$GPGGA,125944.750,4308.3126,N,07726.2716,W,1,08,1.02,148.7,M,-34.4,M,,*53
$GPRMC,125945.000,A,4308.3126,N,07726.2731,W,14.03,274.81,021019,,,A*4D
$GPGGA,125945.250,4308.3127,N,07726.2746,W,1,08,1.02,148.6,M,-34.4,M,,*52
$GPRMC,125945.500,A,4308.3128,N,07726.2762,W,15.13,276.19,021019,,,A*43
$GPGGA,125945.750,4308.3132,N,07726.2780,W,1,08,1.02,148.5,M,-34.4,M,,*5A
$GPRMC,125946.000,A,4308.3136,N,07726.2799,W,17.03,279.35,021019,,,A*4C
$GPGGA,125946.250,4308.3141,N,07726.2819,W,1,08,1.02,148.4,M,-34.4,M,,*56
$GPRMC,125946.500,A,4308.3145,N,07726.2839,W,19.01,282.44,021019,,,A*46
$GPGGA,125946.750,4308.3151,N,07726.2858,W,1,08,1.02,148.3,M,-34.4,M,,*50
$GPRMC,125947.000,A,4308.3157,N,07726.2878,W,21.15,286.07,021019,,,A*49
$GPGGA,125947.250,4308.3165,N,07726.2902,W,1,08,1.02,148.0,M,-34.4,M,,*5E
$GPRMC,125947.500,A,4308.3172,N,07726.2925,W,23.57,288.51,021019,,,A*4B
$GPGGA,125947.750,4308.3180,N,07726.2949,W,1,08,1.02,147.9,M,-34.4,M,,*59
$GPRMC,125948.000,A,4308.3189,N,07726.2972,W,25.52,291.04,021019,,,A*4C
$GPGGA,125948.250,4308.3200,N,07726.2995,W,1,08,1.02,147.6,M,-34.4,M,,*56
$GPRMC,125948.500,A,4308.3210,N,07726.3020,W,26.79,293.51,021019,,,A*4D
$GPGGA,125948.750,4308.3220,N,07726.3044,W,1,08,1.02,147.5,M,-34.4,M,,*56
$GPRMC,125949.000,A,4308.3230,N,07726.3069,W,27.77,296.30,021019,,,A*4B
$GPGGA,125949.250,4308.3241,N,07726.3095,W,1,08,1.05,147.5,M,-34.4,M,,*5E
$GPRMC,125949.500,A,4308.3251,N,07726.3120,W,28.79,298.57,021019,,,A*4B
$GPGGA,125949.750,4308.3263,N,07726.3145,W,1,08,1.05,147.3,M,-34.4,M,,*51
$GPRMC,125950.000,A,4308.3275,N,07726.3169,W,29.13,300.46,021019,,,A*40
$GPGGA,125950.250,4308.3287,N,07726.3193,W,1,08,1.05,147.2,M,-34.4,M,,*5C
$GPRMC,125950.500,A,4308.3298,N,07726.3217,W,29.38,301.19,021019,,,A*4E
$GPGGA,125950.750,4308.3310,N,07726.3241,W,1,08,1.05,147.0,M,-34.4,M,,*58
$GPRMC,125951.000,A,4308.3322,N,07726.3266,W,29.87,301.40,021019,,,A*44
$GPGGA,125951.250,4308.3335,N,07726.3291,W,1,08,1.05,146.8,M,-34.4,M,,*5F
$GPRMC,125951.500,A,4308.3348,N,07726.3316,W,30.21,301.85,021019,,,A*46
$GPGGA,125951.750,4308.3361,N,07726.3341,W,1,08,1.05,146.7,M,-34.4,M,,*58
$GPRMC,125952.000,A,4308.3373,N,07726.3366,W,30.50,302.71,021019,,,A*41
$GPGGA,125952.250,4308.3386,N,07726.3391,W,1,08,1.02,146.0,M,-34.4,M,,*5A
$GPRMC,125952.500,A,4308.3398,N,07726.3418,W,30.30,301.88,021019,,,A*4C
$GPGGA,125952.750,4308.3410,N,07726.3444,W,1,08,1.02,145.5,M,-34.4,M,,*5E
$GPRMC,125953.000,A,4308.3423,N,07726.3469,W,30.22,303.50,021019,,,A*4D
$GPGGA,125953.250,4308.3436,N,07726.3493,W,1,08,1.02,145.1,M,-34.4,M,,*50
$GPRMC,125953.500,A,4308.3449,N,07726.3518,W,29.91,304.24,021019,,,A*47
$GPGGA,125953.750,4308.3462,N,07726.3543,W,1,08,1.02,144.8,M,-34.4,M,,*50
$GPRMC,125954.000,A,4308.3475,N,07726.3567,W,29.04,305.24,021019,,,A*4F
$GPGGA,125954.250,4308.3492,N,07726.3591,W,1,08,1.02,144.5,M,-34.4,M,,*5F
$GPRMC,125954.500,A,4308.3507,N,07726.3614,W,28.43,308.64,021019,,,A*42
$GPGGA,125954.750,4308.3523,N,07726.3634,W,1,08,1.02,144.3,M,-34.4,M,,*5B
$GPRMC,125955.000,A,4308.3537,N,07726.3653,W,27.38,312.71,021019,,,A*4A
$GPGGA,125955.250,4308.3551,N,07726.3671,W,1,08,1.02,144.4,M,-34.4,M,,*5C
$GPRMC,125955.500,A,4308.3566,N,07726.3688,W,26.57,316.92,021019,,,A*4C
$GPGGA,125955.750,4308.3581,N,07726.3704,W,1,08,1.02,144.6,M,-34.4,M,,*55
$GPRMC,125956.000,A,4308.3595,N,07726.3719,W,25.51,320.58,021019,,,A*49
$GPGGA,125956.250,4308.3610,N,07726.3733,W,1,08,1.05,144.8,M,-34.4,M,,*55
$GPRMC,125956.500,A,4308.3625,N,07726.3747,W,25.51,323.73,021019,,,A*45
$GPGGA,125956.750,4308.3640,N,07726.3759,W,1,08,1.02,145.0,M,-34.4,M,,*57
$GPRMC,125957.000,A,4308.3656,N,07726.3769,W,25.08,328.98,021019,,,A*4B
$GPGGA,125957.250,4308.3674,N,07726.3777,W,1,08,1.02,145.2,M,-34.4,M,,*5A
$GPRMC,125957.500,A,4308.3690,N,07726.3787,W,25.03,333.34,021019,,,A*43
$GPGGA,125957.750,4308.3706,N,07726.3796,W,1,08,1.02,145.4,M,-34.4,M,,*52
$GPRMC,125958.000,A,4308.3722,N,07726.3805,W,25.08,335.40,021019,,,A*4A
$GPGGA,125958.250,4308.3737,N,07726.3812,W,1,08,1.05,145.6,M,-34.4,M,,*5C
$GPRMC,125958.500,A,4308.3752,N,07726.3819,W,24.33,338.26,021019,,,A*41
$GPGGA,125958.750,4308.3768,N,07726.3825,W,1,08,1.02,145.9,M,-34.4,M,,*5F
$GPRMC,125959.000,A,4308.3786,N,07726.3829,W,24.65,342.77,021019,,,A*45
$GPGGA,125959.250,4308.3804,N,07726.3835,W,1,08,1.02,146.3,M,-34.4,M,,*56
$GPRMC,125959.500,A,4308.3822,N,07726.3840,W,25.26,345.31,021019,,,A*4D
$GPGGA,125959.750,4308.3844,N,07726.3840,W,1,08,1.02,146.6,M,-34.4,M,,*50
$GPRMC,130000.000,A,4308.3863,N,07726.3838,W,26.45,355.56,021019,,,A*45
$GPGGA,130000.250,4308.3882,N,07726.3836,W,1,08,1.02,147.0,M,-34.4,M,,*58
$GPRMC,130000.500,A,4308.3902,N,07726.3834,W,27.32,359.96,021019,,,A*4B
$GPGGA,130000.750,4308.3922,N,07726.3831,W,1,08,1.02,147.3,M,-34.4,M,,*52
$GPRMC,130001.000,A,4308.3943,N,07726.3827,W,28.26,4.08,021019,,,A*4E
$GPGGA,130001.250,4308.3963,N,07726.3823,W,1,08,1.05,147.7,M,-34.4,M,,*53
$GPRMC,130001.500,A,4308.3983,N,07726.3818,W,28.85,6.71,021019,,,A*4E
$GPGGA,130001.750,4308.4004,N,07726.3812,W,1,08,1.02,148.1,M,-34.4,M,,*55
$GPRMC,130002.000,A,4308.4025,N,07726.3806,W,29.26,8.99,021019,,,A*45
$GPGGA,130002.250,4308.4046,N,07726.3799,W,1,08,1.05,148.5,M,-34.4,M,,*5A
$GPRMC,130002.500,A,4308.4069,N,07726.3793,W,29.72,10.18,021019,,,A*7A
$GPGGA,130002.750,4308.4090,N,07726.3787,W,1,08,1.02,149.0,M,-34.4,M,,*58
$GPRMC,130003.000,A,4308.4111,N,07726.3780,W,30.11,10.81,021019,,,A*7F
$GPGGA,130003.250,4308.4132,N,07726.3773,W,1,08,1.05,149.3,M,-34.4,M,,*5A
$GPRMC,130003.500,A,4308.4154,N,07726.3767,W,30.13,11.31,021019,,,A*7A
$GPGGA,130003.750,4308.4175,N,07726.3760,W,1,08,1.02,149.6,M,-34.4,M,,*5C
$GPRMC,130004.000,A,4308.4197,N,07726.3753,W,30.11,11.51,021019,,,A*74
$GPGGA,130004.250,4308.4218,N,07726.3746,W,1,08,1.05,150.1,M,-34.4,M,,*5A
$GPRMC,130004.500,A,4308.4238,N,07726.3739,W,30.16,11.65,021019,,,A*7B
$GPGGA,130004.750,4308.4258,N,07726.3733,W,1,08,1.02,150.3,M,-34.4,M,,*5C
$GPRMC,130005.000,A,4308.4277,N,07726.3727,W,28.07,11.90,021019,,,A*78
$GPGGA,130005.250,4308.4296,N,07726.3721,W,1,08,1.05,150.6,M,-34.4,M,,*5B
$GPRMC,130005.500,A,4308.4315,N,07726.3716,W,26.99,11.97,021019,,,A*74
$GPGGA,130005.750,4308.4334,N,07726.3710,W,1,08,1.02,150.9,M,-34.4,M,,*5D
$GPRMC,130006.000,A,4308.4352,N,07726.3704,W,25.90,12.03,021019,,,A*76
$GPGGA,130006.250,4308.4369,N,07726.3698,W,1,08,1.05,151.0,M,-34.4,M,,*5D
$GPRMC,130006.500,A,4308.4386,N,07726.3694,W,24.45,11.82,021019,,,A*71
$GPGGA,130006.750,4308.4402,N,07726.3688,W,1,08,1.05,151.1,M,-34.4,M,,*52
$GPRMC,130007.000,A,4308.4417,N,07726.3683,W,22.82,12.69,021019,,,A*77
$GPGGA,130007.250,4308.4431,N,07726.3677,W,1,08,1.05,151.0,M,-34.4,M,,*57
$GPRMC,130007.500,A,4308.4444,N,07726.3672,W,21.06,13.80,021019,,,A*73
$GPGGA,130007.750,4308.4457,N,07726.3667,W,1,08,1.05,151.0,M,-34.4,M,,*53
$GPRMC,130008.000,A,4308.4469,N,07726.3663,W,18.76,14.49,021019,,,A*79
$GPGGA,130008.250,4308.4478,N,07726.3659,W,1,08,1.05,150.9,M,-34.4,M,,*51
$GPRMC,130008.500,A,4308.4490,N,07726.3655,W,16.26,14.93,021019,,,A*73
$GPGGA,130008.750,4308.4502,N,07726.3648,W,1,08,1.05,151.1,M,-34.4,M,,*51
$GPRMC,130009.000,A,4308.4512,N,07726.3643,W,13.32,17.38,021019,,,A*79
$GPGGA,130009.250,4308.4521,N,07726.3640,W,1,08,1.02,151.1,M,-34.4,M,,*5B
$GPRMC,130009.500,A,4308.4527,N,07726.3637,W,11.10,17.43,021019,,,A*77
$GPGGA,130009.750,4308.4532,N,07726.3634,W,1,08,1.02,151.1,M,-34.4,M,,*5F
$GPRMC,130010.000,A,4308.4537,N,07726.3632,W,9.62,15.29,021019,,,A*4C
$GPGGA,130010.250,4308.4542,N,07726.3632,W,1,08,1.02,151.0,M,-34.4,M,,*52
$GPRMC,130010.500,A,4308.4549,N,07726.3632,W,9.16,4.16,021019,,,A*7F
$GPGGA,130010.750,4308.4555,N,07726.3630,W,1,08,1.05,150.9,M,-34.4,M,,*5C
$GPRMC,130011.000,A,4308.4561,N,07726.3630,W,9.38,0.37,021019,,,A*78
$GPGGA,130011.250,4308.4567,N,07726.3629,W,1,08,1.05,150.8,M,-34.4,M,,*50
$GPRMC,130011.500,A,4308.4575,N,07726.3631,W,10.09,355.22,021019,,,A*44
$GPGGA,130011.750,4308.4580,N,07726.3636,W,1,08,1.05,150.6,M,-34.4,M,,*5C
$GPRMC,130012.000,A,4308.4587,N,07726.3641,W,10.64,336.79,021019,,,A*48
$GPGGA,130012.250,4308.4594,N,07726.3645,W,1,08,1.05,150.5,M,-34.4,M,,*58
$GPRMC,130012.500,A,4308.4602,N,07726.3650,W,11.02,329.62,021019,,,A*46
$GPGGA,130012.750,4308.4607,N,07726.3657,W,1,08,1.05,150.4,M,-34.4,M,,*56
$GPRMC,130013.000,A,4308.4614,N,07726.3664,W,11.71,320.77,021019,,,A*4B
$GPGGA,130013.250,4308.4620,N,07726.3674,W,1,08,1.05,150.3,M,-34.4,M,,*51
$GPRMC,130013.500,A,4308.4626,N,07726.3684,W,12.69,311.38,021019,,,A*42
$GPGGA,130013.750,4308.4632,N,07726.3695,W,1,08,1.05,150.2,M,-34.4,M,,*59
$GPRMC,130014.000,A,4308.4637,N,07726.3707,W,13.84,304.90,021019,,,A*4E
$GPGGA,130014.250,4308.4642,N,07726.3721,W,1,08,1.05,149.9,M,-34.4,M,,*51
$GPRMC,130014.500,A,4308.4646,N,07726.3733,W,14.27,298.46,021019,,,A*4B
$GPGGA,130014.750,4308.4651,N,07726.3746,W,1,08,1.02,149.8,M,-34.4,M,,*51
$GPRMC,130015.000,A,4308.4654,N,07726.3759,W,14.57,293.53,021019,,,A*48
$GPGGA,130015.250,4308.4657,N,07726.3772,W,1,08,1.02,149.7,M,-34.4,M,,*5B
$GPRMC,130015.500,A,4308.4659,N,07726.3786,W,14.88,288.20,021019,,,A*4E
$GPGGA,130015.750,4308.4661,N,07726.3800,W,1,08,1.02,149.5,M,-34.4,M,,*53
$GPRMC,130016.000,A,4308.4662,N,07726.3814,W,15.11,283.67,021019,,,A*4D
$GPGGA,130016.250,4308.4662,N,07726.3829,W,1,08,1.05,149.4,M,-34.4,M,,*5B
$GPRMC,130016.500,A,4308.4660,N,07726.3843,W,15.08,279.63,021019,,,A*41
$GPGGA,130016.750,4308.4660,N,07726.3858,W,1,08,1.02,149.3,M,-34.4,M,,*5A
$GPRMC,130017.000,A,4308.4660,N,07726.3872,W,15.08,277.15,021019,,,A*48
$GPGGA,130017.250,4308.4661,N,07726.3887,W,1,08,1.05,149.2,M,-34.4,M,,*5B
$GPRMC,130017.500,A,4308.4662,N,07726.3902,W,15.08,276.40,021019,,,A*48
$GPGGA,130017.750,4308.4664,N,07726.3917,W,1,08,1.02,149.1,M,-34.4,M,,*57
$GPRMC,130018.000,A,4308.4665,N,07726.3932,W,15.10,275.99,021019,,,A*48
$GPGGA,130018.250,4308.4666,N,07726.3947,W,1,08,1.02,149.0,M,-34.4,M,,*5B
$GPRMC,130018.500,A,4308.4666,N,07726.3963,W,15.16,276.41,021019,,,A*4A
$GPGGA,130018.750,4308.4667,N,07726.3977,W,1,08,1.02,148.9,M,-34.4,M,,*54
$GPRMC,130019.000,A,4308.4667,N,07726.3991,W,15.16,276.49,021019,,,A*4A
$GPGGA,130019.250,4308.4668,N,07726.4004,W,1,08,1.02,148.7,M,-34.4,M,,*5B
$GPRMC,130019.500,A,4308.4669,N,07726.4018,W,15.11,276.67,021019,,,A*45
$GPGGA,130019.750,4308.4670,N,07726.4031,W,1,08,1.02,148.6,M,-34.4,M,,*50
$GPRMC,130020.000,A,4308.4671,N,07726.4045,W,15.09,277.25,021019,,,A*45
$GPGGA,130020.250,4308.4673,N,07726.4059,W,1,08,1.05,148.4,M,-34.4,M,,*57
$GPRMC,130020.500,A,4308.4675,N,07726.4073,W,15.09,277.97,021019,,,A*48
$GPGGA,130020.750,4308.4677,N,07726.4087,W,1,08,1.05,148.3,M,-34.4,M,,*52
$GPRMC,130021.000,A,4308.4678,N,07726.4102,W,15.03,278.57,021019,,,A*4F
$GPGGA,130021.250,4308.4679,N,07726.4115,W,1,08,1.05,148.2,M,-34.4,M,,*53
$GPRMC,130021.500,A,4308.4681,N,07726.4129,W,14.64,279.84,021019,,,A*4A
$GPGGA,130021.750,4308.4682,N,07726.4141,W,1,08,1.05,148.0,M,-34.4,M,,*51
$GPRMC,130022.000,A,4308.4685,N,07726.4155,W,14.53,281.66,021019,,,A*4C
$GPGGA,130022.250,4308.4686,N,07726.4169,W,1,08,1.05,147.8,M,-34.4,M,,*5E
$GPRMC,130022.500,A,4308.4688,N,07726.4182,W,14.46,281.77,021019,,,A*4A
$GPGGA,130022.750,4308.4689,N,07726.4196,W,1,08,1.05,147.6,M,-34.4,M,,*5A
$GPRMC,130023.000,A,4308.4690,N,07726.4210,W,14.20,281.46,021019,,,A*4D
$GPGGA,130023.250,4308.4691,N,07726.4224,W,1,08,1.05,147.5,M,-34.4,M,,*5E
$GPRMC,130023.500,A,4308.4693,N,07726.4236,W,13.49,281.70,021019,,,A*42
$GPGGA,130023.750,4308.4695,N,07726.4248,W,1,08,1.05,147.3,M,-34.4,M,,*53
$GPRMC,130024.000,A,4308.4696,N,07726.4260,W,12.24,281.45,021019,,,A*4A
$GPGGA,130024.250,4308.4695,N,07726.4271,W,1,07,1.89,147.1,M,-34.4,M,,*52
$GPRMC,130024.500,A,4308.4694,N,07726.4281,W,10.64,282.34,021019,,,A*41
$GPGGA,130024.750,4308.4694,N,07726.4290,W,1,08,1.02,146.9,M,-34.4,M,,*5C
$GPRMC,130025.000,A,4308.4695,N,07726.4297,W,9.02,282.55,021019,,,A*7C
$GPGGA,130025.250,4308.4695,N,07726.4304,W,1,08,1.05,146.8,M,-34.4,M,,*53
$GPRMC,130025.500,A,4308.4695,N,07726.4311,W,7.09,281.96,021019,,,A*7F
$GPGGA,130025.750,4308.4694,N,07726.4315,W,1,08,1.05,146.6,M,-34.4,M,,*59
$GPRMC,130026.000,A,4308.4694,N,07726.4320,W,5.21,284.10,021019,,,A*79
$GPGGA,130026.250,4308.4694,N,07726.4323,W,1,08,1.05,146.5,M,-34.4,M,,*59
$GPRMC,130026.500,A,4308.4694,N,07726.4326,W,3.91,289.28,021019,,,A*71
$GPGGA,130026.750,4308.4694,N,07726.4328,W,1,08,1.02,146.4,M,-34.4,M,,*51
$GPRMC,130027.000,A,4308.4694,N,07726.4328,W,1.99,289.28,021019,,,A*71
$GPGGA,130027.250,4308.4694,N,07726.4328,W,1,08,1.02,146.3,M,-34.4,M,,*52
$GPRMC,130027.500,A,4308.4695,N,07726.4328,W,1.32,289.28,021019,,,A*74
$GPGGA,130027.750,4308.4695,N,07726.4327,W,1,08,1.02,146.2,M,-34.4,M,,*58
$GPRMC,130028.000,A,4308.4696,N,07726.4326,W,1.10,289.28,021019,,,A*73
$GPGGA,130028.250,4308.4696,N,07726.4325,W,1,08,1.05,146.2,M,-34.4,M,,*54
$GPRMC,130028.500,A,4308.4697,N,07726.4324,W,1.06,289.28,021019,,,A*72
$GPGGA,130028.750,4308.4697,N,07726.4322,W,1,08,1.02,146.1,M,-34.4,M,,*53
$GPRMC,130029.000,A,4308.4697,N,07726.4321,W,0.99,289.28,021019,,,A*74
$GPGGA,130029.250,4308.4698,N,07726.4320,W,1,08,1.02,146.1,M,-34.4,M,,*5A
$GPRMC,130029.500,A,4308.4699,N,07726.4320,W,0.92,289.28,021019,,,A*75
$GPGGA,130029.750,4308.4700,N,07726.4319,W,1,08,1.02,146.0,M,-34.4,M,,*54
$GPRMC,130030.000,A,4308.4700,N,07726.4318,W,0.86,289.28,021019,,,A*77
$GPGGA,130030.250,4308.4700,N,07726.4318,W,1,08,1.02,146.1,M,-34.4,M,,*59
$GPRMC,130030.500,A,4308.4701,N,07726.4317,W,0.80,289.28,021019,,,A*7A
$GPGGA,130030.750,4308.4701,N,07726.4317,W,1,08,1.02,146.0,M,-34.4,M,,*53
$GPRMC,130031.000,A,4308.4702,N,07726.4316,W,0.00,289.28,021019,,,A*74
$GPGGA,130031.250,4308.4702,N,07726.4316,W,1,08,1.05,146.0,M,-34.4,M,,*52
$GPRMC,130031.500,A,4308.4702,N,07726.4316,W,0.00,289.28,021019,,,A*71
$GPGGA,130031.750,4308.4702,N,07726.4316,W,1,08,1.05,146.0,M,-34.4,M,,*57
$GPRMC,130032.000,A,4308.4702,N,07726.4316,W,0.00,289.28,021019,,,A*77
$GPGGA,130032.250,4308.4702,N,07726.4316,W,1,08,1.05,146.0,M,-34.4,M,,*51
$GPRMC,130032.500,A,4308.4702,N,07726.4316,W,0.00,289.28,021019,,,A*72
$GPGGA,130032.750,4308.4702,N,07726.4316,W,1,08,1.05,146.0,M,-34.4,M,,*54
$GPRMC,130033.000,A,4308.4702,N,07726.4316,W,0.00,289.28,021019,,,A*76
$GPGGA,130033.250,4308.4702,N,07726.4316,W,1,08,1.05,146.0,M,-34.4,M,,*50
$GPRMC,130033.500,A,4308.4702,N,07726.4316,W,0.00,289.28,021019,,,A*73
$GPGGA,130033.750,4308.4702,N,07726.4316,W,1,08,1.05,146.0,M,-34.4,M,,*55
$GPRMC,130034.000,A,4308.4702,N,07726.4316,W,0.00,289.28,021019,,,A*71
$GPGGA,130034.250,4308.4702,N,07726.4316,W,1,08,1.05,146.0,M,-34.4,M,,*57
$GPRMC,130034.500,A,4308.4702,N,07726.4316,W,0.00,289.28,021019,,,A*74
$GPGGA,130034.750,4308.4702,N,07726.4316,W,1,08,1.05,146.0,M,-34.4,M,,*52
$GPRMC,130035.000,A,4308.4702,N,07726.4316,W,0.00,289.28,021019,,,A*70
$GPGGA,130035.250,4308.4702,N,07726.4316,W,1,08,1.05,146.0,M,-34.4,M,,*56
$GPRMC,130035.500,A,4308.4702,N,07726.4316,W,0.00,289.28,021019,,,A*75
$GPGGA,130035.750,4308.4702,N,07726.4316,W,1,08,1.05,146.0,M,-34.4,M,,*53
$GPRMC,130036.000,A,4308.4702,N,07726.4316,W,0.00,289.28,021019,,,A*73
$GPGGA,130036.250,4308.4702,N,07726.4316,W,1,08,1.05,146.0,M,-34.4,M,,*55
$GPRMC,130036.500,A,4308.4702,N,07726.4316,W,0.00,289.28,021019,,,A*76
$GPGGA,130036.750,4308.4702,N,07726.4316,W,1,08,1.05,146.0,M,-34.4,M,,*50
$GPRMC,130037.000,A,4308.4702,N,07726.4316,W,0.00,289.28,021019,,,A*72
$GPGGA,130037.250,4308.4702,N,07726.4316,W,1,08,1.05,146.0,M,-34.4,M,,*54
$GPRMC,130037.500,A,4308.4702,N,07726.4316,W,0.00,289.28,021019,,,A*77
$GPGGA,130037.750,4308.4702,N,07726.4316,W,1,08,1.02,146.0,M,-34.4,M,,*56
$GPRMC,130038.000,A,4308.4702,N,07726.4316,W,0.04,289.28,021019,,,A*79
$GPGGA,130038.250,4308.4702,N,07726.4316,W,1,08,1.02,146.0,M,-34.4,M,,*5C
$GPRMC,130038.500,A,4308.4702,N,07726.4316,W,0.09,289.28,021019,,,A*71
$GPGGA,130038.750,4308.4702,N,07726.4316,W,1,08,1.02,146.0,M,-34.4,M,,*59
$GPRMC,130039.000,A,4308.4702,N,07726.4316,W,0.12,289.28,021019,,,A*7F
$GPGGA,130039.250,4308.4702,N,07726.4316,W,1,08,1.02,146.0,M,-34.4,M,,*5D
$GPRMC,130039.500,A,4308.4702,N,07726.4317,W,0.12,289.28,021019,,,A*7B
$GPGGA,130039.750,4308.4702,N,07726.4317,W,1,08,1.02,146.0,M,-34.4,M,,*59
$GPRMC,130040.000,A,4308.4702,N,07726.4317,W,0.14,289.28,021019,,,A*76
$GPGGA,130040.250,4308.4702,N,07726.4317,W,1,08,1.02,146.0,M,-34.4,M,,*52
$GPRMC,130040.500,A,4308.4702,N,07726.4317,W,0.24,289.28,021019,,,A*70
$GPGGA,130040.750,4308.4702,N,07726.4317,W,1,08,1.02,146.0,M,-34.4,M,,*57
$GPRMC,130041.000,A,4308.4702,N,07726.4318,W,0.45,289.28,021019,,,A*7C
$GPGGA,130041.250,4308.4702,N,07726.4318,W,1,08,1.02,146.0,M,-34.4,M,,*5C
$GPRMC,130041.500,A,4308.4702,N,07726.4319,W,0.82,283.20,021019,,,A*71
$GPGGA,130041.750,4308.4702,N,07726.4320,W,1,08,1.02,146.0,M,-34.4,M,,*52
$GPRMC,130042.000,A,4308.4702,N,07726.4320,W,1.10,278.57,021019,,,A*73
$GPGGA,130042.250,4308.4702,N,07726.4322,W,1,08,1.02,146.1,M,-34.4,M,,*57
$GPRMC,130042.500,A,4308.4702,N,07726.4323,W,1.45,278.04,021019,,,A*73
$GPGGA,130042.750,4308.4702,N,07726.4324,W,1,08,1.02,146.1,M,-34.4,M,,*54
$GPRMC,130043.000,A,4308.4703,N,07726.4326,W,1.90,278.04,021019,,,A*7B
$GPGGA,130043.250,4308.4703,N,07726.4328,W,1,08,1.02,146.1,M,-34.4,M,,*5D
$GPRMC,130043.500,A,4308.4705,N,07726.4332,W,2.97,285.77,021019,,,A*7F
$GPGGA,130043.750,4308.4707,N,07726.4338,W,1,08,1.02,146.1,M,-34.4,M,,*5D
$GPRMC,130044.000,A,4308.4707,N,07726.4345,W,5.13,285.61,021019,,,A*73
$GPGGA,130044.250,4308.4705,N,07726.4356,W,1,08,1.02,146.1,M,-34.4,M,,*55
$GPRMC,130044.500,A,4308.4704,N,07726.4371,W,9.06,280.42,021019,,,A*7E
$GPGGA,130044.750,4308.4703,N,07726.4386,W,1,08,1.02,146.2,M,-34.4,M,,*58
$GPRMC,130045.000,A,4308.4704,N,07726.4400,W,11.79,280.84,021019,,,A*40
$GPGGA,130045.250,4308.4704,N,07726.4416,W,1,08,1.02,146.2,M,-34.4,M,,*55
$GPRMC,130045.500,A,4308.4706,N,07726.4433,W,14.14,280.12,021019,,,A*46
$GPGGA,130045.750,4308.4708,N,07726.4452,W,1,08,1.02,146.2,M,-34.4,M,,*5C
$GPRMC,130046.000,A,4308.4711,N,07726.4471,W,16.67,281.13,021019,,,A*46
$GPGGA,130046.250,4308.4714,N,07726.4491,W,1,07,1.18,146.2,M,-34.4,M,,*5C
$GPRMC,130046.500,A,4308.4716,N,07726.4512,W,18.27,280.03,021019,,,A*4A
$GPGGA,130046.750,4308.4717,N,07726.4533,W,1,08,1.02,146.1,M,-34.4,M,,*54
$GPRMC,130047.000,A,4308.4718,N,07726.4555,W,19.79,277.40,021019,,,A*46
$GPGGA,130047.250,4308.4718,N,07726.4583,W,1,08,1.02,146.0,M,-34.4,M,,*55
$GPRMC,130047.500,A,4308.4716,N,07726.4608,W,23.33,273.96,021019,,,A*4E
$GPGGA,130047.750,4308.4719,N,07726.4634,W,1,08,1.05,146.0,M,-34.4,M,,*59
$GPRMC,130048.000,A,4308.4722,N,07726.4661,W,25.46,273.63,021019,,,A*42
$GPGGA,130048.250,4308.4724,N,07726.4689,W,1,08,1.05,146.0,M,-34.4,M,,*5B
$GPRMC,130048.500,A,4308.4725,N,07726.4718,W,27.83,274.00,021019,,,A*46
$GPGGA,130048.750,4308.4727,N,07726.4747,W,1,08,1.02,146.0,M,-34.4,M,,*59
$GPRMC,130049.000,A,4308.4729,N,07726.4776,W,29.43,275.62,021019,,,A*41
$GPGGA,130049.250,4308.4731,N,07726.4807,W,1,08,1.02,146.0,M,-34.4,M,,*51
$GPRMC,130049.500,A,4308.4733,N,07726.4837,W,30.50,277.04,021019,,,A*4D
$GPGGA,130049.750,4308.4735,N,07726.4868,W,1,08,1.02,146.0,M,-34.4,M,,*59
$GPRMC,130050.000,A,4308.4737,N,07726.4899,W,31.74,276.81,021019,,,A*4B
$GPGGA,130050.250,4308.4739,N,07726.4931,W,1,08,1.05,146.1,M,-34.4,M,,*53
$GPRMC,130050.500,A,4308.4741,N,07726.4963,W,32.83,276.64,021019,,,A*4B
$GPGGA,130050.750,4308.4743,N,07726.4996,W,1,08,1.02,146.1,M,-34.4,M,,*51
$GPRMC,130051.000,A,4308.4745,N,07726.5030,W,34.30,276.47,021019,,,A*4A
$GPGGA,130051.250,4308.4747,N,07726.5065,W,1,08,1.02,146.1,M,-34.4,M,,*55
$GPRMC,130051.500,A,4308.4749,N,07726.5099,W,35.66,276.15,021019,,,A*45
$GPGGA,130051.750,4308.4751,N,07726.5134,W,1,08,1.02,146.2,M,-34.4,M,,*51
$GPRMC,130052.000,A,4308.4753,N,07726.5170,W,36.59,275.75,021019,,,A*44
$GPGGA,130052.250,4308.4754,N,07726.5206,W,1,08,1.02,146.2,M,-34.4,M,,*50
$GPRMC,130052.500,A,4308.4755,N,07726.5241,W,36.82,274.70,021019,,,A*44
$GPGGA,130052.750,4308.4756,N,07726.5277,W,1,08,1.02,146.2,M,-34.4,M,,*51
$GPRMC,130053.000,A,4308.4758,N,07726.5313,W,37.03,274.32,021019,,,A*45
$GPGGA,130053.250,4308.4759,N,07726.5349,W,1,08,1.02,146.2,M,-34.4,M,,*56
$GPRMC,130053.500,A,4308.4760,N,07726.5385,W,37.22,273.88,021019,,,A*41
$GPGGA,130053.750,4308.4761,N,07726.5421,W,1,08,1.02,146.2,M,-34.4,M,,*51
$GPRMC,130054.000,A,4308.4762,N,07726.5457,W,37.36,273.47,021019,,,A*4F
$GPGGA,130054.250,4308.4762,N,07726.5494,W,1,08,1.02,146.1,M,-34.4,M,,*5D
$GPRMC,130054.500,A,4308.4763,N,07726.5530,W,37.72,273.10,021019,,,A*49
$GPGGA,130054.750,4308.4763,N,07726.5567,W,1,08,1.02,146.0,M,-34.4,M,,*55
$GPRMC,130055.000,A,4308.4764,N,07726.5604,W,37.84,272.72,021019,,,A*42
$GPGGA,130055.250,4308.4765,N,07726.5641,W,1,08,1.05,146.0,M,-34.4,M,,*57
$GPRMC,130055.500,A,4308.4766,N,07726.5677,W,38.00,272.76,021019,,,A*46
$GPGGA,130055.750,4308.4767,N,07726.5714,W,1,08,1.02,145.9,M,-34.4,M,,*5C
$GPRMC,130056.000,A,4308.4768,N,07726.5751,W,38.10,273.18,021019,,,A*43
$GPGGA,130056.250,4308.4769,N,07726.5789,W,1,08,1.05,145.8,M,-34.4,M,,*56
$GPRMC,130056.500,A,4308.4769,N,07726.5826,W,38.77,273.12,021019,,,A*43
$GPGGA,130056.750,4308.4769,N,07726.5864,W,1,09,0.93,145.8,M,-34.4,M,,*50
$GPRMC,130057.000,A,4308.4770,N,07726.5902,W,38.84,273.17,021019,,,A*41
$GPGGA,130057.250,4308.4771,N,07726.5940,W,1,09,0.94,145.8,M,-34.4,M,,*5D
$GPRMC,130057.500,A,4308.4773,N,07726.5978,W,39.08,272.86,021019,,,A*46
$GPGGA,130057.750,4308.4774,N,07726.6016,W,1,09,0.94,146.0,M,-34.4,M,,*5F
$GPRMC,130058.000,A,4308.4775,N,07726.6054,W,40.13,273.02,021019,,,A*47
$GPGGA,130058.250,4308.4775,N,07726.6093,W,1,09,0.94,146.1,M,-34.4,M,,*58
$GPRMC,130058.500,A,4308.4775,N,07726.6132,W,40.65,272.73,021019,,,A*45
$GPGGA,130058.750,4308.4775,N,07726.6171,W,1,09,0.94,146.5,M,-34.4,M,,*54
$GPRMC,130059.000,A,4308.4776,N,07726.6211,W,40.95,272.60,021019,,,A*4D
$GPGGA,130059.250,4308.4777,N,07726.6250,W,1,09,0.94,146.6,M,-34.4,M,,*51
$GPRMC,130059.500,A,4308.4777,N,07726.6290,W,41.53,271.72,021019,,,A*4B
$GPGGA,130059.750,4308.4778,N,07726.6329,W,1,09,0.94,146.7,M,-34.4,M,,*55
$GPRMC,130100.000,A,4308.4778,N,07726.6369,W,41.79,270.61,021019,,,A*40
$GPGGA,130100.250,4308.4778,N,07726.6409,W,1,09,0.94,146.6,M,-34.4,M,,*59
$GPRMC,130100.500,A,4308.4778,N,07726.6449,W,42.00,269.95,021019,,,A*4E
$GPGGA,130100.750,4308.4778,N,07726.6490,W,1,09,0.94,146.8,M,-34.4,M,,*52
$GPRMC,130101.000,A,4308.4776,N,07726.6530,W,42.00,269.47,021019,,,A*44
$GPGGA,130101.250,4308.4775,N,07726.6571,W,1,09,0.94,147.1,M,-34.4,M,,*5D
$GPRMC,130101.500,A,4308.4775,N,07726.6611,W,42.09,268.17,021019,,,A*4F
$GPGGA,130101.750,4308.4777,N,07726.6652,W,1,09,0.94,147.2,M,-34.4,M,,*5B
$GPRMC,130102.000,A,4308.4778,N,07726.6692,W,42.41,267.28,021019,,,A*40
$GPGGA,130102.250,4308.4779,N,07726.6732,W,1,09,0.94,147.5,M,-34.4,M,,*53
$GPRMC,130102.500,A,4308.4778,N,07726.6772,W,42.24,267.45,021019,,,A*42
$GPGGA,130102.750,4308.4777,N,07726.6812,W,1,09,0.94,147.6,M,-34.4,M,,*56
$GPRMC,130103.000,A,4308.4775,N,07726.6852,W,41.98,267.18,021019,,,A*4A
$GPGGA,130103.250,4308.4774,N,07726.6893,W,1,09,0.94,148.0,M,-34.4,M,,*51
$GPRMC,130103.500,A,4308.4771,N,07726.6933,W,41.73,266.81,021019,,,A*49
$GPGGA,130103.750,4308.4768,N,07726.6972,W,1,09,0.94,148.5,M,-34.4,M,,*52
$GPRMC,130104.000,A,4308.4766,N,07726.7011,W,41.12,266.47,021019,,,A*48
$GPGGA,130104.250,4308.4763,N,07726.7050,W,1,09,0.94,148.7,M,-34.4,M,,*51
$GPRMC,130104.500,A,4308.4761,N,07726.7088,W,40.54,266.28,021019,,,A*40
$GPGGA,130104.750,4308.4759,N,07726.7127,W,1,09,0.94,148.9,M,-34.4,M,,*52
$GPRMC,130105.000,A,4308.4756,N,07726.7164,W,39.90,266.13,021019,,,A*4D
$GPGGA,130105.250,4308.4754,N,07726.7202,W,1,09,0.94,149.1,M,-34.4,M,,*56
$GPRMC,130105.500,A,4308.4752,N,07726.7240,W,39.94,265.81,021019,,,A*45
$GPGGA,130105.750,4308.4750,N,07726.7278,W,1,09,0.94,149.2,M,-34.4,M,,*59
$GPRMC,130106.000,A,4308.4748,N,07726.7316,W,39.85,266.48,021019,,,A*4C
$GPGGA,130106.250,4308.4747,N,07726.7353,W,1,09,0.94,149.5,M,-34.4,M,,*56
$GPRMC,130106.500,A,4308.4746,N,07726.7391,W,39.88,266.04,021019,,,A*4D
$GPGGA,130106.750,4308.4745,N,07726.7429,W,1,09,0.94,149.8,M,-34.4,M,,*56
$GPRMC,130107.000,A,4308.4743,N,07726.7467,W,39.84,266.21,021019,,,A*49
$GPGGA,130107.250,4308.4741,N,07726.7504,W,1,09,0.94,150.2,M,-34.4,M,,*5A
$GPRMC,130107.500,A,4308.4739,N,07726.7542,W,39.79,266.13,021019,,,A*44
$GPGGA,130107.750,4308.4737,N,07726.7580,W,1,09,0.94,150.5,M,-34.4,M,,*55
$GPRMC,130108.000,A,4308.4736,N,07726.7618,W,40.13,265.72,021019,,,A*4B
$GPGGA,130108.250,4308.4735,N,07726.7656,W,1,09,0.94,151.0,M,-34.4,M,,*51
$GPRMC,130108.500,A,4308.4733,N,07726.7694,W,40.16,265.43,021019,,,A*48
$GPGGA,130108.750,4308.4731,N,07726.7732,W,1,09,0.94,151.3,M,-34.4,M,,*50
$GPRMC,130109.000,A,4308.4729,N,07726.7770,W,40.21,265.01,021019,,,A*4E
$GPGGA,130109.250,4308.4727,N,07726.7808,W,1,09,0.94,151.4,M,-34.4,M,,*52
$GPRMC,130109.500,A,4308.4724,N,07726.7846,W,40.30,264.66,021019,,,A*4C
$GPGGA,130109.750,4308.4722,N,07726.7884,W,1,09,0.94,151.4,M,-34.4,M,,*56
$GPRMC,130110.000,A,4308.4719,N,07726.7922,W,40.38,263.96,021019,,,A*4C
$GPGGA,130110.250,4308.4716,N,07726.7959,W,1,09,0.94,151.2,M,-34.4,M,,*5B
$GPRMC,130110.500,A,4308.4713,N,07726.7997,W,40.38,263.73,021019,,,A*46
$GPGGA,130110.750,4308.4710,N,07726.8035,W,1,09,0.94,151.1,M,-34.4,M,,*57
$GPRMC,130111.000,A,4308.4707,N,07726.8074,W,40.80,263.45,021019,,,A*4A
$GPGGA,130111.250,4308.4705,N,07726.8111,W,1,09,0.94,150.8,M,-34.4,M,,*58
$GPRMC,130111.500,A,4308.4703,N,07726.8149,W,40.58,264.36,021019,,,A*42
$GPGGA,130111.750,4308.4700,N,07726.8187,W,1,09,0.94,150.5,M,-34.4,M,,*5A
$GPRMC,130112.000,A,4308.4697,N,07726.8225,W,40.55,264.42,021019,,,A*4F
$GPGGA,130112.250,4308.4694,N,07726.8263,W,1,09,0.94,150.4,M,-34.4,M,,*58
$GPRMC,130112.500,A,4308.4691,N,07726.8301,W,40.46,264.73,021019,,,A*4B
$GPGGA,130112.750,4308.4688,N,07726.8338,W,1,09,0.94,150.3,M,-34.4,M,,*58
$GPRMC,130113.000,A,4308.4685,N,07726.8376,W,39.85,264.75,021019,,,A*4D
$GPGGA,130113.250,4308.4682,N,07726.8413,W,1,09,0.94,150.2,M,-34.4,M,,*59
$GPRMC,130113.500,A,4308.4679,N,07726.8451,W,39.64,265.36,021019,,,A*40
$GPGGA,130113.750,4308.4675,N,07726.8488,W,1,09,0.94,150.4,M,-34.4,M,,*50
$GPRMC,130114.000,A,4308.4672,N,07726.8526,W,39.61,265.36,021019,,,A*4D
$GPGGA,130114.250,4308.4668,N,07726.8563,W,1,09,0.94,150.5,M,-34.4,M,,*5B
$GPRMC,130114.500,A,4308.4665,N,07726.8601,W,39.66,265.13,021019,,,A*48
$GPGGA,130114.750,4308.4662,N,07726.8638,W,1,09,0.94,150.6,M,-34.4,M,,*5A
$GPRMC,130115.000,A,4308.4659,N,07726.8676,W,39.68,265.28,021019,,,A*45
$GPGGA,130115.250,4308.4656,N,07726.8713,W,1,09,0.94,150.5,M,-34.4,M,,*52
$GPRMC,130115.500,A,4308.4653,N,07726.8751,W,39.43,265.18,021019,,,A*44
$GPGGA,130115.750,4308.4651,N,07726.8788,W,1,09,0.94,150.4,M,-34.4,M,,*53
$GPRMC,130116.000,A,4308.4648,N,07726.8825,W,39.30,265.43,021019,,,A*4E
$GPGGA,130116.250,4308.4645,N,07726.8862,W,1,09,0.94,150.2,M,-34.4,M,,*5D
$GPRMC,130116.500,A,4308.4642,N,07726.8899,W,39.27,265.32,021019,,,A*46
$GPGGA,130116.750,4308.4643,N,07726.8936,W,1,09,0.94,150.3,M,-34.4,M,,*5F
$GPRMC,130117.000,A,4308.4642,N,07726.8973,W,39.06,265.30,021019,,,A*46
$GPGGA,130117.250,4308.4639,N,07726.9010,W,1,09,0.94,150.3,M,-34.4,M,,*5A
$GPRMC,130117.500,A,4308.4637,N,07726.9046,W,38.98,265.22,021019,,,A*4A
$GPGGA,130117.750,4308.4635,N,07726.9083,W,1,09,0.94,150.1,M,-34.4,M,,*5B
$GPRMC,130118.000,A,4308.4632,N,07726.9119,W,38.72,265.10,021019,,,A*4B
$GPGGA,130118.250,4308.4630,N,07726.9156,W,1,09,0.94,149.8,M,-34.4,M,,*5C
$GPRMC,130118.500,A,4308.4627,N,07726.9192,W,38.61,264.75,021019,,,A*49
$GPGGA,130118.750,4308.4624,N,07726.9229,W,1,09,0.94,149.7,M,-34.4,M,,*58
$GPRMC,130119.000,A,4308.4621,N,07726.9265,W,38.39,264.74,021019,,,A*4C
$GPGGA,130119.250,4308.4619,N,07726.9301,W,1,09,0.94,149.5,M,-34.4,M,,*5B
$GPRMC,130119.500,A,4308.4616,N,07726.9337,W,37.94,264.48,021019,,,A*4C
$GPGGA,130119.750,4308.4613,N,07726.9373,W,1,09,0.94,149.3,M,-34.4,M,,*57
$GPRMC,130120.000,A,4308.4610,N,07726.9407,W,37.81,264.57,021019,,,A*4B
$GPGGA,130120.250,4308.4607,N,07726.9441,W,1,09,0.94,149.2,M,-34.4,M,,*5A
$GPRMC,130120.500,A,4308.4605,N,07726.9474,W,34.48,264.74,021019,,,A*49
$GPGGA,130120.750,4308.4603,N,07726.9505,W,1,09,0.94,148.9,M,-34.4,M,,*50
$GPRMC,130121.000,A,4308.4601,N,07726.9535,W,31.83,264.71,021019,,,A*4A
$GPGGA,130121.250,4308.4599,N,07726.9563,W,1,09,0.94,148.6,M,-34.4,M,,*5B
$GPRMC,130121.500,A,4308.4597,N,07726.9591,W,29.49,264.29,021019,,,A*4F
$GPGGA,130121.750,4308.4595,N,07726.9617,W,1,09,0.94,148.5,M,-34.4,M,,*51
$GPRMC,130122.000,A,4308.4593,N,07726.9643,W,27.51,263.98,021019,,,A*4B
$GPGGA,130122.250,4308.4591,N,07726.9668,W,1,09,0.94,148.5,M,-34.4,M,,*5B
$GPRMC,130122.500,A,4308.4589,N,07726.9693,W,26.57,263.99,021019,,,A*4E
$GPGGA,130122.750,4308.4587,N,07726.9717,W,1,09,0.94,148.4,M,-34.4,M,,*51
$GPRMC,130123.000,A,4308.4585,N,07726.9742,W,26.31,264.40,021019,,,A*48
$GPGGA,130123.250,4308.4584,N,07726.9767,W,1,09,0.94,148.2,M,-34.4,M,,*57
$GPRMC,130123.500,A,4308.4582,N,07726.9792,W,27.01,265.21,021019,,,A*43
$GPGGA,130123.750,4308.4581,N,07726.9818,W,1,09,0.94,148.1,M,-34.4,M,,*53
$GPRMC,130124.000,A,4308.4579,N,07726.9845,W,28.28,266.06,021019,,,A*42
$GPGGA,130124.250,4308.4578,N,07726.9872,W,1,09,0.94,147.9,M,-34.4,M,,*5C
$GPRMC,130124.500,A,4308.4576,N,07726.9900,W,29.53,266.13,021019,,,A*41
$GPGGA,130124.750,4308.4574,N,07726.9929,W,1,09,0.94,147.8,M,-34.4,M,,*5B
$GPRMC,130125.000,A,4308.4573,N,07726.9958,W,31.14,266.59,021019,,,A*49
$GPGGA,130125.250,4308.4571,N,07726.9988,W,1,09,0.94,147.5,M,-34.4,M,,*5C
$GPRMC,130125.500,A,4308.4570,N,07727.0019,W,32.52,266.42,021019,,,A*40
$GPGGA,130125.750,4308.4569,N,07727.0051,W,1,09,0.94,147.3,M,-34.4,M,,*53
$GPRMC,130126.000,A,4308.4568,N,07727.0084,W,33.54,265.94,021019,,,A*44
$GPGGA,130126.250,4308.4566,N,07727.0117,W,1,09,0.94,147.1,M,-34.4,M,,*5B
$GPRMC,130126.500,A,4308.4564,N,07727.0151,W,35.63,265.89,021019,,,A*4A
$GPGGA,130126.750,4308.4563,N,07727.0185,W,1,09,0.94,146.8,M,-34.4,M,,*58
$GPRMC,130127.000,A,4308.4561,N,07727.0220,W,37.00,266.09,021019,,,A*42
$GPGGA,130127.250,4308.4559,N,07727.0256,W,1,09,0.94,146.2,M,-34.4,M,,*52
$GPRMC,130127.500,A,4308.4557,N,07727.0292,W,38.08,266.76,021019,,,A*44
$GPGGA,130127.750,4308.4556,N,07727.0329,W,1,09,0.94,145.7,M,-34.4,M,,*57
$GPRMC,130128.000,A,4308.4554,N,07727.0366,W,39.15,267.46,021019,,,A*48
$GPGGA,130128.250,4308.4553,N,07727.0404,W,1,09,0.94,145.4,M,-34.4,M,,*53
$GPRMC,130128.500,A,4308.4553,N,07727.0441,W,39.71,268.25,021019,,,A*40
$GPGGA,130128.750,4308.4552,N,07727.0479,W,1,09,0.94,145.0,M,-34.4,M,,*59
$GPRMC,130129.000,A,4308.4551,N,07727.0518,W,40.41,268.98,021019,,,A*40
$GPGGA,130129.250,4308.4551,N,07727.0557,W,1,09,0.94,144.6,M,-34.4,M,,*54
$GPRMC,130129.500,A,4308.4551,N,07727.0595,W,40.71,269.56,021019,,,A*40
$GPGGA,130129.750,4308.4552,N,07727.0634,W,1,09,0.94,144.2,M,-34.4,M,,*50
$GPRMC,130130.000,A,4308.4553,N,07727.0673,W,40.92,270.71,021019,,,A*44
$GPGGA,130130.250,4308.4555,N,07727.0713,W,1,09,0.94,143.8,M,-34.4,M,,*53
$GPRMC,130130.500,A,4308.4556,N,07727.0752,W,41.63,272.11,021019,,,A*4D
$GPGGA,130130.750,4308.4558,N,07727.0792,W,1,09,0.94,143.5,M,-34.4,M,,*5F
$GPRMC,130131.000,A,4308.4561,N,07727.0832,W,41.76,274.04,021019,,,A*42
$GPGGA,130131.250,4308.4564,N,07727.0873,W,1,09,0.94,143.2,M,-34.4,M,,*53
$GPRMC,130131.500,A,4308.4567,N,07727.0913,W,42.56,275.44,021019,,,A*47
$GPGGA,130131.750,4308.4572,N,07727.0954,W,1,09,0.94,142.9,M,-34.4,M,,*5F
$GPRMC,130132.000,A,4308.4575,N,07727.0994,W,43.07,276.86,021019,,,A*45
$GPGGA,130132.250,4308.4580,N,07727.1035,W,1,09,0.94,142.8,M,-34.4,M,,*5A
$GPRMC,130132.500,A,4308.4584,N,07727.1076,W,43.41,278.01,021019,,,A*49
$GPGGA,130132.750,4308.4587,N,07727.1118,W,1,09,0.94,142.7,M,-34.4,M,,*59
$GPRMC,130133.000,A,4308.4591,N,07727.1159,W,43.92,278.41,021019,,,A*4F
$GPGGA,130133.250,4308.4596,N,07727.1200,W,1,08,1.05,142.8,M,-34.4,M,,*50
$GPRMC,130133.500,A,4308.4601,N,07727.1242,W,44.14,279.38,021019,,,A*4F
$GPGGA,130133.750,4308.4606,N,07727.1283,W,1,08,1.05,142.8,M,-34.4,M,,*54
$GPRMC,130134.000,A,4308.4612,N,07727.1325,W,44.53,280.39,021019,,,A*4B
$GPGGA,130134.250,4308.4617,N,07727.1366,W,1,08,1.05,142.7,M,-34.4,M,,*53
$GPRMC,130134.500,A,4308.4622,N,07727.1408,W,44.64,280.38,021019,,,A*40
$GPGGA,130134.750,4308.4628,N,07727.1450,W,1,08,1.02,142.7,M,-34.4,M,,*5F
$GPRMC,130135.000,A,4308.4633,N,07727.1491,W,44.71,279.93,021019,,,A*47
$GPGGA,130135.250,4308.4638,N,07727.1533,W,1,08,1.05,142.7,M,-34.4,M,,*59
$GPRMC,130135.500,A,4308.4643,N,07727.1575,W,44.91,279.89,021019,,,A*4B
$GPGGA,130135.750,4308.4648,N,07727.1617,W,1,08,1.02,142.8,M,-34.4,M,,*56
$GPRMC,130136.000,A,4308.4653,N,07727.1660,W,44.90,279.39,021019,,,A*41
$GPGGA,130136.250,4308.4658,N,07727.1702,W,1,08,1.05,142.9,M,-34.4,M,,*52
$GPRMC,130136.500,A,4308.4664,N,07727.1744,W,45.15,279.51,021019,,,A*45
$GPGGA,130136.750,4308.4669,N,07727.1786,W,1,08,1.02,142.9,M,-34.4,M,,*5E
$GPRMC,130137.000,A,4308.4674,N,07727.1828,W,45.03,279.68,021019,,,A*48
$GPGGA,130137.250,4308.4679,N,07727.1870,W,1,08,1.05,142.9,M,-34.4,M,,*5A
$GPRMC,130137.500,A,4308.4684,N,07727.1912,W,45.05,279.71,021019,,,A*44
$GPGGA,130137.750,4308.4689,N,07727.1953,W,1,08,1.05,142.9,M,-34.4,M,,*50
$GPRMC,130138.000,A,4308.4694,N,07727.1994,W,43.84,279.48,021019,,,A*44
$GPGGA,130138.250,4308.4698,N,07727.2035,W,1,09,0.94,142.9,M,-34.4,M,,*58
$GPRMC,130138.500,A,4308.4703,N,07727.2075,W,43.15,279.30,021019,,,A*4C
$GPGGA,130138.750,4308.4707,N,07727.2115,W,1,09,0.94,142.9,M,-34.4,M,,*59
$GPRMC,130139.000,A,4308.4712,N,07727.2155,W,42.75,278.89,021019,,,A*4F
$GPGGA,130139.250,4308.4716,N,07727.2195,W,1,09,0.94,142.8,M,-34.4,M,,*54
$GPRMC,130139.500,A,4308.4721,N,07727.2235,W,42.52,278.86,021019,,,A*45
$GPGGA,130139.750,4308.4725,N,07727.2275,W,1,09,0.94,142.6,M,-34.4,M,,*52
$GPRMC,130140.000,A,4308.4730,N,07727.2315,W,42.35,278.57,021019,,,A*40
$GPGGA,130140.250,4308.4735,N,07727.2354,W,1,09,0.94,142.6,M,-34.4,M,,*5A
$GPRMC,130140.500,A,4308.4740,N,07727.2393,W,42.12,279.01,021019,,,A*4B
$GPGGA,130140.750,4308.4744,N,07727.2432,W,1,09,0.94,142.6,M,-34.4,M,,*5E
$GPRMC,130141.000,A,4308.4748,N,07727.2471,W,42.01,279.14,021019,,,A*4A
$GPGGA,130141.250,4308.4753,N,07727.2510,W,1,09,0.94,142.5,M,-34.4,M,,*5E
$GPRMC,130141.500,A,4308.4758,N,07727.2549,W,41.90,279.46,021019,,,A*48
$GPGGA,130141.750,4308.4762,N,07727.2588,W,1,09,0.94,142.5,M,-34.4,M,,*58
$GPRMC,130142.000,A,4308.4767,N,07727.2626,W,41.81,279.67,021019,,,A*4B
$GPGGA,130142.250,4308.4771,N,07727.2664,W,1,09,0.94,142.5,M,-34.4,M,,*5D
$GPRMC,130142.500,A,4308.4775,N,07727.2702,W,40.79,279.66,021019,,,A*4D
$GPGGA,130142.750,4308.4780,N,07727.2740,W,1,09,0.93,142.4,M,-34.4,M,,*57
$GPRMC,130143.000,A,4308.4784,N,07727.2778,W,40.48,279.51,021019,,,A*4C
$GPGGA,130143.250,4308.4788,N,07727.2816,W,1,09,0.94,142.4,M,-34.4,M,,*50
$GPRMC,130143.500,A,4308.4792,N,07727.2854,W,40.19,279.21,021019,,,A*4C
$GPGGA,130143.750,4308.4795,N,07727.2892,W,1,09,0.93,142.4,M,-34.4,M,,*52
$GPRMC,130144.000,A,4308.4800,N,07727.2929,W,39.81,279.15,021019,,,A*49
$GPGGA,130144.250,4308.4804,N,07727.2966,W,1,09,0.94,142.4,M,-34.4,M,,*5A
$GPRMC,130144.500,A,4308.4808,N,07727.3004,W,39.52,279.13,021019,,,A*4B
$GPGGA,130144.750,4308.4812,N,07727.3040,W,1,09,0.94,142.3,M,-34.4,M,,*53
$GPRMC,130145.000,A,4308.4816,N,07727.3077,W,39.08,278.83,021019,,,A*43
$GPGGA,130145.250,4308.4820,N,07727.3114,W,1,09,0.94,142.2,M,-34.4,M,,*57
$GPRMC,130145.500,A,4308.4824,N,07727.3150,W,38.56,278.71,021019,,,A*44
$GPGGA,130145.750,4308.4827,N,07727.3186,W,1,09,0.94,142.2,M,-34.4,M,,*5E
$GPRMC,130146.000,A,4308.4831,N,07727.3222,W,38.08,278.44,021019,,,A*4D
$GPGGA,130146.250,4308.4835,N,07727.3256,W,1,09,0.94,142.7,M,-34.4,M,,*50
$GPRMC,130146.500,A,4308.4839,N,07727.3291,W,37.81,278.34,021019,,,A*41
$GPGGA,130146.750,4308.4844,N,07727.3325,W,1,09,0.94,143.5,M,-34.4,M,,*55
$GPRMC,130147.000,A,4308.4848,N,07727.3360,W,37.48,278.80,021019,,,A*46
$GPGGA,130147.250,4308.4852,N,07727.3395,W,1,09,0.94,143.8,M,-34.4,M,,*50
$GPRMC,130147.500,A,4308.4856,N,07727.3430,W,37.22,278.77,021019,,,A*4A
$GPGGA,130147.750,4308.4860,N,07727.3465,W,1,09,0.94,143.7,M,-34.4,M,,*53
$GPRMC,130148.000,A,4308.4864,N,07727.3500,W,37.12,278.69,021019,,,A*4F
$GPGGA,130148.250,4308.4868,N,07727.3535,W,1,09,0.94,143.8,M,-34.4,M,,*5A
$GPRMC,130148.500,A,4308.4872,N,07727.3570,W,37.12,278.80,021019,,,A*4D
$GPGGA,130148.750,4308.4876,N,07727.3605,W,1,09,0.94,143.6,M,-34.4,M,,*5E
$GPRMC,130149.000,A,4308.4880,N,07727.3640,W,37.12,278.70,021019,,,A*4B
$GPGGA,130149.250,4308.4884,N,07727.3676,W,1,09,0.94,143.4,M,-34.4,M,,*51
$GPRMC,130149.500,A,4308.4888,N,07727.3711,W,37.43,278.97,021019,,,A*4E
$GPGGA,130149.750,4308.4891,N,07727.3746,W,1,09,0.94,143.3,M,-34.4,M,,*55
$GPRMC,130150.000,A,4308.4895,N,07727.3782,W,37.58,278.82,021019,,,A*4B
$GPGGA,130150.250,4308.4899,N,07727.3818,W,1,09,0.94,143.2,M,-34.4,M,,*55
$GPRMC,130150.500,A,4308.4903,N,07727.3853,W,37.79,278.50,021019,,,A*4F
$GPGGA,130150.750,4308.4906,N,07727.3889,W,1,09,0.94,143.1,M,-34.4,M,,*5C
$GPRMC,130151.000,A,4308.4911,N,07727.3925,W,37.78,278.13,021019,,,A*4E
$GPGGA,130151.250,4308.4915,N,07727.3961,W,1,09,0.94,143.0,M,-34.4,M,,*5C
$GPRMC,130151.500,A,4308.4919,N,07727.3996,W,37.76,278.26,021019,,,A*43
$GPGGA,130151.750,4308.4924,N,07727.4032,W,1,09,0.93,142.9,M,-34.4,M,,*5C
$GPRMC,130152.000,A,4308.4928,N,07727.4067,W,37.81,278.90,021019,,,A*42
$GPGGA,130152.250,4308.4932,N,07727.4103,W,1,09,0.94,142.7,M,-34.4,M,,*57
$GPRMC,130152.500,A,4308.4936,N,07727.4138,W,37.81,279.47,021019,,,A*48
$GPGGA,130152.750,4308.4940,N,07727.4174,W,1,09,0.94,142.7,M,-34.4,M,,*57
$GPRMC,130153.000,A,4308.4945,N,07727.4209,W,37.75,280.30,021019,,,A*44
$GPGGA,130153.250,4308.4950,N,07727.4244,W,1,09,0.94,142.6,M,-34.4,M,,*53
$GPRMC,130153.500,A,4308.4954,N,07727.4279,W,37.68,280.35,021019,,,A*4F
$GPGGA,130153.750,4308.4959,N,07727.4314,W,1,09,0.94,142.6,M,-34.4,M,,*5B
$GPRMC,130154.000,A,4308.4964,N,07727.4350,W,37.62,280.43,021019,,,A*4F
$GPGGA,130154.250,4308.4968,N,07727.4385,W,1,08,1.05,142.5,M,-34.4,M,,*58
$GPRMC,130154.500,A,4308.4972,N,07727.4420,W,37.42,280.34,021019,,,A*4F
$GPGGA,130154.750,4308.4977,N,07727.4454,W,1,09,0.94,142.5,M,-34.4,M,,*50
$GPRMC,130155.000,A,4308.4981,N,07727.4489,W,37.01,280.18,021019,,,A*4D
$GPGGA,130155.250,4308.4985,N,07727.4524,W,1,09,0.94,142.5,M,-34.4,M,,*5F
