Vers 81
USE_SERIAL_FEEDBACK=true
DEVELOPMENT_MODE=false
USE_RMC_ONLY=false

$GPRMC,143223.250,A,4308.2989,N,07726.2660,W,0.23,186.97,180919,,,A*75
$GPGGA,143223.500,4308.2989,N,07726.2660,W,1,04,2.42,137.4,M,-34.4,M,,*52
$GPRMC,143223.750,A,4308.2989,N,07726.2659,W,0.25,186.63,180919,,,A*77
$GPGGA,143224.000,4308.2989,N,07726.2658,W,1,04,2.42,137.4,M,-34.4,M,,*5B
$GPRMC,143224.250,A,4308.2989,N,07726.2659,W,0.21,204.81,180919,,,A*74
$GPGGA,143224.500,4308.2990,N,07726.2658,W,1,04,2.42,137.5,M,-34.4,M,,*57
$GPRMC,143224.750,A,4308.2990,N,07726.2658,W,0.07,249.58,180919,,,A*71
$GPGGA,143225.000,4308.2990,N,07726.2658,W,1,04,2.42,137.4,M,-34.4,M,,*52
$GPRMC,143225.250,A,4308.2991,N,07726.2658,W,0.12,225.73,180919,,,A*73
$GPGGA,143225.500,4308.2991,N,07726.2658,W,1,04,2.42,137.2,M,-34.4,M,,*50
$GPRMC,143225.750,A,4308.2991,N,07726.2658,W,0.04,207.19,180919,,,A*7D
$GPGGA,143226.000,4308.2990,N,07726.2658,W,1,04,2.42,137.0,M,-34.4,M,,*55
$GPRMC,143226.250,A,4308.2990,N,07726.2658,W,0.05,214.32,180919,,,A*70
$GPGGA,143226.500,4308.2991,N,07726.2659,W,1,04,2.42,136.7,M,-34.4,M,,*56
$GPRMC,143226.750,A,4308.2991,N,07726.2659,W,0.13,318.82,180919,,,A*74
$GPGGA,143227.000,4308.2991,N,07726.2659,W,1,04,2.42,136.6,M,-34.4,M,,*53
$GPRMC,143227.250,A,4308.2991,N,07726.2659,W,0.19,330.65,180919,,,A*79
$GPGGA,143227.500,4308.2990,N,07726.2659,W,1,04,2.42,136.5,M,-34.4,M,,*54
$GPRMC,143227.750,A,4308.2990,N,07726.2659,W,0.13,347.82,180919,,,A*7E
$GPGGA,143228.000,4308.2990,N,07726.2659,W,1,04,2.90,136.3,M,-34.4,M,,*57
$GPRMC,143228.250,A,4308.2990,N,07726.2660,W,0.17,345.29,180919,,,A*79
$GPGGA,143228.500,4308.2990,N,07726.2660,W,1,04,2.90,136.1,M,-34.4,M,,*5A
$GPRMC,143228.750,A,4308.2990,N,07726.2660,W,0.20,332.65,180919,,,A*70
$GPGGA,143229.000,4308.2990,N,07726.2660,W,1,04,2.42,135.9,M,-34.4,M,,*5A
$GPRMC,143229.250,A,4308.2990,N,07726.2661,W,0.19,343.86,180919,,,A*74
$GPGGA,143229.500,4308.2990,N,07726.2661,W,1,04,2.42,135.6,M,-34.4,M,,*51
$GPRMC,143229.750,A,4308.2990,N,07726.2661,W,0.19,351.99,180919,,,A*7C
$GPGGA,143230.000,4308.2990,N,07726.2661,W,1,04,2.90,135.5,M,-34.4,M,,*50
$GPRMC,143230.250,A,4308.2989,N,07726.2661,W,0.14,333.67,180919,,,A*71
$GPGGA,143230.500,4308.2989,N,07726.2662,W,1,04,2.42,135.2,M,-34.4,M,,*56
$GPRMC,143230.750,A,4308.2989,N,07726.2662,W,0.18,305.75,180919,,,A*7D
$GPGGA,143231.000,4308.2988,N,07726.2663,W,1,04,2.42,134.9,M,-34.4,M,,*58
$GPRMC,143231.250,A,4308.2988,N,07726.2663,W,0.22,293.52,180919,,,A*7B
$GPGGA,143231.500,4308.2988,N,07726.2664,W,1,04,2.42,134.6,M,-34.4,M,,*55
$GPRMC,143231.750,A,4308.2987,N,07726.2664,W,0.18,311.44,180919,,,A*73
$GPGGA,143232.000,4308.2987,N,07726.2664,W,1,04,2.42,134.3,M,-34.4,M,,*59
$GPRMC,143232.250,A,4308.2986,N,07726.2664,W,0.15,314.10,180919,,,A*7D
$GPGGA,143232.500,4308.2985,N,07726.2665,W,1,04,2.42,133.9,M,-34.4,M,,*52
$GPRMC,143232.750,A,4308.2985,N,07726.2665,W,0.17,307.86,180919,,,A*75
$GPGGA,143233.000,4308.2984,N,07726.2666,W,1,04,2.42,133.6,M,-34.4,M,,*5B
$GPRMC,143233.250,A,4308.2984,N,07726.2666,W,0.15,306.74,180919,,,A*7D
$GPGGA,143233.500,4308.2983,N,07726.2666,W,1,04,2.42,133.5,M,-34.4,M,,*5A
$GPRMC,143233.750,A,4308.2983,N,07726.2666,W,0.07,234.43,180919,,,A*78
$GPGGA,143234.000,4308.2983,N,07726.2666,W,1,04,2.42,133.2,M,-34.4,M,,*5F
$GPRMC,143234.250,A,4308.2983,N,07726.2666,W,0.03,293.67,180919,,,A*75
$GPGGA,143234.500,4308.2982,N,07726.2666,W,1,04,2.42,133.1,M,-34.4,M,,*58
$GPRMC,143234.750,A,4308.2981,N,07726.2666,W,0.05,129.71,180919,,,A*71
$GPGGA,143235.000,4308.2981,N,07726.2665,W,1,04,2.42,132.9,M,-34.4,M,,*55
$GPRMC,143235.250,A,4308.2980,N,07726.2666,W,0.07,93.85,180919,,,A*4D
$GPGGA,143235.500,4308.2979,N,07726.2666,W,1,04,2.42,132.7,M,-34.4,M,,*5A
$GPRMC,143235.750,A,4308.2978,N,07726.2666,W,0.04,59.44,180919,,,A*47
$GPGGA,143236.000,4308.2978,N,07726.2666,W,1,04,2.42,132.5,M,-34.4,M,,*5F
$GPRMC,143236.250,A,4308.2977,N,07726.2666,W,0.06,43.71,180919,,,A*41
$GPGGA,143236.500,4308.2976,N,07726.2666,W,1,04,2.42,132.3,M,-34.4,M,,*52
$GPRMC,143236.750,A,4308.2976,N,07726.2666,W,0.13,26.53,180919,,,A*42
$GPGGA,143237.000,4308.2975,N,07726.2666,W,1,04,2.41,132.1,M,-34.4,M,,*54
$GPRMC,143237.250,A,4308.2974,N,07726.2666,W,0.13,15.13,180919,,,A*40
$GPGGA,143237.500,4308.2973,N,07726.2666,W,1,04,2.41,131.9,M,-34.4,M,,*5C
$GPRMC,143237.750,A,4308.2971,N,07726.2665,W,0.09,15.29,180919,,,A*41
$GPGGA,143238.000,4308.2970,N,07726.2665,W,1,04,2.41,131.7,M,-34.4,M,,*58
$GPRMC,143238.250,A,4308.2969,N,07726.2665,W,0.09,63.31,180919,,,A*4A
$GPGGA,143238.500,4308.2968,N,07726.2665,W,1,04,2.41,131.5,M,-34.4,M,,*56
$GPRMC,143238.750,A,4308.2967,N,07726.2665,W,0.06,34.47,180919,,,A*4D
$GPGGA,143239.000,4308.2965,N,07726.2664,W,1,04,2.41,131.3,M,-34.4,M,,*58
$GPRMC,143239.250,A,4308.2964,N,07726.2664,W,0.09,130.47,180919,,,A*71
$GPGGA,143239.500,4308.2963,N,07726.2664,W,1,04,2.41,131.1,M,-34.4,M,,*59
$GPRMC,143239.750,A,4308.2962,N,07726.2664,W,0.09,122.78,180919,,,A*7D
$GPGGA,143240.000,4308.2961,N,07726.2664,W,1,04,2.41,130.9,M,-34.4,M,,*59
$GPRMC,143240.250,A,4308.2961,N,07726.2664,W,0.06,97.63,180919,,,A*4F
$GPGGA,143240.500,4308.2959,N,07726.2664,W,1,04,2.41,130.7,M,-34.4,M,,*59
$GPRMC,143240.750,A,4308.2958,N,07726.2664,W,0.11,173.67,180919,,,A*79
$GPGGA,143241.000,4308.2957,N,07726.2664,W,1,04,2.41,130.6,M,-34.4,M,,*52
$GPRMC,143241.250,A,4308.2956,N,07726.2664,W,0.14,162.61,180919,,,A*70
$GPGGA,143241.500,4308.2956,N,07726.2664,W,1,04,2.41,130.4,M,-34.4,M,,*54
$GPRMC,143241.750,A,4308.2955,N,07726.2665,W,0.17,185.03,180919,,,A*79
$GPGGA,143242.000,4308.2954,N,07726.2665,W,1,04,2.41,130.3,M,-34.4,M,,*56
$GPRMC,143242.250,A,4308.2954,N,07726.2666,W,0.11,203.95,180919,,,A*79
$GPGGA,143242.500,4308.2955,N,07726.2666,W,1,04,2.41,130.1,M,-34.4,M,,*53
$GPRMC,143242.750,A,4308.2955,N,07726.2666,W,0.05,283.30,180919,,,A*7F
$GPGGA,143243.000,4308.2954,N,07726.2666,W,1,04,2.41,130.1,M,-34.4,M,,*56
$GPRMC,143243.250,A,4308.2953,N,07726.2666,W,0.02,132.30,180919,,,A*73
$GPGGA,143243.500,4308.2952,N,07726.2665,W,1,04,2.41,129.9,M,-34.4,M,,*56
$GPRMC,143243.750,A,4308.2951,N,07726.2665,W,0.10,139.25,180919,,,A*7B
$GPGGA,143244.000,4308.2952,N,07726.2666,W,1,04,2.41,129.8,M,-34.4,M,,*56
$GPRMC,143244.250,A,4308.2952,N,07726.2666,W,0.10,9.25,180919,,,A*7B
$GPGGA,143244.500,4308.2952,N,07726.2667,W,1,04,2.89,129.8,M,-34.4,M,,*56
$GPRMC,143244.750,A,4308.2952,N,07726.2667,W,0.17,340.82,180919,,,A*7B
$GPGGA,143245.000,4308.2952,N,07726.2667,W,1,04,2.41,129.7,M,-34.4,M,,*59
$GPRMC,143245.250,A,4308.2951,N,07726.2666,W,0.14,19.57,180919,,,A*49
$GPGGA,143245.500,4308.2951,N,07726.2666,W,1,04,2.41,129.7,M,-34.4,M,,*5E
$GPRMC,143245.750,A,4308.2951,N,07726.2667,W,0.16,23.02,180919,,,A*46
$GPGGA,143246.000,4308.2951,N,07726.2667,W,1,04,2.41,129.7,M,-34.4,M,,*59
$GPRMC,143246.250,A,4308.2951,N,07726.2667,W,0.25,13.99,180919,,,A*41
$GPGGA,143246.500,4308.2951,N,07726.2667,W,1,04,2.89,129.6,M,-34.4,M,,*59
$GPRMC,143246.750,A,4308.2950,N,07726.2667,W,0.19,18.32,180919,,,A*40
$GPGGA,143247.000,4308.2950,N,07726.2667,W,1,04,2.41,129.6,M,-34.4,M,,*58
$GPRMC,143247.250,A,4308.2949,N,07726.2668,W,0.13,9.02,180919,,,A*7A
$GPGGA,143247.500,4308.2949,N,07726.2668,W,1,04,2.89,129.5,M,-34.4,M,,*5D
$GPRMC,143247.750,A,4308.2948,N,07726.2668,W,0.11,22.72,180919,,,A*42
$GPGGA,143248.000,4308.2948,N,07726.2668,W,1,04,2.41,129.3,M,-34.4,M,,*54
$GPRMC,143248.250,A,4308.2947,N,07726.2668,W,0.14,25.13,180919,,,A*42
$GPGGA,143248.500,4308.2946,N,07726.2669,W,1,04,2.41,129.2,M,-34.4,M,,*5F
$GPRMC,143248.750,A,4308.2946,N,07726.2669,W,0.14,19.85,180919,,,A*47
$GPGGA,143249.000,4308.2945,N,07726.2669,W,1,04,2.41,129.1,M,-34.4,M,,*5B
$GPRMC,143249.250,A,4308.2944,N,07726.2669,W,0.07,53.25,180919,,,A*47
$GPGGA,143249.500,4308.2944,N,07726.2669,W,1,04,2.41,129.0,M,-34.4,M,,*5E
$GPRMC,143249.750,A,4308.2943,N,07726.2669,W,0.05,48.17,180919,,,A*4C
$GPGGA,143250.000,4308.2943,N,07726.2669,W,1,04,2.41,128.9,M,-34.4,M,,*5C
$GPRMC,143250.250,A,4308.2943,N,07726.2670,W,0.03,55.65,180919,,,A*46
$GPGGA,143250.500,4308.2942,N,07726.2670,W,1,04,2.41,128.8,M,-34.4,M,,*51
$GPRMC,143250.750,A,4308.2942,N,07726.2670,W,0.03,58.01,180919,,,A*4D
$GPGGA,143251.000,4308.2942,N,07726.2670,W,1,04,2.41,128.7,M,-34.4,M,,*5A
$GPRMC,143251.250,A,4308.2941,N,07726.2671,W,0.08,337.13,180919,,,A*79
$GPGGA,143251.500,4308.2946,N,07726.2671,W,1,04,2.41,128.5,M,-34.4,M,,*58
$GPRMC,143251.750,A,4308.2951,N,07726.2672,W,1.25,4.34,180919,,,A*76
$GPGGA,143252.000,4308.2952,N,07726.2673,W,1,04,2.89,128.4,M,-34.4,M,,*5C
$GPRMC,143252.250,A,4308.2954,N,07726.2673,W,3.46,3.95,180919,,,A*7F
$GPGGA,143252.500,4308.2956,N,07726.2672,W,1,04,2.89,128.3,M,-34.4,M,,*5B
$GPRMC,143252.750,A,4308.2960,N,07726.2672,W,5.50,2.97,180919,,,A*7E
$GPGGA,143253.000,4308.2963,N,07726.2672,W,1,04,2.89,128.2,M,-34.4,M,,*58
$GPRMC,143253.250,A,4308.2968,N,07726.2672,W,7.08,1.08,180919,,,A*78
$GPGGA,143253.500,4308.2973,N,07726.2672,W,1,04,2.89,128.1,M,-34.4,M,,*5F
$GPRMC,143253.750,A,4308.2977,N,07726.2672,W,7.12,2.03,180919,,,A*70
$GPGGA,143254.000,4308.2982,N,07726.2672,W,1,04,2.89,128.0,M,-34.4,M,,*52
$GPRMC,143254.250,A,4308.2987,N,07726.2672,W,7.26,359.77,180919,,,A*74
$GPGGA,143254.500,4308.2992,N,07726.2672,W,1,04,2.89,127.9,M,-34.4,M,,*50
$GPRMC,143254.750,A,4308.2996,N,07726.2672,W,7.21,0.37,180919,,,A*7D
$GPGGA,143255.000,4308.3000,N,07726.2671,W,1,04,2.89,127.8,M,-34.4,M,,*55
$GPRMC,143255.250,A,4308.3005,N,07726.2670,W,6.82,5.33,180919,,,A*70
$GPGGA,143255.500,4308.3009,N,07726.2669,W,1,04,2.89,127.7,M,-34.4,M,,*5F
$GPRMC,143255.750,A,4308.3014,N,07726.2668,W,6.93,5.53,180919,,,A*7A
$GPGGA,143256.000,4308.3019,N,07726.2668,W,1,04,2.89,127.6,M,-34.4,M,,*58
$GPRMC,143256.250,A,4308.3023,N,07726.2667,W,7.13,6.52,180919,,,A*7C
$GPGGA,143256.500,4308.3028,N,07726.2666,W,1,04,2.89,127.6,M,-34.4,M,,*51
$GPRMC,143256.750,A,4308.3032,N,07726.2665,W,6.78,7.31,180919,,,A*73
$GPGGA,143257.000,4308.3036,N,07726.2665,W,1,04,2.89,127.5,M,-34.4,M,,*5A
$GPRMC,143257.250,A,4308.3040,N,07726.2664,W,6.27,7.09,180919,,,A*72
$GPGGA,143257.500,4308.3044,N,07726.2663,W,1,04,2.89,127.5,M,-34.4,M,,*5C
$GPRMC,143257.750,A,4308.3048,N,07726.2663,W,6.22,7.53,180919,,,A*72
$GPGGA,143258.000,4308.3053,N,07726.2661,W,1,04,2.89,127.5,M,-34.4,M,,*52
$GPRMC,143258.250,A,4308.3054,N,07726.2658,W,6.02,20.46,180919,,,A*4E
$GPGGA,143258.500,4308.3057,N,07726.2655,W,1,04,2.89,127.5,M,-34.4,M,,*54
$GPRMC,143258.750,A,4308.3060,N,07726.2651,W,5.89,34.42,180919,,,A*44
$GPGGA,143259.000,4308.3062,N,07726.2647,W,1,04,2.89,127.5,M,-34.4,M,,*55
$GPRMC,143259.250,A,4308.3064,N,07726.2643,W,5.45,44.77,180919,,,A*46
$GPGGA,143259.500,4308.3064,N,07726.2640,W,1,04,2.89,127.6,M,-34.4,M,,*52
$GPRMC,143259.750,A,4308.3065,N,07726.2636,W,4.59,60.68,180919,,,A*44
$GPGGA,143300.000,4308.3065,N,07726.2632,W,1,04,2.89,127.6,M,-34.4,M,,*5E
$GPRMC,143300.250,A,4308.3065,N,07726.2629,W,3.99,73.03,180919,,,A*46
$GPGGA,143300.500,4308.3065,N,07726.2627,W,1,04,2.89,127.7,M,-34.4,M,,*5E
$GPRMC,143300.750,A,4308.3065,N,07726.2625,W,2.93,75.15,180919,,,A*45
$GPGGA,143301.000,4308.3066,N,07726.2623,W,1,04,2.40,127.8,M,-34.4,M,,*57
$GPRMC,143301.250,A,4308.3067,N,07726.2621,W,2.39,65.82,180919,,,A*48
$GPGGA,143301.500,4308.3067,N,07726.2621,W,1,04,2.40,127.9,M,-34.4,M,,*50
$GPRMC,143301.750,A,4308.3067,N,07726.2622,W,0.85,56.45,180919,,,A*40
$GPGGA,143302.000,4308.3068,N,07726.2623,W,1,04,2.40,128.0,M,-34.4,M,,*5D
$GPRMC,143302.250,A,4308.3070,N,07726.2625,W,1.03,331.80,180919,,,A*73
$GPGGA,143302.500,4308.3072,N,07726.2628,W,1,04,2.40,128.0,M,-34.4,M,,*58
$GPRMC,143302.750,A,4308.3074,N,07726.2630,W,1.87,320.05,180919,,,A*77
$GPGGA,143303.000,4308.3076,N,07726.2633,W,1,04,2.40,128.0,M,-34.4,M,,*52
$GPRMC,143303.250,A,4308.3079,N,07726.2636,W,2.50,318.71,180919,,,A*79
$GPGGA,143303.500,4308.3083,N,07726.2639,W,1,04,2.40,128.0,M,-34.4,M,,*57
$GPRMC,143303.750,A,4308.3086,N,07726.2643,W,3.66,316.49,180919,,,A*7F
$GPGGA,143304.000,4308.3090,N,07726.2648,W,1,04,2.40,128.0,M,-34.4,M,,*51
$GPRMC,143304.250,A,4308.3094,N,07726.2654,W,5.74,312.25,180919,,,A*73
$GPGGA,143304.500,4308.3098,N,07726.2660,W,1,04,2.40,128.0,M,-34.4,M,,*56
$GPRMC,143304.750,A,4308.3101,N,07726.2666,W,6.91,309.92,180919,,,A*74
$GPGGA,143305.000,4308.3105,N,07726.2673,W,1,04,2.40,128.0,M,-34.4,M,,*55
$GPRMC,143305.250,A,4308.3109,N,07726.2681,W,8.40,310.12,180919,,,A*73
$GPGGA,143305.500,4308.3111,N,07726.2693,W,1,04,2.88,128.1,M,-34.4,M,,*5E
$GPRMC,143305.750,A,4308.3115,N,07726.2703,W,9.90,304.69,180919,,,A*75
$GPGGA,143306.000,4308.3117,N,07726.2718,W,1,04,2.88,128.2,M,-34.4,M,,*5F
$GPRMC,143306.250,A,4308.3116,N,07726.2736,W,11.84,293.47,180919,,,A*49
$GPGGA,143306.500,4308.3114,N,07726.2758,W,1,04,2.40,128.4,M,-34.4,M,,*5F
$GPRMC,143306.750,A,4308.3116,N,07726.2774,W,13.85,286.72,180919,,,A*4B
$GPGGA,143307.000,4308.3118,N,07726.2790,W,1,04,2.40,128.6,M,-34.4,M,,*51
$GPRMC,143307.250,A,4308.3121,N,07726.2805,W,14.70,286.36,180919,,,A*4F
$GPGGA,143307.500,4308.3123,N,07726.2820,W,1,04,2.40,128.7,M,-34.4,M,,*59
$GPRMC,143307.750,A,4308.3126,N,07726.2835,W,15.04,285.97,180919,,,A*44
$GPGGA,143308.000,4308.3128,N,07726.2849,W,1,04,2.39,128.8,M,-34.4,M,,*56
$GPRMC,143308.250,A,4308.3131,N,07726.2864,W,15.27,286.30,180919,,,A*43
$GPGGA,143308.500,4308.3135,N,07726.2879,W,1,04,2.39,128.9,M,-34.4,M,,*5D
$GPRMC,143308.750,A,4308.3138,N,07726.2894,W,15.53,287.13,180919,,,A*43
$GPGGA,143309.000,4308.3142,N,07726.2910,W,1,04,2.40,129.0,M,-34.4,M,,*51
$GPRMC,143309.250,A,4308.3146,N,07726.2926,W,16.02,288.77,180919,,,A*4C
$GPGGA,143309.500,4308.3153,N,07726.2943,W,1,04,2.39,129.1,M,-34.4,M,,*5D
$GPRMC,143309.750,A,4308.3158,N,07726.2959,W,16.59,291.25,180919,,,A*4F
$GPGGA,143310.000,4308.3163,N,07726.2976,W,1,04,2.39,129.2,M,-34.4,M,,*56
$GPRMC,143310.250,A,4308.3169,N,07726.2992,W,17.06,293.11,180919,,,A*49
$GPGGA,143310.500,4308.3175,N,07726.3009,W,1,04,2.40,129.2,M,-34.4,M,,*5A
$GPRMC,143310.750,A,4308.3182,N,07726.3026,W,17.69,293.98,180919,,,A*46
$GPGGA,143311.000,4308.3188,N,07726.3043,W,1,04,2.39,129.3,M,-34.4,M,,*5D
$GPRMC,143311.250,A,4308.3194,N,07726.3060,W,18.30,294.28,180919,,,A*48
$GPGGA,143311.500,4308.3201,N,07726.3079,W,1,04,2.39,129.3,M,-34.4,M,,*53
$GPRMC,143311.750,A,4308.3208,N,07726.3097,W,18.91,295.48,180919,,,A*4F
$GPGGA,143312.000,4308.3215,N,07726.3115,W,1,04,2.39,129.4,M,-34.4,M,,*5C
$GPRMC,143312.250,A,4308.3222,N,07726.3135,W,19.52,296.57,180919,,,A*4B
$GPGGA,143312.500,4308.3230,N,07726.3155,W,1,04,2.39,129.4,M,-34.4,M,,*5A
$GPRMC,143312.750,A,4308.3238,N,07726.3174,W,20.23,297.53,180919,,,A*49
$GPGGA,143313.000,4308.3246,N,07726.3194,W,1,04,2.39,129.5,M,-34.4,M,,*53
$GPRMC,143313.250,A,4308.3254,N,07726.3214,W,20.93,298.07,180919,,,A*47
$GPGGA,143313.500,4308.3262,N,07726.3235,W,1,04,2.39,129.6,M,-34.4,M,,*5B
$GPRMC,143313.750,A,4308.3270,N,07726.3256,W,21.69,298.26,180919,,,A*45
$GPGGA,143314.000,4308.3280,N,07726.3278,W,1,04,2.39,129.7,M,-34.4,M,,*5D
$GPRMC,143314.250,A,4308.3288,N,07726.3300,W,22.60,298.58,180919,,,A*41
$GPGGA,143314.500,4308.3297,N,07726.3322,W,1,04,2.39,129.8,M,-34.4,M,,*5F
$GPRMC,143314.750,A,4308.3306,N,07726.3343,W,23.21,298.83,180919,,,A*46
$GPGGA,143315.000,4308.3314,N,07726.3365,W,1,04,2.39,129.9,M,-34.4,M,,*53
$GPRMC,143315.250,A,4308.3323,N,07726.3385,W,23.53,299.08,180919,,,A*48
$GPGGA,143315.500,4308.3332,N,07726.3406,W,1,04,2.39,130.0,M,-34.4,M,,*51
$GPRMC,143315.750,A,4308.3341,N,07726.3427,W,23.80,299.63,180919,,,A*45
$GPGGA,143316.000,4308.3351,N,07726.3449,W,1,04,2.39,130.0,M,-34.4,M,,*59
$GPRMC,143316.250,A,4308.3362,N,07726.3472,W,24.24,301.23,180919,,,A*4F
$GPGGA,143316.500,4308.3372,N,07726.3494,W,1,04,2.88,130.1,M,-34.4,M,,*56
$GPRMC,143316.750,A,4308.3381,N,07726.3514,W,24.27,302.41,180919,,,A*42
$GPGGA,143317.000,4308.3392,N,07726.3535,W,1,04,2.39,130.2,M,-34.4,M,,*5F
$GPRMC,143317.250,A,4308.3402,N,07726.3555,W,24.21,304.11,180919,,,A*4A
$GPGGA,143317.500,4308.3413,N,07726.3575,W,1,04,2.39,130.3,M,-34.4,M,,*51
$GPRMC,143317.750,A,4308.3423,N,07726.3594,W,24.15,305.96,180919,,,A*48
$GPGGA,143318.000,4308.3435,N,07726.3612,W,1,04,2.39,130.4,M,-34.4,M,,*5A
$GPRMC,143318.250,A,4308.3447,N,07726.3630,W,23.89,308.49,180919,,,A*40
$GPGGA,143318.500,4308.3459,N,07726.3646,W,1,04,2.39,130.5,M,-34.4,M,,*55
$GPRMC,143318.750,A,4308.3471,N,07726.3663,W,23.69,310.85,180919,,,A*41
$GPGGA,143319.000,4308.3483,N,07726.3680,W,1,04,2.39,130.6,M,-34.4,M,,*5F
$GPRMC,143319.250,A,4308.3495,N,07726.3694,W,23.38,313.64,180919,,,A*4F
$GPGGA,143319.500,4308.3507,N,07726.3706,W,1,04,2.39,130.7,M,-34.4,M,,*59
$GPRMC,143319.750,A,4308.3519,N,07726.3718,W,22.14,317.07,180919,,,A*44
$GPGGA,143320.000,4308.3532,N,07726.3728,W,1,04,2.39,130.9,M,-34.4,M,,*52
$GPRMC,143320.250,A,4308.3546,N,07726.3736,W,20.75,323.64,180919,,,A*4A
$GPGGA,143320.500,4308.3564,N,07726.3744,W,1,04,2.39,131.0,M,-34.4,M,,*56
$GPRMC,143320.750,A,4308.3579,N,07726.3753,W,20.76,331.00,180919,,,A*42
$GPGGA,143321.000,4308.3595,N,07726.3761,W,1,04,2.39,131.2,M,-34.4,M,,*59
$GPRMC,143321.250,A,4308.3610,N,07726.3769,W,20.84,335.92,180919,,,A*41
$GPGGA,143321.500,4308.3626,N,07726.3776,W,1,04,2.39,131.4,M,-34.4,M,,*57
$GPRMC,143321.750,A,4308.3643,N,07726.3783,W,21.03,340.90,180919,,,A*48
$GPGGA,143322.000,4308.3661,N,07726.3789,W,1,04,2.39,131.7,M,-34.4,M,,*51
$GPRMC,143322.250,A,4308.3677,N,07726.3795,W,21.79,344.82,180919,,,A*44
$GPGGA,143322.500,4308.3696,N,07726.3799,W,1,04,2.39,131.9,M,-34.4,M,,*53
$GPRMC,143322.750,A,4308.3712,N,07726.3803,W,22.32,348.79,180919,,,A*47
$GPGGA,143323.000,4308.3729,N,07726.3805,W,1,04,2.88,132.2,M,-34.4,M,,*5A
$GPRMC,143323.250,A,4308.3745,N,07726.3808,W,22.53,352.03,180919,,,A*4B
$GPGGA,143323.500,4308.3759,N,07726.3810,W,1,04,2.88,132.5,M,-34.4,M,,*5B
$GPRMC,143323.750,A,4308.3773,N,07726.3812,W,22.16,353.43,180919,,,A*44
$GPGGA,143324.000,4308.3785,N,07726.3813,W,1,04,2.87,132.8,M,-34.4,M,,*59
$GPRMC,143324.250,A,4308.3801,N,07726.3814,W,21.77,355.28,180919,,,A*45
$GPGGA,143324.500,4308.3815,N,07726.3815,W,1,04,2.87,133.0,M,-34.4,M,,*55
$GPRMC,143324.750,A,4308.3830,N,07726.3817,W,21.72,355.99,180919,,,A*4E
$GPGGA,143325.000,4308.3845,N,07726.3818,W,1,04,2.87,133.2,M,-34.4,M,,*5B
$GPRMC,143325.250,A,4308.3860,N,07726.3818,W,21.72,357.56,180919,,,A*41
$GPGGA,143325.500,4308.3874,N,07726.3818,W,1,04,2.87,133.4,M,-34.4,M,,*5A
$GPRMC,143325.750,A,4308.3889,N,07726.3818,W,21.38,358.46,180919,,,A*43
$GPGGA,143326.000,4308.3902,N,07726.3817,W,1,04,2.87,133.6,M,-34.4,M,,*51
$GPRMC,143326.250,A,4308.3916,N,07726.3816,W,20.95,359.44,180919,,,A*49
$GPGGA,143326.500,4308.3930,N,07726.3815,W,1,04,2.87,133.7,M,-34.4,M,,*56
$GPRMC,143326.750,A,4308.3944,N,07726.3814,W,20.59,0.60,180919,,,A*40
$GPGGA,143327.000,4308.3957,N,07726.3812,W,1,04,2.87,133.8,M,-34.4,M,,*5B
$GPRMC,143327.250,A,4308.3970,N,07726.3811,W,20.03,1.49,180919,,,A*43
$GPGGA,143327.500,4308.3983,N,07726.3810,W,1,04,2.87,134.0,M,-34.4,M,,*5A
$GPRMC,143327.750,A,4308.3996,N,07726.3809,W,19.61,2.02,180919,,,A*45
$GPGGA,143328.000,4308.4009,N,07726.3807,W,1,04,2.87,134.1,M,-34.4,M,,*5B
$GPRMC,143328.250,A,4308.4022,N,07726.3805,W,19.14,3.02,180919,,,A*41
$GPGGA,143328.500,4308.4034,N,07726.3803,W,1,04,2.87,134.3,M,-34.4,M,,*56
$GPRMC,143328.750,A,4308.4047,N,07726.3802,W,18.52,4.12,180919,,,A*45
$GPGGA,143329.000,4308.4059,N,07726.3799,W,1,04,2.87,134.4,M,-34.4,M,,*52
$GPRMC,143329.250,A,4308.4071,N,07726.3798,W,18.01,5.49,180919,,,A*41
$GPGGA,143329.500,4308.4083,N,07726.3796,W,1,04,2.87,134.5,M,-34.4,M,,*5E
$GPRMC,143329.750,A,4308.4094,N,07726.3794,W,17.79,6.55,180919,,,A*4D
$GPGGA,143330.000,4308.4106,N,07726.3791,W,1,04,2.87,134.7,M,-34.4,M,,*5A
$GPRMC,143330.250,A,4308.4118,N,07726.3789,W,17.56,7.61,180919,,,A*42
$GPGGA,143330.500,4308.4129,N,07726.3786,W,1,04,2.87,134.8,M,-34.4,M,,*5B
$GPRMC,143330.750,A,4308.4141,N,07726.3783,W,17.33,8.39,180919,,,A*40
$GPGGA,143331.000,4308.4152,N,07726.3780,W,1,04,2.87,135.0,M,-34.4,M,,*5C
$GPRMC,143331.250,A,4308.4164,N,07726.3778,W,17.03,8.96,180919,,,A*41
$GPGGA,143331.500,4308.4175,N,07726.3775,W,1,04,2.87,135.1,M,-34.4,M,,*57
$GPRMC,143331.750,A,4308.4186,N,07726.3772,W,16.71,9.47,180919,,,A*4B
$GPGGA,143332.000,4308.4198,N,07726.3769,W,1,04,2.87,135.2,M,-34.4,M,,*5C
$GPRMC,143332.250,A,4308.4214,N,07726.3768,W,16.49,10.12,180919,,,A*7D
$GPGGA,143332.500,4308.4228,N,07726.3766,W,1,06,1.90,135.5,M,-34.4,M,,*5E
$GPRMC,143332.750,A,4308.4240,N,07726.3763,W,16.14,11.29,180919,,,A*73
$GPGGA,143333.000,4308.4253,N,07726.3761,W,1,06,1.90,135.8,M,-34.4,M,,*5C
$GPRMC,143333.250,A,4308.4265,N,07726.3758,W,16.05,11.34,180919,,,A*74
$GPGGA,143333.500,4308.4276,N,07726.3754,W,1,06,1.90,135.9,M,-34.4,M,,*59
$GPRMC,143333.750,A,4308.4288,N,07726.3750,W,16.07,12.03,180919,,,A*7F
$GPGGA,143334.000,4308.4301,N,07726.3740,W,1,06,1.90,136.2,M,-34.4,M,,*57
$GPRMC,143334.250,A,4308.4314,N,07726.3730,W,16.11,14.05,180919,,,A*78
$GPGGA,143334.500,4308.4328,N,07726.3717,W,1,06,1.90,136.7,M,-34.4,M,,*5E
$GPRMC,143334.750,A,4308.4342,N,07726.3707,W,16.16,15.33,180919,,,A*79
$GPGGA,143335.000,4308.4355,N,07726.3700,W,1,06,1.68,137.2,M,-34.4,M,,*55
$GPRMC,143335.250,A,4308.4367,N,07726.3694,W,15.93,15.91,180919,,,A*77
$GPGGA,143335.500,4308.4379,N,07726.3688,W,1,06,1.68,137.5,M,-34.4,M,,*58
$GPRMC,143335.750,A,4308.4389,N,07726.3684,W,15.68,15.88,180919,,,A*7F
$GPGGA,143336.000,4308.4399,N,07726.3680,W,1,06,1.68,137.6,M,-34.4,M,,*5B
$GPRMC,143336.250,A,4308.4409,N,07726.3676,W,15.16,16.18,180919,,,A*78
$GPGGA,143336.500,4308.4419,N,07726.3673,W,1,06,1.68,137.9,M,-34.4,M,,*52
$GPRMC,143336.750,A,4308.4429,N,07726.3669,W,14.73,16.34,180919,,,A*7D
$GPGGA,143337.000,4308.4439,N,07726.3665,W,1,06,1.68,138.0,M,-34.4,M,,*55
$GPRMC,143337.250,A,4308.4450,N,07726.3659,W,14.27,15.89,180919,,,A*70
$GPGGA,143337.500,4308.4460,N,07726.3654,W,1,06,1.68,138.4,M,-34.4,M,,*5A
$GPRMC,143337.750,A,4308.4469,N,07726.3651,W,13.80,15.27,180919,,,A*79
$GPGGA,143338.000,4308.4479,N,07726.3648,W,1,06,1.68,138.7,M,-34.4,M,,*56
$GPRMC,143338.250,A,4308.4488,N,07726.3644,W,13.06,14.40,180919,,,A*76
$GPGGA,143338.500,4308.4497,N,07726.3639,W,1,06,1.90,139.0,M,-34.4,M,,*54
$GPRMC,143338.750,A,4308.4506,N,07726.3636,W,12.03,15.50,180919,,,A*75
$GPGGA,143339.000,4308.4511,N,07726.3633,W,1,06,1.68,139.3,M,-34.4,M,,*51
$GPRMC,143339.250,A,4308.4517,N,07726.3631,W,10.12,15.96,180919,,,A*7E
$GPGGA,143339.500,4308.4522,N,07726.3629,W,1,06,1.67,139.5,M,-34.4,M,,*56
$GPRMC,143339.750,A,4308.4528,N,07726.3627,W,8.92,16.57,180919,,,A*4F
$GPGGA,143340.000,4308.4531,N,07726.3625,W,1,06,1.68,139.6,M,-34.4,M,,*5F
$GPRMC,143340.250,A,4308.4534,N,07726.3623,W,7.43,21.75,180919,,,A*4A
$GPGGA,143340.500,4308.4536,N,07726.3621,W,1,06,1.67,139.8,M,-34.4,M,,*58
$GPRMC,143340.750,A,4308.4539,N,07726.3619,W,6.02,24.83,180919,,,A*43
$GPGGA,143341.000,4308.4541,N,07726.3619,W,1,06,1.67,139.9,M,-34.4,M,,*56
$GPRMC,143341.250,A,4308.4540,N,07726.3627,W,4.34,359.06,180919,,,A*77
$GPGGA,143341.500,4308.4545,N,07726.3626,W,1,06,1.90,140.0,M,-34.4,M,,*54
$GPRMC,143341.750,A,4308.4549,N,07726.3625,W,4.94,355.34,180919,,,A*7E
$GPGGA,143342.000,4308.4555,N,07726.3624,W,1,06,1.90,140.1,M,-34.4,M,,*50
$GPRMC,143342.250,A,4308.4560,N,07726.3624,W,5.96,346.46,180919,,,A*76
$GPGGA,143342.500,4308.4567,N,07726.3625,W,1,06,1.90,140.3,M,-34.4,M,,*57
$GPRMC,143342.750,A,4308.4572,N,07726.3627,W,6.89,343.66,180919,,,A*79
$GPGGA,143343.000,4308.4577,N,07726.3630,W,1,06,1.67,140.4,M,-34.4,M,,*59
$GPRMC,143343.250,A,4308.4584,N,07726.3633,W,8.11,335.97,180919,,,A*71
$GPGGA,143343.500,4308.4592,N,07726.3639,W,1,06,1.67,140.6,M,-34.4,M,,*5C
$GPRMC,143343.750,A,4308.4597,N,07726.3645,W,10.05,325.21,180919,,,A*47
$GPGGA,143344.000,4308.4600,N,07726.3654,W,1,06,1.67,140.7,M,-34.4,M,,*5C
$GPRMC,143344.250,A,4308.4604,N,07726.3663,W,10.84,311.17,180919,,,A*43
$GPGGA,143344.500,4308.4607,N,07726.3672,W,1,06,1.67,140.9,M,-34.4,M,,*54
$GPRMC,143344.750,A,4308.4610,N,07726.3683,W,11.73,302.87,180919,,,A*4F
$GPGGA,143345.000,4308.4613,N,07726.3695,W,1,06,1.67,141.0,M,-34.4,M,,*54
$GPRMC,143345.250,A,4308.4615,N,07726.3709,W,13.01,294.48,180919,,,A*47
$GPGGA,143345.500,4308.4616,N,07726.3724,W,1,06,1.67,141.1,M,-34.4,M,,*5E
$GPRMC,143345.750,A,4308.4617,N,07726.3739,W,14.27,288.47,180919,,,A*42
$GPGGA,143346.000,4308.4617,N,07726.3755,W,1,06,1.67,141.2,M,-34.4,M,,*5C
$GPRMC,143346.250,A,4308.4617,N,07726.3773,W,15.65,282.23,180919,,,A*45
$GPGGA,143346.500,4308.4617,N,07726.3791,W,1,06,1.67,141.3,M,-34.4,M,,*50
$GPRMC,143346.750,A,4308.4617,N,07726.3809,W,16.81,279.07,180919,,,A*49
$GPGGA,143347.000,4308.4617,N,07726.3828,W,1,06,1.67,141.3,M,-34.4,M,,*59
$GPRMC,143347.250,A,4308.4617,N,07726.3848,W,17.74,277.16,180919,,,A*4D
$GPGGA,143347.500,4308.4617,N,07726.3867,W,1,06,1.67,141.3,M,-34.4,M,,*57
$GPRMC,143347.750,A,4308.4617,N,07726.3886,W,18.12,276.39,180919,,,A*49
$GPGGA,143348.000,4308.4617,N,07726.3905,W,1,06,1.67,141.4,M,-34.4,M,,*5F
$GPRMC,143348.250,A,4308.4617,N,07726.3924,W,18.35,276.37,180919,,,A*41
$GPGGA,143348.500,4308.4618,N,07726.3942,W,1,06,1.67,141.5,M,-34.4,M,,*57
$GPRMC,143348.750,A,4308.4619,N,07726.3960,W,18.01,277.76,180919,,,A*49
$GPGGA,143349.000,4308.4620,N,07726.3977,W,1,06,1.67,141.6,M,-34.4,M,,*5D
$GPRMC,143349.250,A,4308.4620,N,07726.3995,W,17.88,277.83,180919,,,A*49
$GPGGA,143349.500,4308.4621,N,07726.4012,W,1,06,1.67,141.7,M,-34.4,M,,*55
$GPRMC,143349.750,A,4308.4621,N,07726.4030,W,17.64,277.76,180919,,,A*44
$GPGGA,143350.000,4308.4622,N,07726.4047,W,1,06,1.67,141.8,M,-34.4,M,,*54
$GPRMC,143350.250,A,4308.4622,N,07726.4064,W,17.54,277.83,180919,,,A*42
$GPGGA,143350.500,4308.4623,N,07726.4082,W,1,06,1.67,141.9,M,-34.4,M,,*58
$GPRMC,143350.750,A,4308.4623,N,07726.4098,W,17.49,277.57,180919,,,A*40
$GPGGA,143351.000,4308.4624,N,07726.4116,W,1,06,1.67,142.0,M,-34.4,M,,*5D
$GPRMC,143351.250,A,4308.4624,N,07726.4133,W,17.44,277.65,180919,,,A*4F
$GPGGA,143351.500,4308.4625,N,07726.4150,W,1,06,1.67,142.1,M,-34.4,M,,*5A
$GPRMC,143351.750,A,4308.4626,N,07726.4168,W,17.39,277.77,180919,,,A*4F
$GPGGA,143352.000,4308.4626,N,07726.4185,W,1,06,1.67,142.3,M,-34.4,M,,*55
$GPRMC,143352.250,A,4308.4628,N,07726.4202,W,17.19,278.63,180919,,,A*40
$GPGGA,143352.500,4308.4629,N,07726.4219,W,1,06,1.67,142.4,M,-34.4,M,,*5E
$GPRMC,143352.750,A,4308.4631,N,07726.4236,W,16.89,278.28,180919,,,A*4D
$GPGGA,143353.000,4308.4632,N,07726.4253,W,1,06,1.67,142.5,M,-34.4,M,,*5F
$GPRMC,143353.250,A,4308.4633,N,07726.4270,W,16.45,278.27,180919,,,A*46
$GPGGA,143353.500,4308.4635,N,07726.4286,W,1,06,1.89,142.5,M,-34.4,M,,*55
$GPRMC,143353.750,A,4308.4636,N,07726.4301,W,15.70,278.61,180919,,,A*46
$GPGGA,143354.000,4308.4636,N,07726.4316,W,1,06,1.67,142.6,M,-34.4,M,,*5F
$GPRMC,143354.250,A,4308.4638,N,07726.4330,W,14.43,279.57,180919,,,A*4D
$GPGGA,143354.500,4308.4639,N,07726.4342,W,1,06,1.67,142.7,M,-34.4,M,,*55
$GPRMC,143354.750,A,4308.4640,N,07726.4354,W,13.14,281.06,180919,,,A*43
$GPGGA,143355.000,4308.4642,N,07726.4364,W,1,06,1.67,142.8,M,-34.4,M,,*56
$GPRMC,143355.250,A,4308.4644,N,07726.4374,W,11.38,283.94,180919,,,A*44
$GPGGA,143355.500,4308.4645,N,07726.4382,W,1,06,1.67,142.9,M,-34.4,M,,*5D
$GPRMC,143355.750,A,4308.4647,N,07726.4390,W,9.84,285.57,180919,,,A*7F
$GPGGA,143356.000,4308.4648,N,07726.4398,W,1,06,1.67,143.1,M,-34.4,M,,*54
$GPRMC,143356.250,A,4308.4650,N,07726.4404,W,8.33,286.75,180919,,,A*7B
$GPGGA,143356.500,4308.4650,N,07726.4410,W,1,06,1.67,143.3,M,-34.4,M,,*5D
$GPRMC,143356.750,A,4308.4651,N,07726.4415,W,6.83,287.41,180919,,,A*7C
$GPGGA,143357.000,4308.4653,N,07726.4419,W,1,06,1.89,143.5,M,-34.4,M,,*55
$GPRMC,143357.250,A,4308.4654,N,07726.4423,W,5.59,292.43,180919,,,A*7A
$GPGGA,143357.500,4308.4655,N,07726.4426,W,1,06,1.89,143.8,M,-34.4,M,,*57
$GPRMC,143357.750,A,4308.4656,N,07726.4429,W,4.43,298.93,180919,,,A*7A
$GPGGA,143358.000,4308.4658,N,07726.4430,W,1,06,1.67,144.0,M,-34.4,M,,*58
$GPRMC,143358.250,A,4308.4658,N,07726.4431,W,3.18,316.61,180919,,,A*74
$GPGGA,143358.500,4308.4658,N,07726.4431,W,1,06,1.67,144.3,M,-34.4,M,,*5F
$GPRMC,143358.750,A,4308.4658,N,07726.4430,W,2.18,316.61,180919,,,A*71
$GPGGA,143359.000,4308.4657,N,07726.4429,W,1,06,1.67,144.5,M,-34.4,M,,*5B
$GPRMC,143359.250,A,4308.4657,N,07726.4428,W,1.73,316.61,180919,,,A*7D
$GPGGA,143359.500,4308.4658,N,07726.4426,W,1,06,1.89,144.8,M,-34.4,M,,*53
$GPRMC,143359.750,A,4308.4658,N,07726.4425,W,1.68,316.61,180919,,,A*70
$GPGGA,143400.000,4308.4658,N,07726.4425,W,1,06,1.67,145.1,M,-34.4,M,,*56
$GPRMC,143400.250,A,4308.4659,N,07726.4424,W,1.46,316.61,180919,,,A*72
$GPGGA,143400.500,4308.4659,N,07726.4424,W,1,06,1.89,145.3,M,-34.4,M,,*51
$GPRMC,143400.750,A,4308.4659,N,07726.4422,W,1.35,316.61,180919,,,A*75
$GPGGA,143401.000,4308.4659,N,07726.4422,W,1,06,1.89,145.5,M,-34.4,M,,*55
$GPRMC,143401.250,A,4308.4659,N,07726.4421,W,1.29,316.61,180919,,,A*7F
$GPGGA,143401.500,4308.4659,N,07726.4421,W,1,06,1.89,145.7,M,-34.4,M,,*51
$GPRMC,143401.750,A,4308.4659,N,07726.4421,W,1.21,316.61,180919,,,A*72
$GPGGA,143402.000,4308.4659,N,07726.4420,W,1,06,1.89,145.9,M,-34.4,M,,*58
$GPRMC,143402.250,A,4308.4659,N,07726.4420,W,1.12,316.61,180919,,,A*75
$GPGGA,143402.500,4308.4660,N,07726.4420,W,1,06,1.89,146.1,M,-34.4,M,,*5C
$GPRMC,143402.750,A,4308.4660,N,07726.4420,W,1.01,316.61,180919,,,A*78
$GPGGA,143403.000,4308.4661,N,07726.4420,W,1,06,1.89,146.3,M,-34.4,M,,*5B
$GPRMC,143403.250,A,4308.4662,N,07726.4420,W,0.92,316.61,180919,,,A*75
$GPGGA,143403.500,4308.4662,N,07726.4420,W,1,06,1.89,146.5,M,-34.4,M,,*5B
$GPRMC,143403.750,A,4308.4663,N,07726.4420,W,0.84,316.61,180919,,,A*76
$GPGGA,143404.000,4308.4663,N,07726.4419,W,1,06,1.67,146.7,M,-34.4,M,,*50
$GPRMC,143404.250,A,4308.4664,N,07726.4419,W,0.84,316.61,180919,,,A*79
$GPGGA,143404.500,4308.4664,N,07726.4419,W,1,06,1.67,146.9,M,-34.4,M,,*5C
$GPRMC,143404.750,A,4308.4665,N,07726.4419,W,0.81,316.61,180919,,,A*78
$GPGGA,143405.000,4308.4665,N,07726.4418,W,1,06,1.67,147.0,M,-34.4,M,,*50
$GPRMC,143405.250,A,4308.4666,N,07726.4418,W,0.75,316.61,180919,,,A*75
$GPGGA,143405.500,4308.4666,N,07726.4418,W,1,06,1.67,147.1,M,-34.4,M,,*57
$GPRMC,143405.750,A,4308.4667,N,07726.4418,W,0.70,316.61,180919,,,A*74
$GPGGA,143406.000,4308.4667,N,07726.4418,W,1,06,1.67,147.2,M,-34.4,M,,*53
$GPRMC,143406.250,A,4308.4668,N,07726.4417,W,0.62,316.61,180919,,,A*71
$GPGGA,143406.500,4308.4668,N,07726.4417,W,1,06,1.67,147.4,M,-34.4,M,,*50
$GPRMC,143406.750,A,4308.4669,N,07726.4417,W,0.58,316.61,180919,,,A*7C
$GPGGA,143407.000,4308.4669,N,07726.4417,W,1,06,1.67,147.5,M,-34.4,M,,*54
$GPRMC,143407.250,A,4308.4669,N,07726.4417,W,0.52,316.61,180919,,,A*72
$GPGGA,143407.500,4308.4670,N,07726.4417,W,1,06,1.67,147.6,M,-34.4,M,,*5A
$GPRMC,143407.750,A,4308.4670,N,07726.4416,W,0.50,316.61,180919,,,A*7C
$GPGGA,143408.000,4308.4670,N,07726.4416,W,1,06,1.67,147.6,M,-34.4,M,,*51
$GPRMC,143408.250,A,4308.4671,N,07726.4416,W,0.49,316.61,180919,,,A*7F
$GPGGA,143408.500,4308.4671,N,07726.4416,W,1,06,1.67,147.7,M,-34.4,M,,*54
$GPRMC,143408.750,A,4308.4671,N,07726.4416,W,0.51,316.61,180919,,,A*73
$GPGGA,143409.000,4308.4672,N,07726.4415,W,1,06,1.67,147.8,M,-34.4,M,,*5F
$GPRMC,143409.250,A,4308.4672,N,07726.4415,W,0.56,316.61,180919,,,A*70
$GPGGA,143409.500,4308.4672,N,07726.4415,W,1,06,1.67,147.8,M,-34.4,M,,*5A
$GPRMC,143409.750,A,4308.4673,N,07726.4415,W,0.57,316.61,180919,,,A*75
$GPGGA,143410.000,4308.4673,N,07726.4414,W,1,06,1.67,147.9,M,-34.4,M,,*56
$GPRMC,143410.250,A,4308.4673,N,07726.4414,W,0.58,316.61,180919,,,A*76
$GPGGA,143410.500,4308.4674,N,07726.4414,W,1,06,1.67,147.9,M,-34.4,M,,*54
$GPRMC,143410.750,A,4308.4674,N,07726.4414,W,0.56,316.61,180919,,,A*7A
$GPGGA,143411.000,4308.4674,N,07726.4413,W,1,06,1.67,148.0,M,-34.4,M,,*51
$GPRMC,143411.250,A,4308.4675,N,07726.4413,W,0.53,316.61,180919,,,A*7D
$GPGGA,143411.500,4308.4675,N,07726.4413,W,1,06,1.67,148.0,M,-34.4,M,,*55
$GPRMC,143411.750,A,4308.4675,N,07726.4412,W,0.54,316.61,180919,,,A*7E
$GPGGA,143412.000,4308.4676,N,07726.4412,W,1,06,1.66,148.1,M,-34.4,M,,*51
$GPRMC,143412.250,A,4308.4676,N,07726.4412,W,0.52,316.61,180919,,,A*7D
$GPGGA,143412.500,4308.4676,N,07726.4412,W,1,06,1.66,148.1,M,-34.4,M,,*54
$GPRMC,143412.750,A,4308.4677,N,07726.4412,W,0.65,316.61,180919,,,A*7D
$GPGGA,143413.000,4308.4677,N,07726.4413,W,1,06,1.66,148.1,M,-34.4,M,,*50
$GPRMC,143413.250,A,4308.4678,N,07726.4413,W,0.00,316.61,180919,,,A*74
$GPGGA,143413.500,4308.4678,N,07726.4413,W,1,06,1.89,148.2,M,-34.4,M,,*58
$GPRMC,143413.750,A,4308.4678,N,07726.4413,W,0.07,316.61,180919,,,A*76
$GPGGA,143414.000,4308.4678,N,07726.4413,W,1,06,1.66,148.2,M,-34.4,M,,*5B
$GPRMC,143414.250,A,4308.4678,N,07726.4413,W,0.07,316.61,180919,,,A*74
$GPGGA,143414.500,4308.4678,N,07726.4413,W,1,06,1.89,148.2,M,-34.4,M,,*5F
$GPRMC,143414.750,A,4308.4678,N,07726.4413,W,0.07,316.61,180919,,,A*71
$GPGGA,143415.000,4308.4678,N,07726.4413,W,1,06,1.88,148.2,M,-34.4,M,,*5A
$GPRMC,143415.250,A,4308.4678,N,07726.4413,W,0.03,316.61,180919,,,A*71
$GPGGA,143415.500,4308.4678,N,07726.4413,W,1,06,1.66,148.2,M,-34.4,M,,*5F
$GPRMC,143415.750,A,4308.4678,N,07726.4413,W,0.04,316.61,180919,,,A*73
$GPGGA,143416.000,4308.4678,N,07726.4413,W,1,06,1.88,148.2,M,-34.4,M,,*59
$GPRMC,143416.250,A,4308.4678,N,07726.4413,W,0.08,316.61,180919,,,A*79
$GPGGA,143416.500,4308.4678,N,07726.4413,W,1,06,1.66,148.2,M,-34.4,M,,*5C
$GPRMC,143416.750,A,4308.4678,N,07726.4413,W,0.04,316.61,180919,,,A*70
$GPGGA,143417.000,4308.4678,N,07726.4413,W,1,06,1.66,148.2,M,-34.4,M,,*58
$GPRMC,143417.250,A,4308.4678,N,07726.4413,W,0.02,316.61,180919,,,A*72
$GPGGA,143417.500,4308.4678,N,07726.4413,W,1,06,1.66,148.2,M,-34.4,M,,*5D
$GPRMC,143417.750,A,4308.4678,N,07726.4413,W,0.04,316.61,180919,,,A*71
$GPGGA,143418.000,4308.4678,N,07726.4413,W,1,06,1.66,148.2,M,-34.4,M,,*57
$GPRMC,143418.250,A,4308.4678,N,07726.4413,W,0.06,316.61,180919,,,A*79
$GPGGA,143418.500,4308.4678,N,07726.4413,W,1,06,1.88,148.2,M,-34.4,M,,*52
$GPRMC,143418.750,A,4308.4678,N,07726.4413,W,0.05,316.61,180919,,,A*7F
$GPGGA,143419.000,4308.4678,N,07726.4413,W,1,06,1.88,148.2,M,-34.4,M,,*56
$GPRMC,143419.250,A,4308.4678,N,07726.4413,W,0.05,316.61,180919,,,A*7B
$GPGGA,143419.500,4308.4679,N,07726.4413,W,1,06,1.66,148.2,M,-34.4,M,,*52
$GPRMC,143419.750,A,4308.4679,N,07726.4413,W,0.00,316.61,180919,,,A*7A
$GPGGA,143420.000,4308.4679,N,07726.4413,W,1,06,1.66,148.2,M,-34.4,M,,*5D
$GPRMC,143420.250,A,4308.4679,N,07726.4413,W,0.02,316.61,180919,,,A*77
$GPGGA,143420.500,4308.4679,N,07726.4413,W,1,06,1.66,148.3,M,-34.4,M,,*59
$GPRMC,143420.750,A,4308.4679,N,07726.4413,W,0.02,316.61,180919,,,A*72
$GPGGA,143421.000,4308.4679,N,07726.4413,W,1,06,1.66,148.3,M,-34.4,M,,*5D
$GPRMC,143421.250,A,4308.4679,N,07726.4413,W,0.03,316.61,180919,,,A*77
$GPGGA,143421.500,4308.4679,N,07726.4413,W,1,06,1.66,148.3,M,-34.4,M,,*58
$GPRMC,143421.750,A,4308.4679,N,07726.4413,W,0.03,316.61,180919,,,A*72
$GPGGA,143422.000,4308.4679,N,07726.4413,W,1,06,1.66,148.3,M,-34.4,M,,*5E
$GPRMC,143422.250,A,4308.4679,N,07726.4413,W,0.03,316.61,180919,,,A*74
$GPGGA,143422.500,4308.4679,N,07726.4413,W,1,06,1.66,148.3,M,-34.4,M,,*5B
$GPRMC,143422.750,A,4308.4679,N,07726.4413,W,0.03,316.61,180919,,,A*71
$GPGGA,143423.000,4308.4679,N,07726.4413,W,1,06,1.66,148.3,M,-34.4,M,,*5F
$GPRMC,143423.250,A,4308.4679,N,07726.4413,W,0.02,316.61,180919,,,A*74
$GPGGA,143423.500,4308.4679,N,07726.4413,W,1,06,1.66,148.3,M,-34.4,M,,*5A
$GPRMC,143423.750,A,4308.4679,N,07726.4413,W,0.01,316.61,180919,,,A*72
$GPGGA,143424.000,4308.4679,N,07726.4413,W,1,06,1.66,148.4,M,-34.4,M,,*5F
$GPRMC,143424.250,A,4308.4679,N,07726.4413,W,0.02,316.61,180919,,,A*73
$GPGGA,143424.500,4308.4679,N,07726.4413,W,1,06,1.66,148.4,M,-34.4,M,,*5A
$GPRMC,143424.750,A,4308.4679,N,07726.4413,W,0.04,316.61,180919,,,A*70
$GPGGA,143425.000,4308.4679,N,07726.4413,W,1,06,1.88,148.4,M,-34.4,M,,*5E
$GPRMC,143425.250,A,4308.4679,N,07726.4413,W,0.06,316.61,180919,,,A*76
$GPGGA,143425.500,4308.4679,N,07726.4413,W,1,06,1.88,148.4,M,-34.4,M,,*5B
$GPRMC,143425.750,A,4308.4679,N,07726.4413,W,0.06,316.61,180919,,,A*73
$GPGGA,143426.000,4308.4679,N,07726.4413,W,1,06,1.88,148.4,M,-34.4,M,,*5D
$GPRMC,143426.250,A,4308.4679,N,07726.4413,W,0.05,316.61,180919,,,A*76
$GPGGA,143426.500,4308.4679,N,07726.4413,W,1,07,1.15,148.4,M,-34.4,M,,*5D
$GPRMC,143426.750,A,4308.4679,N,07726.4413,W,0.01,316.61,180919,,,A*77
$GPGGA,143427.000,4308.4679,N,07726.4413,W,1,07,1.15,148.5,M,-34.4,M,,*58
$GPRMC,143427.250,A,4308.4679,N,07726.4413,W,0.07,316.61,180919,,,A*75
$GPGGA,143427.500,4308.4679,N,07726.4413,W,1,07,1.15,148.5,M,-34.4,M,,*5D
$GPRMC,143427.750,A,4308.4679,N,07726.4413,W,0.02,316.61,180919,,,A*75
$GPGGA,143428.000,4308.4679,N,07726.4413,W,1,07,1.15,148.5,M,-34.4,M,,*57
$GPRMC,143428.250,A,4308.4679,N,07726.4413,W,0.01,316.61,180919,,,A*7C
$GPGGA,143428.500,4308.4679,N,07726.4413,W,1,07,1.15,148.5,M,-34.4,M,,*52
$GPRMC,143428.750,A,4308.4679,N,07726.4413,W,0.02,316.61,180919,,,A*7A
$GPGGA,143429.000,4308.4679,N,07726.4413,W,1,07,1.15,148.5,M,-34.4,M,,*56
$GPRMC,143429.250,A,4308.4679,N,07726.4412,W,0.03,316.61,180919,,,A*7E
$GPGGA,143429.500,4308.4679,N,07726.4412,W,1,07,1.15,148.5,M,-34.4,M,,*52
$GPRMC,143429.750,A,4308.4679,N,07726.4412,W,0.04,316.61,180919,,,A*7C
$GPGGA,143430.000,4308.4679,N,07726.4412,W,1,07,1.15,148.6,M,-34.4,M,,*5C
$GPRMC,143430.250,A,4308.4679,N,07726.4412,W,0.04,316.61,180919,,,A*71
$GPGGA,143430.500,4308.4679,N,07726.4412,W,1,07,1.15,148.6,M,-34.4,M,,*59
$GPRMC,143430.750,A,4308.4679,N,07726.4412,W,0.02,316.61,180919,,,A*72
$GPGGA,143431.000,4308.4679,N,07726.4412,W,1,07,1.15,148.6,M,-34.4,M,,*5D
$GPRMC,143431.250,A,4308.4679,N,07726.4412,W,0.01,316.61,180919,,,A*75
$GPGGA,143431.500,4308.4679,N,07726.4412,W,1,07,1.15,148.6,M,-34.4,M,,*58
$GPRMC,143431.750,A,4308.4679,N,07726.4412,W,0.03,316.61,180919,,,A*72
$GPGGA,143432.000,4308.4679,N,07726.4412,W,1,07,1.15,148.6,M,-34.4,M,,*5E
$GPRMC,143432.250,A,4308.4679,N,07726.4412,W,0.01,316.61,180919,,,A*76
$GPGGA,143432.500,4308.4679,N,07726.4412,W,1,08,1.11,148.6,M,-34.4,M,,*50
$GPRMC,143432.750,A,4308.4679,N,07726.4412,W,0.02,316.61,180919,,,A*70
$GPGGA,143433.000,4308.4679,N,07726.4412,W,1,08,1.11,148.6,M,-34.4,M,,*54
$GPRMC,143433.250,A,4308.4679,N,07726.4412,W,0.04,316.61,180919,,,A*72
$GPGGA,143433.500,4308.4679,N,07726.4412,W,1,08,1.11,148.6,M,-34.4,M,,*51
$GPRMC,143433.750,A,4308.4679,N,07726.4412,W,0.03,316.61,180919,,,A*70
$GPGGA,143434.000,4308.4679,N,07726.4412,W,1,08,1.11,148.6,M,-34.4,M,,*53
$GPRMC,143434.500,A,4308.4679,N,07726.4412,W,0.03,316.61,180919,,,A*70
$GPGGA,143434.750,4308.4679,N,07726.4412,W,1,08,1.11,148.7,M,-34.4,M,,*50
$GPRMC,143435.250,A,4308.4679,N,07726.4412,W,0.03,316.61,180919,,,A*73
$GPGGA,143435.500,4308.4679,N,07726.4412,W,1,08,1.11,148.7,M,-34.4,M,,*56
$GPRMC,143436.000,A,4308.4679,N,07726.4412,W,0.02,316.61,180919,,,A*76
$GPGGA,143436.250,4308.4679,N,07726.4412,W,1,08,1.11,148.7,M,-34.4,M,,*57
$GPRMC,143436.500,A,4308.4679,N,07726.4412,W,0.03,316.61,180919,,,A*72
$GPGGA,143436.750,4308.4679,N,07726.4412,W,1,08,1.11,148.7,M,-34.4,M,,*52
$GPRMC,143437.000,A,4308.4679,N,07726.4412,W,0.03,316.61,180919,,,A*76
$GPGGA,143437.250,4308.4679,N,07726.4412,W,1,08,1.11,148.7,M,-34.4,M,,*56
$GPRMC,143437.500,A,4308.4679,N,07726.4412,W,0.04,316.61,180919,,,A*74
$GPGGA,143437.750,4308.4679,N,07726.4412,W,1,08,1.11,148.7,M,-34.4,M,,*53
$GPRMC,143438.000,A,4308.4679,N,07726.4412,W,0.04,316.61,180919,,,A*7E
$GPGGA,143438.250,4308.4679,N,07726.4412,W,1,08,1.11,148.7,M,-34.4,M,,*59
$GPRMC,143438.500,A,4308.4679,N,07726.4412,W,0.00,316.61,180919,,,A*7F
$GPGGA,143438.750,4308.4679,N,07726.4412,W,1,08,1.18,148.7,M,-34.4,M,,*55
$GPRMC,143439.000,A,4308.4679,N,07726.4412,W,0.03,316.61,180919,,,A*78
$GPGGA,143439.250,4308.4679,N,07726.4413,W,1,08,1.18,148.7,M,-34.4,M,,*50
$GPRMC,143439.500,A,4308.4679,N,07726.4413,W,0.10,316.61,180919,,,A*7E
$GPGGA,143439.750,4308.4679,N,07726.4413,W,1,08,1.18,148.8,M,-34.4,M,,*5A
$GPRMC,143440.000,A,4308.4679,N,07726.4413,W,0.07,316.61,180919,,,A*73
$GPGGA,143440.250,4308.4679,N,07726.4413,W,1,08,1.11,148.8,M,-34.4,M,,*58
$GPRMC,143440.500,A,4308.4679,N,07726.4413,W,0.34,316.61,180919,,,A*76
$GPGGA,143440.750,4308.4679,N,07726.4413,W,1,08,1.11,148.8,M,-34.4,M,,*5D
$GPRMC,143441.000,A,4308.4679,N,07726.4414,W,0.78,316.61,180919,,,A*7D
$GPGGA,143441.250,4308.4679,N,07726.4414,W,1,08,1.11,148.8,M,-34.4,M,,*5E
$GPRMC,143441.500,A,4308.4679,N,07726.4419,W,4.42,266.97,180919,,,A*77
$GPGGA,143441.750,4308.4679,N,07726.4425,W,1,08,1.11,148.8,M,-34.4,M,,*59
$GPRMC,143442.000,A,4308.4680,N,07726.4434,W,7.65,273.49,180919,,,A*79
$GPGGA,143442.250,4308.4681,N,07726.4445,W,1,08,1.18,148.8,M,-34.4,M,,*57
$GPRMC,143442.500,A,4308.4682,N,07726.4457,W,11.17,276.99,180919,,,A*41
$GPGGA,143442.750,4308.4683,N,07726.4469,W,1,08,1.18,148.8,M,-34.4,M,,*5E
$GPRMC,143443.000,A,4308.4685,N,07726.4482,W,12.88,276.86,180919,,,A*41
$GPGGA,143443.250,4308.4687,N,07726.4497,W,1,08,1.18,148.8,M,-34.4,M,,*5F
$GPRMC,143443.500,A,4308.4688,N,07726.4513,W,15.24,275.90,180919,,,A*45
$GPGGA,143443.750,4308.4689,N,07726.4529,W,1,08,1.18,148.9,M,-34.4,M,,*51
$GPRMC,143444.000,A,4308.4690,N,07726.4547,W,17.03,275.67,180919,,,A*40
$GPGGA,143444.250,4308.4692,N,07726.4566,W,1,08,1.18,149.0,M,-34.4,M,,*5A
$GPRMC,143444.500,A,4308.4694,N,07726.4585,W,19.48,276.90,180919,,,A*45
$GPGGA,143444.750,4308.4697,N,07726.4605,W,1,08,1.18,149.0,M,-34.4,M,,*5C
$GPRMC,143445.000,A,4308.4699,N,07726.4626,W,21.06,277.79,180919,,,A*41
$GPGGA,143445.250,4308.4702,N,07726.4648,W,1,08,1.18,149.1,M,-34.4,M,,*5D
$GPRMC,143445.500,A,4308.4705,N,07726.4670,W,22.63,279.09,180919,,,A*4A
$GPGGA,143445.750,4308.4708,N,07726.4693,W,1,08,1.18,149.2,M,-34.4,M,,*57
$GPRMC,143446.000,A,4308.4712,N,07726.4717,W,24.19,279.79,180919,,,A*46
$GPGGA,143446.250,4308.4715,N,07726.4742,W,1,08,1.18,149.3,M,-34.4,M,,*51
$GPRMC,143446.500,A,4308.4719,N,07726.4767,W,25.86,280.48,180919,,,A*4C
$GPGGA,143446.750,4308.4722,N,07726.4794,W,1,08,1.18,149.4,M,-34.4,M,,*5C
$GPRMC,143447.000,A,4308.4726,N,07726.4821,W,27.81,280.35,180919,,,A*46
$GPGGA,143447.250,4308.4730,N,07726.4849,W,1,08,1.18,149.5,M,-34.4,M,,*55
$GPRMC,143447.500,A,4308.4733,N,07726.4879,W,29.91,279.70,180919,,,A*42
$GPGGA,143447.750,4308.4737,N,07726.4908,W,1,08,1.11,149.7,M,-34.4,M,,*58
$GPRMC,143448.000,A,4308.4741,N,07726.4939,W,31.41,279.92,180919,,,A*40
$GPGGA,143448.250,4308.4744,N,07726.4971,W,1,08,1.18,149.8,M,-34.4,M,,*5E
$GPRMC,143448.500,A,4308.4748,N,07726.5003,W,32.91,278.59,180919,,,A*45
$GPGGA,143448.750,4308.4750,N,07726.5036,W,1,08,1.18,150.0,M,-34.4,M,,*55
$GPRMC,143449.000,A,4308.4753,N,07726.5070,W,34.25,276.74,180919,,,A*47
$GPGGA,143449.250,4308.4755,N,07726.5104,W,1,08,1.18,150.2,M,-34.4,M,,*56
$GPRMC,143449.500,A,4308.4758,N,07726.5139,W,35.36,275.27,180919,,,A*43
$GPGGA,143449.750,4308.4760,N,07726.5174,W,1,08,1.18,150.3,M,-34.4,M,,*53
$GPRMC,143450.000,A,4308.4762,N,07726.5210,W,36.31,274.27,180919,,,A*4A
$GPGGA,143450.250,4308.4763,N,07726.5247,W,1,08,1.18,150.5,M,-34.4,M,,*58
$GPRMC,143450.500,A,4308.4765,N,07726.5283,W,37.11,273.53,180919,,,A*45
$GPGGA,143450.750,4308.4767,N,07726.5320,W,1,08,1.18,150.5,M,-34.4,M,,*59
$GPRMC,143451.000,A,4308.4769,N,07726.5358,W,38.05,273.58,180919,,,A*4B
$GPGGA,143451.250,4308.4771,N,07726.5395,W,1,08,1.18,150.6,M,-34.4,M,,*57
$GPRMC,143451.500,A,4308.4773,N,07726.5433,W,38.52,273.78,180919,,,A*4F
$GPGGA,143451.750,4308.4775,N,07726.5471,W,1,08,1.18,150.5,M,-34.4,M,,*58
$GPRMC,143452.000,A,4308.4777,N,07726.5510,W,39.45,273.45,180919,,,A*44
$GPGGA,143452.250,4308.4778,N,07726.5550,W,1,08,1.18,150.6,M,-34.4,M,,*52
$GPRMC,143452.500,A,4308.4779,N,07726.5589,W,40.09,273.21,180919,,,A*4B
$GPGGA,143452.750,4308.4781,N,07726.5629,W,1,08,1.11,150.7,M,-34.4,M,,*54
$GPRMC,143453.000,A,4308.4783,N,07726.5669,W,40.77,273.10,180919,,,A*4C
$GPGGA,143453.250,4308.4784,N,07726.5709,W,1,08,1.18,150.7,M,-34.4,M,,*5F
$GPRMC,143453.500,A,4308.4786,N,07726.5750,W,41.32,273.15,180919,,,A*42
$GPGGA,143453.750,4308.4787,N,07726.5790,W,1,08,1.18,150.7,M,-34.4,M,,*59
$GPRMC,143454.000,A,4308.4789,N,07726.5831,W,41.54,272.74,180919,,,A*41
$GPGGA,143454.250,4308.4790,N,07726.5871,W,1,08,1.18,150.8,M,-34.4,M,,*52
$GPRMC,143454.500,A,4308.4792,N,07726.5912,W,41.93,273.28,180919,,,A*4D
$GPGGA,143454.750,4308.4794,N,07726.5952,W,1,08,1.18,150.9,M,-34.4,M,,*52
$GPRMC,143455.000,A,4308.4796,N,07726.5993,W,41.99,273.54,180919,,,A*45
$GPGGA,143455.250,4308.4798,N,07726.6033,W,1,08,1.18,151.0,M,-34.4,M,,*5F
$GPRMC,143455.500,A,4308.4799,N,07726.6074,W,42.04,272.99,180919,,,A*4B
$GPGGA,143455.750,4308.4800,N,07726.6115,W,1,08,1.18,151.0,M,-34.4,M,,*51
$GPRMC,143456.000,A,4308.4802,N,07726.6156,W,42.43,271.97,180919,,,A*4F
$GPGGA,143456.250,4308.4802,N,07726.6197,W,1,08,1.18,151.0,M,-34.4,M,,*5F
$GPRMC,143456.500,A,4308.4802,N,07726.6239,W,42.54,270.61,180919,,,A*4E
$GPGGA,143456.750,4308.4802,N,07726.6281,W,1,08,1.18,151.1,M,-34.4,M,,*5F
$GPRMC,143457.000,A,4308.4801,N,07726.6324,W,43.78,269.46,180919,,,A*46
$GPGGA,143457.250,4308.4801,N,07726.6366,W,1,08,1.18,151.2,M,-34.4,M,,*53
$GPRMC,143457.500,A,4308.4800,N,07726.6409,W,43.94,268.91,180919,,,A*43
$GPGGA,143457.750,4308.4799,N,07726.6452,W,1,08,1.18,151.3,M,-34.4,M,,*59
$GPRMC,143458.000,A,4308.4799,N,07726.6494,W,44.21,268.14,180919,,,A*46
$GPGGA,143458.250,4308.4798,N,07726.6537,W,1,08,1.18,151.3,M,-34.4,M,,*50
$GPRMC,143458.500,A,4308.4797,N,07726.6580,W,44.31,267.53,180919,,,A*44
$GPGGA,143458.750,4308.4796,N,07726.6624,W,1,08,1.18,151.4,M,-34.4,M,,*5D
$GPRMC,143459.000,A,4308.4794,N,07726.6667,W,44.58,267.04,180919,,,A*44
$GPGGA,143459.250,4308.4793,N,07726.6711,W,1,08,1.18,151.6,M,-34.4,M,,*59
$GPRMC,143459.500,A,4308.4791,N,07726.6754,W,44.79,266.59,180919,,,A*4F
$GPGGA,143459.750,4308.4789,N,07726.6798,W,1,08,1.18,152.1,M,-34.4,M,,*52
$GPRMC,143500.000,A,4308.4787,N,07726.6842,W,44.90,266.06,180919,,,A*45
$GPGGA,143500.250,4308.4784,N,07726.6885,W,1,08,1.18,152.6,M,-34.4,M,,*53
$GPRMC,143500.500,A,4308.4782,N,07726.6929,W,45.01,265.89,180919,,,A*44
$GPGGA,143500.750,4308.4779,N,07726.6973,W,1,08,1.18,153.1,M,-34.4,M,,*5A
$GPRMC,143501.000,A,4308.4776,N,07726.7016,W,44.67,265.36,180919,,,A*4A
$GPGGA,143501.250,4308.4774,N,07726.7059,W,1,08,1.18,153.8,M,-34.4,M,,*5A
$GPRMC,143501.500,A,4308.4771,N,07726.7102,W,44.56,265.54,180919,,,A*4A
$GPGGA,143501.750,4308.4769,N,07726.7144,W,1,08,1.18,154.5,M,-34.4,M,,*54
$GPRMC,143502.000,A,4308.4766,N,07726.7186,W,43.94,265.47,180919,,,A*4D
$GPGGA,143502.250,4308.4764,N,07726.7228,W,1,08,1.18,155.0,M,-34.4,M,,*52
$GPRMC,143502.500,A,4308.4761,N,07726.7270,W,42.85,265.01,180919,,,A*46
$GPGGA,143502.750,4308.4759,N,07726.7311,W,1,08,1.17,155.4,M,-34.4,M,,*59
$GPRMC,143503.000,A,4308.4756,N,07726.7351,W,42.35,265.35,180919,,,A*48
$GPGGA,143503.250,4308.4755,N,07726.7392,W,1,08,1.18,156.0,M,-34.4,M,,*52
$GPRMC,143503.500,A,4308.4753,N,07726.7432,W,41.30,266.08,180919,,,A*41
$GPGGA,143503.750,4308.4752,N,07726.7473,W,1,08,1.11,155.7,M,-34.4,M,,*55
$GPRMC,143504.000,A,4308.4749,N,07726.7513,W,41.09,265.22,180919,,,A*4B
$GPGGA,143504.250,4308.4747,N,07726.7553,W,1,08,1.18,156.1,M,-34.4,M,,*5C
$GPRMC,143504.500,A,4308.4745,N,07726.7591,W,40.45,264.80,180919,,,A*48
$GPGGA,143504.750,4308.4742,N,07726.7630,W,1,08,1.18,156.6,M,-34.4,M,,*5D
$GPRMC,143505.000,A,4308.4740,N,07726.7667,W,40.13,264.40,180919,,,A*4C
$GPGGA,143505.250,4308.4737,N,07726.7705,W,1,08,1.18,157.1,M,-34.4,M,,*5A
$GPRMC,143505.500,A,4308.4734,N,07726.7742,W,39.01,264.31,180919,,,A*47
$GPGGA,143505.750,4308.4732,N,07726.7779,W,1,08,1.18,157.5,M,-34.4,M,,*55
$GPRMC,143506.000,A,4308.4729,N,07726.7816,W,38.80,264.36,180919,,,A*4C
$GPGGA,143506.250,4308.4726,N,07726.7853,W,1,08,1.18,157.9,M,-34.4,M,,*5D
$GPRMC,143506.500,A,4308.4724,N,07726.7889,W,38.42,264.46,180919,,,A*4B
$GPGGA,143506.750,4308.4721,N,07726.7925,W,1,08,1.11,158.3,M,-34.4,M,,*53
$GPRMC,143507.000,A,4308.4718,N,07726.7961,W,38.12,264.45,180919,,,A*41
$GPGGA,143507.250,4308.4716,N,07726.7998,W,1,08,1.11,158.7,M,-34.4,M,,*51
$GPRMC,143507.500,A,4308.4713,N,07726.8034,W,37.71,265.31,180919,,,A*41
$GPGGA,143507.750,4308.4711,N,07726.8071,W,1,08,1.11,158.9,M,-34.4,M,,*5C
$GPRMC,143508.000,A,4308.4709,N,07726.8107,W,37.62,265.11,180919,,,A*41
$GPGGA,143508.250,4308.4706,N,07726.8143,W,1,08,1.18,158.9,M,-34.4,M,,*59
$GPRMC,143508.500,A,4308.4704,N,07726.8179,W,37.22,265.25,180919,,,A*43
$GPGGA,143508.750,4308.4702,N,07726.8214,W,1,08,1.11,158.9,M,-34.4,M,,*50
$GPRMC,143509.000,A,4308.4700,N,07726.8250,W,36.74,265.72,180919,,,A*4B
$GPGGA,143509.250,4308.4699,N,07726.8284,W,1,08,1.17,158.8,M,-34.4,M,,*59
$GPRMC,143509.500,A,4308.4697,N,07726.8318,W,36.34,266.07,180919,,,A*49
$GPGGA,143509.750,4308.4695,N,07726.8352,W,1,08,1.17,158.8,M,-34.4,M,,*5A
$GPRMC,143510.000,A,4308.4693,N,07726.8386,W,36.16,265.64,180919,,,A*41
$GPGGA,143510.250,4308.4690,N,07726.8420,W,1,08,1.18,158.6,M,-34.4,M,,*51
$GPRMC,143510.500,A,4308.4688,N,07726.8454,W,35.88,265.57,180919,,,A*42
$GPGGA,143510.750,4308.4686,N,07726.8488,W,1,08,1.18,158.6,M,-34.4,M,,*51
$GPRMC,143511.000,A,4308.4684,N,07726.8521,W,35.63,265.73,180919,,,A*4A
$GPGGA,143511.250,4308.4682,N,07726.8554,W,1,08,1.18,158.5,M,-34.4,M,,*52
$GPRMC,143511.500,A,4308.4680,N,07726.8587,W,35.34,264.99,180919,,,A*40
$GPGGA,143511.750,4308.4678,N,07726.8620,W,1,08,1.18,158.4,M,-34.4,M,,*53
$GPRMC,143512.000,A,4308.4676,N,07726.8653,W,34.91,265.52,180919,,,A*4D
$GPGGA,143512.250,4308.4675,N,07726.8687,W,1,08,1.11,157.9,M,-34.4,M,,*5E
$GPRMC,143512.500,A,4308.4673,N,07726.8720,W,34.94,265.35,180919,,,A*4C
$GPGGA,143512.750,4308.4671,N,07726.8754,W,1,08,1.18,157.6,M,-34.4,M,,*56
$GPRMC,143513.000,A,4308.4669,N,07726.8786,W,34.85,265.45,180919,,,A*48
$GPGGA,143513.250,4308.4667,N,07726.8819,W,1,08,1.18,157.5,M,-34.4,M,,*50
$GPRMC,143513.500,A,4308.4666,N,07726.8853,W,35.06,265.01,180919,,,A*4F
$GPGGA,143513.750,4308.4664,N,07726.8886,W,1,08,1.18,157.4,M,-34.4,M,,*51
$GPRMC,143514.000,A,4308.4662,N,07726.8920,W,35.27,264.54,180919,,,A*4E
$GPGGA,143514.250,4308.4659,N,07726.8953,W,1,08,1.18,157.4,M,-34.4,M,,*54
$GPRMC,143514.500,A,4308.4657,N,07726.8987,W,35.59,264.24,180919,,,A*4E
$GPGGA,143514.750,4308.4654,N,07726.9022,W,1,08,1.18,157.2,M,-34.4,M,,*54
$GPRMC,143515.000,A,4308.4652,N,07726.9056,W,35.79,264.36,180919,,,A*4A
$GPGGA,143515.250,4308.4649,N,07726.9090,W,1,08,1.18,157.2,M,-34.4,M,,*55
$GPRMC,143515.500,A,4308.4647,N,07726.9124,W,36.02,264.04,180919,,,A*41
$GPGGA,143515.750,4308.4644,N,07726.9158,W,1,08,1.17,157.1,M,-34.4,M,,*54
$GPRMC,143516.000,A,4308.4642,N,07726.9192,W,35.97,264.72,180919,,,A*41
$GPGGA,143516.250,4308.4639,N,07726.9226,W,1,08,1.17,156.9,M,-34.4,M,,*5B
$GPRMC,143516.500,A,4308.4637,N,07726.9259,W,35.75,264.81,180919,,,A*42
$GPGGA,143516.750,4308.4635,N,07726.9293,W,1,08,1.18,156.8,M,-34.4,M,,*52
$GPRMC,143517.000,A,4308.4632,N,07726.9326,W,35.70,264.35,180919,,,A*40
$GPGGA,143517.250,4308.4630,N,07726.9360,W,1,08,1.18,156.6,M,-34.4,M,,*50
$GPRMC,143517.500,A,4308.4628,N,07726.9393,W,35.78,263.94,180919,,,A*44
$GPGGA,143517.750,4308.4625,N,07726.9427,W,1,08,1.18,156.4,M,-34.4,M,,*57
$GPRMC,143518.000,A,4308.4623,N,07726.9460,W,35.78,265.00,180919,,,A*45
$GPGGA,143518.250,4308.4622,N,07726.9494,W,1,08,1.18,156.2,M,-34.4,M,,*54
$GPRMC,143518.500,A,4308.4620,N,07726.9527,W,35.82,265.15,180919,,,A*40
$GPGGA,143518.750,4308.4618,N,07726.9561,W,1,08,1.17,156.0,M,-34.4,M,,*5E
$GPRMC,143519.000,A,4308.4615,N,07726.9596,W,36.08,265.16,180919,,,A*4A
$GPGGA,143519.250,4308.4613,N,07726.9630,W,1,08,1.18,155.8,M,-34.4,M,,*52
$GPRMC,143519.500,A,4308.4611,N,07726.9664,W,36.17,265.19,180919,,,A*44
$GPGGA,143519.750,4308.4609,N,07726.9699,W,1,08,1.17,155.6,M,-34.4,M,,*5E
$GPRMC,143520.000,A,4308.4608,N,07726.9733,W,36.22,266.01,180919,,,A*4C
$GPGGA,143520.250,4308.4606,N,07726.9767,W,1,08,1.18,155.4,M,-34.4,M,,*53
$GPRMC,143520.500,A,4308.4604,N,07726.9802,W,36.43,265.82,180919,,,A*47
$GPGGA,143520.750,4308.4602,N,07726.9837,W,1,08,1.18,155.3,M,-34.4,M,,*5F
$GPRMC,143521.000,A,4308.4600,N,07726.9871,W,36.38,265.60,180919,,,A*43
$GPGGA,143521.250,4308.4598,N,07726.9906,W,1,08,1.18,155.1,M,-34.4,M,,*5A
$GPRMC,143521.500,A,4308.4596,N,07726.9941,W,36.35,266.01,180919,,,A*41
$GPGGA,143521.750,4308.4594,N,07726.9976,W,1,08,1.17,155.0,M,-34.4,M,,*5A
$GPRMC,143522.000,A,4308.4591,N,07727.0010,W,36.63,265.39,180919,,,A*4E
$GPGGA,143522.250,4308.4589,N,07727.0045,W,1,08,1.17,154.9,M,-34.4,M,,*59
$GPRMC,143522.500,A,4308.4587,N,07727.0080,W,36.61,265.68,180919,,,A*43
$GPGGA,143522.750,4308.4585,N,07727.0114,W,1,08,1.17,154.8,M,-34.4,M,,*54
$GPRMC,143523.000,A,4308.4584,N,07727.0149,W,36.90,266.25,180919,,,A*44
$GPGGA,143523.250,4308.4582,N,07727.0184,W,1,08,1.18,154.7,M,-34.4,M,,*5E
$GPRMC,143523.500,A,4308.4581,N,07727.0219,W,36.85,267.02,180919,,,A*42
$GPGGA,143523.750,4308.4579,N,07727.0254,W,1,08,1.17,154.6,M,-34.4,M,,*5F
$GPRMC,143524.000,A,4308.4578,N,07727.0288,W,36.84,267.98,180919,,,A*4C
$GPGGA,143524.250,4308.4577,N,07727.0323,W,1,08,1.17,154.5,M,-34.4,M,,*51
$GPRMC,143524.500,A,4308.4576,N,07727.0358,W,36.80,268.37,180919,,,A*45
$GPGGA,143524.750,4308.4576,N,07727.0393,W,1,08,1.17,154.4,M,-34.4,M,,*5F
$GPRMC,143525.000,A,4308.4575,N,07727.0429,W,36.80,268.79,180919,,,A*49
$GPGGA,143525.250,4308.4575,N,07727.0464,W,1,08,1.17,154.4,M,-34.4,M,,*57
$GPRMC,143525.500,A,4308.4575,N,07727.0499,W,37.34,269.54,180919,,,A*47
$GPGGA,143525.750,4308.4575,N,07727.0535,W,1,08,1.17,154.3,M,-34.4,M,,*50
$GPRMC,143526.000,A,4308.4576,N,07727.0571,W,37.41,270.47,180919,,,A*4D
$GPGGA,143526.250,4308.4576,N,07727.0607,W,1,08,1.17,154.3,M,-34.4,M,,*57
$GPRMC,143526.500,A,4308.4577,N,07727.0643,W,37.89,271.14,180919,,,A*48
$GPGGA,143526.750,4308.4578,N,07727.0679,W,1,08,1.17,154.3,M,-34.4,M,,*55
$GPRMC,143527.000,A,4308.4580,N,07727.0716,W,38.15,272.42,180919,,,A*4F
$GPGGA,143527.250,4308.4581,N,07727.0753,W,1,08,1.17,154.3,M,-34.4,M,,*5E
$GPRMC,143527.500,A,4308.4583,N,07727.0791,W,38.55,273.48,180919,,,A*49
$GPGGA,143527.750,4308.4585,N,07727.0828,W,1,08,1.11,154.3,M,-34.4,M,,*5A
$GPRMC,143528.000,A,4308.4587,N,07727.0866,W,38.68,274.88,180919,,,A*45
$GPGGA,143528.250,4308.4590,N,07727.0903,W,1,08,1.17,154.4,M,-34.4,M,,*5D
$GPRMC,143528.500,A,4308.4593,N,07727.0941,W,38.92,276.24,180919,,,A*40
$GPGGA,143528.750,4308.4596,N,07727.0978,W,1,08,1.17,154.5,M,-34.4,M,,*53
$GPRMC,143529.000,A,4308.4599,N,07727.1015,W,38.63,276.82,180919,,,A*45
$GPGGA,143529.250,4308.4603,N,07727.1052,W,1,08,1.17,154.7,M,-34.4,M,,*5A
$GPRMC,143529.500,A,4308.4606,N,07727.1089,W,38.70,277.29,180919,,,A*42
$GPGGA,143529.750,4308.4609,N,07727.1126,W,1,08,1.17,154.9,M,-34.4,M,,*59
$GPRMC,143530.000,A,4308.4612,N,07727.1163,W,38.70,277.26,180919,,,A*40
$GPGGA,143530.250,4308.4615,N,07727.1200,W,1,08,1.18,155.2,M,-34.4,M,,*5B
$GPRMC,143530.500,A,4308.4618,N,07727.1237,W,38.34,277.64,180919,,,A*4B
$GPGGA,143530.750,4308.4621,N,07727.1273,W,1,08,1.17,155.5,M,-34.4,M,,*55
$GPRMC,143531.000,A,4308.4625,N,07727.1309,W,38.09,278.62,180919,,,A*4A
$GPGGA,143531.250,4308.4629,N,07727.1345,W,1,08,1.17,155.7,M,-34.4,M,,*5F
$GPRMC,143531.500,A,4308.4634,N,07727.1381,W,37.86,279.40,180919,,,A*46
$GPGGA,143531.750,4308.4638,N,07727.1416,W,1,08,1.17,155.9,M,-34.4,M,,*55
$GPRMC,143532.000,A,4308.4642,N,07727.1452,W,37.66,279.47,180919,,,A*41
$GPGGA,143532.250,4308.4647,N,07727.1487,W,1,08,1.17,156.2,M,-34.4,M,,*5B
$GPRMC,143532.500,A,4308.4652,N,07727.1523,W,37.41,280.10,180919,,,A*43
$GPGGA,143532.750,4308.4656,N,07727.1558,W,1,08,1.17,156.5,M,-34.4,M,,*5A
$GPRMC,143533.000,A,4308.4661,N,07727.1593,W,37.23,279.52,180919,,,A*48
$GPGGA,143533.250,4308.4665,N,07727.1628,W,1,08,1.17,156.7,M,-34.4,M,,*58
$GPRMC,143533.500,A,4308.4669,N,07727.1664,W,37.10,278.72,180919,,,A*4D
$GPGGA,143533.750,4308.4673,N,07727.1699,W,1,08,1.17,157.0,M,-34.4,M,,*56
$GPRMC,143534.000,A,4308.4677,N,07727.1734,W,36.99,278.78,180919,,,A*4E
$GPGGA,143534.250,4308.4681,N,07727.1769,W,1,08,1.17,157.4,M,-34.4,M,,*53
$GPRMC,143534.500,A,4308.4685,N,07727.1804,W,36.84,279.04,180919,,,A*4C
$GPGGA,143534.750,4308.4689,N,07727.1838,W,1,08,1.17,157.8,M,-34.4,M,,*59
$GPRMC,143535.000,A,4308.4693,N,07727.1873,W,36.85,278.56,180919,,,A*48
$GPGGA,143535.250,4308.4696,N,07727.1908,W,1,08,1.17,158.2,M,-34.4,M,,*54
$GPRMC,143535.500,A,4308.4699,N,07727.1942,W,36.87,277.66,180919,,,A*4A
$GPGGA,143535.750,4308.4703,N,07727.1977,W,1,08,1.11,158.5,M,-34.4,M,,*55
$GPRMC,143536.000,A,4308.4707,N,07727.2012,W,36.89,278.04,180919,,,A*40
$GPGGA,143536.250,4308.4710,N,07727.2046,W,1,08,1.17,158.9,M,-34.4,M,,*53
$GPRMC,143536.500,A,4308.4714,N,07727.2081,W,36.95,278.46,180919,,,A*46
$GPGGA,143536.750,4308.4718,N,07727.2116,W,1,08,1.11,159.2,M,-34.4,M,,*56
$GPRMC,143537.000,A,4308.4722,N,07727.2150,W,37.02,278.28,180919,,,A*4D
$GPGGA,143537.250,4308.4726,N,07727.2185,W,1,08,1.17,159.6,M,-34.4,M,,*57
$GPRMC,143537.500,A,4308.4730,N,07727.2220,W,37.06,278.53,180919,,,A*47
$GPGGA,143537.750,4308.4734,N,07727.2255,W,1,08,1.17,159.9,M,-34.4,M,,*50
$GPRMC,143538.000,A,4308.4738,N,07727.2289,W,37.07,278.20,180919,,,A*43
$GPGGA,143538.250,4308.4741,N,07727.2324,W,1,08,1.17,160.2,M,-34.4,M,,*5E
$GPRMC,143538.500,A,4308.4745,N,07727.2359,W,37.11,277.54,180919,,,A*4B
$GPGGA,143538.750,4308.4748,N,07727.2394,W,1,08,1.17,160.6,M,-34.4,M,,*5D
$GPRMC,143539.000,A,4308.4752,N,07727.2430,W,37.17,277.62,180919,,,A*42
$GPGGA,143539.250,4308.4756,N,07727.2465,W,1,08,1.17,161.0,M,-34.4,M,,*58
$GPRMC,143539.500,A,4308.4760,N,07727.2500,W,37.02,277.93,180919,,,A*4E
$GPGGA,143539.750,4308.4763,N,07727.2535,W,1,08,1.11,161.4,M,-34.4,M,,*5D
$GPRMC,143540.000,A,4308.4767,N,07727.2570,W,37.00,278.40,180919,,,A*46
$GPGGA,143540.250,4308.4771,N,07727.2605,W,1,08,1.17,161.7,M,-34.4,M,,*50
$GPRMC,143540.500,A,4308.4775,N,07727.2639,W,36.83,278.41,180919,,,A*45
$GPGGA,143540.750,4308.4779,N,07727.2674,W,1,08,1.17,162.0,M,-34.4,M,,*5F
$GPRMC,143541.000,A,4308.4783,N,07727.2708,W,36.68,278.22,180919,,,A*4B
$GPGGA,143541.250,4308.4786,N,07727.2742,W,1,08,1.17,162.3,M,-34.4,M,,*5C
$GPRMC,143541.500,A,4308.4790,N,07727.2776,W,35.66,277.76,180919,,,A*46
$GPGGA,143541.750,4308.4793,N,07727.2810,W,1,08,1.17,162.7,M,-34.4,M,,*51
$GPRMC,143542.000,A,4308.4796,N,07727.2843,W,35.63,277.89,180919,,,A*4A
$GPGGA,143542.250,4308.4800,N,07727.2876,W,1,08,1.17,163.0,M,-34.4,M,,*54
$GPRMC,143542.500,A,4308.4803,N,07727.2909,W,34.76,278.02,180919,,,A*4A
$GPGGA,143542.750,4308.4806,N,07727.2941,W,1,08,1.17,163.5,M,-34.4,M,,*57
$GPRMC,143543.000,A,4308.4810,N,07727.2974,W,34.31,278.31,180919,,,A*45
$GPGGA,143543.250,4308.4813,N,07727.3005,W,1,08,1.17,164.0,M,-34.4,M,,*5D
$GPRMC,143543.500,A,4308.4817,N,07727.3037,W,34.05,278.79,180919,,,A*43
$GPGGA,143543.750,4308.4821,N,07727.3068,W,1,08,1.17,164.4,M,-34.4,M,,*56
$GPRMC,143544.000,A,4308.4824,N,07727.3099,W,33.85,278.98,180919,,,A*45
$GPGGA,143544.250,4308.4828,N,07727.3130,W,1,08,1.17,164.9,M,-34.4,M,,*5C
$GPRMC,143544.500,A,4308.4831,N,07727.3160,W,33.64,279.06,180919,,,A*4A
$GPGGA,143544.750,4308.4834,N,07727.3191,W,1,08,1.17,165.4,M,-34.4,M,,*53
$GPRMC,143545.000,A,4308.4837,N,07727.3221,W,32.74,278.36,180919,,,A*4C
$GPGGA,143545.250,4308.4840,N,07727.3251,W,1,08,1.17,165.8,M,-34.4,M,,*57
$GPRMC,143545.500,A,4308.4843,N,07727.3282,W,32.35,278.04,180919,,,A*47
$GPGGA,143545.750,4308.4846,N,07727.3312,W,1,08,1.17,166.2,M,-34.4,M,,*5B
$GPRMC,143546.000,A,4308.4849,N,07727.3341,W,32.06,277.61,180919,,,A*49
$GPGGA,143546.250,4308.4852,N,07727.3371,W,1,08,1.17,166.6,M,-34.4,M,,*59
$GPRMC,143546.500,A,4308.4855,N,07727.3401,W,31.71,277.68,180919,,,A*48
$GPGGA,143546.750,4308.4858,N,07727.3430,W,1,08,1.17,166.9,M,-34.4,M,,*5B
$GPRMC,143547.000,A,4308.4861,N,07727.3460,W,31.46,277.33,180919,,,A*46
$GPGGA,143547.250,4308.4864,N,07727.3489,W,1,08,1.17,167.3,M,-34.4,M,,*59
$GPRMC,143547.500,A,4308.4867,N,07727.3519,W,31.26,277.56,180919,,,A*4F
$GPGGA,143547.750,4308.4870,N,07727.3548,W,1,08,1.17,167.5,M,-34.4,M,,*53
$GPRMC,143548.000,A,4308.4873,N,07727.3578,W,31.20,277.85,180919,,,A*4F
$GPGGA,143548.250,4308.4876,N,07727.3607,W,1,08,1.17,167.7,M,-34.4,M,,*55
$GPRMC,143548.500,A,4308.4879,N,07727.3636,W,30.97,277.20,180919,,,A*4B
$GPGGA,143548.750,4308.4882,N,07727.3666,W,1,08,1.17,167.9,M,-34.4,M,,*52
$GPRMC,143549.000,A,4308.4885,N,07727.3695,W,30.89,277.24,180919,,,A*4E
$GPGGA,143549.250,4308.4888,N,07727.3725,W,1,08,1.17,168.2,M,-34.4,M,,*5E
$GPRMC,143549.500,A,4308.4891,N,07727.3754,W,30.80,277.21,180919,,,A*4E
$GPGGA,143549.750,4308.4894,N,07727.3783,W,1,08,1.17,168.4,M,-34.4,M,,*5C
