Vers 57
USE_SERIAL_FEEDBACK=false
DEVELOPMENT_MODE=false
USE_RMC_ONLY=false

$GPGGA,174957.400,4308.3592,N,07726.3683,W,1,04,4.88,147.0,M,-34.4,M,,*57
$GPRMC,174957.400,A,4308.3592,N,07726.3683,W,29.19,307.10,030419,,,A*40
lng=-77.439468, lat=43.139324, altitude=147.00, speed=29.43, satellites=4, angle=306.5400, fixquality=1
$GPGGA,174957.600,4308.3602,N,07726.3701,W,1,04,4.88,147.0,M,-34.4,M,,*54
$GPRMC,174957.600,A,4308.3602,N,07726.3701,W,29.01,307.45,030419,,,A*4A
lng=-77.439498, lat=43.139339, altitude=147.00, speed=29.19, satellites=4, angle=307.1000, fixquality=1
$GPGGA,174957.800,4308.3613,N,07726.3718,W,1,04,4.88,147.1,M,-34.4,M,,*53
$GPRMC,174957.800,A,4308.3613,N,07726.3718,W,28.67,308.16,030419,,,A*44
lng=-77.439529, lat=43.139354, altitude=147.10, speed=29.01, satellites=4, angle=307.4500, fixquality=1
$GPGGA,174958.000,4308.3621,N,07726.3730,W,1,04,4.88,147.2,M,-34.4,M,,*5C
$GPRMC,174958.000,A,4308.3621,N,07726.3730,W,28.51,308.69,030419,,,A*45
lng=-77.439552, lat=43.139369, altitude=147.20, speed=28.67, satellites=4, angle=308.1600, fixquality=1
$GPGGA,174958.200,4308.3630,N,07726.3740,W,1,04,6.53,147.8,M,-34.4,M,,*57
$GPRMC,174958.200,A,4308.3630,N,07726.3740,W,28.07,309.67,030419,,,A*4C
lng=-77.439567, lat=43.139381, altitude=147.80, speed=28.51, satellites=4, angle=308.6900, fixquality=1
$GPGGA,174958.400,4308.3636,N,07726.3745,W,1,04,4.88,148.6,M,-34.4,M,,*57
$GPRMC,174958.400,A,4308.3636,N,07726.3745,W,28.05,310.15,030419,,,A*46
lng=-77.439575, lat=43.139396, altitude=148.60, speed=28.07, satellites=4, angle=309.6700, fixquality=1
$GPGGA,174958.600,4308.3644,N,07726.3754,W,1,04,6.54,149.2,M,-34.4,M,,*56
$GPRMC,174958.600,A,4308.3644,N,07726.3754,W,28.11,311.15,030419,,,A*45
lng=-77.439590, lat=43.139404, altitude=149.20, speed=28.05, satellites=4, angle=310.1500, fixquality=1
$GPGGA,174958.800,4308.3654,N,07726.3760,W,1,04,6.54,149.7,M,-34.4,M,,*5B
$GPRMC,174958.800,A,4308.3654,N,07726.3760,W,28.02,312.92,030419,,,A*43
lng=-77.439598, lat=43.139419, altitude=149.70, speed=28.11, satellites=4, angle=311.1500, fixquality=1
$GPGGA,174959.000,4308.3662,N,07726.3762,W,1,04,6.54,150.3,M,-34.4,M,,*59
$GPRMC,174959.000,A,4308.3662,N,07726.3762,W,27.78,319.05,030419,,,A*4A
lng=-77.439598, lat=43.139438, altitude=150.30, speed=28.02, satellites=4, angle=312.9200, fixquality=1
$GPGGA,174959.200,4308.3672,N,07726.3768,W,1,04,6.54,150.8,M,-34.4,M,,*5B
$GPRMC,174959.200,A,4308.3672,N,07726.3768,W,27.83,320.96,030419,,,A*47
lng=-77.439613, lat=43.139453, altitude=150.80, speed=27.78, satellites=4, angle=319.0500, fixquality=1
$GPGGA,174959.400,4308.3682,N,07726.3777,W,1,04,6.54,151.0,M,-34.4,M,,*55
$GPRMC,174959.400,A,4308.3682,N,07726.3777,W,27.63,321.40,030419,,,A*44
lng=-77.439628, lat=43.139469, altitude=151.00, speed=27.83, satellites=4, angle=320.9600, fixquality=1
$GPGGA,174959.600,4308.3694,N,07726.3788,W,1,04,6.54,151.1,M,-34.4,M,,*51
$GPRMC,174959.600,A,4308.3694,N,07726.3788,W,27.51,321.74,030419,,,A*47
lng=-77.439651, lat=43.139492, altitude=151.10, speed=27.63, satellites=4, angle=321.4000, fixquality=1
$GPGGA,174959.800,4308.3705,N,07726.3798,W,1,04,6.54,151.2,M,-34.4,M,,*54
$GPRMC,174959.800,A,4308.3705,N,07726.3798,W,27.45,322.13,030419,,,A*46
lng=-77.439666, lat=43.139511, altitude=151.20, speed=27.51, satellites=4, angle=321.7400, fixquality=1
$GPGGA,175000.000,4308.3716,N,07726.3806,W,1,04,6.54,151.4,M,-34.4,M,,*54
$GPRMC,175000.000,A,4308.3716,N,07726.3806,W,27.29,322.92,030419,,,A*43
lng=-77.439674, lat=43.139526, altitude=151.40, speed=27.45, satellites=4, angle=322.1300, fixquality=1
$GPGGA,175000.200,4308.3727,N,07726.3812,W,1,04,6.54,151.4,M,-34.4,M,,*51
$GPRMC,175000.200,A,4308.3727,N,07726.3812,W,26.88,324.44,030411
lng=-77.439689, lat=43.139541, altitude=151.40, speed=27.29, satellites=4, angle=322.9200, fixquality=1
$GPGGA,175000.400,4308.3738,N,07726.3816,W,1,04,4.88,151.4,M,-34.4,M,,*5E
$GPRMC,175000.400,A,4308.3738,N,07726.3816,W,26.57,325.44,030419,,,A*4E
lng=-77.439697, lat=43.139568, altitude=151.40, speed=26.88, satellites=4, angle=324.4400, fixquality=1
$GPGGA,175000.600,4308.3749,N,07726.3815,W,1,04,6.54,151.5,M,-34.4,M,,*5B
$GPRMC,175000.600,A,4308.3749,N,07726.3815,W,25.77,328.04,0304141
lng=-77.439689, lat=43.139583, altitude=151.50, speed=26.57, satellites=4, angle=325.4400, fixquality=1
$GPGGA,175000.800,4308.3764,N,07726.3825,W,1,04,6.54,151.6,M,-34.4,M,,*5A
$GPRMC,175000.800,A,4308.3764,N,07726.3825,W,25.39,329.75,030419,,,A*4E
lng=-77.439704, lat=43.139606, altitude=151.60, speed=25.77, satellites=4, angle=328.0400, fixquality=1
$GPGGA,175001.000,4308.3783,N,07726.3841,W,1,04,6.54,151.7,M,-34.4,M,,*59
$GPRMC,175001.000,A,4308.3783,N,07726.3841,W,26.46,330.15,0304149
lng=-77.439735, lat=43.139640, altitude=151.70, speed=25.39, satellites=4, angle=329.7500, fixquality=1
$GPGGA,175001.400,4308.3812,N,07726.3858,W,1,04,6.55,152.3,M,-34.4,M,,*54
$GPRMC,175001.400,A,4308.3812,N,07726.3858,W,27.43,333.46,030419,,,A*43
lng=-77.439765, lat=43.139690, altitude=152.30, speed=26.46, satellites=4, angle=330.1500, fixquality=1
$GPGGA,175001.600,4308.3827,N,07726.3861,W,1,04,6.55,152.5,M,-34.4,M,,*5C
$GPRMC,175001.600,A,4308.3827,N,07726.3861,W,27.82,337.58,030414B
lng=-77.439773, lat=43.139713, altitude=152.50, speed=27.43, satellites=4, angle=333.4600, fixquality=1
$GPGGA,175001.800,4308.3843,N,07726.3867,W,1,04,6.55,152.8,M,-34.4,M,,*5B
$GPRMC,175001.800,A,4308.3843,N,07726.3867,W,28.63,340.85,030419,,,A*41
lng=-77.439781, lat=43.139736, altitude=152.80, speed=27.82, satellites=4, angle=337.5800, fixquality=1
$GPGGA,175002.000,4308.3857,N,07726.3868,W,1,04,6.54,153.4,M,-34.4,M,,*56
$GPRMC,175002.000,A,4308.3857,N,07726.3868,W,28.88,342.57,030419,,,A*48
lng=-77.439781, lat=43.139762, altitude=153.40, speed=28.63, satellites=4, angle=340.8500, fixquality=1
$GPGGA,175002.200,4308.3870,N,07726.3868,W,1,04,6.54,154.0,M,-34.4,M,,*52
$GPRMC,175002.200,A,4308.3870,N,07726.3868,W,28.79,343.72,030419,,,A*47
lng=-77.439781, lat=43.139785, altitude=154.00, speed=28.88, satellites=4, angle=342.5700, fixquality=1
$GPGGA,175002.400,4308.3885,N,07726.3869,W,1,04,6.55,154.4,M,-34.4,M,,*5A
$GPRMC,175002.400,A,4308.3885,N,07726.3869,W,29.00,344.24,030419,,,A*41
lng=-77.439781, lat=43.139812, altitude=154.40, speed=28.79, satellites=4, angle=343.7200, fixquality=1
$GPGGA,175002.600,4308.3899,N,07726.3871,W,1,04,6.55,154.9,M,-34.4,M,,*51
$GPRMC,175002.600,A,4308.3899,N,07726.3871,W,29.16,345.47,030419,,,A*44
lng=-77.439788, lat=43.139835, altitude=154.90, speed=29.00, satellites=4, angle=344.2400, fixquality=1
$GPGGA,175002.800,4308.3914,N,07726.3871,W,1,04,6.55,155.3,M,-34.4,M,,*50
$GPRMC,175002.800,A,4308.3914,N,07726.3871,W,29.24,347.29,030419,,,A*45
lng=-77.439788, lat=43.139858, altitude=155.30, speed=29.16, satellites=4, angle=345.4700, fixquality=1
$GPGGA,175003.000,4308.3929,N,07726.3871,W,1,04,6.55,155.6,M,-34.4,M,,*52
$GPRMC,175003.000,A,4308.3929,N,07726.3871,W,29.29,348.99,030419,,,A*4B
lng=-77.439788, lat=43.139884, altitude=155.60, speed=29.24, satellites=4, angle=347.2900, fixquality=1
$GPGGA,175003.200,4308.3943,N,07726.3868,W,1,04,6.55,156.1,M,-34.4,M,,*50
$GPRMC,175003.200,A,4308.3943,N,07726.3868,W,29.40,350.89,030419,,,A*4A
lng=-77.439781, lat=43.139907, altitude=156.10, speed=29.29, satellites=4, angle=348.9900, fixquality=1
$GPRMC,175003.600,A,4308.3971,N,07726.3861,W,29.04,353.91,030419,,,A*4C
$GPGGA,175003.800,4308.3985,N,07726.3854,W,1,04,4.89,157.1,M,-34.4,M,,*5D
lng=-77.439773, lat=43.139949, altitude=156.10, speed=29.04, satellites=4, angle=353.9100, fixquality=1
$GPRMC,175004.000,A,4308.3997,N,07726.3845,W,29.36,358.09,030419,,,A*48
$GPGGA,175004.200,4308.4010,N,07726.3837,W,1,04,6.55,157.9,M,-34.4,M,,*5C
lng=-77.439735, lat=43.139999, altitude=157.10, speed=29.36, satellites=4, angle=358.0900, fixquality=1
$GPRMC,175004.400,A,4308.4025,N,07726.3831,W,30.30,0.82,030419,,,A*4B
$GPGGA,175004.600,4308.4041,N,07726.3828,W,1,04,4.89,158.6,M,-34.4,M,,*51
lng=-77.439720, lat=43.140037, altitude=157.90, speed=30.30, satellites=4, angle=0.8200, fixquality=1
$GPRMC,175004.800,A,4308.4055,N,07726.3821,W,30.18,1.82,030419,,,A*4A
$GPGGA,175005.000,4308.4068,N,07726.3811,W,1,04,6.56,159.2,M,-34.4,M,,*52
lng=-77.439704, lat=43.140087, altitude=158.60, speed=30.18, satellites=4, angle=1.8200, fixquality=1
$GPRMC,175005.200,A,4308.4082,N,07726.3805,W,29.02,4.09,030419,,,A*48
$GPGGA,175005.400,4308.4097,N,07726.3801,W,1,04,4.89,159.5,M,-34.4,M,,*50
lng=-77.439674, lat=43.140136, altitude=159.20, speed=29.02, satellites=4, angle=4.0900, fixquality=1
$GPRMC,175005.600,A,4308.4110,N,07726.3793,W,28.44,6.05,030419,,,A*4B
$GPGGA,175005.800,4308.4125,N,07726.3786,W,1,04,6.55,159.8,M,-34.4,M,,*5A
lng=-77.439659, lat=43.140186, altitude=159.50, speed=28.44, satellites=4, angle=6.0500, fixquality=1
$GPRMC,175006.000,A,4308.4140,N,07726.3782,W,28.45,6.89,030419,,,A*4E
$GPGGA,175006.200,4308.4154,N,07726.3776,W,1,04,6.56,160.1,M,-34.4,M,,*5A
lng=-77.439643, lat=43.140235, altitude=159.80, speed=28.45, satellites=4, angle=6.8900, fixquality=1
$GPRMC,175006.400,A,4308.4170,N,07726.3772,W,28.13,7.18,030419,,,A*4C
$GPGGA,175006.600,4308.4185,N,07726.3769,W,1,04,4.89,160.4,M,-34.4,M,,*59
lng=-77.439620, lat=43.140281, altitude=160.10, speed=28.13, satellites=4, angle=7.1800, fixquality=1
$GPRMC,175006.800,A,4308.4200,N,07726.3766,W,27.80,7.33,030419,,,A*4D
$GPGGA,175007.000,4308.4215,N,07726.3763,W,1,04,4.89,160.5,M,-34.4,M,,*5F
lng=-77.439605, lat=43.140331, altitude=160.40, speed=27.80, satellites=4, angle=7.3300, fixquality=1
$GPRMC,175007.200,A,4308.4229,N,07726.3758,W,27.49,6.73,030419,,,A*40
$GPGGA,175007.400,4308.4244,N,07726.3755,W,1,04,4.89,160.2,M,-34.4,M,,*5D
lng=-77.439598, lat=43.140380, altitude=160.50, speed=27.49, satellites=4, angle=6.7300, fixquality=1
$GPRMC,175007.600,A,4308.4258,N,07726.3752,W,27.18,5.80,030419,,,A*43
$GPGGA,175007.800,4308.4273,N,07726.3750,W,1,04,4.89,159.9,M,-34.4,M,,*51
lng=-77.439582, lat=43.140430, altitude=160.20, speed=27.18, satellites=4, angle=5.8000, fixquality=1
$GPRMC,175008.000,A,4308.4288,N,07726.3748,W,27.09,5.21,030419,,,A*47
$GPGGA,175008.200,4308.4303,N,07726.3746,W,1,04,4.89,159.8,M,-34.4,M,,*54
lng=-77.439582, lat=43.140480, altitude=159.90, speed=27.09, satellites=4, angle=5.2100, fixquality=1
$GPRMC,175008.400,A,4308.4317,N,07726.3744,W,26.84,5.07,030419,,,A*48
$GPGGA,175008.600,4308.4332,N,07726.3742,W,1,04,4.89,159.8,M,-34.4,M,,*56
lng=-77.439575, lat=43.140525, altitude=159.80, speed=26.84, satellites=4, angle=5.0700, fixquality=1
$GPRMC,175008.800,A,4308.4346,N,07726.3740,W,26.50,4.90,030419,,,A*42
$GPGGA,175009.000,4308.4360,N,07726.3737,W,1,04,4.89,159.7,M,-34.4,M,,*5B
lng=-77.439567, lat=43.140575, altitude=159.80, speed=26.50, satellites=4, angle=4.9000, fixquality=1
$GPRMC,175009.200,A,4308.4374,N,07726.3735,W,26.14,4.97,030419,,,A*4D
$GPGGA,175009.400,4308.4387,N,07726.3732,W,1,04,4.89,159.7,M,-34.4,M,,*53
lng=-77.439559, lat=43.140625, altitude=159.70, speed=26.14, satellites=4, angle=4.9700, fixquality=1
$GPRMC,175009.600,A,4308.4400,N,07726.3728,W,25.55,5.14,030419,,,A*4D
$GPGGA,175009.800,4308.4413,N,07726.3725,W,1,04,4.89,159.6,M,-34.4,M,,*52
lng=-77.439544, lat=43.140666, altitude=159.70, speed=25.55, satellites=4, angle=5.1400, fixquality=1
$GPRMC,175010.000,A,4308.4425,N,07726.3722,W,24.89,5.45,030419,,,A*4A
$GPGGA,175010.200,4308.4438,N,07726.3720,W,1,04,4.89,159.6,M,-34.4,M,,*5C
lng=-77.439537, lat=43.140705, altitude=159.60, speed=24.89, satellites=4, angle=5.4500, fixquality=1
$GPRMC,175010.400,A,4308.4450,N,07726.3717,W,24.26,5.79,030419,,,A*40
$GPGGA,175010.600,4308.4462,N,07726.3714,W,1,04,4.89,159.6,M,-34.4,M,,*50
lng=-77.439529, lat=43.140747, altitude=159.60, speed=24.26, satellites=4, angle=5.7900, fixquality=1
$GPRMC,175010.800,A,4308.4473,N,07726.3711,W,23.25,6.22,030419,,,A*42
$GPGGA,175011.000,4308.4484,N,07726.3708,W,1,04,4.89,159.7,M,-34.4,M,,*53
lng=-77.439521, lat=43.140789, altitude=159.60, speed=23.25, satellites=4, angle=6.2200, fixquality=1
$GPRMC,175011.200,A,4308.4493,N,07726.3705,W,21.86,6.55,030419,,,A*49
$GPGGA,175011.400,4308.4503,N,07726.3702,W,1,04,4.89,159.9,M,-34.4,M,,*5D
lng=-77.439506, lat=43.140819, altitude=159.70, speed=21.86, satellites=4, angle=6.5500, fixquality=1
$GPRMC,175011.600,A,4308.4513,N,07726.3700,W,20.57,6.78,030419,,,A*43
$GPGGA,175011.800,4308.4522,N,07726.3697,W,1,04,4.89,160.0,M,-34.4,M,,*5C
lng=-77.439498, lat=43.140853, altitude=159.90, speed=20.57, satellites=4, angle=6.7800, fixquality=1
$GPRMC,175012.000,A,4308.4531,N,07726.3696,W,19.16,6.62,030419,,,A*4C
$GPGGA,175012.200,4308.4539,N,07726.3696,W,1,04,6.57,160.1,M,-34.4,M,,*5E
lng=-77.439491, lat=43.140884, altitude=160.00, speed=19.16, satellites=4, angle=6.6200, fixquality=1
$GPRMC,175012.400,A,4308.4547,N,07726.3696,W,17.72,5.53,030419,,,A*44
$GPGGA,175012.600,4308.4555,N,07726.3696,W,1,04,6.57,160.2,M,-34.4,M,,*53
lng=-77.439491, lat=43.140911, altitude=160.10, speed=17.72, satellites=4, angle=5.5300, fixquality=1
$GPRMC,175012.800,A,4308.4562,N,07726.3695,W,16.41,4.74,030419,,,A*49
$GPGGA,175013.000,4308.4569,N,07726.3694,W,1,04,6.57,160.2,M,-34.4,M,,*59
lng=-77.439491, lat=43.140933, altitude=160.20, speed=16.41, satellites=4, angle=4.7400, fixquality=1
$GPRMC,175013.200,A,4308.4574,N,07726.3693,W,14.99,3.97,030419,,,A*4E
$GPGGA,175013.400,4308.4580,N,07726.3692,W,1,04,6.57,160.1,M,-34.4,M,,*5F
lng=-77.439483, lat=43.140956, altitude=160.20, speed=14.99, satellites=4, angle=3.9700, fixquality=1
$GPRMC,175013.600,A,4308.4585,N,07726.3691,W,13.69,3.47,030419,,,A*43
$GPGGA,175013.800,4308.4591,N,07726.3691,W,1,04,6.57,160.2,M,-34.4,M,,*53
lng=-77.439483, lat=43.140975, altitude=160.10, speed=13.69, satellites=4, angle=3.4700, fixquality=1
$GPRMC,175014.000,A,4308.4595,N,07726.3691,W,12.54,2.37,030419,,,A*4A
$GPGGA,175014.200,4308.4593,N,07726.3713,W,1,04,6.57,160.1,M,-34.4,M,,*54
lng=-77.439483, lat=43.140991, altitude=160.20, speed=12.54, satellites=4, angle=2.3700, fixquality=1
$GPRMC,175014.400,A,4308.4596,N,07726.3711,W,8.18,350.43,030419,,,A*70
$GPGGA,175014.600,4308.4599,N,07726.3720,W,1,04,6.57,160.0,M,-34.4,M,,*5B
lng=-77.439521, lat=43.140991, altitude=160.10, speed=8.18, satellites=4, angle=350.4300, fixquality=1
$GPRMC,175014.800,A,4308.4601,N,07726.3717,W,7.86,339.28,030419,,,A*7D
$GPGGA,175015.000,4308.4602,N,07726.3712,W,1,04,4.89,160.0,M,-34.4,M,,*5D
lng=-77.439529, lat=43.140998, altitude=160.00, speed=7.86, satellites=4, angle=339.2800, fixquality=1
$GPRMC,175015.200,A,4308.4604,N,07726.3709,W,7.13,341.00,030419,,,A*75
$GPGGA,175015.400,4308.4606,N,07726.3708,W,1,04,4.89,160.0,M,-34.4,M,,*56
lng=-77.439521, lat=43.141006, altitude=160.00, speed=7.13, satellites=4, angle=341.0000, fixquality=1
$GPRMC,175015.600,A,4308.4608,N,07726.3705,W,6.72,341.34,030419,,,A*70
$GPGGA,175015.800,4308.4609,N,07726.3703,W,1,04,4.89,160.0,M,-34.4,M,,*5E
lng=-77.439506, lat=43.141014, altitude=160.00, speed=6.72, satellites=4, angle=341.3400, fixquality=1
$GPRMC,175016.000,A,4308.4608,N,07726.3698,W,5.94,340.70,030419,,,A*7A
$GPGGA,175016.200,4308.4608,N,07726.3694,W,1,04,4.89,159.9,M,-34.4,M,,*5A
lng=-77.439491, lat=43.141014, altitude=160.00, speed=5.94, satellites=4, angle=340.7000, fixquality=1
$GPRMC,175016.400,A,4308.4609,N,07726.3691,W,5.23,338.38,030419,,,A*79
$GPGGA,175016.600,4308.4610,N,07726.3690,W,1,04,4.90,159.6,M,-34.4,M,,*54
lng=-77.439483, lat=43.141014, altitude=159.90, speed=5.23, satellites=4, angle=338.3800, fixquality=1
$GPRMC,175016.800,A,4308.4611,N,07726.3688,W,4.82,336.63,030419,,,A*7E
$GPGGA,175017.000,4308.4613,N,07726.3688,W,1,04,4.89,159.5,M,-34.4,M,,*52
lng=-77.439476, lat=43.141014, altitude=159.60, speed=4.82, satellites=4, angle=336.6300, fixquality=1
$GPRMC,175017.200,A,4308.4613,N,07726.3686,W,4.69,337.15,030419,,,A*7C
$GPGGA,175017.400,4308.4613,N,07726.3682,W,1,04,4.89,159.3,M,-34.4,M,,*5A
lng=-77.439476, lat=43.141025, altitude=159.50, speed=4.69, satellites=4, angle=337.1500, fixquality=1
$GPRMC,175017.600,A,4308.4615,N,07726.3681,W,4.85,340.71,030419,,,A*79
$GPGGA,175017.800,4308.4617,N,07726.3680,W,1,04,4.90,159.3,M,-34.4,M,,*58
lng=-77.439468, lat=43.141025, altitude=159.30, speed=4.85, satellites=4, angle=340.7100, fixquality=1
$GPRMC,175018.000,A,4308.4622,N,07726.3678,W,6.48,346.67,030419,,,A*70
$GPGGA,175018.200,4308.4611,N,07726.3647,W,1,05,1.86,159.4,M,-34.4,M,,*54
lng=-77.439460, lat=43.141040, altitude=159.30, speed=6.48, satellites=4, angle=346.6700, fixquality=1
$GPRMC,175018.400,A,4308.4614,N,07726.3648,W,6.89,348.30,030419,,,A*73
$GPGGA,175018.600,4308.4618,N,07726.3649,W,1,05,1.86,159.4,M,-34.4,M,,*57
lng=-77.439414, lat=43.141025, altitude=159.40, speed=6.89, satellites=5, angle=348.3000, fixquality=1
$GPRMC,175018.800,A,4308.4617,N,07726.3640,W,8.26,345.72,030419,,,A*74
$GPGGA,175019.000,4308.4620,N,07726.3637,W,1,05,1.86,159.8,M,-34.4,M,,*5E
lng=-77.439399, lat=43.141033, altitude=159.40, speed=8.26, satellites=5, angle=345.7200, fixquality=1
$GPRMC,175019.200,A,4308.4623,N,07726.3637,W,9.50,339.73,030419,,,A*72
$GPGGA,175019.400,4308.4627,N,07726.3638,W,1,05,1.76,160.1,M,-34.4,M,,*5E
lng=-77.439399, lat=43.141040, altitude=159.80, speed=9.50, satellites=5, angle=339.7300, fixquality=1
$GPRMC,175019.600,A,4308.4632,N,07726.3640,W,9.92,335.53,030419,,,A*76
$GPGGA,175019.800,4308.4634,N,07726.3646,W,1,05,1.76,159.8,M,-34.4,M,,*5A
lng=-77.439399, lat=43.141056, altitude=160.10, speed=9.92, satellites=5, angle=335.5300, fixquality=1
$GPRMC,175020.000,A,4308.4637,N,07726.3654,W,10.30,318.44,030419,,,A*43
$GPGGA,175020.200,4308.4638,N,07726.3664,W,1,05,1.76,159.1,M,-34.4,M,,*5F
lng=-77.439422, lat=43.141063, altitude=159.80, speed=10.30, satellites=5, angle=318.4400, fixquality=1
$GPRMC,175020.400,A,4308.4641,N,07726.3671,W,11.37,304.93,030419,,,A*40
$GPGGA,175020.600,4308.4645,N,07726.3678,W,1,05,1.76,158.5,M,-34.4,M,,*59
lng=-77.439453, lat=43.141063, altitude=159.10, speed=11.37, satellites=5, angle=304.9300, fixquality=1
$GPRMC,175020.800,A,4308.4648,N,07726.3686,W,11.55,299.88,030419,,,A*46
$GPGGA,175021.000,4308.4650,N,07726.3695,W,1,05,1.76,158.4,M,-34.4,M,,*58
lng=-77.439476, lat=43.141078, altitude=158.50, speed=11.55, satellites=5, angle=299.8800, fixquality=1
$GPRMC,175021.200,A,4308.4653,N,07726.3703,W,12.16,292.84,030419,,,A*48
$GPGGA,175021.400,4308.4655,N,07726.3713,W,1,05,1.76,158.4,M,-34.4,M,,*56
lng=-77.439498, lat=43.141090, altitude=158.40, speed=12.16, satellites=5, angle=292.8400, fixquality=1
$GPRMC,175021.600,A,4308.4657,N,07726.3722,W,12.79,286.95,030419,,,A*47
$GPGGA,175021.800,4308.4659,N,07726.3731,W,1,05,1.76,158.6,M,-34.4,M,,*54
lng=-77.439537, lat=43.141098, altitude=158.40, speed=12.79, satellites=5, angle=286.9500, fixquality=1
$GPRMC,175022.000,A,4308.4661,N,07726.3743,W,13.74,283.94,030419,,,A*48
$GPGGA,175022.200,4308.4662,N,07726.3755,W,1,05,1.76,158.7,M,-34.4,M,,*56
lng=-77.439575, lat=43.141105, altitude=158.60, speed=13.74, satellites=5, angle=283.9400, fixquality=1
$GPRMC,175022.400,A,4308.4664,N,07726.3768,W,14.82,283.05,030419,,,A*46
$GPGGA,175022.600,4308.4666,N,07726.3782,W,1,05,1.76,158.9,M,-34.4,M,,*52
lng=-77.439613, lat=43.141105, altitude=158.70, speed=14.82, satellites=5, angle=283.0500, fixquality=1
$GPGGA,175023.000,4308.4670,N,07726.3811,W,1,05,1.76,159.1,M,-34.4,M,,*5E
$GPRMC,175023.000,A,4308.4670,N,07726.3811,W,16.39,280.36,030419,,,A*46
lng=-77.439682, lat=43.141113, altitude=159.10, speed=14.82, satellites=5, angle=283.0500, fixquality=1
$GPGGA,175023.200,4308.4670,N,07726.3827,W,1,05,1.76,159.2,M,-34.4,M,,*5A
$GPRMC,175023.200,A,4308.4670,N,07726.3827,W,16.79,278.50,0304142
lng=-77.439712, lat=43.141113, altitude=159.20, speed=16.39, satellites=5, angle=280.3600, fixquality=1
$GPGGA,175023.400,4308.4671,N,07726.3842,W,1,05,1.76,159.2,M,-34.4,M,,*5E
$GPRMC,175023.400,A,4308.4671,N,07726.3842,W,17.20,277.53,030419,,,A*47
lng=-77.439735, lat=43.141120, altitude=159.20, speed=16.79, satellites=5, angle=278.5000, fixquality=1
$GPGGA,175023.600,4308.4671,N,07726.3857,W,1,05,1.76,159.3,M,-34.4,M,,*59
$GPRMC,175023.600,A,4308.4671,N,07726.3857,W,17.58,276.47,030414A
lng=-77.439765, lat=43.141120, altitude=159.30, speed=17.20, satellites=5, angle=277.5300, fixquality=1
$GPGGA,175023.800,4308.4673,N,07726.3874,W,1,05,1.76,159.3,M,-34.4,M,,*54
$GPRMC,175023.800,A,4308.4673,N,07726.3874,W,18.05,275.66,030419,,,A*40
lng=-77.439788, lat=43.141120, altitude=159.30, speed=17.58, satellites=5, angle=276.4700, fixquality=1
$GPGGA,175024.000,4308.4674,N,07726.3892,W,1,05,1.76,159.5,M,-34.4,M,,*52
$GPRMC,175024.000,A,4308.4674,N,07726.3892,W,18.56,275.33,0304146
lng=-77.439819, lat=43.141120, altitude=159.50, speed=18.05, satellites=5, angle=275.6600, fixquality=1
$GPGGA,175024.200,4308.4676,N,07726.3910,W,1,05,1.76,159.6,M,-34.4,M,,*5A
$GPRMC,175024.200,A,4308.4676,N,07726.3910,W,19.01,275.03,030419,,,A*4D
lng=-77.439849, lat=43.141128, altitude=159.60, speed=18.56, satellites=5, angle=275.3300, fixquality=1
$GPGGA,175024.400,4308.4677,N,07726.3928,W,1,05,1.76,159.7,M,-34.4,M,,*57
$GPRMC,175024.400,A,4308.4677,N,07726.3928,W,19.24,274.68,030419,,,A*4A
lng=-77.439872, lat=43.141128, altitude=159.70, speed=19.01, satellites=5, angle=275.0300, fixquality=1
$GPGGA,175024.600,4308.4678,N,07726.3946,W,1,05,1.76,159.9,M,-34.4,M,,*5C
$GPRMC,175024.600,A,4308.4678,N,07726.3946,W,19.55,274.56,030419,,,A*44
lng=-77.439910, lat=43.141128, altitude=159.90, speed=19.24, satellites=5, angle=274.6800, fixquality=1
$GPGGA,175024.800,4308.4681,N,07726.3965,W,1,05,1.76,160.0,M,-34.4,M,,*56
$GPRMC,175024.800,A,4308.4681,N,07726.3965,W,19.79,274.71,030419,,,A*46
lng=-77.439941, lat=43.141136, altitude=160.00, speed=19.55, satellites=5, angle=274.5600, fixquality=1
$GPRMC,175025.200,A,4308.4684,N,07726.4002,W,20.16,274.89,030419,,,A*43
$GPGGA,175025.400,4308.4687,N,07726.4019,W,1,05,1.76,160.2,M,-34.4,M,,*5A
lng=-77.440010, lat=43.141136, altitude=160.00, speed=20.16, satellites=5, angle=274.8900, fixquality=1
$GPRMC,175025.600,A,4308.4689,N,07726.4037,W,20.35,275.59,030419,,,A*41
$GPGGA,175025.800,4308.4692,N,07726.4055,W,1,05,1.76,160.4,M,-34.4,M,,*5C
lng=-77.440063, lat=43.141147, altitude=160.20, speed=20.35, satellites=5, angle=275.5900, fixquality=1
$GPRMC,175026.000,A,4308.4695,N,07726.4075,W,20.49,276.38,030419,,,A*40
$GPGGA,175026.200,4308.4697,N,07726.4093,W,1,05,1.76,160.7,M,-34.4,M,,*59
lng=-77.440132, lat=43.141162, altitude=160.40, speed=20.49, satellites=5, angle=276.3800, fixquality=1
$GPRMC,175026.400,A,4308.4699,N,07726.4110,W,20.50,276.70,030419,,,A*4E
$GPGGA,175026.600,4308.4701,N,07726.4127,W,1,05,1.76,160.9,M,-34.4,M,,*53
lng=-77.440185, lat=43.141162, altitude=160.70, speed=20.50, satellites=5, angle=276.7000, fixquality=1
$GPRMC,175026.800,A,4308.4704,N,07726.4145,W,20.39,277.39,030419,,,A*44
$GPGGA,175027.000,4308.4706,N,07726.4162,W,1,05,1.76,161.1,M,-34.4,M,,*5B
lng=-77.440238, lat=43.141170, altitude=160.90, speed=20.39, satellites=5, angle=277.3900, fixquality=1
$GPRMC,175027.200,A,4308.4708,N,07726.4179,W,20.06,277.92,030419,,,A*41
$GPGGA,175027.400,4308.4710,N,07726.4195,W,1,05,1.77,161.2,M,-34.4,M,,*52
lng=-77.440299, lat=43.141178, altitude=161.10, speed=20.06, satellites=5, angle=277.9200, fixquality=1
$GPRMC,175027.600,A,4308.4711,N,07726.4210,W,19.54,277.35,030419,,,A*41
$GPGGA,175027.800,4308.4712,N,07726.4226,W,1,05,1.76,161.4,M,-34.4,M,,*50
lng=-77.440345, lat=43.141185, altitude=161.20, speed=19.54, satellites=5, angle=277.3500, fixquality=1
$GPRMC,175028.000,A,4308.4714,N,07726.4241,W,18.40,276.38,030419,,,A*41
$GPGGA,175028.200,4308.4715,N,07726.4255,W,1,05,1.76,161.6,M,-34.4,M,,*54
lng=-77.440406, lat=43.141185, altitude=161.40, speed=18.40, satellites=5, angle=276.3800, fixquality=1
$GPRMC,175028.400,A,4308.4717,N,07726.4269,W,17.46,277.26,030419,,,A*4B
$GPGGA,175028.600,4308.4719,N,07726.4282,W,1,05,1.77,161.8,M,-34.4,M,,*59
lng=-77.440444, lat=43.141193, altitude=161.60, speed=17.46, satellites=5, angle=277.2600, fixquality=1
$GPRMC,175028.800,A,4308.4717,N,07726.4300,W,16.06,278.57,030419,,,A*45
$GPGGA,175029.000,4308.4718,N,07726.4313,W,1,05,1.76,162.0,M,-34.4,M,,*5C
lng=-77.440505, lat=43.141193, altitude=161.80, speed=16.06, satellites=5, angle=278.5700, fixquality=1
$GPRMC,175029.200,A,4308.4720,N,07726.4327,W,14.95,280.07,030419,,,A*45
$GPGGA,175029.400,4308.4722,N,07726.4337,W,1,05,1.76,162.2,M,-34.4,M,,*55
lng=-77.440544, lat=43.141201, altitude=162.00, speed=14.95, satellites=5, angle=280.0700, fixquality=1
$GPRMC,175029.600,A,4308.4723,N,07726.4346,W,13.97,282.07,030419,,,A*42
$GPGGA,175029.800,4308.4725,N,07726.4355,W,1,05,1.77,162.5,M,-34.4,M,,*5C
lng=-77.440574, lat=43.141201, altitude=162.20, speed=13.97, satellites=5, angle=282.0700, fixquality=1
$GPRMC,175030.000,A,4308.4727,N,07726.4361,W,12.29,284.71,030419,,,A*4E
$GPGGA,175030.200,4308.4728,N,07726.4367,W,1,05,1.77,162.7,M,-34.4,M,,*50
lng=-77.440597, lat=43.141212, altitude=162.50, speed=12.29, satellites=5, angle=284.7100, fixquality=1
$GPRMC,175030.400,A,4308.4730,N,07726.4373,W,11.26,285.93,030419,,,A*4E
$GPGGA,175030.600,4308.4731,N,07726.4378,W,1,05,1.77,163.0,M,-34.4,M,,*54
lng=-77.440628, lat=43.141220, altitude=162.70, speed=11.26, satellites=5, angle=285.9300, fixquality=1
$GPRMC,175030.800,A,4308.4732,N,07726.4381,W,9.58,290.25,030419,,,A*74
$GPGGA,175031.000,4308.4733,N,07726.4384,W,1,05,1.77,163.2,M,-34.4,M,,*50
lng=-77.440635, lat=43.141220, altitude=163.00, speed=9.58, satellites=5, angle=290.2500, fixquality=1
$GPRMC,175031.200,A,4308.4733,N,07726.4387,W,8.24,293.91,030419,,,A*7E
$GPGGA,175031.400,4308.4734,N,07726.4390,W,1,05,1.77,163.5,M,-34.4,M,,*51
lng=-77.440643, lat=43.141220, altitude=163.20, speed=8.24, satellites=5, angle=293.9100, fixquality=1
$GPRMC,175031.600,A,4308.4736,N,07726.4393,W,7.30,301.09,030419,,,A*7B
$GPGGA,175031.800,4308.4737,N,07726.4396,W,1,05,1.77,163.8,M,-34.4,M,,*55
lng=-77.440658, lat=43.141227, altitude=163.50, speed=7.30, satellites=5, angle=301.0900, fixquality=1
$GPRMC,175032.000,A,4308.4739,N,07726.4398,W,6.51,308.85,030419,,,A*71
$GPGGA,175032.200,4308.4740,N,07726.4400,W,1,05,1.77,164.1,M,-34.4,M,,*5A
lng=-77.440666, lat=43.141235, altitude=163.80, speed=6.51, satellites=5, angle=308.8500, fixquality=1
$GPRMC,175032.400,A,4308.4741,N,07726.4401,W,5.95,312.24,030419,,,A*76
$GPGGA,175032.600,4308.4740,N,07726.4399,W,1,05,1.77,164.4,M,-34.4,M,,*5C
lng=-77.440666, lat=43.141235, altitude=164.10, speed=5.95, satellites=5, angle=312.2400, fixquality=1
$GPRMC,175032.800,A,4308.4740,N,07726.4396,W,5.30,318.54,030419,,,A*70
$GPGGA,175033.000,4308.4739,N,07726.4394,W,1,05,1.77,164.7,M,-34.4,M,,*5B
lng=-77.440658, lat=43.141235, altitude=164.40, speed=5.30, satellites=5, angle=318.5400, fixquality=1
$GPRMC,175033.200,A,4308.4739,N,07726.4392,W,4.90,324.35,030419,,,A*72
$GPGGA,175033.400,4308.4741,N,07726.4393,W,1,05,1.77,164.8,M,-34.4,M,,*58
lng=-77.440650, lat=43.141235, altitude=164.70, speed=4.90, satellites=5, angle=324.3500, fixquality=1
$GPRMC,175033.600,A,4308.4741,N,07726.4392,W,4.33,327.67,030419,,,A*74
$GPGGA,175033.800,4308.4739,N,07726.4388,W,1,05,1.77,164.9,M,-34.4,M,,*50
lng=-77.440650, lat=43.141235, altitude=164.80, speed=4.33, satellites=5, angle=327.6700, fixquality=1
$GPRMC,175034.000,A,4308.4739,N,07726.4386,W,3.48,332.63,030419,,,A*74
$GPGGA,175034.200,4308.4739,N,07726.4384,W,1,05,1.77,165.0,M,-34.4,M,,*59
lng=-77.440643, lat=43.141235, altitude=164.90, speed=3.48, satellites=5, angle=332.6300, fixquality=1
$GPRMC,175034.400,A,4308.4740,N,07726.4383,W,3.06,336.42,030419,,,A*76
$GPGGA,175034.600,4308.4741,N,07726.4383,W,1,05,1.77,165.1,M,-34.4,M,,*54
lng=-77.440643, lat=43.141235, altitude=165.00, speed=3.06, satellites=5, angle=336.4200, fixquality=1
$GPRMC,175034.800,A,4308.4741,N,07726.4382,W,2.82,336.42,030419,,,A*77
$GPGGA,175035.000,4308.4744,N,07726.4385,W,1,05,1.77,165.1,M,-34.4,M,,*50
lng=-77.440635, lat=43.141235, altitude=165.10, speed=2.82, satellites=5, angle=336.4200, fixquality=1
$GPRMC,175035.200,A,4308.4746,N,07726.4386,W,2.60,336.42,030419,,,A*73
$GPGGA,175035.400,4308.4746,N,07726.4387,W,1,05,1.77,165.2,M,-34.4,M,,*57
lng=-77.440643, lat=43.141242, altitude=165.10, speed=2.60, satellites=5, angle=336.4200, fixquality=1
$GPRMC,175035.600,A,4308.4746,N,07726.4388,W,2.52,336.42,030419,,,A*78
$GPGGA,175035.800,4308.4747,N,07726.4390,W,1,05,1.77,165.2,M,-34.4,M,,*5C
lng=-77.440650, lat=43.141242, altitude=165.20, speed=2.52, satellites=5, angle=336.4200, fixquality=1
$GPRMC,175036.001,A,4308.4748,N,07726.4390,W,2.40,336.42,030419,,,A*78
$GPGGA,175036.200,4308.4748,N,07726.4389,W,1,05,1.77,165.3,M,-34.4,M,,*53
lng=-77.440650, lat=43.141242, altitude=165.20, speed=2.40, satellites=5, angle=336.4200, fixquality=1
$GPRMC,175036.400,A,4308.4748,N,07726.4389,W,2.02,336.42,030419,,,A*73
$GPGGA,175036.600,4308.4747,N,07726.4389,W,1,05,1.77,165.3,M,-34.4,M,,*58
lng=-77.440650, lat=43.141242, altitude=165.30, speed=2.02, satellites=5, angle=336.4200, fixquality=1
$GPRMC,175036.800,A,4308.4745,N,07726.4388,W,1.80,336.42,030419,,,A*7A
$GPGGA,175037.000,4308.4745,N,07726.4388,W,1,05,1.77,165.2,M,-34.4,M,,*5D
lng=-77.440650, lat=43.141242, altitude=165.30, speed=1.80, satellites=5, angle=336.4200, fixquality=1
$GPRMC,175037.200,A,4308.4744,N,07726.4388,W,1.71,336.42,030419,,,A*7E
$GPGGA,175037.400,4308.4744,N,07726.4388,W,1,05,1.77,165.2,M,-34.4,M,,*58
lng=-77.440650, lat=43.141242, altitude=165.20, speed=1.71, satellites=5, angle=336.4200, fixquality=1
$GPRMC,175037.600,A,4308.4742,N,07726.4388,W,1.45,336.42,030419,,,A*7B
$GPGGA,175037.800,4308.4741,N,07726.4387,W,1,05,1.77,165.0,M,-34.4,M,,*5C
lng=-77.440650, lat=43.141235, altitude=165.20, speed=1.45, satellites=5, angle=336.4200, fixquality=1
$GPRMC,175038.000,A,4308.4740,N,07726.4387,W,1.38,336.42,030419,,,A*75
$GPGGA,175038.200,4308.4739,N,07726.4386,W,1,05,1.77,165.0,M,-34.4,M,,*57
lng=-77.440643, lat=43.141235, altitude=165.00, speed=1.38, satellites=5, angle=336.4200, fixquality=1
$GPRMC,175038.400,A,4308.4738,N,07726.4385,W,1.26,336.42,030419,,,A*73
$GPGGA,175038.600,4308.4736,N,07726.4385,W,1,05,1.77,164.9,M,-34.4,M,,*57
lng=-77.440643, lat=43.141227, altitude=165.00, speed=1.26, satellites=5, angle=336.4200, fixquality=1
$GPRMC,175038.800,A,4308.4736,N,07726.4385,W,1.13,336.42,030419,,,A*77
$GPGGA,175039.000,4308.4735,N,07726.4385,W,1,05,1.77,164.9,M,-34.4,M,,*53
lng=-77.440643, lat=43.141227, altitude=164.90, speed=1.13, satellites=5, angle=336.4200, fixquality=1
$GPRMC,175039.200,A,4308.4734,N,07726.4384,W,1.00,336.42,030419,,,A*7D
$GPGGA,175039.400,4308.4734,N,07726.4385,W,1,05,1.77,164.9,M,-34.4,M,,*56
lng=-77.440643, lat=43.141227, altitude=164.90, speed=1.00, satellites=5, angle=336.4200, fixquality=1
$GPRMC,175039.600,A,4308.4734,N,07726.4385,W,0.92,336.42,030419,,,A*72
$GPGGA,175039.800,4308.4733,N,07726.4386,W,1,05,1.77,164.9,M,-34.4,M,,*5E
lng=-77.440643, lat=43.141227, altitude=164.90, speed=0.92, satellites=5, angle=336.4200, fixquality=1
$GPRMC,175040.000,A,4308.4733,N,07726.4385,W,0.82,336.42,030419,,,A*7C
$GPGGA,175040.200,4308.4734,N,07726.4386,W,1,05,1.77,165.0,M,-34.4,M,,*55
lng=-77.440643, lat=43.141220, altitude=164.90, speed=0.82, satellites=5, angle=336.4200, fixquality=1
$GPRMC,175040.400,A,4308.4734,N,07726.4386,W,0.00,336.42,030419,,,A*76
$GPGGA,175040.600,4308.4734,N,07726.4386,W,1,05,1.87,165.0,M,-34.4,M,,*5E
lng=-77.440643, lat=43.141227, altitude=165.00, speed=0.00, satellites=5, angle=336.4200, fixquality=1
$GPRMC,175040.800,A,4308.4734,N,07726.4386,W,0.00,336.42,030419,,,A*7A
$GPGGA,175041.000,4308.4734,N,07726.4386,W,1,05,1.87,165.0,M,-34.4,M,,*59
lng=-77.440643, lat=43.141227, altitude=165.00, speed=0.00, satellites=5, angle=336.4200, fixquality=1
$GPRMC,175041.200,A,4308.4734,N,07726.4386,W,0.00,336.42,030419,,,A*71
$GPGGA,175041.400,4308.4734,N,07726.4386,W,1,05,1.87,165.0,M,-34.4,M,,*5D
lng=-77.440643, lat=43.141227, altitude=165.00, speed=0.00, satellites=5, angle=336.4200, fixquality=1
$GPRMC,175041.600,A,4308.4734,N,07726.4386,W,0.00,336.42,030419,,,A*75
$GPGGA,175041.800,4308.4734,N,07726.4386,W,1,05,1.87,165.0,M,-34.4,M,,*51
lng=-77.440643, lat=43.141227, altitude=165.00, speed=0.00, satellites=5, angle=336.4200, fixquality=1
$GPRMC,175042.000,A,4308.4734,N,07726.4386,W,0.00,336.42,030419,,,A*70
$GPGGA,175042.200,4308.4734,N,07726.4386,W,1,05,1.87,165.0,M,-34.4,M,,*58
lng=-77.440643, lat=43.141227, altitude=165.00, speed=0.00, satellites=5, angle=336.4200, fixquality=1
$GPRMC,175042.400,A,4308.4734,N,07726.4386,W,0.00,336.42,030419,,,A*74
$GPGGA,175042.600,4308.4734,N,07726.4386,W,1,05,1.87,165.0,M,-34.4,M,,*5C
lng=-77.440643, lat=43.141227, altitude=165.00, speed=0.00, satellites=5, angle=336.4200, fixquality=1
$GPRMC,175042.800,A,4308.4734,N,07726.4386,W,0.00,336.42,030419,,,A*78
$GPGGA,175043.000,4308.4734,N,07726.4386,W,1,05,1.87,165.0,M,-34.4,M,,*5B
lng=-77.440643, lat=43.141227, altitude=165.00, speed=0.00, satellites=5, angle=336.4200, fixquality=1
$GPRMC,175043.200,A,4308.4734,N,07726.4386,W,0.00,336.42,030419,,,A*73
$GPGGA,175043.400,4308.4734,N,07726.4386,W,1,05,1.87,165.0,M,-34.4,M,,*5F
lng=-77.440643, lat=43.141227, altitude=165.00, speed=0.00, satellites=5, angle=336.4200, fixquality=1
$GPRMC,175043.600,A,4308.4734,N,07726.4386,W,0.00,336.42,030419,,,A*77
$GPGGA,175043.800,4308.4734,N,07726.4386,W,1,05,1.87,165.0,M,-34.4,M,,*53
lng=-77.440643, lat=43.141227, altitude=165.00, speed=0.00, satellites=5, angle=336.4200, fixquality=1
$GPRMC,175044.000,A,4308.4734,N,07726.4386,W,0.00,336.42,030419,,,A*76
$GPGGA,175044.200,4308.4734,N,07726.4386,W,1,05,1.87,165.0,M,-34.4,M,,*5E
lng=-77.440643, lat=43.141227, altitude=165.00, speed=0.00, satellites=5, angle=336.4200, fixquality=1
$GPRMC,175044.400,A,4308.4734,N,07726.4386,W,0.00,336.42,030419,,,A*72
$GPGGA,175044.600,4308.4734,N,07726.4386,W,1,05,1.87,165.0,M,-34.4,M,,*5A
lng=-77.440643, lat=43.141227, altitude=165.00, speed=0.00, satellites=5, angle=336.4200, fixquality=1
$GPRMC,175044.800,A,4308.4734,N,07726.4386,W,0.00,336.42,030419,,,A*7E
$GPGGA,175045.000,4308.4734,N,07726.4386,W,1,05,1.87,165.0,M,-34.4,M,,*5D
lng=-77.440643, lat=43.141227, altitude=165.00, speed=0.00, satellites=5, angle=336.4200, fixquality=1
$GPRMC,175045.200,A,4308.4734,N,07726.4386,W,0.00,336.42,030419,,,A*75
$GPGGA,175045.400,4308.4734,N,07726.4386,W,1,05,1.87,165.0,M,-34.4,M,,*59
lng=-77.440643, lat=43.141227, altitude=165.00, speed=0.00, satellites=5, angle=336.4200, fixquality=1
$GPRMC,175045.600,A,4308.4734,N,07726.4386,W,0.00,336.42,030419,,,A*71
$GPGGA,175045.800,4308.4734,N,07726.4386,W,1,05,1.87,165.0,M,-34.4,M,,*55
lng=-77.440643, lat=43.141227, altitude=165.00, speed=0.00, satellites=5, angle=336.4200, fixquality=1
$GPRMC,175046.000,A,4308.4734,N,07726.4386,W,0.00,336.42,030419,,,A*74
$GPGGA,175046.200,4308.4734,N,07726.4386,W,1,05,1.87,165.0,M,-34.4,M,,*5C
lng=-77.440643, lat=43.141227, altitude=165.00, speed=0.00, satellites=5, angle=336.4200, fixquality=1
$GPRMC,175046.400,A,4308.4734,N,07726.4386,W,0.00,336.42,030419,,,A*70
$GPGGA,175046.600,4308.4734,N,07726.4386,W,1,05,1.87,165.0,M,-34.4,M,,*58
lng=-77.440643, lat=43.141227, altitude=165.00, speed=0.00, satellites=5, angle=336.4200, fixquality=1
$GPRMC,175046.800,A,4308.4734,N,07726.4386,W,0.00,336.42,030419,,,A*7C
$GPGGA,175047.000,4308.4734,N,07726.4386,W,1,05,1.87,165.0,M,-34.4,M,,*5F
lng=-77.440643, lat=43.141227, altitude=165.00, speed=0.00, satellites=5, angle=336.4200, fixquality=1
$GPRMC,175047.200,A,4308.4734,N,07726.4386,W,0.00,336.42,030419,,,A*77
$GPGGA,175047.400,4308.4734,N,07726.4386,W,1,05,1.87,165.0,M,-34.4,M,,*5B
lng=-77.440643, lat=43.141227, altitude=165.00, speed=0.00, satellites=5, angle=336.4200, fixquality=1
$GPRMC,175047.600,A,4308.4734,N,07726.4386,W,0.00,336.42,030419,,,A*73
$GPGGA,175047.800,4308.4734,N,07726.4386,W,1,05,1.87,165.0,M,-34.4,M,,*57
lng=-77.440643, lat=43.141227, altitude=165.00, speed=0.00, satellites=5, angle=336.4200, fixquality=1
$GPRMC,175048.000,A,4308.4734,N,07726.4386,W,0.00,336.42,030419,,,A*7A
$GPGGA,175048.200,4308.4734,N,07726.4386,W,1,05,1.87,165.0,M,-34.4,M,,*52
lng=-77.440643, lat=43.141227, altitude=165.00, speed=0.00, satellites=5, angle=336.4200, fixquality=1
$GPRMC,175048.400,A,4308.4734,N,07726.4386,W,0.00,336.42,030419,,,A*7E
$GPGGA,175048.600,4308.4734,N,07726.4386,W,1,05,1.87,165.0,M,-34.4,M,,*56
lng=-77.440643, lat=43.141227, altitude=165.00, speed=0.00, satellites=5, angle=336.4200, fixquality=1
$GPRMC,175048.800,A,4308.4734,N,07726.4386,W,0.00,336.42,030419,,,A*72
$GPGGA,175049.000,4308.4734,N,07726.4386,W,1,05,1.87,165.0,M,-34.4,M,,*51
lng=-77.440643, lat=43.141227, altitude=165.00, speed=0.00, satellites=5, angle=336.4200, fixquality=1
$GPRMC,175049.200,A,4308.4734,N,07726.4386,W,0.00,336.42,030419,,,A*79
$GPGGA,175049.400,4308.4734,N,07726.4386,W,1,05,1.87,165.0,M,-34.4,M,,*55
lng=-77.440643, lat=43.141227, altitude=165.00, speed=0.00, satellites=5, angle=336.4200, fixquality=1
$GPRMC,175049.600,A,4308.4734,N,07726.4386,W,0.00,336.42,030419,,,A*7D
$GPGGA,175049.800,4308.4734,N,07726.4386,W,1,05,1.87,165.0,M,-34.4,M,,*59
lng=-77.440643, lat=43.141227, altitude=165.00, speed=0.00, satellites=5, angle=336.4200, fixquality=1
$GPRMC,175050.000,A,4308.4734,N,07726.4386,W,0.00,336.42,030419,,,A*73
$GPGGA,175050.200,4308.4734,N,07726.4386,W,1,05,1.87,165.0,M,-34.4,M,,*5B
lng=-77.440643, lat=43.141227, altitude=165.00, speed=0.00, satellites=5, angle=336.4200, fixquality=1
$GPRMC,175050.400,A,4308.4734,N,07726.4386,W,0.00,336.42,030419,,,A*77
$GPGGA,175050.600,4308.4734,N,07726.4386,W,1,05,1.87,165.0,M,-34.4,M,,*5F
lng=-77.440643, lat=43.141227, altitude=165.00, speed=0.00, satellites=5, angle=336.4200, fixquality=1
$GPRMC,175050.800,A,4308.4734,N,07726.4386,W,0.00,336.42,030419,,,A*7B
$GPGGA,175051.000,4308.4734,N,07726.4386,W,1,05,1.87,165.0,M,-34.4,M,,*58
lng=-77.440643, lat=43.141227, altitude=165.00, speed=0.00, satellites=5, angle=336.4200, fixquality=1
$GPRMC,175051.200,A,4308.4734,N,07726.4386,W,0.00,336.42,030419,,,A*70
$GPGGA,175051.400,4308.4734,N,07726.4386,W,1,05,1.87,165.0,M,-34.4,M,,*5C
lng=-77.440643, lat=43.141227, altitude=165.00, speed=0.00, satellites=5, angle=336.4200, fixquality=1
$GPRMC,175051.600,A,4308.4734,N,07726.4386,W,0.00,336.42,030419,,,A*74
$GPGGA,175051.800,4308.4734,N,07726.4386,W,1,05,1.87,165.0,M,-34.4,M,,*50
lng=-77.440643, lat=43.141227, altitude=165.00, speed=0.00, satellites=5, angle=336.4200, fixquality=1
$GPRMC,175052.000,A,4308.4734,N,07726.4386,W,0.00,336.42,030419,,,A*71
$GPGGA,175052.200,4308.4734,N,07726.4386,W,1,05,1.87,165.0,M,-34.4,M,,*59
lng=-77.440643, lat=43.141227, altitude=165.00, speed=0.00, satellites=5, angle=336.4200, fixquality=1
$GPRMC,175052.400,A,4308.4734,N,07726.4386,W,0.00,336.42,030419,,,A*75
$GPGGA,175052.600,4308.4734,N,07726.4386,W,1,05,1.87,165.0,M,-34.4,M,,*5D
lng=-77.440643, lat=43.141227, altitude=165.00, speed=0.00, satellites=5, angle=336.4200, fixquality=1
$GPRMC,175052.800,A,4308.4734,N,07726.4386,W,0.00,336.42,030419,,,A*79
$GPGGA,175053.000,4308.4734,N,07726.4386,W,1,05,1.87,165.0,M,-34.4,M,,*5A
lng=-77.440643, lat=43.141227, altitude=165.00, speed=0.00, satellites=5, angle=336.4200, fixquality=1
$GPRMC,175053.200,A,4308.4734,N,07726.4386,W,0.00,336.42,030419,,,A*72
$GPGGA,175053.400,4308.4734,N,07726.4386,W,1,05,1.87,165.0,M,-34.4,M,,*5E
lng=-77.440643, lat=43.141227, altitude=165.00, speed=0.00, satellites=5, angle=336.4200, fixquality=1
$GPRMC,175053.600,A,4308.4734,N,07726.4386,W,0.00,336.42,030419,,,A*76
$GPGGA,175053.800,4308.4734,N,07726.4386,W,1,05,1.88,165.0,M,-34.4,M,,*5D
lng=-77.440643, lat=43.141227, altitude=165.00, speed=0.00, satellites=5, angle=336.4200, fixquality=1
$GPRMC,175054.000,A,4308.4734,N,07726.4386,W,0.00,336.42,030419,,,A*77
$GPGGA,175054.200,4308.4734,N,07726.4386,W,1,08,1.26,165.0,M,-34.4,M,,*59
lng=-77.440643, lat=43.141227, altitude=165.00, speed=0.00, satellites=5, angle=336.4200, fixquality=1
$GPRMC,175054.400,A,4308.4734,N,07726.4386,W,0.00,336.42,030419,,,A*73
$GPGGA,175054.600,4308.4734,N,07726.4386,W,1,08,1.26,165.0,M,-34.4,M,,*5D
lng=-77.440643, lat=43.141227, altitude=165.00, speed=0.00, satellites=8, angle=336.4200, fixquality=1
$GPRMC,175054.800,A,4308.4734,N,07726.4386,W,0.00,336.42,030419,,,A*7F
$GPGGA,175055.000,4308.4734,N,07726.4386,W,1,08,1.26,165.0,M,-34.4,M,,*5A
lng=-77.440643, lat=43.141227, altitude=165.00, speed=0.00, satellites=8, angle=336.4200, fixquality=1
$GPRMC,175055.200,A,4308.4734,N,07726.4386,W,0.00,336.42,030419,,,A*74
$GPGGA,175055.400,4308.4734,N,07726.4386,W,1,08,1.26,165.0,M,-34.4,M,,*5E
lng=-77.440643, lat=43.141227, altitude=165.00, speed=0.00, satellites=8, angle=336.4200, fixquality=1
$GPRMC,175055.600,A,4308.4734,N,07726.4386,W,0.00,336.42,030419,,,A*70
$GPGGA,175055.800,4308.4734,N,07726.4386,W,1,08,1.26,165.0,M,-34.4,M,,*52
lng=-77.440643, lat=43.141227, altitude=165.00, speed=0.00, satellites=8, angle=336.4200, fixquality=1
$GPRMC,175056.000,A,4308.4734,N,07726.4386,W,0.00,336.42,030419,,,A*75
$GPGGA,175056.200,4308.4734,N,07726.4386,W,1,08,1.26,165.0,M,-34.4,M,,*5B
lng=-77.440643, lat=43.141227, altitude=165.00, speed=0.00, satellites=8, angle=336.4200, fixquality=1
$GPRMC,175056.400,A,4308.4734,N,07726.4386,W,0.00,336.42,030419,,,A*71
$GPGGA,175056.600,4308.4734,N,07726.4386,W,1,08,1.26,165.0,M,-34.4,M,,*5F
lng=-77.440643, lat=43.141227, altitude=165.00, speed=0.00, satellites=8, angle=336.4200, fixquality=1
$GPRMC,175056.800,A,4308.4734,N,07726.4386,W,0.00,336.42,030419,,,A*7D
$GPGGA,175057.000,4308.4734,N,07726.4386,W,1,08,1.26,165.0,M,-34.4,M,,*58
lng=-77.440643, lat=43.141227, altitude=165.00, speed=0.00, satellites=8, angle=336.4200, fixquality=1
$GPRMC,175057.200,A,4308.4734,N,07726.4386,W,0.00,336.42,030419,,,A*76
$GPGGA,175057.400,4308.4734,N,07726.4386,W,1,08,1.26,165.0,M,-34.4,M,,*5C
lng=-77.440643, lat=43.141227, altitude=165.00, speed=0.00, satellites=8, angle=336.4200, fixquality=1
$GPRMC,175057.600,A,4308.4734,N,07726.4386,W,0.00,336.42,030419,,,A*72
$GPGGA,175057.800,4308.4734,N,07726.4386,W,1,08,1.13,165.0,M,-34.4,M,,*56
lng=-77.440643, lat=43.141227, altitude=165.00, speed=0.00, satellites=8, angle=336.4200, fixquality=1
$GPRMC,175058.000,A,4308.4734,N,07726.4386,W,0.00,336.42,030419,,,A*7B
$GPGGA,175058.200,4308.4734,N,07726.4386,W,1,08,1.13,165.0,M,-34.4,M,,*53
lng=-77.440643, lat=43.141227, altitude=165.00, speed=0.00, satellites=8, angle=336.4200, fixquality=1
$GPRMC,175058.400,A,4308.4734,N,07726.4386,W,0.00,336.42,030419,,,A*7F
$GPGGA,175058.600,4308.4734,N,07726.4386,W,1,08,1.13,165.0,M,-34.4,M,,*57
lng=-77.440643, lat=43.141227, altitude=165.00, speed=0.00, satellites=8, angle=336.4200, fixquality=1
$GPRMC,175058.800,A,4308.4734,N,07726.4386,W,0.01,336.42,030419,,,A*72
$GPGGA,175059.000,4308.4734,N,07726.4386,W,1,08,1.13,165.0,M,-34.4,M,,*50
lng=-77.440643, lat=43.141227, altitude=165.00, speed=0.01, satellites=8, angle=336.4200, fixquality=1
$GPRMC,175059.200,A,4308.4734,N,07726.4386,W,0.00,336.42,030419,,,A*78
$GPGGA,175059.400,4308.4734,N,07726.4386,W,1,08,1.13,164.9,M,-34.4,M,,*5C
lng=-77.440643, lat=43.141227, altitude=165.00, speed=0.00, satellites=8, angle=336.4200, fixquality=1
$GPRMC,175059.600,A,4308.4734,N,07726.4386,W,0.00,336.42,030419,,,A*7C
$GPGGA,175059.800,4308.4734,N,07726.4386,W,1,08,1.13,164.9,M,-34.4,M,,*50
lng=-77.440643, lat=43.141227, altitude=164.90, speed=0.00, satellites=8, angle=336.4200, fixquality=1
$GPRMC,175100.000,A,4308.4733,N,07726.4386,W,0.01,336.42,030419,,,A*71
$GPGGA,175100.200,4308.4733,N,07726.4386,W,1,08,1.13,164.9,M,-34.4,M,,*50
lng=-77.440643, lat=43.141220, altitude=164.90, speed=0.01, satellites=8, angle=336.4200, fixquality=1
$GPRMC,175100.400,A,4308.4733,N,07726.4386,W,0.00,336.42,030419,,,A*74
$GPGGA,175100.600,4308.4733,N,07726.4386,W,1,08,1.13,164.9,M,-34.4,M,,*54
lng=-77.440643, lat=43.141220, altitude=164.90, speed=0.00, satellites=8, angle=336.4200, fixquality=1
$GPRMC,175100.800,A,4308.4733,N,07726.4386,W,0.00,336.42,030419,,,A*78
$GPGGA,175101.000,4308.4733,N,07726.4386,W,1,08,1.13,164.9,M,-34.4,M,,*53
lng=-77.440643, lat=43.141220, altitude=164.90, speed=0.00, satellites=8, angle=336.4200, fixquality=1
$GPRMC,175101.200,A,4308.4733,N,07726.4386,W,0.00,336.42,030419,,,A*73
$GPGGA,175101.400,4308.4733,N,07726.4386,W,1,08,1.13,164.9,M,-34.4,M,,*57
lng=-77.440643, lat=43.141220, altitude=164.90, speed=0.00, satellites=8, angle=336.4200, fixquality=1
$GPRMC,175101.600,A,4308.4733,N,07726.4386,W,0.00,336.42,030419,,,A*77
$GPGGA,175101.800,4308.4733,N,07726.4386,W,1,08,1.13,164.9,M,-34.4,M,,*5B
lng=-77.440643, lat=43.141220, altitude=164.90, speed=0.00, satellites=8, angle=336.4200, fixquality=1
$GPRMC,175102.000,A,4308.4733,N,07726.4386,W,0.01,336.42,030419,,,A*73
$GPGGA,175102.200,4308.4733,N,07726.4386,W,1,08,1.26,164.9,M,-34.4,M,,*54
lng=-77.440643, lat=43.141220, altitude=164.90, speed=0.01, satellites=8, angle=336.4200, fixquality=1
$GPRMC,175102.400,A,4308.4733,N,07726.4386,W,0.00,336.42,030419,,,A*76
$GPGGA,175102.600,4308.4733,N,07726.4386,W,1,08,1.13,164.9,M,-34.4,M,,*56
lng=-77.440643, lat=43.141220, altitude=164.90, speed=0.00, satellites=8, angle=336.4200, fixquality=1
$GPRMC,175102.800,A,4308.4733,N,07726.4386,W,0.01,336.42,030419,,,A*7B
$GPGGA,175103.000,4308.4733,N,07726.4386,W,1,08,1.13,164.9,M,-34.4,M,,*51
lng=-77.440643, lat=43.141220, altitude=164.90, speed=0.01, satellites=8, angle=336.4200, fixquality=1
$GPRMC,175103.200,A,4308.4733,N,07726.4386,W,0.00,336.42,030419,,,A*71
$GPGGA,175103.400,4308.4733,N,07726.4386,W,1,08,1.13,164.9,M,-34.4,M,,*55
lng=-77.440643, lat=43.141220, altitude=164.90, speed=0.00, satellites=8, angle=336.4200, fixquality=1
$GPRMC,175103.600,A,4308.4733,N,07726.4386,W,0.00,336.42,030419,,,A*75
$GPGGA,175103.800,4308.4733,N,07726.4386,W,1,08,1.13,164.9,M,-34.4,M,,*59
lng=-77.440643, lat=43.141220, altitude=164.90, speed=0.00, satellites=8, angle=336.4200, fixquality=1
$GPRMC,175104.000,A,4308.4733,N,07726.4386,W,0.00,336.42,030419,,,A*74
$GPGGA,175104.200,4308.4733,N,07726.4386,W,1,08,1.13,164.9,M,-34.4,M,,*54
lng=-77.440643, lat=43.141220, altitude=164.90, speed=0.00, satellites=8, angle=336.4200, fixquality=1
$GPRMC,175104.400,A,4308.4733,N,07726.4386,W,0.13,336.42,030419,,,A*72
$GPGGA,175104.600,4308.4733,N,07726.4386,W,1,08,1.13,164.9,M,-34.4,M,,*50
lng=-77.440643, lat=43.141220, altitude=164.90, speed=0.13, satellites=8, angle=336.4200, fixquality=1
$GPRMC,175104.800,A,4308.4733,N,07726.4386,W,0.25,336.42,030419,,,A*7B
$GPGGA,175105.000,4308.4733,N,07726.4386,W,1,08,1.13,164.9,M,-34.4,M,,*57
lng=-77.440643, lat=43.141220, altitude=164.90, speed=0.25, satellites=8, angle=336.4200, fixquality=1
$GPRMC,175105.200,A,4308.4733,N,07726.4387,W,0.26,229.65,030419,,,A*78
$GPGGA,175105.400,4308.4733,N,07726.4387,W,1,08,1.13,164.9,M,-34.4,M,,*52
lng=-77.440643, lat=43.141220, altitude=164.90, speed=0.26, satellites=8, angle=229.6500, fixquality=1
$GPRMC,175105.600,A,4308.4733,N,07726.4387,W,0.31,230.38,030419,,,A*7A
$GPGGA,175105.800,4308.4733,N,07726.4387,W,1,08,1.13,164.9,M,-34.4,M,,*5E
lng=-77.440643, lat=43.141220, altitude=164.90, speed=0.31, satellites=8, angle=230.3800, fixquality=1
$GPRMC,175106.000,A,4308.4733,N,07726.4387,W,0.47,232.25,030419,,,A*70
$GPGGA,175106.200,4308.4732,N,07726.4388,W,1,08,1.13,164.9,M,-34.4,M,,*59
lng=-77.440643, lat=43.141220, altitude=164.90, speed=0.47, satellites=8, angle=232.2500, fixquality=1
$GPRMC,175106.400,A,4308.4732,N,07726.4388,W,0.69,232.25,030419,,,A*76
$GPGGA,175106.600,4308.4732,N,07726.4388,W,1,08,1.13,164.9,M,-34.4,M,,*5D
lng=-77.440650, lat=43.141220, altitude=164.90, speed=0.69, satellites=8, angle=232.2500, fixquality=1
$GPRMC,175106.800,A,4308.4732,N,07726.4389,W,0.97,232.25,030419,,,A*7A
$GPGGA,175107.000,4308.4731,N,07726.4390,W,1,08,1.13,164.9,M,-34.4,M,,*50
lng=-77.440650, lat=43.141220, altitude=164.90, speed=0.97, satellites=8, angle=232.2500, fixquality=1
$GPRMC,175107.200,A,4308.4731,N,07726.4390,W,1.85,232.25,030419,,,A*78
$GPGGA,175107.400,4308.4731,N,07726.4391,W,1,08,1.13,164.9,M,-34.4,M,,*55
lng=-77.440650, lat=43.141220, altitude=164.90, speed=1.85, satellites=8, angle=232.2500, fixquality=1
$GPRMC,175107.600,A,4308.4731,N,07726.4392,W,2.81,232.25,030419,,,A*79
$GPGGA,175107.800,4308.4731,N,07726.4395,W,1,08,1.13,164.9,M,-34.4,M,,*5D
lng=-77.440650, lat=43.141220, altitude=164.90, speed=2.81, satellites=8, angle=232.2500, fixquality=1
$GPRMC,175108.000,A,4308.4731,N,07726.4399,W,3.72,266.35,030419,,,A*76
$GPGGA,175108.200,4308.4730,N,07726.4405,W,1,08,1.13,164.8,M,-34.4,M,,*56
lng=-77.440666, lat=43.141220, altitude=164.90, speed=3.72, satellites=8, angle=266.3500, fixquality=1
$GPRMC,175108.400,A,4308.4730,N,07726.4410,W,4.81,264.65,030419,,,A*79
$GPGGA,175108.600,4308.4730,N,07726.4416,W,1,08,1.13,164.8,M,-34.4,M,,*50
lng=-77.440681, lat=43.141220, altitude=164.80, speed=4.81, satellites=8, angle=264.6500, fixquality=1
$GPRMC,175108.800,A,4308.4730,N,07726.4423,W,5.97,263.97,030419,,,A*79
$GPGGA,175109.000,4308.4731,N,07726.4433,W,1,08,1.13,164.8,M,-34.4,M,,*51
lng=-77.440704, lat=43.141220, altitude=164.80, speed=5.97, satellites=8, angle=263.9700, fixquality=1
$GPRMC,175109.200,A,4308.4732,N,07726.4444,W,8.76,270.83,030419,,,A*74
$GPGGA,175109.400,4308.4732,N,07726.4454,W,1,08,1.13,164.7,M,-34.4,M,,*58
lng=-77.440742, lat=43.141220, altitude=164.80, speed=8.76, satellites=8, angle=270.8300, fixquality=1
$GPRMC,175109.600,A,4308.4730,N,07726.4467,W,10.63,269.28,030419,,,A*47
$GPGGA,175109.800,4308.4729,N,07726.4484,W,1,07,1.19,164.6,M,-34.4,M,,*57
lng=-77.440780, lat=43.141220, altitude=164.70, speed=10.63, satellites=8, angle=269.2800, fixquality=1
$GPRMC,175110.000,A,4308.4729,N,07726.4501,W,13.67,269.97,030419,,,A*43
$GPGGA,175110.200,4308.4729,N,07726.4518,W,1,08,1.13,164.5,M,-34.4,M,,*57
lng=-77.440834, lat=43.141212, altitude=164.60, speed=13.67, satellites=7, angle=269.9700, fixquality=1
$GPRMC,175110.400,A,4308.4730,N,07726.4532,W,14.95,271.31,030419,,,A*40
$GPGGA,175110.600,4308.4729,N,07726.4547,W,1,08,1.13,164.4,M,-34.4,M,,*58
lng=-77.440887, lat=43.141220, altitude=164.50, speed=14.95, satellites=8, angle=271.3100, fixquality=1
$GPRMC,175110.800,A,4308.4729,N,07726.4563,W,15.93,272.58,030419,,,A*4B
$GPGGA,175111.000,4308.4730,N,07726.4580,W,1,08,1.13,164.2,M,-34.4,M,,*5A
lng=-77.440933, lat=43.141212, altitude=164.40, speed=15.93, satellites=8, angle=272.5800, fixquality=1
$GPRMC,175111.200,A,4308.4730,N,07726.4597,W,17.34,272.32,030419,,,A*40
$GPGGA,175111.400,4308.4731,N,07726.4612,W,1,08,1.13,164.1,M,-34.4,M,,*54
lng=-77.440994, lat=43.141220, altitude=164.20, speed=17.34, satellites=8, angle=272.3200, fixquality=1
$GPRMC,175111.600,A,4308.4732,N,07726.4628,W,18.39,271.24,030419,,,A*47
$GPGGA,175111.800,4308.4733,N,07726.4646,W,1,08,1.13,164.0,M,-34.4,M,,*5A
lng=-77.441047, lat=43.141220, altitude=164.10, speed=18.39, satellites=8, angle=271.2400, fixquality=1
$GPRMC,175112.000,A,4308.4734,N,07726.4664,W,19.69,270.37,030419,,,A*4B
$GPGGA,175112.200,4308.4735,N,07726.4683,W,1,08,1.13,164.0,M,-34.4,M,,*5C
lng=-77.441108, lat=43.141227, altitude=164.00, speed=19.69, satellites=8, angle=270.3700, fixquality=1
$GPRMC,175112.400,A,4308.4736,N,07726.4703,W,21.42,269.45,030419,,,A*42
$GPGGA,175112.600,4308.4737,N,07726.4723,W,1,08,1.13,164.0,M,-34.4,M,,*51
lng=-77.441169, lat=43.141227, altitude=164.00, speed=21.42, satellites=8, angle=269.4500, fixquality=1
$GPRMC,175112.800,A,4308.4739,N,07726.4745,W,23.30,269.07,030419,,,A*42
$GPGGA,175113.000,4308.4741,N,07726.4767,W,1,08,1.13,164.0,M,-34.4,M,,*57
lng=-77.441246, lat=43.141235, altitude=164.00, speed=23.30, satellites=8, angle=269.0700, fixquality=1
$GPRMC,175113.200,A,4308.4742,N,07726.4790,W,25.07,269.02,030419,,,A*4A
$GPGGA,175113.400,4308.4744,N,07726.4813,W,1,08,1.13,164.0,M,-34.4,M,,*5A
lng=-77.441314, lat=43.141235, altitude=164.00, speed=25.07, satellites=8, angle=269.0200, fixquality=1
$GPRMC,175113.600,A,4308.4746,N,07726.4837,W,26.77,269.46,030419,,,A*4C
$GPGGA,175113.800,4308.4748,N,07726.4862,W,1,08,1.13,164.1,M,-34.4,M,,*5D
lng=-77.441398, lat=43.141242, altitude=164.00, speed=26.77, satellites=8, angle=269.4600, fixquality=1
$GPRMC,175114.000,A,4308.4750,N,07726.4888,W,28.64,270.01,030419,,,A*49
$GPGGA,175114.200,4308.4753,N,07726.4913,W,1,08,1.13,164.1,M,-34.4,M,,*5D
lng=-77.441482, lat=43.141250, altitude=164.10, speed=28.64, satellites=8, angle=270.0100, fixquality=1
$GPRMC,175114.400,A,4308.4755,N,07726.4939,W,30.10,271.28,030419,,,A*43
$GPGGA,175114.600,4308.4757,N,07726.4966,W,1,08,1.13,164.1,M,-34.4,M,,*5F
lng=-77.441566, lat=43.141258, altitude=164.10, speed=30.10, satellites=8, angle=271.2800, fixquality=1
$GPRMC,175114.800,A,4308.4760,N,07726.4993,W,31.79,272.41,030419,,,A*4B
$GPGGA,175115.000,4308.4763,N,07726.5020,W,1,08,1.13,164.2,M,-34.4,M,,*56
lng=-77.441658, lat=43.141269, altitude=164.10, speed=31.79, satellites=8, angle=272.4100, fixquality=1
$GPRMC,175115.200,A,4308.4766,N,07726.5047,W,32.70,274.10,030419,,,A*4F
$GPGGA,175115.400,4308.4768,N,07726.5073,W,1,08,1.13,164.2,M,-34.4,M,,*5F
lng=-77.441749, lat=43.141277, altitude=164.20, speed=32.70, satellites=8, angle=274.1000, fixquality=1
$GPRMC,175115.600,A,4308.4771,N,07726.5101,W,33.60,274.70,030419,,,A*48
$GPGGA,175115.800,4308.4773,N,07726.5127,W,1,08,1.13,164.2,M,-34.4,M,,*59
lng=-77.441841, lat=43.141284, altitude=164.20, speed=33.60, satellites=8, angle=274.7000, fixquality=1
$GPRMC,175116.000,A,4308.4775,N,07726.5155,W,34.50,274.60,030419,,,A*4D
$GPGGA,175116.200,4308.4776,N,07726.5182,W,1,08,1.13,164.2,M,-34.4,M,,*5A
lng=-77.441925, lat=43.141292, altitude=164.20, speed=34.50, satellites=8, angle=274.6000, fixquality=1
$GPRMC,175116.400,A,4308.4778,N,07726.5210,W,35.08,274.31,030419,,,A*4E
$GPGGA,175116.600,4308.4780,N,07726.5238,W,1,08,1.13,164.2,M,-34.4,M,,*55
lng=-77.442016, lat=43.141300, altitude=164.20, speed=35.08, satellites=8, angle=274.3100, fixquality=1
$GPRMC,175116.800,A,4308.4781,N,07726.5267,W,35.88,273.78,030419,,,A*46
$GPGGA,175117.000,4308.4783,N,07726.5295,W,1,08,1.13,164.2,M,-34.4,M,,*56
lng=-77.442115, lat=43.141300, altitude=164.20, speed=35.88, satellites=8, angle=273.7800, fixquality=1
$GPRMC,175117.200,A,4308.4784,N,07726.5325,W,36.64,272.90,030419,,,A*49
$GPGGA,175117.400,4308.4785,N,07726.5354,W,1,08,1.13,164.2,M,-34.4,M,,*58
lng=-77.442214, lat=43.141307, altitude=164.20, speed=36.64, satellites=8, angle=272.9000, fixquality=1
$GPRMC,175117.600,A,4308.4787,N,07726.5383,W,36.96,272.80,030419,,,A*4E
$GPGGA,175117.800,4308.4789,N,07726.5412,W,1,08,1.13,164.3,M,-34.4,M,,*5C
lng=-77.442298, lat=43.141307, altitude=164.20, speed=36.96, satellites=8, angle=272.8000, fixquality=1
$GPRMC,175118.000,A,4308.4790,N,07726.5441,W,37.28,273.05,030419,,,A*40
$GPGGA,175118.200,4308.4791,N,07726.5470,W,1,08,1.13,164.3,M,-34.4,M,,*54
lng=-77.442398, lat=43.141315, altitude=164.30, speed=37.28, satellites=8, angle=273.0500, fixquality=1
$GPRMC,175118.400,A,4308.4792,N,07726.5499,W,37.57,272.87,030419,,,A*40
$GPGGA,175118.600,4308.4794,N,07726.5529,W,1,08,1.13,164.3,M,-34.4,M,,*58
lng=-77.442497, lat=43.141315, altitude=164.30, speed=37.57, satellites=8, angle=272.8700, fixquality=1
$GPRMC,175118.800,A,4308.4795,N,07726.5559,W,38.25,272.94,030419,,,A*4E
$GPGGA,175119.000,4308.4796,N,07726.5589,W,1,08,1.13,164.3,M,-34.4,M,,*57
lng=-77.442596, lat=43.141323, altitude=164.30, speed=38.25, satellites=8, angle=272.9400, fixquality=1
$GPRMC,175119.200,A,4308.4798,N,07726.5619,W,38.75,272.88,030419,,,A*47
$GPGGA,175119.400,4308.4800,N,07726.5649,W,1,08,1.13,164.3,M,-34.4,M,,*5C
lng=-77.442703, lat=43.141334, altitude=164.30, speed=38.75, satellites=8, angle=272.8800, fixquality=1
$GPRMC,175119.600,A,4308.4801,N,07726.5679,W,38.98,272.80,030419,,,A*41
$GPGGA,175119.800,4308.4803,N,07726.5710,W,1,08,1.13,164.3,M,-34.4,M,,*5E
lng=-77.442794, lat=43.141334, altitude=164.30, speed=38.98, satellites=8, angle=272.8000, fixquality=1
$GPRMC,175120.000,A,4308.4805,N,07726.5740,W,39.12,272.85,030419,,,A*44
$GPGGA,175120.200,4308.4807,N,07726.5770,W,1,07,1.19,164.3,M,-34.4,M,,*59
lng=-77.442901, lat=43.141342, altitude=164.30, speed=39.12, satellites=8, angle=272.8500, fixquality=1
$GPRMC,175120.400,A,4308.4808,N,07726.5801,W,39.43,272.85,030419,,,A*43
$GPGGA,175120.600,4308.4809,N,07726.5831,W,1,07,1.19,164.3,M,-34.4,M,,*59
lng=-77.443000, lat=43.141349, altitude=164.30, speed=39.43, satellites=7, angle=272.8500, fixquality=1
$GPRMC,175120.800,A,4308.4811,N,07726.5862,W,40.09,272.87,030419,,,A*40
$GPGGA,175121.000,4308.4812,N,07726.5893,W,1,07,1.19,164.3,M,-34.4,M,,*5C
lng=-77.443107, lat=43.141349, altitude=164.30, speed=40.09, satellites=7, angle=272.8700, fixquality=1
$GPRMC,175121.200,A,4308.4813,N,07726.5925,W,40.51,272.64,030419,,,A*4B
$GPGGA,175121.400,4308.4814,N,07726.5956,W,1,07,1.19,164.3,M,-34.4,M,,*56
lng=-77.443206, lat=43.141357, altitude=164.30, speed=40.51, satellites=7, angle=272.6400, fixquality=1
$GPRMC,175121.600,A,4308.4815,N,07726.5989,W,40.80,272.34,030419,,,A*46
$GPGGA,175121.800,4308.4817,N,07726.6022,W,1,07,1.19,164.3,M,-34.4,M,,*50
lng=-77.443321, lat=43.141357, altitude=164.30, speed=40.80, satellites=7, angle=272.3400, fixquality=1
$GPRMC,175122.000,A,4308.4819,N,07726.6055,W,40.82,271.96,030419,,,A*4D
$GPGGA,175122.200,4308.4820,N,07726.6087,W,1,07,1.19,164.3,M,-34.4,M,,*52
lng=-77.443428, lat=43.141365, altitude=164.30, speed=40.82, satellites=7, angle=271.9600, fixquality=1
$GPRMC,175122.400,A,4308.4822,N,07726.6119,W,40.46,272.03,030419,,,A*4F
$GPGGA,175122.600,4308.4823,N,07726.6152,W,1,08,1.13,164.3,M,-34.4,M,,*59
lng=-77.443527, lat=43.141372, altitude=164.30, speed=40.46, satellites=7, angle=272.0300, fixquality=1
$GPRMC,175122.800,A,4308.4825,N,07726.6183,W,39.82,271.92,030419,,,A*4A
$GPGGA,175123.000,4308.4827,N,07726.6215,W,1,08,1.13,164.2,M,-34.4,M,,*5B
lng=-77.443634, lat=43.141372, altitude=164.30, speed=39.82, satellites=8, angle=271.9200, fixquality=1
$GPRMC,175123.200,A,4308.4828,N,07726.6246,W,39.16,271.70,030419,,,A*47
$GPGGA,175123.400,4308.4829,N,07726.6277,W,1,08,1.13,164.2,M,-34.4,M,,*55
lng=-77.443740, lat=43.141380, altitude=164.20, speed=39.16, satellites=8, angle=271.7000, fixquality=1
$GPRMC,175123.600,A,4308.4830,N,07726.6307,W,38.56,271.38,030419,,,A*47
$GPGGA,175123.800,4308.4831,N,07726.6338,W,1,08,1.13,164.2,M,-34.4,M,,*5A
lng=-77.443847, lat=43.141380, altitude=164.20, speed=38.56, satellites=8, angle=271.3800, fixquality=1
$GPRMC,175124.000,A,4308.4832,N,07726.6368,W,37.83,270.90,030419,,,A*49
$GPGGA,175124.200,4308.4832,N,07726.6398,W,1,08,1.13,164.2,M,-34.4,M,,*5E
lng=-77.443946, lat=43.141391, altitude=164.20, speed=37.83, satellites=8, angle=270.9000, fixquality=1
$GPRMC,175124.400,A,4308.4833,N,07726.6427,W,37.37,270.48,030419,,,A*4A
$GPGGA,175124.600,4308.4833,N,07726.6456,W,1,08,1.13,164.2,M,-34.4,M,,*5E
lng=-77.444046, lat=43.141391, altitude=164.20, speed=37.37, satellites=8, angle=270.4800, fixquality=1
$GPRMC,175124.800,A,4308.4833,N,07726.6485,W,36.47,269.80,030419,,,A*44
$GPGGA,175125.000,4308.4833,N,07726.6513,W,1,08,1.13,164.2,M,-34.4,M,,*59
lng=-77.444137, lat=43.141391, altitude=164.20, speed=36.47, satellites=8, angle=269.8000, fixquality=1
$GPRMC,175125.200,A,4308.4832,N,07726.6542,W,35.99,269.36,030419,,,A*49
$GPGGA,175125.400,4308.4831,N,07726.6571,W,1,08,1.13,164.2,M,-34.4,M,,*5B
lng=-77.444236, lat=43.141391, altitude=164.20, speed=35.99, satellites=8, angle=269.3600, fixquality=1
$GPRMC,175125.600,A,4308.4831,N,07726.6599,W,35.67,269.01,030419,,,A*4D
$GPGGA,175125.800,4308.4831,N,07726.6626,W,1,08,1.13,164.2,M,-34.4,M,,*56
lng=-77.444328, lat=43.141380, altitude=164.20, speed=35.67, satellites=8, angle=269.0100, fixquality=1
$GPRMC,175126.000,A,4308.4830,N,07726.6654,W,35.25,268.48,030419,,,A*41
$GPGGA,175126.200,4308.4829,N,07726.6681,W,1,08,1.13,164.2,M,-34.4,M,,*5B
lng=-77.444427, lat=43.141380, altitude=164.20, speed=35.25, satellites=8, angle=268.4800, fixquality=1
$GPRMC,175126.400,A,4308.4829,N,07726.6708,W,34.95,268.16,030419,,,A*44
$GPGGA,175126.600,4308.4828,N,07726.6736,W,1,08,1.13,164.2,M,-34.4,M,,*53
lng=-77.444511, lat=43.141380, altitude=164.20, speed=34.95, satellites=8, angle=268.1600, fixquality=1
