Vers 81
USE_SERIAL_FEEDBACK=true
DEVELOPMENT_MODE=false
USE_RMC_ONLY=false

$GPRMC,173900.692,A,4305.1474,N,07740.8005,W,0.06,65.56,150819,,,A*42
$GPGGA,173900.942,4305.1474,N,07740.8004,W,1,09,0.95,170.3,M,-34.4,M,,*5F
$GPRMC,173901.192,A,4305.1475,N,07740.8004,W,0.05,53.48,150819,,,A*4D
$GPGGA,173901.443,4305.1474,N,07740.8002,W,1,09,0.95,170.3,M,-34.4,M,,*54
$GPRMC,173901.750,A,4305.1474,N,07740.8002,W,0.03,13.76,150819,,,A*4D
$GPGGA,173902.000,4305.1474,N,07740.8002,W,1,09,0.95,170.3,M,-34.4,M,,*54
$GPRMC,173902.250,A,4305.1475,N,07740.8002,W,0.02,297.23,150819,,,A*75
$GPGGA,173902.500,4305.1475,N,07740.8002,W,1,09,0.95,170.3,M,-34.4,M,,*50
$GPRMC,173902.750,A,4305.1475,N,07740.8002,W,0.02,243.69,150819,,,A*77
$GPGGA,173903.000,4305.1474,N,07740.8003,W,1,09,0.95,170.3,M,-34.4,M,,*54
$GPRMC,173903.250,A,4305.1475,N,07740.8003,W,0.03,281.27,150819,,,A*77
$GPGGA,173903.500,4305.1475,N,07740.8002,W,1,10,0.84,170.2,M,-34.4,M,,*58
$GPRMC,173903.750,A,4305.1475,N,07740.8002,W,0.02,275.32,150819,,,A*7D
$GPGGA,173904.000,4305.1475,N,07740.8002,W,1,10,0.84,170.2,M,-34.4,M,,*5A
$GPRMC,173904.250,A,4305.1475,N,07740.8002,W,0.01,247.88,150819,,,A*7C
$GPGGA,173904.500,4305.1475,N,07740.8002,W,1,10,0.84,170.2,M,-34.4,M,,*5F
$GPRMC,173904.750,A,4305.1475,N,07740.8002,W,0.08,166.49,150819,,,A*7D
$GPGGA,173905.000,4305.1475,N,07740.8002,W,1,10,0.84,170.2,M,-34.4,M,,*5B
$GPRMC,173905.250,A,4305.1475,N,07740.8002,W,0.00,32.50,150819,,,A*49
$GPGGA,173905.500,4305.1476,N,07740.8002,W,1,10,0.84,170.2,M,-34.4,M,,*5D
$GPRMC,173905.750,A,4305.1476,N,07740.8002,W,0.09,64.01,150819,,,A*41
$GPGGA,173906.000,4305.1476,N,07740.8002,W,1,10,0.84,170.2,M,-34.4,M,,*5B
$GPRMC,173906.250,A,4305.1476,N,07740.8002,W,0.07,9.69,150819,,,A*7C
$GPGGA,173906.500,4305.1476,N,07740.8002,W,1,10,0.84,170.3,M,-34.4,M,,*5F
$GPRMC,173906.750,A,4305.1476,N,07740.8002,W,0.12,195.58,150819,,,A*7B
$GPGGA,173907.000,4305.1476,N,07740.8002,W,1,10,0.84,170.3,M,-34.4,M,,*5B
$GPRMC,173907.250,A,4305.1476,N,07740.8002,W,0.05,148.20,150819,,,A*76
$GPGGA,173907.500,4305.1476,N,07740.8002,W,1,10,0.84,170.2,M,-34.4,M,,*5F
$GPRMC,173907.750,A,4305.1476,N,07740.8002,W,0.06,158.35,150819,,,A*75
$GPGGA,173908.000,4305.1476,N,07740.8002,W,1,10,0.84,170.2,M,-34.4,M,,*55
$GPRMC,173908.250,A,4305.1476,N,07740.8002,W,0.01,31.97,150819,,,A*4E
$GPGGA,173908.500,4305.1476,N,07740.8002,W,1,10,0.84,170.2,M,-34.4,M,,*50
$GPRMC,173908.750,A,4305.1476,N,07740.8002,W,0.14,203.29,150819,,,A*79
$GPGGA,173909.000,4305.1476,N,07740.8002,W,1,10,0.84,170.2,M,-34.4,M,,*54
$GPRMC,173909.250,A,4305.1476,N,07740.8003,W,0.07,201.06,150819,,,A*71
$GPGGA,173909.500,4305.1476,N,07740.8003,W,1,10,0.84,170.2,M,-34.4,M,,*50
$GPRMC,173909.750,A,4305.1476,N,07740.8003,W,0.05,119.43,150819,,,A*7D
$GPGGA,173910.000,4305.1476,N,07740.8003,W,1,10,0.84,170.2,M,-34.4,M,,*5D
$GPRMC,173910.250,A,4305.1476,N,07740.8003,W,0.04,121.80,150819,,,A*75
$GPGGA,173910.500,4305.1477,N,07740.8003,W,1,10,0.84,170.3,M,-34.4,M,,*58
$GPRMC,173910.750,A,4305.1477,N,07740.8004,W,0.03,130.33,150819,,,A*79
$GPGGA,173911.000,4305.1477,N,07740.8004,W,1,10,0.84,170.3,M,-34.4,M,,*5B
$GPRMC,173911.250,A,4305.1478,N,07740.8004,W,0.02,315.08,150819,,,A*7E
$GPGGA,173911.500,4305.1478,N,07740.8004,W,1,09,0.89,170.3,M,-34.4,M,,*54
$GPRMC,173911.750,A,4305.1478,N,07740.8004,W,0.07,59.48,150819,,,A*41
$GPGGA,173912.000,4305.1478,N,07740.8004,W,1,10,0.84,170.3,M,-34.4,M,,*57
$GPRMC,173912.250,A,4305.1478,N,07740.8004,W,0.01,10.99,150819,,,A*40
$GPGGA,173912.500,4305.1478,N,07740.8005,W,1,10,0.87,170.3,M,-34.4,M,,*50
$GPRMC,173912.750,A,4305.1478,N,07740.8005,W,0.01,82.56,150819,,,A*4C
$GPGGA,173913.000,4305.1478,N,07740.8005,W,1,09,0.95,170.3,M,-34.4,M,,*5F
$GPRMC,173913.250,A,4305.1479,N,07740.8005,W,0.01,231.37,150819,,,A*74
$GPGGA,173913.500,4305.1479,N,07740.8005,W,1,09,0.95,170.3,M,-34.4,M,,*5B
$GPRMC,173913.750,A,4305.1479,N,07740.8005,W,0.01,282.99,150819,,,A*7D
$GPGGA,173914.000,4305.1479,N,07740.8006,W,1,09,0.95,170.3,M,-34.4,M,,*5A
$GPRMC,173914.250,A,4305.1479,N,07740.8006,W,0.06,82.65,150819,,,A*4A
$GPGGA,173914.500,4305.1479,N,07740.8006,W,1,10,0.84,170.3,M,-34.4,M,,*57
$GPRMC,173914.750,A,4305.1479,N,07740.8006,W,0.04,350.75,150819,,,A*70
$GPGGA,173915.000,4305.1480,N,07740.8006,W,1,10,0.87,170.3,M,-34.4,M,,*56
$GPRMC,173915.250,A,4305.1480,N,07740.8006,W,0.06,145.54,150819,,,A*75
$GPGGA,173915.500,4305.1480,N,07740.8006,W,1,10,0.84,170.3,M,-34.4,M,,*50
$GPRMC,173915.750,A,4305.1480,N,07740.8006,W,0.03,212.70,150819,,,A*72
$GPGGA,173916.000,4305.1480,N,07740.8006,W,1,09,0.89,170.3,M,-34.4,M,,*53
$GPRMC,173916.250,A,4305.1481,N,07740.8006,W,0.02,28.21,150819,,,A*4B
$GPGGA,173916.500,4305.1481,N,07740.8006,W,1,09,0.89,170.3,M,-34.4,M,,*57
$GPRMC,173916.750,A,4305.1481,N,07740.8007,W,0.04,320.48,150819,,,A*7D
$GPGGA,173917.000,4305.1481,N,07740.8007,W,1,09,0.89,170.3,M,-34.4,M,,*52
$GPRMC,173917.250,A,4305.1481,N,07740.8007,W,0.01,204.36,150819,,,A*72
$GPGGA,173917.500,4305.1481,N,07740.8007,W,1,09,0.89,170.3,M,-34.4,M,,*57
$GPRMC,173917.750,A,4305.1481,N,07740.8007,W,0.03,152.97,150819,,,A*7E
$GPGGA,173918.000,4305.1481,N,07740.8007,W,1,09,0.89,170.3,M,-34.4,M,,*5D
$GPRMC,173918.250,A,4305.1481,N,07740.8007,W,0.04,107.19,150819,,,A*75
$GPGGA,173918.500,4305.1481,N,07740.8007,W,1,09,0.89,170.3,M,-34.4,M,,*58
$GPRMC,173918.750,A,4305.1481,N,07740.8007,W,0.04,145.92,150819,,,A*75
$GPGGA,173919.000,4305.1481,N,07740.8008,W,1,09,0.89,170.3,M,-34.4,M,,*53
$GPRMC,173919.250,A,4305.1481,N,07740.8008,W,0.01,81.39,150819,,,A*43
$GPGGA,173919.500,4305.1481,N,07740.8008,W,1,09,0.89,170.3,M,-34.4,M,,*56
$GPRMC,173919.750,A,4305.1481,N,07740.8008,W,0.01,272.25,150819,,,A*75
$GPGGA,173920.000,4305.1481,N,07740.8008,W,1,09,0.89,170.3,M,-34.4,M,,*59
$GPRMC,173920.250,A,4305.1481,N,07740.8008,W,0.01,18.05,150819,,,A*46
$GPGGA,173920.500,4305.1481,N,07740.8008,W,1,09,0.89,170.3,M,-34.4,M,,*5C
$GPRMC,173920.750,A,4305.1481,N,07740.8008,W,0.03,264.39,150819,,,A*77
$GPGGA,173921.000,4305.1482,N,07740.8009,W,1,09,0.89,170.4,M,-34.4,M,,*5D
$GPRMC,173921.250,A,4305.1482,N,07740.8009,W,0.02,212.27,150819,,,A*7E
$GPGGA,173921.500,4305.1482,N,07740.8009,W,1,09,0.89,170.3,M,-34.4,M,,*5F
$GPRMC,173921.750,A,4305.1482,N,07740.8009,W,0.02,193.50,150819,,,A*71
$GPGGA,173922.000,4305.1482,N,07740.8009,W,1,09,0.89,170.4,M,-34.4,M,,*5E
$GPRMC,173922.250,A,4305.1482,N,07740.8009,W,0.03,221.81,150819,,,A*70
$GPGGA,173922.500,4305.1482,N,07740.8009,W,1,09,0.89,170.3,M,-34.4,M,,*5C
$GPRMC,173922.750,A,4305.1482,N,07740.8009,W,0.01,274.54,150819,,,A*7F
$GPGGA,173923.000,4305.1482,N,07740.8010,W,1,09,0.89,170.3,M,-34.4,M,,*50
$GPRMC,173923.250,A,4305.1482,N,07740.8010,W,0.01,97.77,150819,,,A*4D
$GPGGA,173923.500,4305.1482,N,07740.8010,W,1,09,0.89,170.3,M,-34.4,M,,*55
$GPRMC,173923.750,A,4305.1482,N,07740.8010,W,0.02,132.50,150819,,,A*70
$GPGGA,173924.000,4305.1482,N,07740.8010,W,1,09,0.89,170.3,M,-34.4,M,,*57
$GPRMC,173924.250,A,4305.1482,N,07740.8010,W,0.05,88.20,150819,,,A*42
$GPGGA,173924.500,4305.1482,N,07740.8010,W,1,09,0.89,170.3,M,-34.4,M,,*52
$GPRMC,173924.750,A,4305.1482,N,07740.8010,W,0.03,191.76,150819,,,A*7B
$GPGGA,173925.000,4305.1482,N,07740.8010,W,1,09,0.89,170.3,M,-34.4,M,,*56
$GPRMC,173925.250,A,4305.1482,N,07740.8011,W,0.02,109.55,150819,,,A*7F
$GPGGA,173925.500,4305.1482,N,07740.8011,W,1,09,0.89,170.3,M,-34.4,M,,*52
$GPRMC,173925.750,A,4305.1482,N,07740.8011,W,0.01,329.65,150819,,,A*7A
$GPGGA,173926.000,4305.1482,N,07740.8011,W,1,10,0.84,170.4,M,-34.4,M,,*56
$GPRMC,173926.250,A,4305.1482,N,07740.8011,W,0.01,165.28,150819,,,A*7F
$GPGGA,173926.500,4305.1482,N,07740.8011,W,1,10,0.84,170.4,M,-34.4,M,,*53
$GPRMC,173926.750,A,4305.1482,N,07740.8011,W,0.04,180.14,150819,,,A*7B
$GPGGA,173927.000,4305.1482,N,07740.8011,W,1,10,0.84,170.4,M,-34.4,M,,*57
$GPRMC,173927.250,A,4305.1482,N,07740.8011,W,0.01,198.24,150819,,,A*70
$GPGGA,173927.500,4305.1482,N,07740.8011,W,1,09,0.89,170.4,M,-34.4,M,,*57
$GPRMC,173927.750,A,4305.1482,N,07740.8011,W,0.02,34.58,150819,,,A*4A
$GPGGA,173928.000,4305.1482,N,07740.8011,W,1,09,0.95,170.4,M,-34.4,M,,*50
$GPRMC,173928.250,A,4305.1482,N,07740.8011,W,0.05,141.84,150819,,,A*75
$GPGGA,173928.500,4305.1482,N,07740.8011,W,1,09,0.95,170.4,M,-34.4,M,,*55
$GPRMC,173928.750,A,4305.1482,N,07740.8011,W,0.01,16.87,150819,,,A*44
$GPGGA,173929.000,4305.1482,N,07740.8011,W,1,10,0.84,170.4,M,-34.4,M,,*59
$GPRMC,173929.250,A,4305.1482,N,07740.8011,W,0.02,349.20,150819,,,A*77
$GPGGA,173929.500,4305.1482,N,07740.8011,W,1,10,0.87,170.4,M,-34.4,M,,*5F
$GPRMC,173929.750,A,4305.1482,N,07740.8011,W,0.01,263.41,150819,,,A*7F
$GPGGA,173930.000,4305.1482,N,07740.8011,W,1,09,0.95,170.4,M,-34.4,M,,*59
$GPRMC,173930.250,A,4305.1482,N,07740.8011,W,0.01,153.20,150819,,,A*75
$GPGGA,173930.500,4305.1482,N,07740.8011,W,1,09,0.95,170.4,M,-34.4,M,,*5C
$GPRMC,173930.750,A,4305.1482,N,07740.8011,W,0.05,139.79,150819,,,A*74
$GPGGA,173931.000,4305.1482,N,07740.8011,W,1,09,0.95,170.4,M,-34.4,M,,*58
$GPRMC,173931.250,A,4305.1482,N,07740.8011,W,0.02,68.64,150819,,,A*4E
$GPGGA,173931.500,4305.1482,N,07740.8011,W,1,10,0.84,170.4,M,-34.4,M,,*55
$GPRMC,173931.750,A,4305.1482,N,07740.8011,W,0.03,170.27,150819,,,A*75
$GPGGA,173932.000,4305.1482,N,07740.8011,W,1,10,0.84,170.4,M,-34.4,M,,*53
$GPRMC,173932.250,A,4305.1482,N,07740.8011,W,0.02,48.34,150819,,,A*4A
$GPGGA,173932.500,4305.1482,N,07740.8011,W,1,09,0.89,170.4,M,-34.4,M,,*53
$GPRMC,173932.750,A,4305.1482,N,07740.8011,W,0.02,229.44,150819,,,A*7D
$GPGGA,173933.000,4305.1482,N,07740.8011,W,1,09,0.89,170.4,M,-34.4,M,,*57
$GPRMC,173933.250,A,4305.1482,N,07740.8011,W,0.01,299.64,150819,,,A*73
$GPGGA,173933.500,4305.1482,N,07740.8011,W,1,09,0.89,170.4,M,-34.4,M,,*52
$GPRMC,173933.750,A,4305.1482,N,07740.8011,W,0.03,101.46,150819,,,A*76
$GPGGA,173934.000,4305.1482,N,07740.8011,W,1,09,0.89,170.4,M,-34.4,M,,*50
$GPRMC,173934.250,A,4305.1482,N,07740.8011,W,0.02,302.20,150819,,,A*74
$GPGGA,173934.500,4305.1482,N,07740.8011,W,1,09,0.89,170.4,M,-34.4,M,,*55
$GPRMC,173934.750,A,4305.1482,N,07740.8011,W,0.03,262.46,150819,,,A*77
$GPGGA,173935.000,4305.1482,N,07740.8011,W,1,10,0.87,170.4,M,-34.4,M,,*57
$GPRMC,173935.250,A,4305.1482,N,07740.8011,W,0.01,173.80,150819,,,A*78
$GPGGA,173935.500,4305.1482,N,07740.8011,W,1,10,0.87,170.4,M,-34.4,M,,*52
$GPRMC,173935.750,A,4305.1482,N,07740.8011,W,0.01,213.55,150819,,,A*70
$GPGGA,173936.000,4305.1482,N,07740.8011,W,1,10,0.87,170.4,M,-34.4,M,,*54
$GPRMC,173936.250,A,4305.1482,N,07740.8011,W,0.00,184.85,150819,,,A*77
$GPGGA,173936.500,4305.1482,N,07740.8011,W,1,10,0.87,170.4,M,-34.4,M,,*51
$GPRMC,173936.750,A,4305.1482,N,07740.8011,W,0.01,85.17,150819,,,A*48
$GPGGA,173937.000,4305.1482,N,07740.8011,W,1,10,0.87,170.4,M,-34.4,M,,*55
$GPRMC,173937.250,A,4305.1482,N,07740.8011,W,0.01,32.18,150819,,,A*4F
$GPGGA,173937.500,4305.1482,N,07740.8011,W,1,10,0.87,170.4,M,-34.4,M,,*50
$GPRMC,173937.750,A,4305.1482,N,07740.8011,W,0.00,65.33,150819,,,A*40
$GPGGA,173938.000,4305.1482,N,07740.8011,W,1,10,0.87,170.4,M,-34.4,M,,*5A
$GPRMC,173938.250,A,4305.1482,N,07740.8011,W,0.01,46.04,150819,,,A*4E
$GPGGA,173938.500,4305.1482,N,07740.8011,W,1,10,0.87,170.4,M,-34.4,M,,*5F
$GPRMC,173938.750,A,4305.1482,N,07740.8011,W,0.01,135.31,150819,,,A*78
$GPGGA,173939.000,4305.1482,N,07740.8011,W,1,10,0.87,170.4,M,-34.4,M,,*5B
$GPRMC,173939.250,A,4305.1482,N,07740.8011,W,0.01,348.65,150819,,,A*75
$GPGGA,173939.500,4305.1482,N,07740.8011,W,1,10,0.87,170.4,M,-34.4,M,,*5E
$GPRMC,173939.750,A,4305.1482,N,07740.8011,W,0.00,66.30,150819,,,A*4E
$GPGGA,173940.000,4305.1482,N,07740.8011,W,1,10,0.87,170.4,M,-34.4,M,,*55
$GPRMC,173940.250,A,4305.1482,N,07740.8011,W,0.01,215.80,150819,,,A*79
$GPGGA,173940.500,4305.1482,N,07740.8011,W,1,10,0.87,170.4,M,-34.4,M,,*50
$GPRMC,173940.750,A,4305.1482,N,07740.8011,W,0.05,175.09,150819,,,A*7C
$GPGGA,173941.000,4305.1482,N,07740.8011,W,1,10,0.87,170.4,M,-34.4,M,,*54
$GPRMC,173941.250,A,4305.1482,N,07740.8011,W,0.08,171.05,150819,,,A*7D
$GPGGA,173941.500,4305.1482,N,07740.8011,W,1,10,0.87,170.4,M,-34.4,M,,*51
$GPRMC,173941.750,A,4305.1482,N,07740.8011,W,0.07,167.09,150819,,,A*7C
$GPGGA,173942.000,4305.1482,N,07740.8011,W,1,10,0.87,170.4,M,-34.4,M,,*57
$GPRMC,173942.250,A,4305.1482,N,07740.8011,W,0.12,163.94,150819,,,A*7E
$GPGGA,173942.500,4305.1482,N,07740.8011,W,1,10,0.87,170.4,M,-34.4,M,,*52
$GPRMC,173942.750,A,4305.1482,N,07740.8011,W,0.54,176.83,150819,,,A*7B
$GPGGA,173943.000,4305.1482,N,07740.8011,W,1,10,0.84,170.4,M,-34.4,M,,*55
$GPRMC,173943.250,A,4305.1481,N,07740.8011,W,0.60,176.58,150819,,,A*7D
$GPGGA,173943.500,4305.1481,N,07740.8011,W,1,09,0.89,170.4,M,-34.4,M,,*56
$GPRMC,173943.750,A,4305.1480,N,07740.8011,W,0.89,175.41,150819,,,A*75
$GPGGA,173944.000,4305.1480,N,07740.8011,W,1,10,0.84,170.4,M,-34.4,M,,*50
$GPRMC,173944.250,A,4305.1479,N,07740.8011,W,1.12,176.11,150819,,,A*74
$GPGGA,173944.500,4305.1478,N,07740.8011,W,1,10,0.84,170.4,M,-34.4,M,,*52
$GPRMC,173944.750,A,4305.1477,N,07740.8011,W,1.15,174.96,150819,,,A*75
$GPGGA,173945.000,4305.1476,N,07740.8011,W,1,10,0.84,170.4,M,-34.4,M,,*58
$GPRMC,173945.250,A,4305.1475,N,07740.8011,W,1.31,176.89,150819,,,A*79
$GPGGA,173945.500,4305.1474,N,07740.8012,W,1,10,0.84,170.5,M,-34.4,M,,*5D
$GPRMC,173945.750,A,4305.1474,N,07740.8012,W,1.39,177.50,150819,,,A*73
$GPGGA,173946.000,4305.1473,N,07740.8012,W,1,10,0.84,170.5,M,-34.4,M,,*5C
$GPRMC,173946.250,A,4305.1472,N,07740.8012,W,1.48,176.69,150819,,,A*7E
$GPGGA,173946.500,4305.1471,N,07740.8012,W,1,09,0.95,170.6,M,-34.4,M,,*50
$GPRMC,173946.750,A,4305.1470,N,07740.8012,W,1.63,179.70,150819,,,A*77
$GPGGA,173947.000,4305.1469,N,07740.8012,W,1,09,0.95,170.7,M,-34.4,M,,*5C
$GPRMC,173947.250,A,4305.1468,N,07740.8012,W,1.57,180.34,150819,,,A*7B
$GPGGA,173947.500,4305.1467,N,07740.8012,W,1,09,0.95,170.8,M,-34.4,M,,*58
$GPRMC,173947.750,A,4305.1466,N,07740.8013,W,1.49,184.44,150819,,,A*7D
$GPGGA,173948.000,4305.1465,N,07740.8013,W,1,09,0.95,170.8,M,-34.4,M,,*51
$GPRMC,173948.250,A,4305.1464,N,07740.8013,W,2.37,183.92,150819,,,A*73
$GPGGA,173948.500,4305.1462,N,07740.8014,W,1,09,0.95,170.8,M,-34.4,M,,*54
$GPRMC,173948.750,A,4305.1462,N,07740.8014,W,1.44,190.92,150819,,,A*72
$GPGGA,173949.000,4305.1461,N,07740.8014,W,1,09,0.95,170.8,M,-34.4,M,,*53
$GPRMC,173949.250,A,4305.1460,N,07740.8015,W,1.55,194.67,150819,,,A*7B
$GPGGA,173949.500,4305.1459,N,07740.8015,W,1,09,0.95,170.8,M,-34.4,M,,*5C
$GPRMC,173949.750,A,4305.1458,N,07740.8016,W,1.51,205.40,150819,,,A*7C
$GPGGA,173950.000,4305.1457,N,07740.8016,W,1,09,0.95,170.8,M,-34.4,M,,*5C
$GPRMC,173950.250,A,4305.1456,N,07740.8017,W,1.63,209.36,150819,,,A*72
$GPGGA,173950.500,4305.1455,N,07740.8018,W,1,09,0.95,170.8,M,-34.4,M,,*55
$GPRMC,173950.750,A,4305.1454,N,07740.8019,W,1.79,216.14,150819,,,A*7E
$GPGGA,173951.000,4305.1454,N,07740.8020,W,1,09,0.95,170.8,M,-34.4,M,,*5B
$GPRMC,173951.250,A,4305.1453,N,07740.8021,W,1.18,226.78,150819,,,A*78
$GPGGA,173951.500,4305.1453,N,07740.8022,W,1,10,0.84,170.8,M,-34.4,M,,*53
$GPRMC,173951.750,A,4305.1453,N,07740.8022,W,0.68,228.84,150819,,,A*75
$GPGGA,173952.000,4305.1453,N,07740.8022,W,1,10,0.84,170.8,M,-34.4,M,,*55
$GPRMC,173952.250,A,4305.1454,N,07740.8022,W,0.40,231.15,150819,,,A*7E
$GPGGA,173952.500,4305.1455,N,07740.8022,W,1,10,0.84,170.8,M,-34.4,M,,*56
$GPRMC,173952.750,A,4305.1455,N,07740.8022,W,0.06,336.02,150819,,,A*78
$GPGGA,173953.000,4305.1456,N,07740.8022,W,1,10,0.84,170.8,M,-34.4,M,,*51
$GPRMC,173953.250,A,4305.1457,N,07740.8021,W,0.40,43.96,150819,,,A*43
$GPGGA,173953.500,4305.1458,N,07740.8020,W,1,10,0.84,170.8,M,-34.4,M,,*58
$GPRMC,173953.750,A,4305.1460,N,07740.8018,W,1.16,44.55,150819,,,A*42
$GPGGA,173954.000,4305.1461,N,07740.8017,W,1,10,0.84,170.8,M,-34.4,M,,*54
$GPRMC,173954.250,A,4305.1462,N,07740.8015,W,1.99,51.61,150819,,,A*4B
$GPGGA,173954.500,4305.1463,N,07740.8014,W,1,10,0.84,170.8,M,-34.4,M,,*50
$GPRMC,173954.750,A,4305.1465,N,07740.8012,W,1.94,49.39,150819,,,A*47
$GPGGA,173955.000,4305.1465,N,07740.8011,W,1,10,0.84,170.8,M,-34.4,M,,*57
$GPRMC,173955.250,A,4305.1466,N,07740.8009,W,2.32,52.51,150819,,,A*41
$GPGGA,173955.500,4305.1467,N,07740.8008,W,1,10,0.84,170.7,M,-34.4,M,,*57
$GPRMC,173955.750,A,4305.1469,N,07740.8006,W,2.22,58.69,150819,,,A*44
$GPGGA,173956.000,4305.1470,N,07740.8003,W,1,10,0.84,170.7,M,-34.4,M,,*5C
$GPRMC,173956.250,A,4305.1471,N,07740.8001,W,2.38,63.33,150819,,,A*40
$GPGGA,173956.500,4305.1472,N,07740.7999,W,1,10,0.84,170.6,M,-34.4,M,,*5F
$GPRMC,173956.750,A,4305.1473,N,07740.7997,W,2.57,73.78,150819,,,A*49
$GPGGA,173957.000,4305.1473,N,07740.7994,W,1,10,0.84,170.5,M,-34.4,M,,*54
$GPRMC,173957.250,A,4305.1474,N,07740.7992,W,2.62,78.98,150819,,,A*4C
$GPGGA,173957.500,4305.1474,N,07740.7989,W,1,10,0.84,170.5,M,-34.4,M,,*5A
$GPRMC,173957.750,A,4305.1475,N,07740.7987,W,2.75,82.57,150819,,,A*4C
$GPGGA,173958.000,4305.1475,N,07740.7984,W,1,10,0.84,170.4,M,-34.4,M,,*5D
$GPRMC,173958.250,A,4305.1476,N,07740.7982,W,2.90,87.57,150819,,,A*4E
$GPGGA,173958.500,4305.1476,N,07740.7979,W,1,10,0.84,170.4,M,-34.4,M,,*59
$GPRMC,173958.750,A,4305.1476,N,07740.7976,W,3.38,91.38,150819,,,A*4D
$GPGGA,173959.000,4305.1477,N,07740.7973,W,1,10,0.84,170.4,M,-34.4,M,,*56
$GPRMC,173959.250,A,4305.1477,N,07740.7970,W,3.86,92.25,150819,,,A*44
$GPGGA,173959.500,4305.1477,N,07740.7966,W,1,10,0.84,170.4,M,-34.4,M,,*57
$GPRMC,173959.750,A,4305.1476,N,07740.7962,W,4.12,98.92,150819,,,A*4F
$GPGGA,174000.000,4305.1476,N,07740.7958,W,1,10,0.87,170.4,M,-34.4,M,,*5F
$GPRMC,174000.250,A,4305.1476,N,07740.7954,W,4.47,95.18,150819,,,A*42
$GPGGA,174000.500,4305.1476,N,07740.7949,W,1,09,1.01,170.3,M,-34.4,M,,*5A
$GPRMC,174000.750,A,4305.1475,N,07740.7944,W,4.82,96.39,150819,,,A*4C
$GPGGA,174001.000,4305.1475,N,07740.7940,W,1,08,1.22,170.3,M,-34.4,M,,*54
$GPRMC,174001.250,A,4305.1474,N,07740.7935,W,5.15,97.43,150819,,,A*4C
$GPGGA,174001.500,4305.1474,N,07740.7930,W,1,08,1.22,170.2,M,-34.4,M,,*56
$GPRMC,174001.750,A,4305.1473,N,07740.7924,W,5.40,101.31,150819,,,A*75
$GPGGA,174002.000,4305.1473,N,07740.7919,W,1,08,1.22,170.2,M,-34.4,M,,*5C
$GPRMC,174002.250,A,4305.1473,N,07740.7913,W,5.71,97.30,150819,,,A*4A
$GPGGA,174002.500,4305.1472,N,07740.7908,W,1,10,0.87,170.2,M,-34.4,M,,*5F
$GPRMC,174002.750,A,4305.1472,N,07740.7902,W,5.98,99.43,150819,,,A*43
$GPGGA,174003.000,4305.1471,N,07740.7896,W,1,09,1.01,170.2,M,-34.4,M,,*59
$GPRMC,174003.250,A,4305.1471,N,07740.7890,W,6.28,98.85,150819,,,A*4D
$GPGGA,174003.500,4305.1470,N,07740.7884,W,1,10,0.87,170.1,M,-34.4,M,,*5A
$GPRMC,174003.750,A,4305.1470,N,07740.7877,W,6.56,97.15,150819,,,A*4F
$GPGGA,174004.000,4305.1470,N,07740.7871,W,1,10,0.87,170.1,M,-34.4,M,,*52
$GPRMC,174004.250,A,4305.1470,N,07740.7865,W,6.79,95.81,150819,,,A*4C
$GPGGA,174004.500,4305.1470,N,07740.7858,W,1,10,0.87,170.1,M,-34.4,M,,*5C
$GPRMC,174004.750,A,4305.1470,N,07740.7852,W,7.00,93.29,150819,,,A*46
$GPGGA,174005.000,4305.1471,N,07740.7845,W,1,10,0.87,170.1,M,-34.4,M,,*55
$GPRMC,174005.250,A,4305.1471,N,07740.7838,W,7.31,90.55,150819,,,A*45
$GPGGA,174005.500,4305.1471,N,07740.7831,W,1,09,1.01,170.1,M,-34.4,M,,*54
$GPRMC,174005.750,A,4305.1472,N,07740.7824,W,7.56,89.95,150819,,,A*4B
$GPGGA,174006.000,4305.1472,N,07740.7817,W,1,09,1.01,170.1,M,-34.4,M,,*55
$GPRMC,174006.250,A,4305.1472,N,07740.7809,W,7.65,89.87,150819,,,A*41
$GPGGA,174006.500,4305.1473,N,07740.7802,W,1,10,0.87,170.1,M,-34.4,M,,*52
$GPRMC,174006.750,A,4305.1474,N,07740.7794,W,7.88,88.81,150819,,,A*4D
$GPGGA,174007.000,4305.1475,N,07740.7786,W,1,10,0.87,170.0,M,-34.4,M,,*52
$GPRMC,174007.250,A,4305.1475,N,07740.7779,W,8.02,88.90,150819,,,A*46
$GPGGA,174007.500,4305.1476,N,07740.7771,W,1,10,0.87,170.0,M,-34.4,M,,*5C
$GPRMC,174007.750,A,4305.1476,N,07740.7763,W,7.85,88.44,150819,,,A*42
$GPGGA,174008.000,4305.1477,N,07740.7756,W,1,10,0.87,169.9,M,-34.4,M,,*53
$GPRMC,174008.250,A,4305.1477,N,07740.7749,W,7.75,87.89,150819,,,A*40
$GPGGA,174008.500,4305.1478,N,07740.7741,W,1,10,0.87,169.9,M,-34.4,M,,*5F
$GPRMC,174008.750,A,4305.1479,N,07740.7734,W,7.55,86.51,150819,,,A*47
$GPGGA,174009.000,4305.1479,N,07740.7727,W,1,10,0.87,169.9,M,-34.4,M,,*5A
$GPRMC,174009.250,A,4305.1478,N,07740.7720,W,7.15,94.08,150819,,,A*4C
$GPGGA,174009.500,4305.1479,N,07740.7713,W,1,10,0.87,169.9,M,-34.4,M,,*58
$GPRMC,174009.750,A,4305.1479,N,07740.7707,W,6.84,92.64,150819,,,A*48
$GPGGA,174010.000,4305.1479,N,07740.7700,W,1,10,0.87,169.9,M,-34.4,M,,*57
$GPRMC,174010.250,A,4305.1479,N,07740.7694,W,6.55,91.93,150819,,,A*49
$GPGGA,174010.500,4305.1479,N,07740.7688,W,1,10,0.87,169.9,M,-34.4,M,,*53
$GPRMC,174010.750,A,4305.1479,N,07740.7683,W,6.30,95.20,150819,,,A*45
$GPGGA,174011.000,4305.1479,N,07740.7677,W,1,10,0.87,169.9,M,-34.4,M,,*57
$GPRMC,174011.250,A,4305.1479,N,07740.7671,W,5.93,95.05,150819,,,A*41
$GPGGA,174011.500,4305.1479,N,07740.7666,W,1,09,1.01,169.9,M,-34.4,M,,*55
$GPRMC,174011.750,A,4305.1478,N,07740.7661,W,5.67,97.49,150819,,,A*45
$GPGGA,174012.000,4305.1478,N,07740.7656,W,1,08,1.22,170.0,M,-34.4,M,,*50
$GPRMC,174012.250,A,4305.1476,N,07740.7651,W,5.38,101.91,150819,,,A*7F
$GPGGA,174012.500,4305.1476,N,07740.7645,W,1,09,1.01,169.9,M,-34.4,M,,*58
$GPRMC,174012.750,A,4305.1476,N,07740.7640,W,5.22,101.40,150819,,,A*7D
$GPGGA,174013.000,4305.1475,N,07740.7635,W,1,09,1.01,170.0,M,-34.4,M,,*59
$GPRMC,174013.250,A,4305.1474,N,07740.7630,W,5.66,96.24,150819,,,A*41
$GPGGA,174013.500,4305.1474,N,07740.7624,W,1,09,1.01,170.0,M,-34.4,M,,*5D
$GPRMC,174013.750,A,4305.1473,N,07740.7618,W,6.44,99.90,150819,,,A*4A
$GPGGA,174014.000,4305.1473,N,07740.7612,W,1,10,0.87,170.0,M,-34.4,M,,*5A
$GPRMC,174014.250,A,4305.1473,N,07740.7606,W,6.93,90.03,150819,,,A*4E
$GPGGA,174014.500,4305.1475,N,07740.7599,W,1,10,0.87,170.1,M,-34.4,M,,*58
$GPRMC,174014.750,A,4305.1475,N,07740.7592,W,7.13,84.94,150819,,,A*41
$GPGGA,174015.000,4305.1476,N,07740.7585,W,1,09,1.01,170.2,M,-34.4,M,,*56
$GPRMC,174015.250,A,4305.1477,N,07740.7578,W,7.52,81.92,150819,,,A*45
$GPGGA,174015.500,4305.1478,N,07740.7571,W,1,09,1.01,170.3,M,-34.4,M,,*57
$GPRMC,174015.750,A,4305.1479,N,07740.7563,W,8.16,76.30,150819,,,A*4B
$GPGGA,174016.000,4305.1481,N,07740.7555,W,1,10,0.87,170.4,M,-34.4,M,,*51
$GPRMC,174016.250,A,4305.1484,N,07740.7547,W,8.53,64.72,150819,,,A*4D
$GPGGA,174016.500,4305.1487,N,07740.7540,W,1,09,1.01,170.6,M,-34.4,M,,*53
$GPRMC,174016.750,A,4305.1490,N,07740.7533,W,8.56,54.40,150819,,,A*49
$GPGGA,174017.000,4305.1494,N,07740.7526,W,1,10,0.87,170.8,M,-34.4,M,,*5C
$GPRMC,174017.250,A,4305.1499,N,07740.7518,W,9.76,52.56,150819,,,A*4F
$GPGGA,174017.500,4305.1503,N,07740.7511,W,1,10,0.87,170.9,M,-34.4,M,,*53
$GPRMC,174017.750,A,4305.1508,N,07740.7504,W,9.82,49.58,150819,,,A*41
$GPGGA,174018.000,4305.1513,N,07740.7496,W,1,09,0.95,171.1,M,-34.4,M,,*54
$GPRMC,174018.250,A,4305.1518,N,07740.7489,W,10.08,46.13,150819,,,A*74
$GPGGA,174018.500,4305.1523,N,07740.7481,W,1,10,0.84,171.2,M,-34.4,M,,*5F
$GPRMC,174018.750,A,4305.1531,N,07740.7474,W,10.76,36.46,150819,,,A*76
$GPGGA,174019.000,4305.1537,N,07740.7468,W,1,10,0.84,171.1,M,-34.4,M,,*5A
$GPRMC,174019.250,A,4305.1545,N,07740.7462,W,11.44,29.79,150819,,,A*74
$GPGGA,174019.500,4305.1551,N,07740.7457,W,1,09,0.96,171.2,M,-34.4,M,,*5B
$GPRMC,174019.750,A,4305.1558,N,07740.7452,W,11.81,25.73,150819,,,A*71
$GPGGA,174020.000,4305.1565,N,07740.7448,W,1,09,0.95,171.3,M,-34.4,M,,*5F
$GPRMC,174020.250,A,4305.1573,N,07740.7445,W,12.33,20.04,150819,,,A*7E
$GPGGA,174020.500,4305.1583,N,07740.7441,W,1,10,0.87,171.4,M,-34.4,M,,*57
$GPRMC,174020.750,A,4305.1592,N,07740.7438,W,13.01,15.47,150819,,,A*7F
$GPGGA,174021.000,4305.1601,N,07740.7436,W,1,09,0.95,171.5,M,-34.4,M,,*50
$GPRMC,174021.250,A,4305.1612,N,07740.7435,W,14.04,9.97,150819,,,A*4F
$GPGGA,174021.500,4305.1623,N,07740.7434,W,1,10,0.87,171.6,M,-34.4,M,,*5F
$GPRMC,174021.750,A,4305.1635,N,07740.7433,W,15.51,6.29,150819,,,A*42
$GPGGA,174022.000,4305.1646,N,07740.7432,W,1,10,0.87,171.7,M,-34.4,M,,*5D
$GPRMC,174022.250,A,4305.1658,N,07740.7432,W,16.59,4.38,150819,,,A*47
$GPGGA,174022.500,4305.1670,N,07740.7431,W,1,08,1.07,171.9,M,-34.4,M,,*50
$GPRMC,174022.750,A,4305.1682,N,07740.7431,W,17.44,2.84,150819,,,A*4A
$GPGGA,174023.000,4305.1694,N,07740.7431,W,1,09,0.95,172.0,M,-34.4,M,,*5F
$GPRMC,174023.250,A,4305.1707,N,07740.7430,W,18.29,1.91,150819,,,A*40
$GPGGA,174023.500,4305.1720,N,07740.7430,W,1,10,0.87,171.9,M,-34.4,M,,*54
$GPRMC,174023.750,A,4305.1732,N,07740.7430,W,18.94,0.54,150819,,,A*4D
$GPGGA,174024.000,4305.1745,N,07740.7431,W,1,10,0.87,171.9,M,-34.4,M,,*54
$GPRMC,174024.250,A,4305.1758,N,07740.7431,W,19.32,359.79,150819,,,A*4F
$GPGGA,174024.500,4305.1771,N,07740.7432,W,1,10,0.87,171.7,M,-34.4,M,,*5B
$GPRMC,174024.750,A,4305.1784,N,07740.7433,W,19.11,359.43,150819,,,A*41
$GPGGA,174025.000,4305.1797,N,07740.7433,W,1,10,0.87,171.5,M,-34.4,M,,*54
$GPRMC,174025.250,A,4305.1810,N,07740.7433,W,19.05,0.06,150819,,,A*4C
$GPGGA,174025.500,4305.1823,N,07740.7434,W,1,10,0.87,171.3,M,-34.4,M,,*50
$GPRMC,174025.750,A,4305.1837,N,07740.7435,W,19.07,0.01,150819,,,A*4F
$GPGGA,174026.000,4305.1850,N,07740.7436,W,1,10,0.87,171.1,M,-34.4,M,,*52
$GPRMC,174026.250,A,4305.1863,N,07740.7437,W,19.32,359.22,150819,,,A*42
$GPGGA,174026.500,4305.1877,N,07740.7437,W,1,09,0.92,171.0,M,-34.4,M,,*5E
$GPRMC,174026.750,A,4305.1890,N,07740.7438,W,19.35,358.65,150819,,,A*41
$GPGGA,174027.000,4305.1904,N,07740.7440,W,1,10,0.87,170.8,M,-34.4,M,,*5A
$GPRMC,174027.250,A,4305.1918,N,07740.7441,W,19.38,358.37,150819,,,A*40
$GPGGA,174027.500,4305.1932,N,07740.7442,W,1,10,0.87,170.2,M,-34.4,M,,*52
$GPRMC,174027.750,A,4305.1946,N,07740.7443,W,19.44,358.72,150819,,,A*46
$GPGGA,174028.000,4305.1960,N,07740.7444,W,1,10,0.87,169.9,M,-34.4,M,,*5A
$GPRMC,174028.250,A,4305.1973,N,07740.7445,W,19.63,358.42,150819,,,A*4A
$GPGGA,174028.500,4305.1987,N,07740.7446,W,1,10,0.87,169.6,M,-34.4,M,,*5B
$GPRMC,174028.750,A,4305.2001,N,07740.7447,W,19.68,358.98,150819,,,A*4E
$GPGGA,174029.000,4305.2014,N,07740.7447,W,1,10,0.87,169.4,M,-34.4,M,,*5C
$GPRMC,174029.250,A,4305.2028,N,07740.7448,W,19.93,358.75,150819,,,A*49
$GPGGA,174029.500,4305.2042,N,07740.7449,W,1,10,0.87,169.2,M,-34.4,M,,*52
$GPRMC,174029.750,A,4305.2055,N,07740.7450,W,19.91,358.97,150819,,,A*41
$GPGGA,174030.000,4305.2069,N,07740.7450,W,1,09,0.95,168.9,M,-34.4,M,,*5F
$GPRMC,174030.250,A,4305.2083,N,07740.7451,W,19.95,359.20,150819,,,A*4F
$GPGGA,174030.500,4305.2097,N,07740.7451,W,1,09,0.95,168.7,M,-34.4,M,,*54
$GPRMC,174030.750,A,4305.2110,N,07740.7452,W,20.03,359.47,150819,,,A*46
$GPGGA,174031.000,4305.2124,N,07740.7452,W,1,10,0.87,168.4,M,-34.4,M,,*52
$GPRMC,174031.250,A,4305.2138,N,07740.7452,W,20.07,359.19,150819,,,A*47
$GPGGA,174031.500,4305.2152,N,07740.7453,W,1,10,0.87,168.2,M,-34.4,M,,*51
$GPRMC,174031.750,A,4305.2166,N,07740.7453,W,20.09,358.84,150819,,,A*43
$GPGGA,174032.000,4305.2180,N,07740.7454,W,1,10,0.87,168.1,M,-34.4,M,,*5C
$GPRMC,174032.250,A,4305.2194,N,07740.7454,W,20.11,359.11,150819,,,A*4B
$GPGGA,174032.500,4305.2208,N,07740.7454,W,1,10,0.87,168.1,M,-34.4,M,,*5A
$GPRMC,174032.750,A,4305.2222,N,07740.7455,W,20.04,359.50,150819,,,A*40
$GPGGA,174033.000,4305.2236,N,07740.7455,W,1,10,0.87,168.0,M,-34.4,M,,*53
$GPRMC,174033.250,A,4305.2250,N,07740.7455,W,19.99,359.85,150819,,,A*47
$GPGGA,174033.500,4305.2264,N,07740.7455,W,1,09,0.95,167.9,M,-34.4,M,,*5C
$GPRMC,174033.750,A,4305.2278,N,07740.7455,W,19.90,0.18,150819,,,A*4A
$GPGGA,174034.000,4305.2291,N,07740.7455,W,1,09,0.95,167.8,M,-34.4,M,,*55
$GPRMC,174034.250,A,4305.2305,N,07740.7455,W,19.44,0.33,150819,,,A*43
$GPGGA,174034.500,4305.2318,N,07740.7455,W,1,09,0.95,167.8,M,-34.4,M,,*50
$GPRMC,174034.750,A,4305.2331,N,07740.7455,W,18.53,0.20,150819,,,A*44
$GPGGA,174035.000,4305.2343,N,07740.7455,W,1,09,0.95,167.7,M,-34.4,M,,*55
$GPRMC,174035.250,A,4305.2356,N,07740.7455,W,17.42,359.33,150819,,,A*43
$GPGGA,174035.500,4305.2367,N,07740.7456,W,1,10,0.87,167.6,M,-34.4,M,,*5F
$GPRMC,174035.750,A,4305.2378,N,07740.7457,W,16.28,358.42,150819,,,A*42
$GPGGA,174036.000,4305.2389,N,07740.7458,W,1,10,0.87,167.6,M,-34.4,M,,*57
$GPRMC,174036.250,A,4305.2399,N,07740.7459,W,14.75,358.30,150819,,,A*4A
$GPGGA,174036.500,4305.2409,N,07740.7460,W,1,10,0.87,167.5,M,-34.4,M,,*55
$GPRMC,174036.750,A,4305.2419,N,07740.7461,W,12.67,358.24,150819,,,A*4B
$GPGGA,174037.000,4305.2427,N,07740.7462,W,1,10,0.87,167.6,M,-34.4,M,,*5C
$GPRMC,174037.250,A,4305.2435,N,07740.7463,W,10.52,358.80,150819,,,A*49
$GPGGA,174037.500,4305.2442,N,07740.7464,W,1,10,0.87,167.6,M,-34.4,M,,*5C
$GPRMC,174037.750,A,4305.2449,N,07740.7464,W,8.34,359.00,150819,,,A*70
$GPGGA,174038.000,4305.2455,N,07740.7465,W,1,10,0.87,167.8,M,-34.4,M,,*5F
$GPRMC,174038.250,A,4305.2460,N,07740.7466,W,6.16,358.52,150819,,,A*7B
$GPGGA,174038.500,4305.2464,N,07740.7466,W,1,10,0.87,167.9,M,-34.4,M,,*5A
$GPRMC,174038.750,A,4305.2468,N,07740.7466,W,4.32,358.76,150819,,,A*74
$GPGGA,174039.000,4305.2471,N,07740.7467,W,1,09,0.96,167.9,M,-34.4,M,,*53
$GPRMC,174039.250,A,4305.2473,N,07740.7467,W,2.87,359.54,150819,,,A*72
$GPGGA,174039.500,4305.2474,N,07740.7467,W,1,09,0.96,167.9,M,-34.4,M,,*53
$GPRMC,174039.750,A,4305.2476,N,07740.7467,W,2.04,359.54,150819,,,A*79
$GPGGA,174040.000,4305.2477,N,07740.7467,W,1,09,0.96,167.9,M,-34.4,M,,*5B
$GPRMC,174040.250,A,4305.2478,N,07740.7467,W,2.76,359.54,150819,,,A*79
$GPGGA,174040.500,4305.2480,N,07740.7467,W,1,09,0.96,167.8,M,-34.4,M,,*57
$GPRMC,174040.750,A,4305.2482,N,07740.7467,W,4.25,359.31,150819,,,A*7A
$GPGGA,174041.000,4305.2485,N,07740.7468,W,1,09,0.96,167.8,M,-34.4,M,,*59
$GPRMC,174041.250,A,4305.2489,N,07740.7468,W,5.72,0.61,150819,,,A*73
$GPGGA,174041.500,4305.2493,N,07740.7468,W,1,09,0.96,167.8,M,-34.4,M,,*5B
$GPRMC,174041.750,A,4305.2498,N,07740.7469,W,7.40,358.92,150819,,,A*76
$GPGGA,174042.000,4305.2503,N,07740.7469,W,1,09,0.96,167.7,M,-34.4,M,,*5B
$GPRMC,174042.250,A,4305.2509,N,07740.7469,W,9.08,359.32,150819,,,A*70
$GPGGA,174042.500,4305.2515,N,07740.7470,W,1,09,0.96,167.8,M,-34.4,M,,*5E
$GPRMC,174042.750,A,4305.2522,N,07740.7470,W,10.56,359.11,150819,,,A*46
$GPGGA,174043.000,4305.2530,N,07740.7470,W,1,09,0.96,167.8,M,-34.4,M,,*5D
$GPRMC,174043.250,A,4305.2538,N,07740.7470,W,11.83,359.33,150819,,,A*40
$GPGGA,174043.500,4305.2547,N,07740.7471,W,1,09,0.96,167.9,M,-34.4,M,,*58
$GPRMC,174043.750,A,4305.2557,N,07740.7472,W,13.19,358.85,150819,,,A*43
$GPGGA,174044.000,4305.2567,N,07740.7472,W,1,08,1.07,168.0,M,-34.4,M,,*55
$GPRMC,174044.250,A,4305.2577,N,07740.7473,W,14.51,359.05,150819,,,A*40
$GPGGA,174044.500,4305.2588,N,07740.7472,W,1,08,1.07,168.0,M,-34.4,M,,*51
$GPRMC,174044.750,A,4305.2599,N,07740.7472,W,15.88,359.21,150819,,,A*47
$GPGGA,174045.000,4305.2610,N,07740.7472,W,1,09,0.96,167.9,M,-34.4,M,,*59
$GPRMC,174045.250,A,4305.2621,N,07740.7472,W,17.08,358.85,150819,,,A*46
$GPGGA,174045.500,4305.2633,N,07740.7472,W,1,09,0.96,167.8,M,-34.4,M,,*5C
$GPRMC,174045.750,A,4305.2645,N,07740.7472,W,18.14,358.65,150819,,,A*4D
$GPGGA,174046.000,4305.2658,N,07740.7472,W,1,09,0.96,167.8,M,-34.4,M,,*57
$GPRMC,174046.250,A,4305.2671,N,07740.7473,W,19.14,358.40,150819,,,A*4B
$GPGGA,174046.500,4305.2684,N,07740.7473,W,1,08,1.07,167.8,M,-34.4,M,,*5A
$GPRMC,174046.750,A,4305.2697,N,07740.7474,W,20.07,358.13,150819,,,A*4F
$GPGGA,174047.000,4305.2711,N,07740.7474,W,1,08,1.07,167.8,M,-34.4,M,,*54
$GPRMC,174047.250,A,4305.2726,N,07740.7475,W,20.78,358.11,150819,,,A*4B
$GPGGA,174047.500,4305.2740,N,07740.7476,W,1,08,1.07,167.8,M,-34.4,M,,*57
$GPRMC,174047.750,A,4305.2755,N,07740.7476,W,21.47,357.99,150819,,,A*4B
$GPGGA,174048.000,4305.2770,N,07740.7477,W,1,08,1.07,167.8,M,-34.4,M,,*5F
$GPRMC,174048.250,A,4305.2785,N,07740.7478,W,21.89,358.49,150819,,,A*42
$GPGGA,174048.500,4305.2801,N,07740.7478,W,1,08,1.07,167.8,M,-34.4,M,,*5C
$GPRMC,174048.750,A,4305.2817,N,07740.7479,W,22.57,358.50,150819,,,A*4A
$GPGGA,174049.000,4305.2833,N,07740.7479,W,1,08,1.07,167.9,M,-34.4,M,,*59
$GPRMC,174049.250,A,4305.2849,N,07740.7480,W,22.99,358.86,150819,,,A*4A
$GPGGA,174049.500,4305.2865,N,07740.7480,W,1,09,0.96,168.0,M,-34.4,M,,*57
$GPRMC,174049.750,A,4305.2882,N,07740.7481,W,23.39,359.34,150819,,,A*4A
$GPGGA,174050.000,4305.2898,N,07740.7481,W,1,09,0.96,168.0,M,-34.4,M,,*59
$GPRMC,174050.250,A,4305.2915,N,07740.7481,W,23.72,359.40,150819,,,A*44
$GPGGA,174050.500,4305.2931,N,07740.7481,W,1,09,0.96,168.0,M,-34.4,M,,*5E
$GPRMC,174050.750,A,4305.2947,N,07740.7481,W,23.49,359.07,150819,,,A*4D
$GPGGA,174051.000,4305.2964,N,07740.7482,W,1,09,0.96,167.9,M,-34.4,M,,*5F
$GPRMC,174051.250,A,4305.2980,N,07740.7482,W,23.18,358.91,150819,,,A*4B
$GPGGA,174051.500,4305.2996,N,07740.7483,W,1,09,0.96,167.8,M,-34.4,M,,*57
$GPRMC,174051.750,A,4305.3012,N,07740.7483,W,22.72,359.12,150819,,,A*4B
$GPGGA,174052.000,4305.3028,N,07740.7484,W,1,09,0.96,167.7,M,-34.4,M,,*54
$GPRMC,174052.250,A,4305.3043,N,07740.7485,W,22.43,359.11,150819,,,A*4E
$GPGGA,174052.500,4305.3059,N,07740.7485,W,1,09,0.96,167.6,M,-34.4,M,,*57
$GPRMC,174052.750,A,4305.3074,N,07740.7486,W,22.16,358.86,150819,,,A*43
$GPGGA,174053.000,4305.3090,N,07740.7486,W,1,08,1.07,167.6,M,-34.4,M,,*5D
$GPRMC,174053.250,A,4305.3105,N,07740.7487,W,21.77,358.69,150819,,,A*44
$GPGGA,174053.500,4305.3120,N,07740.7487,W,1,08,1.07,167.7,M,-34.4,M,,*52
$GPRMC,174053.750,A,4305.3135,N,07740.7487,W,21.36,358.72,150819,,,A*4D
$GPGGA,174054.000,4305.3150,N,07740.7488,W,1,08,1.07,167.8,M,-34.4,M,,*57
$GPRMC,174054.250,A,4305.3165,N,07740.7488,W,21.02,358.59,150819,,,A*4B
$GPGGA,174054.500,4305.3179,N,07740.7489,W,1,09,0.96,167.9,M,-34.4,M,,*51
$GPRMC,174054.750,A,4305.3194,N,07740.7489,W,20.72,358.82,150819,,,A*41
$GPGGA,174055.000,4305.3208,N,07740.7489,W,1,08,1.07,167.9,M,-34.4,M,,*58
$GPRMC,174055.250,A,4305.3222,N,07740.7490,W,20.06,359.11,150819,,,A*4B
$GPGGA,174055.500,4305.3236,N,07740.7490,W,1,08,1.07,167.9,M,-34.4,M,,*58
$GPRMC,174055.750,A,4305.3249,N,07740.7490,W,18.66,359.80,150819,,,A*46
$GPGGA,174056.000,4305.3261,N,07740.7490,W,1,09,0.96,167.9,M,-34.4,M,,*54
$GPRMC,174056.250,A,4305.3273,N,07740.7490,W,16.73,0.17,150819,,,A*42
$GPGGA,174056.500,4305.3284,N,07740.7490,W,1,08,1.07,167.9,M,-34.4,M,,*52
$GPRMC,174056.750,A,4305.3294,N,07740.7489,W,14.53,0.01,150819,,,A*41
$GPGGA,174057.000,4305.3303,N,07740.7489,W,1,08,1.07,168.0,M,-34.4,M,,*56
$GPRMC,174057.250,A,4305.3311,N,07740.7489,W,12.35,0.07,150819,,,A*49
$GPGGA,174057.500,4305.3319,N,07740.7489,W,1,09,0.96,168.0,M,-34.4,M,,*50
$GPRMC,174057.750,A,4305.3327,N,07740.7489,W,10.21,0.50,150819,,,A*4C
$GPGGA,174058.000,4305.3334,N,07740.7490,W,1,09,0.96,168.1,M,-34.4,M,,*5C
$GPRMC,174058.250,A,4305.3339,N,07740.7490,W,8.03,0.34,150819,,,A*7A
$GPGGA,174058.500,4305.3345,N,07740.7491,W,1,09,0.96,168.2,M,-34.4,M,,*5D
$GPRMC,174058.750,A,4305.3350,N,07740.7491,W,6.33,0.37,150819,,,A*7F
$GPGGA,174059.000,4305.3355,N,07740.7491,W,1,09,0.96,168.4,M,-34.4,M,,*5E
$GPRMC,174059.250,A,4305.3359,N,07740.7491,W,6.31,357.57,150819,,,A*77
$GPGGA,174059.500,4305.3364,N,07740.7491,W,1,09,0.96,168.6,M,-34.4,M,,*5B
$GPRMC,174059.750,A,4305.3369,N,07740.7492,W,6.73,350.26,150819,,,A*75
$GPGGA,174100.000,4305.3373,N,07740.7493,W,1,09,0.96,168.7,M,-34.4,M,,*56
$GPRMC,174100.250,A,4305.3378,N,07740.7495,W,7.43,342.56,150819,,,A*7C
$GPGGA,174100.500,4305.3383,N,07740.7497,W,1,09,0.96,168.7,M,-34.4,M,,*58
$GPRMC,174100.750,A,4305.3387,N,07740.7499,W,8.17,334.69,150819,,,A*76
$GPGGA,174101.000,4305.3392,N,07740.7503,W,1,09,0.96,168.7,M,-34.4,M,,*50
$GPRMC,174101.250,A,4305.3397,N,07740.7507,W,8.74,325.71,150819,,,A*79
$GPGGA,174101.500,4305.3402,N,07740.7512,W,1,09,0.96,168.8,M,-34.4,M,,*54
$GPRMC,174101.750,A,4305.3406,N,07740.7518,W,9.70,311.85,150819,,,A*74
$GPGGA,174102.000,4305.3411,N,07740.7525,W,1,09,0.96,168.8,M,-34.4,M,,*54
$GPRMC,174102.250,A,4305.3414,N,07740.7533,W,10.71,297.38,150819,,,A*48
$GPGGA,174102.500,4305.3417,N,07740.7542,W,1,09,0.96,168.9,M,-34.4,M,,*57
$GPRMC,174102.750,A,4305.3419,N,07740.7552,W,12.16,287.61,150819,,,A*49
$GPGGA,174103.000,4305.3421,N,07740.7563,W,1,09,0.96,168.9,M,-34.4,M,,*55
$GPRMC,174103.250,A,4305.3423,N,07740.7575,W,12.88,280.32,150819,,,A*47
$GPGGA,174103.500,4305.3424,N,07740.7588,W,1,09,0.96,169.0,M,-34.4,M,,*58
$GPRMC,174103.750,A,4305.3426,N,07740.7601,W,13.84,276.60,150819,,,A*44
$GPGGA,174104.000,4305.3426,N,07740.7614,W,1,09,0.96,169.1,M,-34.4,M,,*5F
$GPRMC,174104.250,A,4305.3426,N,07740.7627,W,14.14,272.62,150819,,,A*4A
$GPGGA,174104.500,4305.3425,N,07740.7641,W,1,09,0.96,169.3,M,-34.4,M,,*5B
$GPRMC,174104.750,A,4305.3425,N,07740.7656,W,14.36,270.57,150819,,,A*4E
$GPGGA,174105.000,4305.3424,N,07740.7671,W,1,09,0.95,169.4,M,-34.4,M,,*59
$GPRMC,174105.250,A,4305.3424,N,07740.7686,W,15.48,268.20,150819,,,A*47
$GPGGA,174105.500,4305.3423,N,07740.7702,W,1,09,0.96,169.6,M,-34.4,M,,*5F
$GPRMC,174105.750,A,4305.3423,N,07740.7718,W,16.52,266.51,150819,,,A*43
$GPGGA,174106.000,4305.3422,N,07740.7733,W,1,09,0.95,169.7,M,-34.4,M,,*58
$GPRMC,174106.250,A,4305.3421,N,07740.7749,W,16.41,265.54,150819,,,A*47
$GPGGA,174106.500,4305.3420,N,07740.7764,W,1,09,0.96,169.9,M,-34.4,M,,*50
$GPRMC,174106.750,A,4305.3419,N,07740.7780,W,16.86,264.88,150819,,,A*47
$GPGGA,174107.000,4305.3418,N,07740.7796,W,1,09,0.95,170.0,M,-34.4,M,,*50
$GPRMC,174107.250,A,4305.3417,N,07740.7812,W,17.41,264.33,150819,,,A*43
$GPGGA,174107.500,4305.3415,N,07740.7828,W,1,09,0.96,170.1,M,-34.4,M,,*50
$GPRMC,174107.750,A,4305.3414,N,07740.7845,W,18.05,264.12,150819,,,A*4B
$GPGGA,174108.000,4305.3413,N,07740.7863,W,1,09,0.96,170.3,M,-34.4,M,,*51
$GPRMC,174108.250,A,4305.3412,N,07740.7880,W,18.48,264.89,150819,,,A*45
$GPGGA,174108.500,4305.3411,N,07740.7898,W,1,09,0.96,170.4,M,-34.4,M,,*55
$GPRMC,174108.750,A,4305.3411,N,07740.7917,W,19.21,266.66,150819,,,A*41
$GPGGA,174109.000,4305.3410,N,07740.7935,W,1,09,0.96,170.6,M,-34.4,M,,*54
$GPRMC,174109.250,A,4305.3410,N,07740.7953,W,19.71,268.02,150819,,,A*4D
$GPGGA,174109.500,4305.3410,N,07740.7972,W,1,09,0.96,170.7,M,-34.4,M,,*53
$GPRMC,174109.750,A,4305.3410,N,07740.7992,W,20.21,268.87,150819,,,A*47
$GPGGA,174110.000,4305.3410,N,07740.8011,W,1,09,0.95,170.9,M,-34.4,M,,*50
$GPRMC,174110.250,A,4305.3411,N,07740.8030,W,20.55,269.28,150819,,,A*42
$GPGGA,174110.500,4305.3411,N,07740.8050,W,1,09,0.96,171.0,M,-34.4,M,,*5A
$GPRMC,174110.750,A,4305.3411,N,07740.8070,W,20.92,269.71,150819,,,A*44
$GPGGA,174111.000,4305.3411,N,07740.8090,W,1,10,0.87,171.1,M,-34.4,M,,*5B
$GPRMC,174111.250,A,4305.3412,N,07740.8111,W,21.47,270.27,150819,,,A*47
$GPGGA,174111.500,4305.3412,N,07740.8132,W,1,10,0.87,171.0,M,-34.4,M,,*55
$GPRMC,174111.750,A,4305.3411,N,07740.8153,W,21.80,270.12,150819,,,A*4A
$GPGGA,174112.000,4305.3411,N,07740.8174,W,1,10,0.87,171.0,M,-34.4,M,,*52
$GPRMC,174112.250,A,4305.3410,N,07740.8195,W,21.83,270.44,150819,,,A*47
$GPGGA,174112.500,4305.3410,N,07740.8216,W,1,10,0.87,171.0,M,-34.4,M,,*51
$GPRMC,174112.750,A,4305.3409,N,07740.8237,W,22.05,269.84,150819,,,A*48
$GPGGA,174113.000,4305.3409,N,07740.8258,W,1,10,0.87,170.9,M,-34.4,M,,*5F
$GPRMC,174113.250,A,4305.3408,N,07740.8279,W,21.77,269.76,150819,,,A*4C
$GPGGA,174113.500,4305.3408,N,07740.8299,W,1,10,0.87,170.9,M,-34.4,M,,*56
$GPRMC,174113.750,A,4305.3408,N,07740.8320,W,21.50,269.77,150819,,,A*40
$GPGGA,174114.000,4305.3408,N,07740.8340,W,1,10,0.87,170.9,M,-34.4,M,,*51
$GPRMC,174114.250,A,4305.3408,N,07740.8361,W,21.22,270.21,150819,,,A*49
$GPGGA,174114.500,4305.3408,N,07740.8381,W,1,10,0.87,170.9,M,-34.4,M,,*59
$GPRMC,174114.750,A,4305.3408,N,07740.8400,W,20.68,269.94,150819,,,A*45
$GPGGA,174115.000,4305.3408,N,07740.8420,W,1,10,0.87,170.8,M,-34.4,M,,*50
$GPRMC,174115.250,A,4305.3409,N,07740.8438,W,20.28,270.03,150819,,,A*49
$GPGGA,174115.500,4305.3410,N,07740.8457,W,1,10,0.87,170.4,M,-34.4,M,,*50
$GPRMC,174115.750,A,4305.3411,N,07740.8475,W,19.75,270.26,150819,,,A*49
$GPGGA,174116.000,4305.3411,N,07740.8494,W,1,10,0.87,170.2,M,-34.4,M,,*5E
$GPRMC,174116.250,A,4305.3413,N,07740.8512,W,19.74,270.70,150819,,,A*4F
$GPGGA,174116.500,4305.3413,N,07740.8530,W,1,10,0.87,169.7,M,-34.4,M,,*5B
$GPRMC,174116.750,A,4305.3414,N,07740.8549,W,19.36,271.64,150819,,,A*41
$GPGGA,174117.000,4305.3414,N,07740.8567,W,1,10,0.84,169.3,M,-34.4,M,,*5D
$GPRMC,174117.250,A,4305.3414,N,07740.8585,W,19.09,273.60,150819,,,A*4F
$GPGGA,174117.500,4305.3414,N,07740.8604,W,1,10,0.87,169.2,M,-34.4,M,,*5C
$GPRMC,174117.750,A,4305.3414,N,07740.8621,W,18.59,272.44,150819,,,A*44
$GPGGA,174118.000,4305.3414,N,07740.8639,W,1,10,0.84,169.0,M,-34.4,M,,*59
$GPRMC,174118.250,A,4305.3415,N,07740.8657,W,18.33,273.72,150819,,,A*46
$GPGGA,174118.500,4305.3415,N,07740.8674,W,1,09,0.95,168.9,M,-34.4,M,,*54
$GPRMC,174118.750,A,4305.3416,N,07740.8692,W,17.89,275.59,150819,,,A*48
$GPGGA,174119.000,4305.3418,N,07740.8709,W,1,10,0.84,168.9,M,-34.4,M,,*5E
$GPRMC,174119.250,A,4305.3421,N,07740.8726,W,17.68,279.37,150819,,,A*4D
$GPGGA,174119.500,4305.3423,N,07740.8743,W,1,10,0.87,168.7,M,-34.4,M,,*50
$GPRMC,174119.750,A,4305.3425,N,07740.8760,W,17.48,282.85,150819,,,A*41
$GPGGA,174120.000,4305.3428,N,07740.8776,W,1,10,0.87,168.7,M,-34.4,M,,*52
$GPRMC,174120.250,A,4305.3431,N,07740.8792,W,17.26,287.08,150819,,,A*4E
$GPGGA,174120.500,4305.3435,N,07740.8808,W,1,10,0.87,168.6,M,-34.4,M,,*5C
$GPRMC,174120.750,A,4305.3439,N,07740.8823,W,17.22,291.02,150819,,,A*4F
$GPGGA,174121.000,4305.3444,N,07740.8838,W,1,10,0.84,168.6,M,-34.4,M,,*5E
$GPRMC,174121.250,A,4305.3449,N,07740.8852,W,16.93,294.01,150819,,,A*47
$GPGGA,174121.500,4305.3454,N,07740.8866,W,1,10,0.87,168.5,M,-34.4,M,,*51
$GPRMC,174121.750,A,4305.3460,N,07740.8880,W,16.64,296.57,150819,,,A*4F
$GPGGA,174122.000,4305.3465,N,07740.8894,W,1,10,0.84,168.4,M,-34.4,M,,*5A
$GPRMC,174122.250,A,4305.3471,N,07740.8907,W,15.70,299.75,150819,,,A*4E
$GPGGA,174122.500,4305.3476,N,07740.8919,W,1,10,0.87,168.3,M,-34.4,M,,*5D
$GPRMC,174122.750,A,4305.3481,N,07740.8930,W,14.48,302.99,150819,,,A*4B
$GPGGA,174123.000,4305.3486,N,07740.8941,W,1,10,0.84,168.2,M,-34.4,M,,*59
$GPRMC,174123.250,A,4305.3491,N,07740.8950,W,12.66,306.79,150819,,,A*48
$GPGGA,174123.500,4305.3496,N,07740.8958,W,1,08,1.07,168.0,M,-34.4,M,,*54
$GPRMC,174123.750,A,4305.3500,N,07740.8966,W,10.96,310.43,150819,,,A*42
$GPGGA,174124.000,4305.3504,N,07740.8972,W,1,09,0.96,167.9,M,-34.4,M,,*5A
$GPRMC,174124.250,A,4305.3507,N,07740.8978,W,8.45,314.12,150819,,,A*7F
$GPGGA,174124.500,4305.3510,N,07740.8982,W,1,09,0.96,167.7,M,-34.4,M,,*5B
$GPRMC,174124.750,A,4305.3512,N,07740.8985,W,5.82,315.79,150819,,,A*76
$GPGGA,174125.000,4305.3514,N,07740.8988,W,1,08,1.07,167.7,M,-34.4,M,,*59
$GPRMC,174125.250,A,4305.3515,N,07740.8990,W,3.85,326.52,150819,,,A*79
$GPGGA,174125.500,4305.3516,N,07740.8991,W,1,08,1.03,167.5,M,-34.4,M,,*50
$GPRMC,174125.750,A,4305.3516,N,07740.8991,W,2.20,331.27,150819,,,A*74
$GPGGA,174126.000,4305.3516,N,07740.8992,W,1,08,1.03,167.3,M,-34.4,M,,*53
$GPRMC,174126.250,A,4305.3516,N,07740.8993,W,1.61,331.27,150819,,,A*76
$GPGGA,174126.500,4305.3516,N,07740.8994,W,1,08,1.03,167.2,M,-34.4,M,,*51
$GPRMC,174126.750,A,4305.3517,N,07740.8995,W,2.01,331.27,150819,,,A*71
$GPGGA,174127.000,4305.3517,N,07740.8997,W,1,08,1.03,166.9,M,-34.4,M,,*5D
$GPRMC,174127.250,A,4305.3519,N,07740.8999,W,3.29,316.22,150819,,,A*7C
$GPGGA,174127.500,4305.3521,N,07740.9002,W,1,10,0.84,166.6,M,-34.4,M,,*51
$GPRMC,174127.750,A,4305.3523,N,07740.9004,W,5.05,320.45,150819,,,A*70
$GPGGA,174128.000,4305.3525,N,07740.9007,W,1,09,0.95,166.4,M,-34.4,M,,*50
$GPRMC,174128.250,A,4305.3529,N,07740.9010,W,6.70,326.21,150819,,,A*70
$GPGGA,174128.500,4305.3534,N,07740.9013,W,1,10,0.87,166.5,M,-34.4,M,,*5A
$GPRMC,174128.750,A,4305.3538,N,07740.9016,W,8.70,337.49,150819,,,A*73
$GPGGA,174129.000,4305.3543,N,07740.9020,W,1,10,0.87,166.6,M,-34.4,M,,*5D
$GPRMC,174129.250,A,4305.3549,N,07740.9023,W,10.36,348.03,150819,,,A*4A
$GPGGA,174129.500,4305.3555,N,07740.9024,W,1,08,1.07,167.2,M,-34.4,M,,*5E
$GPRMC,174129.750,A,4305.3563,N,07740.9023,W,11.86,5.03,150819,,,A*47
$GPGGA,174130.000,4305.3572,N,07740.9022,W,1,09,0.95,166.9,M,-34.4,M,,*51
$GPRMC,174130.250,A,4305.3582,N,07740.9019,W,13.96,16.42,150819,,,A*78
$GPGGA,174130.500,4305.3592,N,07740.9015,W,1,10,0.87,167.5,M,-34.4,M,,*58
$GPRMC,174130.750,A,4305.3602,N,07740.9009,W,16.49,26.49,150819,,,A*78
$GPGGA,174131.000,4305.3613,N,07740.9001,W,1,09,0.96,167.8,M,-34.4,M,,*56
$GPRMC,174131.250,A,4305.3625,N,07740.8993,W,17.81,31.50,150819,,,A*79
$GPGGA,174131.500,4305.3636,N,07740.8984,W,1,09,0.95,168.0,M,-34.4,M,,*55
$GPRMC,174131.750,A,4305.3648,N,07740.8974,W,18.59,34.31,150819,,,A*76
$GPGGA,174132.000,4305.3660,N,07740.8963,W,1,09,0.95,168.2,M,-34.4,M,,*5B
$GPRMC,174132.250,A,4305.3672,N,07740.8951,W,20.05,38.11,150819,,,A*72
$GPGGA,174132.500,4305.3684,N,07740.8938,W,1,10,0.87,168.2,M,-34.4,M,,*51
$GPRMC,174132.750,A,4305.3697,N,07740.8923,W,22.12,40.62,150819,,,A*76
$GPGGA,174133.000,4305.3709,N,07740.8908,W,1,10,0.84,168.1,M,-34.4,M,,*52
$GPRMC,174133.250,A,4305.3721,N,07740.8892,W,23.68,42.03,150819,,,A*7C
$GPGGA,174133.500,4305.3735,N,07740.8875,W,1,10,0.87,168.0,M,-34.4,M,,*51
$GPRMC,174133.750,A,4305.3749,N,07740.8857,W,25.66,41.61,150819,,,A*71
$GPGGA,174134.000,4305.3763,N,07740.8840,W,1,10,0.84,167.8,M,-34.4,M,,*52
$GPRMC,174134.250,A,4305.3778,N,07740.8821,W,27.67,41.01,150819,,,A*75
$GPGGA,174134.500,4305.3794,N,07740.8803,W,1,10,0.87,167.6,M,-34.4,M,,*55
$GPRMC,174134.750,A,4305.3810,N,07740.8785,W,29.21,39.97,150819,,,A*7C
$GPGGA,174135.000,4305.3827,N,07740.8766,W,1,10,0.84,167.3,M,-34.4,M,,*5C
$GPRMC,174135.250,A,4305.3844,N,07740.8747,W,30.60,39.66,150819,,,A*74
$GPGGA,174135.500,4305.3861,N,07740.8727,W,1,10,0.87,167.1,M,-34.4,M,,*5F
$GPRMC,174135.750,A,4305.3879,N,07740.8707,W,31.65,39.80,150819,,,A*77
$GPGGA,174136.000,4305.3897,N,07740.8688,W,1,10,0.87,166.8,M,-34.4,M,,*5C
$GPRMC,174136.250,A,4305.3915,N,07740.8667,W,32.57,40.11,150819,,,A*79
$GPGGA,174136.500,4305.3934,N,07740.8647,W,1,10,0.87,166.4,M,-34.4,M,,*5E
$GPRMC,174136.750,A,4305.3953,N,07740.8626,W,33.15,39.97,150819,,,A*7C
$GPGGA,174137.000,4305.3972,N,07740.8605,W,1,10,0.84,166.1,M,-34.4,M,,*58
$GPRMC,174137.250,A,4305.3991,N,07740.8584,W,33.54,40.04,150819,,,A*7C
$GPGGA,174137.500,4305.4011,N,07740.8563,W,1,10,0.87,165.9,M,-34.4,M,,*5D
$GPRMC,174137.750,A,4305.4030,N,07740.8542,W,33.83,39.76,150819,,,A*77
$GPGGA,174138.000,4305.4049,N,07740.8521,W,1,10,0.87,165.8,M,-34.4,M,,*5D
$GPRMC,174138.250,A,4305.4069,N,07740.8499,W,34.32,39.82,150819,,,A*70
$GPGGA,174138.500,4305.4089,N,07740.8479,W,1,10,0.87,165.6,M,-34.4,M,,*56
$GPRMC,174138.750,A,4305.4108,N,07740.8458,W,34.02,39.81,150819,,,A*7E
$GPGGA,174139.000,4305.4127,N,07740.8437,W,1,10,0.84,165.6,M,-34.4,M,,*5E
$GPRMC,174139.250,A,4305.4146,N,07740.8416,W,34.10,39.96,150819,,,A*7F
$GPGGA,174139.500,4305.4165,N,07740.8395,W,1,10,0.84,165.3,M,-34.4,M,,*57
$GPRMC,174139.750,A,4305.4183,N,07740.8374,W,33.22,39.81,150819,,,A*70
$GPGGA,174140.000,4305.4202,N,07740.8354,W,1,10,0.84,165.0,M,-34.4,M,,*50
$GPRMC,174140.250,A,4305.4220,N,07740.8334,W,32.99,39.36,150819,,,A*78
$GPGGA,174140.500,4305.4238,N,07740.8314,W,1,10,0.84,164.8,M,-34.4,M,,*51
$GPRMC,174140.750,A,4305.4256,N,07740.8294,W,32.73,38.91,150819,,,A*7F
$GPGGA,174141.000,4305.4274,N,07740.8274,W,1,10,0.84,164.3,M,-34.4,M,,*51
$GPRMC,174141.250,A,4305.4292,N,07740.8255,W,32.61,38.71,150819,,,A*73
$GPGGA,174141.500,4305.4310,N,07740.8236,W,1,10,0.87,163.9,M,-34.4,M,,*5F
$GPRMC,174141.750,A,4305.4328,N,07740.8216,W,32.10,38.45,150819,,,A*70
$GPGGA,174142.000,4305.4346,N,07740.8197,W,1,10,0.84,163.4,M,-34.4,M,,*5C
$GPRMC,174142.250,A,4305.4364,N,07740.8179,W,31.68,38.12,150819,,,A*7A
$GPGGA,174142.500,4305.4382,N,07740.8160,W,1,10,0.87,163.0,M,-34.4,M,,*5E
$GPRMC,174142.750,A,4305.4400,N,07740.8142,W,31.44,37.97,150819,,,A*7E
$GPGGA,174143.000,4305.4418,N,07740.8123,W,1,10,0.87,162.7,M,-34.4,M,,*5F
$GPRMC,174143.250,A,4305.4435,N,07740.8105,W,31.22,37.80,150819,,,A*79
$GPGGA,174143.500,4305.4453,N,07740.8087,W,1,10,0.87,162.5,M,-34.4,M,,*58
$GPRMC,174143.750,A,4305.4470,N,07740.8069,W,31.02,37.14,150819,,,A*79
$GPGGA,174144.000,4305.4488,N,07740.8052,W,1,10,0.84,162.4,M,-34.4,M,,*56
$GPRMC,174144.250,A,4305.4505,N,07740.8034,W,30.72,36.70,150819,,,A*75
$GPGGA,174144.500,4305.4523,N,07740.8017,W,1,10,0.87,162.3,M,-34.4,M,,*56
$GPRMC,174144.750,A,4305.4540,N,07740.8000,W,30.33,36.65,150819,,,A*77
$GPGGA,174145.000,4305.4557,N,07740.7983,W,1,09,0.95,162.3,M,-34.4,M,,*51
$GPRMC,174145.250,A,4305.4574,N,07740.7966,W,29.86,36.28,150819,,,A*7D
$GPGGA,174145.500,4305.4591,N,07740.7950,W,1,08,1.00,162.5,M,-34.4,M,,*5A
$GPRMC,174145.750,A,4305.4608,N,07740.7934,W,29.66,35.32,150819,,,A*71
$GPGGA,174146.000,4305.4625,N,07740.7918,W,1,09,0.95,162.7,M,-34.4,M,,*52
$GPRMC,174146.250,A,4305.4642,N,07740.7903,W,29.43,34.12,150819,,,A*79
$GPGGA,174146.500,4305.4659,N,07740.7887,W,1,09,0.95,162.9,M,-34.4,M,,*55
$GPRMC,174146.750,A,4305.4675,N,07740.7872,W,28.88,33.33,150819,,,A*7D
$GPGGA,174147.000,4305.4692,N,07740.7857,W,1,09,0.95,162.9,M,-34.4,M,,*5B
$GPRMC,174147.250,A,4305.4708,N,07740.7843,W,28.45,32.63,150819,,,A*75
$GPGGA,174147.500,4305.4725,N,07740.7828,W,1,09,0.95,163.0,M,-34.4,M,,*53
$GPRMC,174147.750,A,4305.4740,N,07740.7814,W,28.01,31.94,150819,,,A*75
$GPGGA,174148.000,4305.4757,N,07740.7800,W,1,09,0.95,162.9,M,-34.4,M,,*5E
$GPRMC,174148.250,A,4305.4772,N,07740.7786,W,27.77,30.94,150819,,,A*75
$GPGGA,174148.500,4305.4788,N,07740.7772,W,1,09,0.95,162.8,M,-34.4,M,,*52
$GPRMC,174148.750,A,4305.4804,N,07740.7760,W,26.87,29.33,150819,,,A*7D
$GPGGA,174149.000,4305.4820,N,07740.7747,W,1,09,0.95,162.7,M,-34.4,M,,*52
$GPRMC,174149.250,A,4305.4836,N,07740.7735,W,26.47,28.42,150819,,,A*73
$GPGGA,174149.500,4305.4852,N,07740.7723,W,1,09,0.95,162.6,M,-34.4,M,,*51
$GPRMC,174149.750,A,4305.4868,N,07740.7712,W,25.85,27.58,150819,,,A*71
$GPGGA,174150.000,4305.4884,N,07740.7700,W,1,09,0.95,162.6,M,-34.4,M,,*56
$GPRMC,174150.250,A,4305.4900,N,07740.7690,W,25.44,26.34,150819,,,A*7E
$GPGGA,174150.500,4305.4916,N,07740.7679,W,1,09,0.95,162.6,M,-34.4,M,,*56
$GPRMC,174150.750,A,4305.4931,N,07740.7669,W,25.10,25.92,150819,,,A*71
$GPGGA,174151.000,4305.4947,N,07740.7658,W,1,09,0.95,162.7,M,-34.4,M,,*54
$GPRMC,174151.250,A,4305.4963,N,07740.7648,W,24.82,25.14,150819,,,A*75
$GPGGA,174151.500,4305.4979,N,07740.7638,W,1,09,0.95,162.9,M,-34.4,M,,*54
$GPRMC,174151.750,A,4305.4995,N,07740.7629,W,24.29,24.20,150819,,,A*79
$GPGGA,174152.000,4305.5011,N,07740.7619,W,1,09,0.95,163.1,M,-34.4,M,,*5E
$GPRMC,174152.250,A,4305.5027,N,07740.7610,W,24.01,23.26,150819,,,A*7F
$GPGGA,174152.500,4305.5043,N,07740.7602,W,1,09,0.95,163.2,M,-34.4,M,,*55
$GPRMC,174152.750,A,4305.5058,N,07740.7594,W,23.74,22.69,150819,,,A*72
$GPGGA,174153.000,4305.5074,N,07740.7586,W,1,09,0.95,163.5,M,-34.4,M,,*5D
$GPRMC,174153.250,A,4305.5090,N,07740.7578,W,23.12,21.80,150819,,,A*74
$GPGGA,174153.500,4305.5106,N,07740.7572,W,1,09,0.95,163.3,M,-34.4,M,,*51
$GPRMC,174153.750,A,4305.5122,N,07740.7565,W,22.68,20.12,150819,,,A*73
$GPGGA,174154.000,4305.5137,N,07740.7558,W,1,09,0.95,163.4,M,-34.4,M,,*5E
$GPRMC,174154.250,A,4305.5152,N,07740.7550,W,22.74,20.46,150819,,,A*7C
$GPGGA,174154.500,4305.5168,N,07740.7543,W,2,10,0.84,163.3,M,-34.4,M,0000,0000*57
$GPRMC,174154.750,A,4305.5183,N,07740.7535,W,23.29,20.59,150819,,,D*74
$GPGGA,174155.000,4305.5199,N,07740.7528,W,2,09,0.95,163.1,M,-34.4,M,0000,0000*5A
$GPRMC,174155.250,A,4305.5214,N,07740.7520,W,23.61,20.79,150819,,,D*77
$GPGGA,174155.500,4305.5230,N,07740.7512,W,2,09,0.95,163.1,M,-34.4,M,0000,0000*56
$GPRMC,174155.750,A,4305.5245,N,07740.7504,W,23.90,21.61,150819,,,D*76
$GPGGA,174156.000,4305.5261,N,07740.7496,W,2,09,0.95,163.1,M,-34.4,M,0000,0000*59
$GPRMC,174156.250,A,4305.5277,N,07740.7487,W,24.19,22.40,150819,,,D*7D
$GPGGA,174156.500,4305.5292,N,07740.7478,W,2,09,0.95,163.0,M,-34.4,M,0000,0000*51
$GPRMC,174156.750,A,4305.5309,N,07740.7469,W,24.47,23.45,150819,,,D*7F
$GPGGA,174157.000,4305.5324,N,07740.7460,W,2,09,0.95,162.9,M,-34.4,M,0000,0000*58
$GPRMC,174157.250,A,4305.5340,N,07740.7451,W,24.81,22.63,150819,,,D*72
$GPGGA,174157.500,4305.5357,N,07740.7442,W,2,09,0.95,162.9,M,-34.4,M,0000,0000*59
$GPRMC,174157.750,A,4305.5373,N,07740.7433,W,25.04,21.76,150819,,,D*78
$GPGGA,174158.000,4305.5390,N,07740.7425,W,2,10,0.87,163.0,M,-34.4,M,0000,0000*5A
$GPRMC,174158.250,A,4305.5407,N,07740.7417,W,25.40,20.54,150819,,,D*71
$GPGGA,174158.500,4305.5424,N,07740.7408,W,2,10,0.87,162.9,M,-34.4,M,0000,0000*50
$GPRMC,174158.750,A,4305.5441,N,07740.7400,W,26.00,19.62,150819,,,D*78
$GPGGA,174159.000,4305.5458,N,07740.7392,W,2,10,0.87,163.0,M,-34.4,M,0000,0000*53
$GPRMC,174159.250,A,4305.5476,N,07740.7384,W,26.40,18.91,150819,,,D*7A
$GPGGA,174159.500,4305.5494,N,07740.7376,W,2,10,0.87,163.0,M,-34.4,M,0000,0000*5C
$GPRMC,174159.750,A,4305.5512,N,07740.7369,W,27.07,18.27,150819,,,D*70
$GPGGA,174200.000,4305.5531,N,07740.7361,W,2,10,0.87,163.0,M,-34.4,M,0000,0000*5E
$GPRMC,174200.250,A,4305.5549,N,07740.7353,W,27.86,17.45,150819,,,D*7F
$GPGGA,174200.500,4305.5568,N,07740.7345,W,2,10,0.87,162.9,M,-34.4,M,0000,0000*59
$GPRMC,174200.750,A,4305.5587,N,07740.7338,W,28.26,16.82,150819,,,D*7A
$GPGGA,174201.000,4305.5606,N,07740.7330,W,2,09,0.95,162.6,M,-34.4,M,0000,0000*50
$GPRMC,174201.250,A,4305.5626,N,07740.7322,W,29.42,16.36,150819,,,D*71
$GPGGA,174201.500,4305.5646,N,07740.7315,W,2,10,0.87,162.4,M,-34.4,M,0000,0000*5F
$GPRMC,174201.750,A,4305.5665,N,07740.7307,W,29.54,15.98,150819,,,D*74
$GPGGA,174202.000,4305.5685,N,07740.7299,W,2,10,0.87,162.1,M,-34.4,M,0000,0000*56
$GPRMC,174202.250,A,4305.5706,N,07740.7291,W,29.97,16.07,150819,,,D*72
$GPGGA,174202.500,4305.5726,N,07740.7283,W,2,09,0.95,161.9,M,-34.4,M,0000,0000*50
$GPRMC,174202.750,A,4305.5746,N,07740.7275,W,30.69,16.17,150819,,,D*71
$GPGGA,174203.000,4305.5767,N,07740.7267,W,2,10,0.87,161.7,M,-34.4,M,0000,0000*5E
$GPRMC,174203.250,A,4305.5788,N,07740.7259,W,31.12,16.33,150819,,,D*72
$GPGGA,174203.500,4305.5808,N,07740.7250,W,2,10,0.87,161.6,M,-34.4,M,0000,0000*58
$GPRMC,174203.750,A,4305.5829,N,07740.7242,W,31.40,16.36,150819,,,D*7B
$GPGGA,174204.000,4305.5851,N,07740.7233,W,2,10,0.87,161.5,M,-34.4,M,0000,0000*50
$GPRMC,174204.250,A,4305.5872,N,07740.7225,W,31.84,16.02,150819,,,D*79
$GPGGA,174204.500,4305.5893,N,07740.7217,W,2,10,0.87,161.4,M,-34.4,M,0000,0000*5C
$GPRMC,174204.750,A,4305.5915,N,07740.7209,W,31.92,15.86,150819,,,D*7A
$GPGGA,174205.000,4305.5936,N,07740.7201,W,2,09,0.95,161.5,M,-34.4,M,0000,0000*5B
$GPRMC,174205.250,A,4305.5958,N,07740.7192,W,32.18,15.72,150819,,,D*7C
$GPGGA,174205.500,4305.5980,N,07740.7184,W,2,08,1.07,161.6,M,-34.4,M,0000,0000*55
$GPRMC,174205.750,A,4305.6002,N,07740.7176,W,32.42,15.84,150819,,,D*70
$GPGGA,174206.000,4305.6024,N,07740.7168,W,2,09,0.95,161.8,M,-34.4,M,0000,0000*50
$GPRMC,174206.250,A,4305.6046,N,07740.7159,W,32.74,15.86,150819,,,D*7C
$GPGGA,174206.500,4305.6068,N,07740.7151,W,2,10,0.87,162.0,M,-34.4,M,0000,0000*57
$GPRMC,174206.750,A,4305.6090,N,07740.7142,W,33.05,16.08,150819,,,D*7A
$GPGGA,174207.000,4305.6113,N,07740.7134,W,2,10,0.87,162.0,M,-34.4,M,0000,0000*5D
$GPRMC,174207.250,A,4305.6135,N,07740.7125,W,33.36,15.69,150819,,,D*75
$GPGGA,174207.500,4305.6158,N,07740.7117,W,2,09,0.95,161.9,M,-34.4,M,0000,0000*57
$GPRMC,174207.750,A,4305.6180,N,07740.7108,W,33.71,15.40,150819,,,D*79
$GPGGA,174208.000,4305.6203,N,07740.7100,W,2,09,0.95,161.8,M,-34.4,M,0000,0000*57
$GPRMC,174208.250,A,4305.6226,N,07740.7091,W,34.03,15.03,150819,,,D*78
$GPGGA,174208.500,4305.6249,N,07740.7083,W,2,10,0.87,161.7,M,-34.4,M,0000,0000*52
$GPRMC,174208.750,A,4305.6272,N,07740.7075,W,34.29,14.82,150819,,,D*76
$GPGGA,174209.000,4305.6295,N,07740.7066,W,2,08,1.07,161.5,M,-34.4,M,0000,0000*5E
$GPRMC,174209.250,A,4305.6318,N,07740.7058,W,34.56,14.58,150819,,,D*7F
$GPGGA,174209.500,4305.6341,N,07740.7050,W,2,08,1.07,161.4,M,-34.4,M,0000,0000*57
$GPRMC,174209.750,A,4305.6365,N,07740.7042,W,34.83,14.16,150819,,,D*79
$GPGGA,174210.000,4305.6388,N,07740.7034,W,2,10,0.87,161.3,M,-34.4,M,0000,0000*5A
$GPRMC,174210.250,A,4305.6412,N,07740.7026,W,35.13,13.92,150819,,,D*72
$GPGGA,174210.500,4305.6436,N,07740.7018,W,2,10,0.87,161.2,M,-34.4,M,0000,0000*52
$GPRMC,174210.750,A,4305.6460,N,07740.7010,W,35.46,13.78,150819,,,D*73
$GPGGA,174211.000,4305.6484,N,07740.7002,W,2,09,0.95,161.2,M,-34.4,M,0000,0000*5F
$GPRMC,174211.250,A,4305.6508,N,07740.6994,W,35.69,13.42,150819,,,D*78
$GPGGA,174211.500,4305.6532,N,07740.6986,W,2,10,0.87,161.2,M,-34.4,M,0000,0000*59
$GPRMC,174211.750,A,4305.6557,N,07740.6979,W,35.99,13.03,150819,,,D*7E
$GPGGA,174212.000,4305.6581,N,07740.6971,W,2,09,0.95,161.2,M,-34.4,M,0000,0000*54
$GPRMC,174212.250,A,4305.6606,N,07740.6964,W,36.36,12.51,150819,,,D*73
$GPGGA,174212.500,4305.6631,N,07740.6957,W,2,09,0.95,161.4,M,-34.4,M,0000,0000*5B
$GPRMC,174212.750,A,4305.6656,N,07740.6950,W,36.74,11.99,150819,,,D*75
$GPGGA,174213.000,4305.6682,N,07740.6942,W,2,09,0.95,161.5,M,-34.4,M,0000,0000*52
$GPRMC,174213.250,A,4305.6707,N,07740.6935,W,36.95,11.72,150819,,,D*7D
$GPGGA,174213.500,4305.6732,N,07740.6928,W,2,09,0.95,161.5,M,-34.4,M,0000,0000*51
$GPRMC,174213.750,A,4305.6758,N,07740.6921,W,37.06,11.61,150819,,,D*7E
$GPGGA,174214.000,4305.6783,N,07740.6914,W,2,09,0.90,161.5,M,-34.4,M,0000,0000*53
$GPRMC,174214.250,A,4305.6808,N,07740.6907,W,37.04,11.24,150819,,,D*71
$GPGGA,174214.500,4305.6834,N,07740.6901,W,2,09,0.95,161.5,M,-34.4,M,0000,0000*54
$GPRMC,174214.750,A,4305.6860,N,07740.6894,W,37.33,10.90,150819,,,D*7B
$GPGGA,174215.000,4305.6885,N,07740.6887,W,2,09,0.90,161.5,M,-34.4,M,0000,0000*50
$GPRMC,174215.250,A,4305.6911,N,07740.6880,W,37.45,10.85,150819,,,D*78
$GPGGA,174215.500,4305.6937,N,07740.6873,W,2,09,0.95,161.4,M,-34.4,M,0000,0000*52
$GPRMC,174215.750,A,4305.6963,N,07740.6867,W,37.54,10.85,150819,,,D*71
$GPGGA,174216.000,4305.6989,N,07740.6860,W,2,09,0.90,161.3,M,-34.4,M,0000,0000*51
$GPRMC,174216.250,A,4305.7015,N,07740.6853,W,37.55,10.88,150819,,,D*75
$GPGGA,174216.500,4305.7041,N,07740.6847,W,2,09,0.95,161.2,M,-34.4,M,0000,0000*59
$GPRMC,174216.750,A,4305.7067,N,07740.6841,W,37.89,10.61,150819,,,D*70
$GPGGA,174217.000,4305.7093,N,07740.6834,W,2,09,0.95,161.2,M,-34.4,M,0000,0000*56
$GPRMC,174217.250,A,4305.7120,N,07740.6827,W,38.40,10.57,150819,,,D*79
$GPGGA,174217.500,4305.7148,N,07740.6820,W,2,09,0.95,161.2,M,-34.4,M,0000,0000*51
$GPRMC,174217.750,A,4305.7175,N,07740.6814,W,39.32,10.68,150819,,,D*74
$GPGGA,174218.000,4305.7202,N,07740.6807,W,2,09,0.90,161.3,M,-34.4,M,0000,0000*57
$GPRMC,174218.250,A,4305.7230,N,07740.6800,W,39.58,10.88,150819,,,D*7B
$GPGGA,174218.500,4305.7257,N,07740.6793,W,2,09,0.95,161.5,M,-34.4,M,0000,0000*53
$GPRMC,174218.750,A,4305.7285,N,07740.6786,W,39.68,11.21,150819,,,D*70
$GPGGA,174219.000,4305.7312,N,07740.6779,W,2,09,0.90,161.7,M,-34.4,M,0000,0000*54
$GPRMC,174219.250,A,4305.7338,N,07740.6772,W,39.48,11.75,150819,,,D*7B
$GPGGA,174219.500,4305.7365,N,07740.6764,W,2,09,0.95,161.8,M,-34.4,M,0000,0000*57
$GPRMC,174219.750,A,4305.7392,N,07740.6757,W,39.37,12.14,150819,,,D*75
$GPGGA,174220.000,4305.7418,N,07740.6749,W,2,10,0.87,161.9,M,-34.4,M,0000,0000*50
$GPRMC,174220.250,A,4305.7445,N,07740.6740,W,39.10,12.80,150819,,,D*79
$GPGGA,174220.500,4305.7472,N,07740.6732,W,2,10,0.87,161.9,M,-34.4,M,0000,0000*55
$GPRMC,174220.750,A,4305.7499,N,07740.6724,W,39.13,13.34,150819,,,D*72
$GPGGA,174221.000,4305.7525,N,07740.6715,W,2,10,0.87,161.8,M,-34.4,M,0000,0000*56
$GPRMC,174221.250,A,4305.7551,N,07740.6706,W,39.11,14.28,150819,,,D*7B
$GPGGA,174221.500,4305.7577,N,07740.6696,W,2,10,0.87,161.7,M,-34.4,M,0000,0000*51
$GPRMC,174221.750,A,4305.7604,N,07740.6687,W,39.08,15.60,150819,,,D*70
$GPGGA,174222.000,4305.7630,N,07740.6677,W,2,10,0.83,161.7,M,-34.4,M,0000,0000*5C
$GPRMC,174222.250,A,4305.7656,N,07740.6666,W,38.95,16.20,150819,,,D*7C
$GPGGA,174222.500,4305.7682,N,07740.6656,W,2,10,0.87,161.7,M,-34.4,M,0000,0000*57
$GPRMC,174222.750,A,4305.7709,N,07740.6645,W,39.01,16.73,150819,,,D*79
$GPGGA,174223.000,4305.7735,N,07740.6635,W,2,10,0.87,161.6,M,-34.4,M,0000,0000*5A
$GPRMC,174223.250,A,4305.7761,N,07740.6624,W,39.21,17.37,150819,,,D*77
$GPGGA,174223.500,4305.7788,N,07740.6612,W,2,10,0.87,161.6,M,-34.4,M,0000,0000*5C
$GPRMC,174223.750,A,4305.7814,N,07740.6601,W,39.26,18.21,150819,,,D*77
$GPGGA,174224.000,4305.7840,N,07740.6590,W,2,09,0.95,161.6,M,-34.4,M,0000,0000*57
$GPRMC,174224.250,A,4305.7866,N,07740.6578,W,39.27,18.96,150819,,,D*70
$GPGGA,174224.500,4305.7892,N,07740.6566,W,2,09,0.95,161.7,M,-34.4,M,0000,0000*55
$GPRMC,174224.750,A,4305.7918,N,07740.6553,W,39.28,19.67,150819,,,D*74
$GPGGA,174225.000,4305.7944,N,07740.6541,W,2,09,0.95,161.9,M,-34.4,M,0000,0000*50
$GPRMC,174225.250,A,4305.7970,N,07740.6528,W,39.23,20.39,150819,,,D*78
