Vers 60
USE_SERIAL_FEEDBACK=true
DEVELOPMENT_MODE=false
USE_RMC_ONLY=false

$GPRMC,131932.250,A,4308.3012,N,07726.2637,W,0.64,350.06,200519,,,A*76
$GPGGA,131932.500,4308.3014,N,07726.2636,W,1,07,1.30,140.5,M,-34.4,M,,*57
lng=-77.437728, lat=43.138355, altitude=140.80, speed=0.64, satellites=7, angle=350.0600, fixquality=1
$GPRMC,131932.750,A,4308.3015,N,07726.2636,W,0.53,346.47,200519,,,A*73
$GPGGA,131933.000,4308.3016,N,07726.2635,W,1,07,1.30,140.4,M,-34.4,M,,*53
lng=-77.437728, lat=43.138355, altitude=140.50, speed=0.53, satellites=7, angle=346.4700, fixquality=1
$GPRMC,131933.250,A,4308.3017,N,07726.2635,W,0.44,353.03,200519,,,A*74
$GPGGA,131933.500,4308.3018,N,07726.2634,W,1,07,1.30,140.4,M,-34.4,M,,*59
lng=-77.437728, lat=43.138362, altitude=140.40, speed=0.44, satellites=7, angle=353.0300, fixquality=1
$GPRMC,131933.750,A,4308.3019,N,07726.2635,W,0.33,350.96,200519,,,A*70
$GPGGA,131934.000,4308.3020,N,07726.2634,W,1,07,1.30,140.4,M,-34.4,M,,*50
lng=-77.437728, lat=43.138362, altitude=140.40, speed=0.33, satellites=7, angle=350.9600, fixquality=1
$GPRMC,131934.250,A,4308.3021,N,07726.2634,W,0.23,358.74,200519,,,A*7D
$GPGGA,131934.500,4308.3021,N,07726.2633,W,1,07,1.30,140.2,M,-34.4,M,,*55
lng=-77.437721, lat=43.138370, altitude=140.40, speed=0.23, satellites=7, angle=358.7400, fixquality=1
$GPRMC,131934.750,A,4308.3021,N,07726.2633,W,0.16,335.60,200519,,,A*77
$GPGGA,131935.000,4308.3021,N,07726.2633,W,1,07,1.30,140.2,M,-34.4,M,,*51
lng=-77.437721, lat=43.138370, altitude=140.20, speed=0.16, satellites=7, angle=335.6000, fixquality=1
$GPRMC,131935.250,A,4308.3021,N,07726.2632,W,0.09,351.44,200519,,,A*78
$GPGGA,131935.500,4308.3021,N,07726.2632,W,1,07,1.30,140.1,M,-34.4,M,,*56
lng=-77.437721, lat=43.138370, altitude=140.20, speed=0.09, satellites=7, angle=351.4400, fixquality=1
$GPRMC,131935.750,A,4308.3021,N,07726.2632,W,0.10,351.10,200519,,,A*74
$GPGGA,131936.000,4308.3020,N,07726.2631,W,1,07,1.30,139.9,M,-34.4,M,,*54
lng=-77.437721, lat=43.138370, altitude=140.10, speed=0.10, satellites=7, angle=351.1000, fixquality=1
$GPRMC,131936.250,A,4308.3020,N,07726.2631,W,0.01,333.18,200519,,,A*7C
$GPGGA,131936.500,4308.3020,N,07726.2631,W,1,07,1.30,139.7,M,-34.4,M,,*5F
lng=-77.437721, lat=43.138362, altitude=139.90, speed=0.01, satellites=7, angle=333.1800, fixquality=1
$GPRMC,131936.750,A,4308.3019,N,07726.2631,W,0.06,332.67,200519,,,A*7D
$GPGGA,131937.000,4308.3018,N,07726.2631,W,1,07,1.30,139.5,M,-34.4,M,,*52
lng=-77.437721, lat=43.138362, altitude=139.70, speed=0.06, satellites=7, angle=332.6700, fixquality=1
$GPRMC,131937.250,A,4308.3018,N,07726.2632,W,0.09,354.42,200519,,,A*73
$GPGGA,131937.500,4308.3016,N,07726.2632,W,1,07,1.30,139.3,M,-34.4,M,,*5C
lng=-77.437721, lat=43.138362, altitude=139.50, speed=0.09, satellites=7, angle=354.4200, fixquality=1
$GPRMC,131937.750,A,4308.3016,N,07726.2632,W,0.01,13.50,200519,,,A*43
$GPGGA,131938.000,4308.3015,N,07726.2632,W,1,07,1.30,139.2,M,-34.4,M,,*54
lng=-77.437721, lat=43.138362, altitude=139.30, speed=0.01, satellites=7, angle=13.5000, fixquality=1
$GPRMC,131938.250,A,4308.3014,N,07726.2632,W,0.07,70.64,200519,,,A*4F
$GPGGA,131938.500,4308.3013,N,07726.2633,W,1,07,1.30,138.9,M,-34.4,M,,*5C
lng=-77.437721, lat=43.138355, altitude=139.20, speed=0.07, satellites=7, angle=70.6400, fixquality=1
$GPRMC,131938.750,A,4308.3012,N,07726.2633,W,0.02,186.29,200519,,,A*79
$GPGGA,131939.000,4308.3011,N,07726.2633,W,1,07,1.30,138.7,M,-34.4,M,,*54
lng=-77.437721, lat=43.138355, altitude=138.90, speed=0.02, satellites=7, angle=186.2900, fixquality=1
$GPRMC,131939.250,A,4308.3010,N,07726.2633,W,0.03,71.26,200519,,,A*48
$GPGGA,131939.500,4308.3010,N,07726.2634,W,1,07,1.30,138.5,M,-34.4,M,,*55
lng=-77.437721, lat=43.138347, altitude=138.70, speed=0.03, satellites=7, angle=71.2600, fixquality=1
$GPRMC,131939.750,A,4308.3009,N,07726.2634,W,0.04,228.93,200519,,,A*75
$GPGGA,131940.000,4308.3009,N,07726.2634,W,1,07,1.30,138.3,M,-34.4,M,,*50
lng=-77.437721, lat=43.138347, altitude=138.50, speed=0.04, satellites=7, angle=228.9300, fixquality=1
$GPRMC,131940.250,A,4308.3008,N,07726.2634,W,0.03,301.74,200519,,,A*7B
$GPGGA,131940.500,4308.3008,N,07726.2634,W,1,07,1.30,138.1,M,-34.4,M,,*56
lng=-77.437721, lat=43.138347, altitude=138.30, speed=0.03, satellites=7, angle=301.7400, fixquality=1
$GPRMC,131940.750,A,4308.3007,N,07726.2634,W,0.03,31.53,200519,,,A*44
$GPGGA,131941.000,4308.3007,N,07726.2635,W,1,07,1.30,137.9,M,-34.4,M,,*5B
lng=-77.437721, lat=43.138347, altitude=138.10, speed=0.03, satellites=7, angle=31.5300, fixquality=1
$GPRMC,131941.250,A,4308.3007,N,07726.2635,W,0.04,232.22,200519,,,A*71
$GPGGA,131941.500,4308.3006,N,07726.2635,W,1,07,1.30,137.6,M,-34.4,M,,*50
lng=-77.437728, lat=43.138347, altitude=137.90, speed=0.04, satellites=7, angle=232.2200, fixquality=1
$GPRMC,131941.750,A,4308.3006,N,07726.2635,W,0.02,56.86,200519,,,A*4D
$GPGGA,131942.000,4308.3005,N,07726.2635,W,1,07,1.29,137.4,M,-34.4,M,,*5F
lng=-77.437728, lat=43.138347, altitude=137.60, speed=0.02, satellites=7, angle=56.8600, fixquality=1
$GPRMC,131942.250,A,4308.3005,N,07726.2635,W,0.04,136.98,200519,,,A*76
$GPGGA,131942.500,4308.3004,N,07726.2635,W,1,07,1.30,137.2,M,-34.4,M,,*55
lng=-77.437728, lat=43.138339, altitude=137.40, speed=0.04, satellites=7, angle=136.9800, fixquality=1
$GPRMC,131942.750,A,4308.3004,N,07726.2635,W,0.02,206.24,200519,,,A*73
$GPGGA,131943.000,4308.3004,N,07726.2635,W,1,07,1.30,137.0,M,-34.4,M,,*53
lng=-77.437728, lat=43.138339, altitude=137.20, speed=0.02, satellites=7, angle=206.2400, fixquality=1
$GPRMC,131943.250,A,4308.3004,N,07726.2635,W,0.03,316.92,200519,,,A*7B
$GPGGA,131943.500,4308.3003,N,07726.2636,W,1,07,1.30,136.8,M,-34.4,M,,*5B
lng=-77.437728, lat=43.138339, altitude=137.00, speed=0.03, satellites=7, angle=316.9200, fixquality=1
$GPRMC,131943.750,A,4308.3003,N,07726.2636,W,0.05,39.76,200519,,,A*48
$GPGGA,131944.000,4308.3003,N,07726.2636,W,1,07,1.30,136.7,M,-34.4,M,,*56
lng=-77.437728, lat=43.138339, altitude=136.80, speed=0.05, satellites=7, angle=39.7600, fixquality=1
$GPRMC,131944.250,A,4308.3003,N,07726.2636,W,0.02,171.67,200519,,,A*70
$GPGGA,131944.500,4308.3003,N,07726.2636,W,1,07,1.30,136.7,M,-34.4,M,,*53
lng=-77.437728, lat=43.138339, altitude=136.70, speed=0.02, satellites=7, angle=171.6700, fixquality=1
$GPRMC,131944.750,A,4308.3003,N,07726.2636,W,0.03,357.61,200519,,,A*74
$GPGGA,131945.000,4308.3003,N,07726.2636,W,1,07,1.30,136.6,M,-34.4,M,,*56
lng=-77.437728, lat=43.138339, altitude=136.70, speed=0.03, satellites=7, angle=357.6100, fixquality=1
$GPRMC,131945.250,A,4308.3002,N,07726.2636,W,0.04,241.05,200519,,,A*72
$GPGGA,131945.500,4308.3002,N,07726.2636,W,1,07,1.30,136.6,M,-34.4,M,,*52
lng=-77.437728, lat=43.138339, altitude=136.60, speed=0.04, satellites=7, angle=241.0500, fixquality=1
$GPRMC,131945.750,A,4308.3002,N,07726.2636,W,0.03,7.71,200519,,,A*73
$GPGGA,131946.000,4308.3002,N,07726.2636,W,1,07,1.30,136.6,M,-34.4,M,,*54
lng=-77.437728, lat=43.138339, altitude=136.60, speed=0.03, satellites=7, angle=7.7100, fixquality=1
$GPRMC,131946.250,A,4308.3002,N,07726.2636,W,0.05,33.91,200519,,,A*4A
$GPGGA,131946.500,4308.3002,N,07726.2636,W,1,07,1.30,136.6,M,-34.4,M,,*51
lng=-77.437728, lat=43.138339, altitude=136.60, speed=0.05, satellites=7, angle=33.9100, fixquality=1
$GPRMC,131946.750,A,4308.3001,N,07726.2636,W,0.07,336.01,200519,,,A*71
$GPGGA,131947.000,4308.3001,N,07726.2637,W,1,07,1.30,136.6,M,-34.4,M,,*57
lng=-77.437728, lat=43.138339, altitude=136.60, speed=0.07, satellites=7, angle=336.0100, fixquality=1
$GPRMC,131947.250,A,4308.3001,N,07726.2637,W,0.05,52.19,200519,,,A*4E
$GPGGA,131947.500,4308.3001,N,07726.2637,W,1,07,1.30,136.7,M,-34.4,M,,*53
lng=-77.437728, lat=43.138339, altitude=136.60, speed=0.05, satellites=7, angle=52.1900, fixquality=1
$GPRMC,131947.750,A,4308.3001,N,07726.2637,W,0.04,56.99,200519,,,A*46
$GPGGA,131948.000,4308.3001,N,07726.2637,W,1,07,1.30,136.8,M,-34.4,M,,*56
lng=-77.437728, lat=43.138339, altitude=136.70, speed=0.04, satellites=7, angle=56.9900, fixquality=1
$GPRMC,131948.250,A,4308.3001,N,07726.2637,W,0.06,28.79,200519,,,A*49
$GPGGA,131948.500,4308.3001,N,07726.2637,W,1,07,1.30,137.0,M,-34.4,M,,*5A
lng=-77.437728, lat=43.138339, altitude=136.80, speed=0.06, satellites=7, angle=28.7900, fixquality=1
$GPRMC,131948.750,A,4308.3001,N,07726.2637,W,0.22,4.75,200519,,,A*78
$GPGGA,131949.000,4308.3001,N,07726.2637,W,1,07,1.30,137.2,M,-34.4,M,,*5C
lng=-77.437728, lat=43.138339, altitude=137.00, speed=0.22, satellites=7, angle=4.7500, fixquality=1
$GPRMC,131949.250,A,4308.3001,N,07726.2637,W,0.41,7.42,200519,,,A*7E
$GPGGA,131949.500,4308.3002,N,07726.2637,W,1,07,1.30,137.5,M,-34.4,M,,*5D
lng=-77.437728, lat=43.138339, altitude=137.20, speed=0.41, satellites=7, angle=7.4200, fixquality=1
$GPRMC,131949.750,A,4308.3002,N,07726.2637,W,0.89,7.36,200519,,,A*7F
$GPGGA,131950.000,4308.3003,N,07726.2637,W,1,07,1.30,137.7,M,-34.4,M,,*53
lng=-77.437728, lat=43.138339, altitude=137.50, speed=0.89, satellites=7, angle=7.3600, fixquality=1
$GPRMC,131950.250,A,4308.3004,N,07726.2637,W,1.16,11.22,200519,,,A*41
$GPGGA,131950.500,4308.3005,N,07726.2637,W,1,07,1.30,137.9,M,-34.4,M,,*5E
lng=-77.437728, lat=43.138339, altitude=137.70, speed=1.16, satellites=7, angle=11.2200, fixquality=1
$GPRMC,131950.750,A,4308.3005,N,07726.2637,W,1.70,13.49,200519,,,A*4A
$GPGGA,131951.000,4308.3007,N,07726.2637,W,1,07,1.30,138.1,M,-34.4,M,,*5F
lng=-77.437728, lat=43.138339, altitude=137.90, speed=1.70, satellites=7, angle=13.4900, fixquality=1
$GPRMC,131951.250,A,4308.3008,N,07726.2637,W,1.98,7.86,200519,,,A*73
$GPGGA,131951.500,4308.3009,N,07726.2637,W,1,07,1.30,138.3,M,-34.4,M,,*56
lng=-77.437728, lat=43.138347, altitude=138.10, speed=1.98, satellites=7, angle=7.8600, fixquality=1
$GPRMC,131951.750,A,4308.3010,N,07726.2637,W,2.19,8.55,200519,,,A*74
$GPGGA,131952.000,4308.3011,N,07726.2637,W,1,07,1.30,138.6,M,-34.4,M,,*5C
lng=-77.437728, lat=43.138347, altitude=138.30, speed=2.19, satellites=7, angle=8.5500, fixquality=1
$GPRMC,131952.250,A,4308.3012,N,07726.2637,W,2.37,9.91,200519,,,A*75
$GPGGA,131952.500,4308.3014,N,07726.2637,W,1,07,1.30,138.8,M,-34.4,M,,*52
lng=-77.437728, lat=43.138355, altitude=138.60, speed=2.37, satellites=7, angle=9.9100, fixquality=1
$GPRMC,131952.750,A,4308.3015,N,07726.2637,W,2.44,6.39,200519,,,A*7E
$GPGGA,131953.000,4308.3016,N,07726.2637,W,1,07,1.30,139.0,M,-34.4,M,,*5D
lng=-77.437728, lat=43.138355, altitude=138.80, speed=2.44, satellites=7, angle=6.3900, fixquality=1
$GPRMC,131953.250,A,4308.3018,N,07726.2637,W,2.58,11.21,200519,,,A*45
$GPGGA,131953.500,4308.3019,N,07726.2637,W,1,07,1.30,139.3,M,-34.4,M,,*54
lng=-77.437728, lat=43.138362, altitude=139.00, speed=2.58, satellites=7, angle=11.2100, fixquality=1
$GPRMC,131953.750,A,4308.3021,N,07726.2638,W,2.72,6.65,200519,,,A*7B
$GPGGA,131954.000,4308.3023,N,07726.2638,W,1,07,1.30,139.5,M,-34.4,M,,*56
lng=-77.437728, lat=43.138370, altitude=139.30, speed=2.72, satellites=7, angle=6.6500, fixquality=1
$GPRMC,131954.250,A,4308.3025,N,07726.2638,W,3.33,11.94,200519,,,A*41
$GPGGA,131954.500,4308.3027,N,07726.2637,W,1,07,1.30,139.8,M,-34.4,M,,*55
lng=-77.437728, lat=43.138378, altitude=139.50, speed=3.33, satellites=7, angle=11.9400, fixquality=1
$GPRMC,131954.750,A,4308.3029,N,07726.2637,W,3.21,10.77,200519,,,A*48
$GPGGA,131955.000,4308.3030,N,07726.2638,W,1,07,1.30,140.0,M,-34.4,M,,*5E
lng=-77.437728, lat=43.138378, altitude=139.80, speed=3.21, satellites=7, angle=10.7700, fixquality=1
$GPRMC,131955.250,A,4308.3030,N,07726.2638,W,2.34,6.73,200519,,,A*7D
$GPGGA,131955.500,4308.3032,N,07726.2639,W,1,07,1.30,140.3,M,-34.4,M,,*5B
lng=-77.437728, lat=43.138385, altitude=140.00, speed=2.34, satellites=7, angle=6.7300, fixquality=1
$GPRMC,131955.750,A,4308.3033,N,07726.2639,W,2.21,3.86,200519,,,A*71
$GPGGA,131956.000,4308.3034,N,07726.2640,W,1,07,1.30,140.6,M,-34.4,M,,*50
lng=-77.437728, lat=43.138385, altitude=140.30, speed=2.21, satellites=7, angle=3.8600, fixquality=1
$GPRMC,131956.250,A,4308.3035,N,07726.2640,W,2.26,5.68,200519,,,A*7E
$GPGGA,131956.500,4308.3036,N,07726.2640,W,1,07,1.30,140.9,M,-34.4,M,,*58
lng=-77.437736, lat=43.138393, altitude=140.60, speed=2.26, satellites=7, angle=5.6800, fixquality=1
$GPRMC,131956.750,A,4308.3037,N,07726.2641,W,1.87,5.39,200519,,,A*74
$GPGGA,131957.000,4308.3037,N,07726.2641,W,1,07,1.30,141.2,M,-34.4,M,,*56
lng=-77.437736, lat=43.138393, altitude=140.90, speed=1.87, satellites=7, angle=5.3900, fixquality=1
$GPRMC,131957.250,A,4308.3038,N,07726.2641,W,1.58,10.48,200519,,,A*4F
$GPGGA,131957.500,4308.3037,N,07726.2641,W,1,07,1.30,141.6,M,-34.4,M,,*57
lng=-77.437736, lat=43.138393, altitude=141.20, speed=1.58, satellites=7, angle=10.4800, fixquality=1
$GPRMC,131957.750,A,4308.3037,N,07726.2641,W,0.71,20.03,200519,,,A*43
$GPGGA,131958.000,4308.3037,N,07726.2642,W,1,07,1.30,141.9,M,-34.4,M,,*51
lng=-77.437736, lat=43.138393, altitude=141.60, speed=0.71, satellites=7, angle=20.0300, fixquality=1
$GPRMC,131958.250,A,4308.3037,N,07726.2642,W,0.73,25.74,200519,,,A*4D
$GPGGA,131958.500,4308.3037,N,07726.2642,W,1,07,1.30,142.3,M,-34.4,M,,*5D
lng=-77.437736, lat=43.138393, altitude=141.90, speed=0.73, satellites=7, angle=25.7400, fixquality=1
$GPRMC,131958.750,A,4308.3036,N,07726.2642,W,0.58,18.87,200519,,,A*42
$GPGGA,131959.000,4308.3037,N,07726.2643,W,1,07,1.30,142.6,M,-34.4,M,,*5D
lng=-77.437736, lat=43.138393, altitude=142.30, speed=0.58, satellites=7, angle=18.8700, fixquality=1
$GPRMC,131959.250,A,4308.3037,N,07726.2643,W,0.62,12.65,200519,,,A*49
$GPGGA,131959.500,4308.3037,N,07726.2643,W,1,07,1.30,142.9,M,-34.4,M,,*57
lng=-77.437736, lat=43.138393, altitude=142.60, speed=0.62, satellites=7, angle=12.6500, fixquality=1
$GPRMC,131959.750,A,4308.3038,N,07726.2642,W,0.85,19.73,200519,,,A*47
$GPGGA,132000.000,4308.3038,N,07726.2643,W,1,07,1.30,143.2,M,-34.4,M,,*51
lng=-77.437736, lat=43.138393, altitude=142.90, speed=0.85, satellites=7, angle=19.7300, fixquality=1
$GPRMC,132000.250,A,4308.3039,N,07726.2643,W,1.03,13.16,200519,,,A*42
$GPGGA,132000.500,4308.3041,N,07726.2643,W,1,07,1.30,143.5,M,-34.4,M,,*5D
lng=-77.437736, lat=43.138393, altitude=143.20, speed=1.03, satellites=7, angle=13.1600, fixquality=1
$GPRMC,132000.750,A,4308.3043,N,07726.2643,W,1.37,8.76,200519,,,A*71
$GPGGA,132001.000,4308.3044,N,07726.2643,W,1,07,1.30,143.8,M,-34.4,M,,*51
lng=-77.437736, lat=43.138404, altitude=143.50, speed=1.37, satellites=7, angle=8.7600, fixquality=1
$GPRMC,132001.250,A,4308.3046,N,07726.2644,W,1.48,5.53,200519,,,A*75
$GPGGA,132001.500,4308.3046,N,07726.2644,W,1,07,1.30,144.1,M,-34.4,M,,*5F
lng=-77.437736, lat=43.138412, altitude=143.80, speed=1.48, satellites=7, angle=5.5300, fixquality=1
$GPRMC,132001.750,A,4308.3047,N,07726.2644,W,1.48,4.00,200519,,,A*76
$GPGGA,132002.000,4308.3048,N,07726.2644,W,1,07,1.30,144.5,M,-34.4,M,,*53
lng=-77.437736, lat=43.138412, altitude=144.10, speed=1.48, satellites=7, angle=4.0000, fixquality=1
$GPRMC,132002.250,A,4308.3049,N,07726.2644,W,1.54,6.99,200519,,,A*71
$GPGGA,132002.500,4308.3050,N,07726.2643,W,1,07,1.30,144.9,M,-34.4,M,,*54
lng=-77.437736, lat=43.138412, altitude=144.50, speed=1.54, satellites=7, angle=6.9900, fixquality=1
$GPRMC,132002.750,A,4308.3054,N,07726.2643,W,1.69,10.73,200519,,,A*42
$GPGGA,132003.000,4308.3055,N,07726.2643,W,1,07,1.30,145.5,M,-34.4,M,,*58
lng=-77.437736, lat=43.138420, altitude=144.90, speed=1.69, satellites=7, angle=10.7300, fixquality=1
$GPRMC,132003.250,A,4308.3057,N,07726.2643,W,2.00,8.24,200519,,,A*72
$GPGGA,132003.500,4308.3059,N,07726.2642,W,1,07,1.30,146.0,M,-34.4,M,,*56
lng=-77.437736, lat=43.138427, altitude=145.50, speed=2.00, satellites=7, angle=8.2400, fixquality=1
$GPRMC,132003.750,A,4308.3062,N,07726.2641,W,3.28,27.35,200519,,,A*45
$GPGGA,132004.000,4308.3064,N,07726.2640,W,1,07,1.30,146.4,M,-34.4,M,,*5C
lng=-77.437736, lat=43.138435, altitude=146.00, speed=3.28, satellites=7, angle=27.3500, fixquality=1
$GPRMC,132004.250,A,4308.3067,N,07726.2637,W,3.76,34.86,200519,,,A*42
$GPGGA,132004.500,4308.3069,N,07726.2635,W,1,07,1.30,146.7,M,-34.4,M,,*55
lng=-77.437728, lat=43.138442, altitude=146.40, speed=3.76, satellites=7, angle=34.8600, fixquality=1
$GPRMC,132004.750,A,4308.3071,N,07726.2633,W,3.78,37.72,200519,,,A*42
$GPGGA,132005.000,4308.3072,N,07726.2631,W,1,07,1.30,146.9,M,-34.4,M,,*51
lng=-77.437721, lat=43.138450, altitude=146.70, speed=3.78, satellites=7, angle=37.7200, fixquality=1
$GPRMC,132005.250,A,4308.3077,N,07726.2629,W,3.04,54.40,200519,,,A*44
$GPGGA,132005.500,4308.3081,N,07726.2628,W,1,07,1.30,146.9,M,-34.4,M,,*50
lng=-77.437713, lat=43.138462, altitude=146.90, speed=3.04, satellites=7, angle=54.4000, fixquality=1
$GPRMC,132005.750,A,4308.3083,N,07726.2626,W,2.42,63.82,200519,,,A*4C
$GPGGA,132006.000,4308.3083,N,07726.2623,W,1,07,1.30,147.0,M,-34.4,M,,*57
lng=-77.437713, lat=43.138469, altitude=146.90, speed=2.42, satellites=7, angle=63.8200, fixquality=1
$GPRMC,132006.250,A,4308.3087,N,07726.2621,W,2.34,53.14,200519,,,A*44
$GPGGA,132006.500,4308.3090,N,07726.2620,W,1,07,1.30,147.1,M,-34.4,M,,*52
lng=-77.437705, lat=43.138477, altitude=147.00, speed=2.34, satellites=7, angle=53.1400, fixquality=1
$GPRMC,132006.750,A,4308.3092,N,07726.2619,W,1.49,56.89,200519,,,A*46
$GPGGA,132007.000,4308.3093,N,07726.2618,W,1,07,1.30,147.2,M,-34.4,M,,*5D
lng=-77.437698, lat=43.138484, altitude=147.10, speed=1.49, satellites=7, angle=56.8900, fixquality=1
$GPRMC,132007.250,A,4308.3093,N,07726.2617,W,0.84,44.69,200519,,,A*40
$GPGGA,132007.500,4308.3093,N,07726.2617,W,1,07,1.30,147.4,M,-34.4,M,,*51
lng=-77.437698, lat=43.138484, altitude=147.20, speed=0.84, satellites=7, angle=44.6900, fixquality=1
$GPRMC,132007.750,A,4308.3093,N,07726.2618,W,0.38,35.22,200519,,,A*44
$GPGGA,132008.000,4308.3094,N,07726.2619,W,1,07,1.30,147.6,M,-34.4,M,,*50
lng=-77.437698, lat=43.138484, altitude=147.40, speed=0.38, satellites=7, angle=35.2200, fixquality=1
$GPRMC,132008.250,A,4308.3095,N,07726.2620,W,0.19,268.47,200519,,,A*79
$GPGGA,132008.500,4308.3094,N,07726.2622,W,1,07,1.30,147.7,M,-34.4,M,,*5C
lng=-77.437705, lat=43.138492, altitude=147.60, speed=0.19, satellites=7, angle=268.4700, fixquality=1
$GPRMC,132008.750,A,4308.3093,N,07726.2626,W,1.02,248.86,200519,,,A*78
$GPGGA,132009.000,4308.3091,N,07726.2628,W,1,07,1.30,148.0,M,-34.4,M,,*5F
lng=-77.437713, lat=43.138484, altitude=147.70, speed=1.02, satellites=7, angle=248.8600, fixquality=1
$GPRMC,132009.250,A,4308.3089,N,07726.2632,W,1.73,241.96,200519,,,A*7C
$GPGGA,132009.500,4308.3086,N,07726.2636,W,1,07,1.30,148.2,M,-34.4,M,,*51
lng=-77.437721, lat=43.138484, altitude=148.00, speed=1.73, satellites=7, angle=241.9600, fixquality=1
$GPRMC,132009.750,A,4308.3083,N,07726.2640,W,3.45,244.71,200519,,,A*7D
$GPGGA,132010.000,4308.3081,N,07726.2646,W,1,07,1.30,148.5,M,-34.4,M,,*5B
lng=-77.437736, lat=43.138469, altitude=148.20, speed=3.45, satellites=7, angle=244.7100, fixquality=1
$GPRMC,132010.250,A,4308.3079,N,07726.2653,W,5.72,255.08,200519,,,A*7B
$GPGGA,132010.500,4308.3078,N,07726.2661,W,1,07,1.30,149.0,M,-34.4,M,,*59
lng=-77.437751, lat=43.138469, altitude=148.50, speed=5.72, satellites=7, angle=255.0800, fixquality=1
$GPRMC,132010.750,A,4308.3083,N,07726.2670,W,7.09,265.76,200519,,,A*7E
$GPGGA,132011.000,4308.3086,N,07726.2679,W,1,07,1.30,149.2,M,-34.4,M,,*57
lng=-77.437782, lat=43.138469, altitude=149.00, speed=7.09, satellites=7, angle=265.7600, fixquality=1
$GPRMC,132011.250,A,4308.3087,N,07726.2687,W,7.73,270.79,200519,,,A*70
$GPGGA,132011.500,4308.3089,N,07726.2695,W,1,07,1.30,148.9,M,-34.4,M,,*55
lng=-77.437812, lat=43.138477, altitude=149.20, speed=7.73, satellites=7, angle=270.7900, fixquality=1
$GPRMC,132011.750,A,4308.3089,N,07726.2703,W,8.82,276.04,200519,,,A*7B
$GPGGA,132012.000,4308.3092,N,07726.2712,W,1,07,1.30,148.8,M,-34.4,M,,*56
lng=-77.437843, lat=43.138484, altitude=148.90, speed=8.82, satellites=7, angle=276.0400, fixquality=1
$GPRMC,132012.250,A,4308.3097,N,07726.2721,W,10.11,281.95,200519,,,A*41
$GPGGA,132012.500,4308.3101,N,07726.2731,W,1,07,1.30,148.6,M,-34.4,M,,*57
lng=-77.437866, lat=43.138492, altitude=148.80, speed=10.11, satellites=7, angle=281.9500, fixquality=1
$GPRMC,132012.750,A,4308.3104,N,07726.2741,W,10.99,282.41,200519,,,A*43
$GPGGA,132013.000,4308.3108,N,07726.2750,W,1,07,1.30,148.5,M,-34.4,M,,*5E
lng=-77.437896, lat=43.138507, altitude=148.60, speed=10.99, satellites=7, angle=282.4100, fixquality=1
$GPRMC,132013.250,A,4308.3112,N,07726.2761,W,11.82,282.42,200519,,,A*4A
$GPGGA,132013.500,4308.3116,N,07726.2772,W,1,07,1.30,148.5,M,-34.4,M,,*54
lng=-77.437934, lat=43.138515, altitude=148.50, speed=11.82, satellites=7, angle=282.4200, fixquality=1
$GPRMC,132013.750,A,4308.3120,N,07726.2783,W,12.61,281.43,200519,,,A*4E
$GPGGA,132014.000,4308.3124,N,07726.2794,W,1,07,1.30,148.5,M,-34.4,M,,*5F
lng=-77.437973, lat=43.138534, altitude=148.50, speed=12.61, satellites=7, angle=281.4300, fixquality=1
$GPRMC,132014.250,A,4308.3128,N,07726.2805,W,12.99,281.69,200519,,,A*4A
$GPGGA,132014.500,4308.3132,N,07726.2816,W,1,07,1.30,148.5,M,-34.4,M,,*58
lng=-77.438003, lat=43.138549, altitude=148.50, speed=12.99, satellites=7, angle=281.6900, fixquality=1
$GPRMC,132014.750,A,4308.3136,N,07726.2826,W,13.25,284.08,200519,,,A*45
$GPGGA,132015.000,4308.3139,N,07726.2837,W,1,07,1.30,148.5,M,-34.4,M,,*54
lng=-77.438041, lat=43.138557, altitude=148.50, speed=13.25, satellites=7, angle=284.0800, fixquality=1
$GPRMC,132015.250,A,4308.3143,N,07726.2847,W,13.32,285.80,200519,,,A*43
$GPGGA,132015.500,4308.3146,N,07726.2857,W,1,07,1.30,148.4,M,-34.4,M,,*5E
lng=-77.438079, lat=43.138572, altitude=148.50, speed=13.32, satellites=7, angle=285.8000, fixquality=1
$GPRMC,132015.750,A,4308.3150,N,07726.2867,W,13.60,288.76,200519,,,A*45
$GPGGA,132016.000,4308.3154,N,07726.2878,W,1,07,1.30,148.4,M,-34.4,M,,*56
lng=-77.438110, lat=43.138584, altitude=148.40, speed=13.60, satellites=7, angle=288.7600, fixquality=1
$GPRMC,132016.250,A,4308.3158,N,07726.2888,W,13.71,291.28,200519,,,A*49
$GPGGA,132016.500,4308.3163,N,07726.2899,W,1,07,1.30,148.3,M,-34.4,M,,*5F
lng=-77.438140, lat=43.138599, altitude=148.40, speed=13.71, satellites=7, angle=291.2800, fixquality=1
$GPRMC,132016.750,A,4308.3169,N,07726.2911,W,14.31,293.76,200519,,,A*45
$GPGGA,132017.000,4308.3174,N,07726.2922,W,1,07,1.30,148.3,M,-34.4,M,,*5C
lng=-77.438186, lat=43.138614, altitude=148.30, speed=14.31, satellites=7, angle=293.7600, fixquality=1
$GPRMC,132017.250,A,4308.3179,N,07726.2934,W,14.80,294.16,200519,,,A*4C
$GPGGA,132017.500,4308.3185,N,07726.2948,W,1,07,1.30,148.4,M,-34.4,M,,*5C
lng=-77.438224, lat=43.138629, altitude=148.30, speed=14.80, satellites=7, angle=294.1600, fixquality=1
$GPRMC,132017.750,A,4308.3190,N,07726.2961,W,15.62,294.91,200519,,,A*4C
$GPGGA,132018.000,4308.3195,N,07726.2974,W,1,07,1.30,148.6,M,-34.4,M,,*5A
lng=-77.438262, lat=43.138648, altitude=148.40, speed=15.62, satellites=7, angle=294.9100, fixquality=1
$GPRMC,132018.250,A,4308.3201,N,07726.2987,W,16.37,296.42,200519,,,A*4A
$GPGGA,132018.500,4308.3207,N,07726.3001,W,1,07,1.30,148.9,M,-34.4,M,,*52
lng=-77.438316, lat=43.138671, altitude=148.60, speed=16.37, satellites=7, angle=296.4200, fixquality=1
$GPRMC,132018.750,A,4308.3213,N,07726.3015,W,17.10,297.60,200519,,,A*4A
$GPGGA,132019.000,4308.3219,N,07726.3030,W,1,07,1.30,149.3,M,-34.4,M,,*50
lng=-77.438354, lat=43.138687, altitude=148.90, speed=17.10, satellites=7, angle=297.6000, fixquality=1
$GPRMC,132019.250,A,4308.3226,N,07726.3045,W,17.79,298.48,200519,,,A*47
$GPGGA,132019.500,4308.3232,N,07726.3060,W,1,07,1.30,149.9,M,-34.4,M,,*53
lng=-77.438407, lat=43.138713, altitude=149.30, speed=17.79, satellites=7, angle=298.4800, fixquality=1
$GPRMC,132019.750,A,4308.3240,N,07726.3075,W,18.47,300.42,200519,,,A*49
$GPGGA,132020.000,4308.3247,N,07726.3091,W,1,07,1.30,150.3,M,-34.4,M,,*52
lng=-77.438461, lat=43.138736, altitude=149.90, speed=18.47, satellites=7, angle=300.4200, fixquality=1
$GPRMC,132020.250,A,4308.3255,N,07726.3106,W,18.93,301.34,200519,,,A*4E
$GPGGA,132020.500,4308.3263,N,07726.3122,W,1,07,1.30,150.8,M,-34.4,M,,*53
lng=-77.438507, lat=43.138759, altitude=150.30, speed=18.93, satellites=7, angle=301.3400, fixquality=1
$GPRMC,132020.750,A,4308.3272,N,07726.3137,W,19.01,302.95,200519,,,A*4E
$GPGGA,132021.000,4308.3281,N,07726.3152,W,1,07,1.30,151.3,M,-34.4,M,,*56
lng=-77.438560, lat=43.138786, altitude=150.80, speed=19.01, satellites=7, angle=302.9500, fixquality=1
$GPRMC,132021.250,A,4308.3289,N,07726.3168,W,19.39,304.01,200519,,,A*44
$GPGGA,132021.500,4308.3298,N,07726.3184,W,1,07,1.30,151.6,M,-34.4,M,,*55
lng=-77.438613, lat=43.138816, altitude=151.30, speed=19.39, satellites=7, angle=304.0100, fixquality=1
$GPRMC,132021.750,A,4308.3306,N,07726.3200,W,20.30,303.99,200519,,,A*4F
$GPGGA,132022.000,4308.3315,N,07726.3216,W,1,07,1.30,151.8,M,-34.4,M,,*51
lng=-77.438667, lat=43.138843, altitude=151.60, speed=20.30, satellites=7, angle=303.9900, fixquality=1
$GPRMC,132022.250,A,4308.3324,N,07726.3232,W,20.91,304.66,200519,,,A*44
$GPGGA,132022.500,4308.3333,N,07726.3248,W,1,07,1.30,152.0,M,-34.4,M,,*50
lng=-77.438720, lat=43.138874, altitude=151.80, speed=20.91, satellites=7, angle=304.6600, fixquality=1
$GPRMC,132022.750,A,4308.3342,N,07726.3265,W,21.55,305.16,200519,,,A*4C
$GPGGA,132023.000,4308.3350,N,07726.3282,W,1,07,1.30,152.1,M,-34.4,M,,*56
lng=-77.438774, lat=43.138900, altitude=152.00, speed=21.55, satellites=7, angle=305.1600, fixquality=1
$GPRMC,132023.250,A,4308.3359,N,07726.3299,W,21.80,305.48,200519,,,A*42
$GPGGA,132023.500,4308.3368,N,07726.3315,W,1,07,1.30,152.2,M,-34.4,M,,*54
lng=-77.438835, lat=43.138931, altitude=152.10, speed=21.80, satellites=7, angle=305.4800, fixquality=1
$GPRMC,132023.750,A,4308.3378,N,07726.3332,W,21.84,305.48,200519,,,A*40
$GPGGA,132024.000,4308.3387,N,07726.3348,W,1,07,1.30,152.4,M,-34.4,M,,*59
lng=-77.438880, lat=43.138965, altitude=152.20, speed=21.84, satellites=7, angle=305.4800, fixquality=1
$GPRMC,132024.250,A,4308.3396,N,07726.3365,W,21.90,304.73,200519,,,A*4C
$GPGGA,132024.500,4308.3405,N,07726.3382,W,1,07,1.30,152.6,M,-34.4,M,,*55
lng=-77.438941, lat=43.138988, altitude=152.40, speed=21.90, satellites=7, angle=304.7300, fixquality=1
$GPRMC,132024.750,A,4308.3414,N,07726.3398,W,21.96,304.31,200519,,,A*46
$GPGGA,132025.000,4308.3423,N,07726.3415,W,1,07,1.30,152.8,M,-34.4,M,,*52
lng=-77.438995, lat=43.139022, altitude=152.60, speed=21.96, satellites=7, angle=304.3100, fixquality=1
$GPRMC,132025.250,A,4308.3432,N,07726.3432,W,22.02,304.39,200519,,,A*47
$GPGGA,132025.500,4308.3440,N,07726.3449,W,1,07,1.30,152.9,M,-34.4,M,,*5A
lng=-77.439056, lat=43.139053, altitude=152.80, speed=22.02, satellites=7, angle=304.3900, fixquality=1
$GPRMC,132025.750,A,4308.3449,N,07726.3466,W,22.05,304.20,200519,,,A*40
$GPGGA,132026.000,4308.3458,N,07726.3483,W,1,07,1.30,152.9,M,-34.4,M,,*53
lng=-77.439109, lat=43.139080, altitude=152.90, speed=22.05, satellites=7, angle=304.2000, fixquality=1
$GPRMC,132026.250,A,4308.3467,N,07726.3500,W,22.09,304.54,200519,,,A*44
$GPGGA,132026.500,4308.3476,N,07726.3517,W,1,07,1.30,153.0,M,-34.4,M,,*5E
lng=-77.439170, lat=43.139110, altitude=152.90, speed=22.09, satellites=7, angle=304.5400, fixquality=1
$GPRMC,132026.750,A,4308.3485,N,07726.3534,W,22.12,305.47,200519,,,A*43
$GPGGA,132027.000,4308.3493,N,07726.3551,W,1,07,1.30,153.0,M,-34.4,M,,*53
lng=-77.439224, lat=43.139144, altitude=153.00, speed=22.12, satellites=7, angle=305.4700, fixquality=1
$GPRMC,132027.250,A,4308.3503,N,07726.3568,W,22.11,305.79,200519,,,A*4F
$GPGGA,132027.500,4308.3512,N,07726.3585,W,1,07,1.30,153.3,M,-34.4,M,,*54
lng=-77.439285, lat=43.139167, altitude=153.00, speed=22.11, satellites=7, angle=305.7900, fixquality=1
$GPRMC,132027.750,A,4308.3522,N,07726.3602,W,22.17,306.42,200519,,,A*4B
$GPGGA,132028.000,4308.3532,N,07726.3619,W,1,07,1.30,153.6,M,-34.4,M,,*5F
lng=-77.439338, lat=43.139202, altitude=153.30, speed=22.17, satellites=7, angle=306.4200, fixquality=1
$GPRMC,132028.250,A,4308.3543,N,07726.3634,W,22.24,308.97,200519,,,A*45
$GPGGA,132028.500,4308.3554,N,07726.3650,W,1,07,1.30,153.7,M,-34.4,M,,*56
lng=-77.439384, lat=43.139240, altitude=153.60, speed=22.24, satellites=7, angle=308.9700, fixquality=1
$GPRMC,132028.750,A,4308.3566,N,07726.3665,W,22.26,313.35,200519,,,A*43
$GPGGA,132029.000,4308.3578,N,07726.3679,W,1,07,1.30,153.6,M,-34.4,M,,*56
lng=-77.439445, lat=43.139274, altitude=153.70, speed=22.26, satellites=7, angle=313.3500, fixquality=1
$GPRMC,132029.250,A,4308.3590,N,07726.3692,W,22.26,319.17,200519,,,A*4C
$GPGGA,132029.500,4308.3603,N,07726.3704,W,1,07,1.30,153.5,M,-34.4,M,,*54
lng=-77.439483, lat=43.139316, altitude=153.60, speed=22.26, satellites=7, angle=319.1700, fixquality=1
$GPRMC,132029.750,A,4308.3617,N,07726.3716,W,22.46,325.80,200519,,,A*4F
$GPGGA,132030.000,4308.3631,N,07726.3727,W,1,07,1.30,153.5,M,-34.4,M,,*59
lng=-77.439529, lat=43.139362, altitude=153.50, speed=22.46, satellites=7, angle=325.8000, fixquality=1
$GPRMC,132030.250,A,4308.3646,N,07726.3736,W,23.03,332.29,200519,,,A*41
$GPGGA,132030.500,4308.3662,N,07726.3744,W,1,07,1.30,153.4,M,-34.4,M,,*5E
lng=-77.439559, lat=43.139411, altitude=153.50, speed=23.03, satellites=7, angle=332.2900, fixquality=1
$GPRMC,132030.750,A,4308.3678,N,07726.3751,W,23.52,339.30,200519,,,A*4F
$GPGGA,132031.000,4308.3694,N,07726.3758,W,1,07,1.30,153.4,M,-34.4,M,,*5E
lng=-77.439582, lat=43.139461, altitude=153.40, speed=23.52, satellites=7, angle=339.3000, fixquality=1
$GPRMC,132031.250,A,4308.3710,N,07726.3764,W,23.87,341.88,200519,,,A*46
$GPGGA,132031.500,4308.3727,N,07726.3769,W,1,07,1.30,153.5,M,-34.4,M,,*51
lng=-77.439605, lat=43.139518, altitude=153.40, speed=23.87, satellites=7, angle=341.8800, fixquality=1
$GPRMC,132031.750,A,4308.3744,N,07726.3775,W,24.16,345.27,200519,,,A*4C
$GPGGA,132032.000,4308.3761,N,07726.3779,W,1,07,1.30,153.6,M,-34.4,M,,*57
lng=-77.439620, lat=43.139575, altitude=153.50, speed=24.16, satellites=7, angle=345.2700, fixquality=1
$GPRMC,132032.250,A,4308.3778,N,07726.3784,W,24.24,347.64,200519,,,A*4F
$GPGGA,132032.500,4308.3795,N,07726.3788,W,1,07,1.30,153.7,M,-34.4,M,,*56
lng=-77.439643, lat=43.139633, altitude=153.60, speed=24.24, satellites=7, angle=347.6400, fixquality=1
$GPRMC,132032.750,A,4308.3812,N,07726.3791,W,24.08,349.93,200519,,,A*45
$GPGGA,132033.000,4308.3829,N,07726.3794,W,1,07,1.30,154.1,M,-34.4,M,,*56
lng=-77.439651, lat=43.139690, altitude=153.70, speed=24.08, satellites=7, angle=349.9300, fixquality=1
$GPRMC,132033.250,A,4308.3846,N,07726.3797,W,23.72,351.39,200519,,,A*45
$GPGGA,132033.500,4308.3863,N,07726.3800,W,1,07,1.30,154.4,M,-34.4,M,,*5A
lng=-77.439666, lat=43.139747, altitude=154.10, speed=23.72, satellites=7, angle=351.3900, fixquality=1
$GPRMC,132033.750,A,4308.3880,N,07726.3801,W,23.25,354.04,200519,,,A*43
$GPGGA,132034.000,4308.3898,N,07726.3800,W,1,07,1.30,154.5,M,-34.4,M,,*5D
lng=-77.439666, lat=43.139804, altitude=154.40, speed=23.25, satellites=7, angle=354.0400, fixquality=1
$GPRMC,132034.250,A,4308.3917,N,07726.3797,W,23.95,0.22,200519,,,A*43
$GPGGA,132034.500,4308.3936,N,07726.3794,W,1,07,1.30,154.6,M,-34.4,M,,*5C
lng=-77.439666, lat=43.139858, altitude=154.50, speed=23.95, satellites=7, angle=0.2200, fixquality=1
$GPRMC,132034.750,A,4308.3954,N,07726.3790,W,25.06,5.39,200519,,,A*45
$GPGGA,132035.000,4308.3972,N,07726.3788,W,1,07,1.30,154.7,M,-34.4,M,,*54
lng=-77.439651, lat=43.139926, altitude=154.60, speed=25.06, satellites=7, angle=5.3900, fixquality=1
$GPRMC,132035.250,A,4308.3991,N,07726.3784,W,25.30,7.40,200519,,,A*44
$GPGGA,132035.500,4308.4009,N,07726.3780,W,1,07,1.30,154.9,M,-34.4,M,,*55
lng=-77.439643, lat=43.139980, altitude=154.70, speed=25.30, satellites=7, angle=7.4000, fixquality=1
$GPRMC,132035.750,A,4308.4028,N,07726.3775,W,25.57,9.48,200519,,,A*44
$GPGGA,132036.000,4308.4046,N,07726.3771,W,1,07,1.30,155.2,M,-34.4,M,,*5C
lng=-77.439620, lat=43.140048, altitude=154.90, speed=25.57, satellites=7, angle=9.4800, fixquality=1
$GPRMC,132036.250,A,4308.4065,N,07726.3766,W,26.14,10.73,200519,,,A*7D
$GPGGA,132036.500,4308.4084,N,07726.3760,W,1,07,1.30,155.4,M,-34.4,M,,*51
lng=-77.439605, lat=43.140113, altitude=155.20, speed=26.14, satellites=7, angle=10.7300, fixquality=1
$GPRMC,132036.750,A,4308.4102,N,07726.3754,W,26.41,10.88,200519,,,A*7D
$GPGGA,132037.000,4308.4121,N,07726.3749,W,1,07,1.30,155.7,M,-34.4,M,,*53
lng=-77.439590, lat=43.140171, altitude=155.40, speed=26.41, satellites=7, angle=10.8800, fixquality=1
$GPRMC,132037.250,A,4308.4140,N,07726.3744,W,26.52,10.60,200519,,,A*7A
$GPGGA,132037.500,4308.4158,N,07726.3739,W,1,07,1.30,156.0,M,-34.4,M,,*5B
lng=-77.439575, lat=43.140235, altitude=155.70, speed=26.52, satellites=7, angle=10.6000, fixquality=1
$GPRMC,132037.750,A,4308.4177,N,07726.3734,W,26.42,10.26,200519,,,A*7F
$GPGGA,132038.000,4308.4195,N,07726.3728,W,1,07,1.30,156.5,M,-34.4,M,,*55
lng=-77.439559, lat=43.140293, altitude=156.00, speed=26.42, satellites=7, angle=10.2600, fixquality=1
$GPRMC,132038.250,A,4308.4214,N,07726.3723,W,26.19,10.64,200519,,,A*7D
$GPGGA,132038.500,4308.4232,N,07726.3718,W,1,07,1.30,156.8,M,-34.4,M,,*50
lng=-77.439537, lat=43.140357, altitude=156.50, speed=26.19, satellites=7, angle=10.6400, fixquality=1
$GPRMC,132038.750,A,4308.4250,N,07726.3713,W,25.58,10.22,200519,,,A*7F
$GPGGA,132039.000,4308.4267,N,07726.3708,W,1,07,1.30,157.4,M,-34.4,M,,*58
lng=-77.439521, lat=43.140415, altitude=156.80, speed=25.58, satellites=7, angle=10.2200, fixquality=1
$GPRMC,132039.250,A,4308.4284,N,07726.3703,W,25.11,10.08,200519,,,A*76
$GPGGA,132039.500,4308.4301,N,07726.3699,W,1,07,1.30,157.9,M,-34.4,M,,*58
lng=-77.439498, lat=43.140468, altitude=157.40, speed=25.11, satellites=7, angle=10.0800, fixquality=1
$GPRMC,132039.750,A,4308.4318,N,07726.3695,W,24.32,10.15,200519,,,A*75
$GPGGA,132040.000,4308.4335,N,07726.3690,W,1,07,1.30,158.5,M,-34.4,M,,*5E
lng=-77.439491, lat=43.140525, altitude=157.90, speed=24.32, satellites=7, angle=10.1500, fixquality=1
$GPRMC,132040.250,A,4308.4351,N,07726.3686,W,23.74,10.37,200519,,,A*74
$GPGGA,132040.500,4308.4368,N,07726.3681,W,1,07,1.30,158.9,M,-34.4,M,,*5F
lng=-77.439476, lat=43.140583, altitude=158.50, speed=23.74, satellites=7, angle=10.3700, fixquality=1
$GPRMC,132040.750,A,4308.4383,N,07726.3678,W,22.96,9.96,200519,,,A*41
$GPGGA,132041.000,4308.4398,N,07726.3673,W,1,07,1.30,159.2,M,-34.4,M,,*53
lng=-77.439460, lat=43.140640, altitude=158.90, speed=22.96, satellites=7, angle=9.9600, fixquality=1
$GPRMC,132041.250,A,4308.4412,N,07726.3670,W,20.83,10.51,200519,,,A*77
$GPGGA,132041.500,4308.4424,N,07726.3667,W,1,07,1.30,159.4,M,-34.4,M,,*55
lng=-77.439453, lat=43.140689, altitude=159.20, speed=20.83, satellites=7, angle=10.5100, fixquality=1
$GPRMC,132041.750,A,4308.4436,N,07726.3664,W,18.25,10.90,200519,,,A*7B
$GPGGA,132042.000,4308.4448,N,07726.3661,W,1,07,1.30,159.7,M,-34.4,M,,*5C
lng=-77.439437, lat=43.140724, altitude=159.40, speed=18.25, satellites=7, angle=10.9000, fixquality=1
$GPRMC,132042.250,A,4308.4459,N,07726.3658,W,16.12,11.82,200519,,,A*73
$GPGGA,132042.500,4308.4469,N,07726.3659,W,1,07,1.30,160.0,M,-34.4,M,,*5C
lng=-77.439430, lat=43.140762, altitude=159.70, speed=16.12, satellites=7, angle=11.8200, fixquality=1
$GPRMC,132042.750,A,4308.4478,N,07726.3654,W,12.89,8.58,200519,,,A*40
$GPGGA,132043.000,4308.4487,N,07726.3651,W,1,07,1.30,160.1,M,-34.4,M,,*51
lng=-77.439422, lat=43.140796, altitude=160.00, speed=12.89, satellites=7, angle=8.5800, fixquality=1
$GPRMC,132043.250,A,4308.4495,N,07726.3648,W,10.78,7.78,200519,,,A*4B
$GPGGA,132043.500,4308.4501,N,07726.3647,W,1,07,1.30,159.6,M,-34.4,M,,*51
lng=-77.439414, lat=43.140827, altitude=160.10, speed=10.78, satellites=7, angle=7.7800, fixquality=1
$GPRMC,132043.750,A,4308.4507,N,07726.3646,W,8.02,8.50,200519,,,A*7B
$GPGGA,132044.000,4308.4512,N,07726.3644,W,1,07,1.30,159.8,M,-34.4,M,,*5C
lng=-77.439414, lat=43.140846, altitude=159.60, speed=8.02, satellites=7, angle=8.5000, fixquality=1
$GPRMC,132044.250,A,4308.4517,N,07726.3644,W,5.92,8.91,200519,,,A*73
$GPGGA,132044.500,4308.4521,N,07726.3643,W,1,07,1.30,160.0,M,-34.4,M,,*5C
lng=-77.439407, lat=43.140861, altitude=159.80, speed=5.92, satellites=7, angle=8.9100, fixquality=1
$GPRMC,132044.750,A,4308.4524,N,07726.3643,W,4.06,8.89,200519,,,A*74
$GPGGA,132045.000,4308.4526,N,07726.3643,W,1,07,1.30,160.2,M,-34.4,M,,*5D
lng=-77.439407, lat=43.140876, altitude=160.00, speed=4.06, satellites=7, angle=8.8900, fixquality=1
$GPRMC,132045.250,A,4308.4528,N,07726.3642,W,2.84,8.43,200519,,,A*77
$GPGGA,132045.500,4308.4529,N,07726.3641,W,1,07,1.30,160.3,M,-34.4,M,,*54
lng=-77.439407, lat=43.140876, altitude=160.20, speed=2.84, satellites=7, angle=8.4300, fixquality=1
$GPRMC,132045.750,A,4308.4531,N,07726.3640,W,1.76,8.43,200519,,,A*76
$GPGGA,132046.000,4308.4531,N,07726.3640,W,1,07,1.30,160.4,M,-34.4,M,,*5D
lng=-77.439399, lat=43.140884, altitude=160.30, speed=1.76, satellites=7, angle=8.4300, fixquality=1
$GPRMC,132046.250,A,4308.4532,N,07726.3639,W,0.07,8.43,200519,,,A*7A
$GPGGA,132046.500,4308.4532,N,07726.3639,W,1,07,1.30,160.6,M,-34.4,M,,*57
lng=-77.439399, lat=43.140884, altitude=160.40, speed=0.07, satellites=7, angle=8.4300, fixquality=1
$GPRMC,132046.750,A,4308.4532,N,07726.3640,W,0.05,8.43,200519,,,A*73
$GPGGA,132047.000,4308.4532,N,07726.3639,W,1,07,1.30,160.8,M,-34.4,M,,*5D
lng=-77.439399, lat=43.140884, altitude=160.60, speed=0.05, satellites=7, angle=8.4300, fixquality=1
$GPRMC,132047.250,A,4308.4533,N,07726.3639,W,0.16,8.43,200519,,,A*7A
$GPGGA,132047.500,4308.4534,N,07726.3638,W,1,07,1.30,160.9,M,-34.4,M,,*5E
lng=-77.439399, lat=43.140884, altitude=160.80, speed=0.16, satellites=7, angle=8.4300, fixquality=1
$GPRMC,132047.750,A,4308.4536,N,07726.3637,W,0.33,8.43,200519,,,A*73
$GPGGA,132048.000,4308.4539,N,07726.3636,W,1,07,1.30,161.0,M,-34.4,M,,*5F
lng=-77.439399, lat=43.140892, altitude=160.90, speed=0.33, satellites=7, angle=8.4300, fixquality=1
$GPRMC,132048.250,A,4308.4542,N,07726.3635,W,5.53,5.30,200519,,,A*72
$GPGGA,132048.500,4308.4546,N,07726.3635,W,1,07,1.30,161.0,M,-34.4,M,,*51
lng=-77.439384, lat=43.140903, altitude=161.00, speed=5.53, satellites=7, angle=5.3000, fixquality=1
$GPRMC,132048.750,A,4308.4550,N,07726.3635,W,6.30,354.04,200519,,,A*72
$GPGGA,132049.000,4308.4554,N,07726.3637,W,1,07,1.30,161.3,M,-34.4,M,,*57
lng=-77.439384, lat=43.140918, altitude=161.00, speed=6.30, satellites=7, angle=354.0400, fixquality=1
$GPRMC,132049.250,A,4308.4558,N,07726.3639,W,6.82,345.76,200519,,,A*7E
$GPGGA,132049.500,4308.4563,N,07726.3641,W,1,07,1.30,161.5,M,-34.4,M,,*51
lng=-77.439399, lat=43.140926, altitude=161.30, speed=6.82, satellites=7, angle=345.7600, fixquality=1
$GPRMC,132049.750,A,4308.4567,N,07726.3644,W,7.30,340.89,200519,,,A*70
$GPGGA,132050.000,4308.4572,N,07726.3647,W,1,07,1.30,161.6,M,-34.4,M,,*59
lng=-77.439407, lat=43.140941, altitude=161.50, speed=7.30, satellites=7, angle=340.8900, fixquality=1
$GPRMC,132050.250,A,4308.4577,N,07726.3649,W,8.02,335.23,200519,,,A*7D
$GPGGA,132050.500,4308.4581,N,07726.3652,W,1,07,1.30,161.6,M,-34.4,M,,*54
lng=-77.439414, lat=43.140956, altitude=161.60, speed=8.02, satellites=7, angle=335.2300, fixquality=1
$GPRMC,132050.750,A,4308.4586,N,07726.3657,W,8.42,329.22,200519,,,A*71
$GPGGA,132051.000,4308.4589,N,07726.3663,W,1,07,1.30,161.7,M,-34.4,M,,*5B
lng=-77.439430, lat=43.140975, altitude=161.60, speed=8.42, satellites=7, angle=329.2200, fixquality=1
$GPRMC,132051.250,A,4308.4592,N,07726.3668,W,8.95,316.43,200519,,,A*7D
$GPGGA,132051.500,4308.4595,N,07726.3675,W,1,07,1.30,161.8,M,-34.4,M,,*5B
lng=-77.439445, lat=43.140983, altitude=161.70, speed=8.95, satellites=7, angle=316.4300, fixquality=1
$GPRMC,132051.750,A,4308.4599,N,07726.3682,W,9.63,308.69,200519,,,A*78
$GPGGA,132052.000,4308.4602,N,07726.3690,W,1,07,1.30,161.8,M,-34.4,M,,*5B
lng=-77.439468, lat=43.140998, altitude=161.80, speed=9.63, satellites=7, angle=308.6900, fixquality=1
$GPRMC,132052.250,A,4308.4605,N,07726.3699,W,10.50,302.89,200519,,,A*4E
$GPGGA,132052.500,4308.4608,N,07726.3709,W,1,07,1.30,161.8,M,-34.4,M,,*55
lng=-77.439498, lat=43.141006, altitude=161.80, speed=10.50, satellites=7, angle=302.8900, fixquality=1
$GPRMC,132052.750,A,4308.4610,N,07726.3720,W,11.42,295.30,200519,,,A*43
$GPGGA,132053.000,4308.4611,N,07726.3731,W,1,07,1.30,161.7,M,-34.4,M,,*5D
lng=-77.439537, lat=43.141014, altitude=161.80, speed=11.42, satellites=7, angle=295.3000, fixquality=1
$GPRMC,132053.250,A,4308.4611,N,07726.3743,W,11.55,284.97,200519,,,A*48
$GPGGA,132053.500,4308.4612,N,07726.3755,W,1,07,1.30,161.6,M,-34.4,M,,*58
lng=-77.439575, lat=43.141014, altitude=161.70, speed=11.55, satellites=7, angle=284.9700, fixquality=1
$GPRMC,132053.750,A,4308.4614,N,07726.3767,W,12.22,279.25,200519,,,A*46
$GPGGA,132054.000,4308.4615,N,07726.3780,W,1,07,1.30,161.6,M,-34.4,M,,*55
lng=-77.439605, lat=43.141025, altitude=161.60, speed=12.22, satellites=7, angle=279.2500, fixquality=1
$GPRMC,132054.250,A,4308.4617,N,07726.3792,W,12.71,278.08,200519,,,A*45
$GPGGA,132054.500,4308.4618,N,07726.3805,W,1,07,1.30,161.5,M,-34.4,M,,*5C
lng=-77.439659, lat=43.141033, altitude=161.60, speed=12.71, satellites=7, angle=278.0800, fixquality=1
$GPRMC,132054.750,A,4308.4620,N,07726.3817,W,13.07,276.85,200519,,,A*4D
$GPGGA,132055.000,4308.4620,N,07726.3830,W,1,07,1.30,161.4,M,-34.4,M,,*54
lng=-77.439697, lat=43.141033, altitude=161.50, speed=13.07, satellites=7, angle=276.8500, fixquality=1
$GPRMC,132055.250,A,4308.4621,N,07726.3842,W,13.17,276.33,200519,,,A*44
$GPGGA,132055.500,4308.4622,N,07726.3855,W,1,07,1.30,161.3,M,-34.4,M,,*57
lng=-77.439735, lat=43.141033, altitude=161.40, speed=13.17, satellites=7, angle=276.3300, fixquality=1
$GPRMC,132055.750,A,4308.4624,N,07726.3868,W,13.43,276.70,200519,,,A*4A
$GPGGA,132056.000,4308.4626,N,07726.3881,W,1,07,1.30,161.1,M,-34.4,M,,*5E
lng=-77.439781, lat=43.141040, altitude=161.30, speed=13.43, satellites=7, angle=276.7000, fixquality=1
$GPRMC,132056.250,A,4308.4628,N,07726.3894,W,13.47,276.91,200519,,,A*48
$GPGGA,132056.500,4308.4630,N,07726.3907,W,1,07,1.30,161.0,M,-34.4,M,,*52
lng=-77.439819, lat=43.141048, altitude=161.10, speed=13.47, satellites=7, angle=276.9100, fixquality=1
$GPRMC,132056.750,A,4308.4632,N,07726.3921,W,13.45,276.81,200519,,,A*4A
$GPGGA,132057.000,4308.4634,N,07726.3934,W,1,07,1.30,160.8,M,-34.4,M,,*5B
lng=-77.439865, lat=43.141056, altitude=161.00, speed=13.45, satellites=7, angle=276.8100, fixquality=1
$GPRMC,132057.250,A,4308.4635,N,07726.3947,W,13.44,277.77,200519,,,A*40
$GPGGA,132057.500,4308.4637,N,07726.3961,W,1,07,1.30,160.7,M,-34.4,M,,*52
lng=-77.439910, lat=43.141056, altitude=160.80, speed=13.44, satellites=7, angle=277.7700, fixquality=1
$GPRMC,132057.750,A,4308.4639,N,07726.3974,W,13.50,278.29,200519,,,A*48
$GPGGA,132058.000,4308.4641,N,07726.3987,W,1,07,1.30,160.5,M,-34.4,M,,*53
lng=-77.439956, lat=43.141063, altitude=160.70, speed=13.50, satellites=7, angle=278.2900, fixquality=1
$GPRMC,132058.250,A,4308.4643,N,07726.4000,W,13.47,277.99,200519,,,A*40
$GPGGA,132058.500,4308.4644,N,07726.4014,W,1,07,1.30,160.3,M,-34.4,M,,*51
lng=-77.439994, lat=43.141071, altitude=160.50, speed=13.47, satellites=7, angle=277.9900, fixquality=1
$GPRMC,132058.750,A,4308.4646,N,07726.4026,W,13.44,277.33,200519,,,A*47
$GPGGA,132059.000,4308.4647,N,07726.4038,W,1,07,1.30,160.2,M,-34.4,M,,*59
lng=-77.440048, lat=43.141071, altitude=160.30, speed=13.44, satellites=7, angle=277.3300, fixquality=1
$GPRMC,132059.250,A,4308.4650,N,07726.4051,W,13.45,276.95,200519,,,A*48
$GPGGA,132059.500,4308.4652,N,07726.4064,W,1,07,1.30,159.9,M,-34.4,M,,*50
lng=-77.440086, lat=43.141078, altitude=160.20, speed=13.45, satellites=7, angle=276.9500, fixquality=1
$GPRMC,132059.750,A,4308.4655,N,07726.4078,W,13.61,276.23,200519,,,A*48
$GPGGA,132100.000,4308.4656,N,07726.4090,W,1,07,1.30,159.6,M,-34.4,M,,*58
lng=-77.440132, lat=43.141090, altitude=159.90, speed=13.61, satellites=7, angle=276.2300, fixquality=1
$GPRMC,132100.250,A,4308.4657,N,07726.4102,W,13.51,277.09,200519,,,A*44
$GPGGA,132100.500,4308.4658,N,07726.4114,W,1,07,1.30,159.4,M,-34.4,M,,*5C
lng=-77.440170, lat=43.141098, altitude=159.60, speed=13.51, satellites=7, angle=277.0900, fixquality=1
$GPRMC,132100.750,A,4308.4658,N,07726.4127,W,13.47,277.20,200519,,,A*45
$GPGGA,132101.000,4308.4659,N,07726.4139,W,1,07,1.30,159.3,M,-34.4,M,,*51
lng=-77.440208, lat=43.141098, altitude=159.40, speed=13.47, satellites=7, angle=277.2000, fixquality=1
$GPRMC,132101.250,A,4308.4660,N,07726.4151,W,13.12,277.27,200519,,,A*4C
$GPGGA,132101.500,4308.4660,N,07726.4163,W,1,07,1.30,159.3,M,-34.4,M,,*51
lng=-77.440254, lat=43.141098, altitude=159.30, speed=13.12, satellites=7, angle=277.2700, fixquality=1
$GPRMC,132101.750,A,4308.4660,N,07726.4175,W,13.05,277.13,200519,,,A*4E
$GPGGA,132102.000,4308.4660,N,07726.4187,W,1,07,1.30,159.2,M,-34.4,M,,*5C
lng=-77.440292, lat=43.141098, altitude=159.30, speed=13.05, satellites=7, angle=277.1300, fixquality=1
$GPRMC,132102.250,A,4308.4661,N,07726.4198,W,13.00,276.04,200519,,,A*48
$GPGGA,132102.500,4308.4662,N,07726.4210,W,1,07,1.30,159.2,M,-34.4,M,,*56
lng=-77.440330, lat=43.141105, altitude=159.20, speed=13.00, satellites=7, angle=276.0400, fixquality=1
$GPRMC,132102.750,A,4308.4664,N,07726.4222,W,12.96,275.48,200519,,,A*4F
$GPGGA,132103.000,4308.4664,N,07726.4234,W,1,07,1.30,159.2,M,-34.4,M,,*52
lng=-77.440376, lat=43.141105, altitude=159.20, speed=12.96, satellites=7, angle=275.4800, fixquality=1
$GPRMC,132103.250,A,4308.4664,N,07726.4245,W,12.75,274.56,200519,,,A*49
$GPGGA,132103.500,4308.4665,N,07726.4257,W,1,07,1.30,159.1,M,-34.4,M,,*50
lng=-77.440406, lat=43.141105, altitude=159.20, speed=12.75, satellites=7, angle=274.5600, fixquality=1
$GPRMC,132103.750,A,4308.4665,N,07726.4267,W,12.31,274.77,200519,,,A*4E
$GPGGA,132104.000,4308.4665,N,07726.4278,W,1,07,1.30,159.1,M,-34.4,M,,*5F
lng=-77.440444, lat=43.141105, altitude=159.10, speed=12.31, satellites=7, angle=274.7700, fixquality=1
$GPRMC,132104.250,A,4308.4667,N,07726.4289,W,12.08,276.34,200519,,,A*41
$GPGGA,132104.500,4308.4668,N,07726.4299,W,1,07,1.30,159.1,M,-34.4,M,,*58
lng=-77.440475, lat=43.141113, altitude=159.10, speed=12.08, satellites=7, angle=276.3400, fixquality=1
$GPRMC,132104.750,A,4308.4669,N,07726.4309,W,11.69,277.61,200519,,,A*46
$GPGGA,132105.000,4308.4670,N,07726.4319,W,1,07,1.30,159.1,M,-34.4,M,,*5C
lng=-77.440513, lat=43.141113, altitude=159.10, speed=11.69, satellites=7, angle=277.6100, fixquality=1
$GPRMC,132105.250,A,4308.4671,N,07726.4328,W,11.00,277.00,200519,,,A*40
$GPGGA,132105.500,4308.4674,N,07726.4338,W,1,07,1.30,159.1,M,-34.4,M,,*5E
lng=-77.440544, lat=43.141120, altitude=159.10, speed=11.00, satellites=7, angle=277.0000, fixquality=1
$GPRMC,132105.750,A,4308.4682,N,07726.4343,W,9.74,276.61,200519,,,A*78
$GPGGA,132106.000,4308.4684,N,07726.4348,W,1,07,1.30,159.0,M,-34.4,M,,*51
lng=-77.440567, lat=43.141136, altitude=159.10, speed=9.74, satellites=7, angle=276.6100, fixquality=1
$GPRMC,132106.250,A,4308.4686,N,07726.4354,W,8.33,277.22,200519,,,A*78
$GPGGA,132106.500,4308.4687,N,07726.4359,W,1,07,1.30,159.2,M,-34.4,M,,*55
lng=-77.440589, lat=43.141147, altitude=159.00, speed=8.33, satellites=7, angle=277.2200, fixquality=1
$GPRMC,132106.750,A,4308.4693,N,07726.4363,W,6.17,273.26,200519,,,A*75
$GPGGA,132107.000,4308.4698,N,07726.4366,W,1,07,1.30,159.2,M,-34.4,M,,*53
lng=-77.440605, lat=43.141155, altitude=159.20, speed=6.17, satellites=7, angle=273.2600, fixquality=1
$GPRMC,132107.250,A,4308.4701,N,07726.4369,W,4.61,274.77,200519,,,A*71
$GPGGA,132107.500,4308.4700,N,07726.4371,W,1,07,1.30,159.1,M,-34.4,M,,*53
lng=-77.440620, lat=43.141170, altitude=159.20, speed=4.61, satellites=7, angle=274.7700, fixquality=1
$GPRMC,132107.750,A,4308.4703,N,07726.4373,W,3.29,281.80,200519,,,A*74
$GPGGA,132108.000,4308.4705,N,07726.4375,W,1,07,1.30,159.1,M,-34.4,M,,*58
lng=-77.440628, lat=43.141170, altitude=159.10, speed=3.29, satellites=7, angle=281.8000, fixquality=1
$GPRMC,132108.250,A,4308.4704,N,07726.4377,W,2.40,281.80,200519,,,A*73
$GPGGA,132108.500,4308.4705,N,07726.4377,W,1,07,1.30,159.2,M,-34.4,M,,*5C
lng=-77.440628, lat=43.141170, altitude=159.10, speed=2.40, satellites=7, angle=281.8000, fixquality=1
$GPRMC,132108.750,A,4308.4707,N,07726.4377,W,1.29,281.80,200519,,,A*79
$GPGGA,132109.000,4308.4709,N,07726.4376,W,1,07,1.30,159.2,M,-34.4,M,,*55
lng=-77.440628, lat=43.141178, altitude=159.20, speed=1.29, satellites=7, angle=281.8000, fixquality=1
$GPRMC,132109.250,A,4308.4710,N,07726.4377,W,0.73,281.80,200519,,,A*75
$GPGGA,132109.500,4308.4711,N,07726.4377,W,1,07,1.30,159.3,M,-34.4,M,,*59
lng=-77.440628, lat=43.141185, altitude=159.20, speed=0.73, satellites=7, angle=281.8000, fixquality=1
$GPRMC,132109.750,A,4308.4712,N,07726.4377,W,0.42,281.80,200519,,,A*70
$GPGGA,132110.000,4308.4713,N,07726.4378,W,1,07,1.30,158.6,M,-34.4,M,,*5D
lng=-77.440628, lat=43.141185, altitude=159.30, speed=0.42, satellites=7, angle=281.8000, fixquality=1
$GPRMC,132110.250,A,4308.4714,N,07726.4378,W,0.31,281.80,200519,,,A*70
$GPGGA,132110.500,4308.4715,N,07726.4377,W,1,07,1.30,158.2,M,-34.4,M,,*55
lng=-77.440635, lat=43.141185, altitude=158.60, speed=0.31, satellites=7, angle=281.8000, fixquality=1
$GPRMC,132110.750,A,4308.4717,N,07726.4376,W,0.29,281.80,200519,,,A*71
$GPGGA,132111.000,4308.4718,N,07726.4375,W,1,07,1.30,158.1,M,-34.4,M,,*5D
lng=-77.440628, lat=43.141193, altitude=158.20, speed=0.29, satellites=7, angle=281.8000, fixquality=1
$GPRMC,132111.250,A,4308.4719,N,07726.4373,W,0.29,281.80,200519,,,A*7E
$GPGGA,132111.500,4308.4719,N,07726.4372,W,1,07,1.30,157.9,M,-34.4,M,,*59
lng=-77.440628, lat=43.141193, altitude=158.10, speed=0.29, satellites=7, angle=281.8000, fixquality=1
$GPRMC,132111.750,A,4308.4720,N,07726.4370,W,0.34,281.80,200519,,,A*7E
$GPGGA,132112.000,4308.4721,N,07726.4370,W,1,07,1.30,157.8,M,-34.4,M,,*57
lng=-77.440620, lat=43.141201, altitude=157.90, speed=0.34, satellites=7, angle=281.8000, fixquality=1
$GPRMC,132112.250,A,4308.4721,N,07726.4370,W,0.36,281.80,200519,,,A*7B
$GPGGA,132112.500,4308.4721,N,07726.4370,W,1,07,1.30,157.9,M,-34.4,M,,*53
lng=-77.440620, lat=43.141201, altitude=157.80, speed=0.36, satellites=7, angle=281.8000, fixquality=1
$GPRMC,132112.750,A,4308.4721,N,07726.4370,W,0.27,281.80,200519,,,A*7E
$GPGGA,132113.000,4308.4721,N,07726.4369,W,1,07,1.30,157.9,M,-34.4,M,,*5F
lng=-77.440620, lat=43.141201, altitude=157.90, speed=0.27, satellites=7, angle=281.8000, fixquality=1
$GPRMC,132113.250,A,4308.4722,N,07726.4369,W,0.28,281.80,200519,,,A*7E
$GPGGA,132113.500,4308.4722,N,07726.4369,W,1,07,1.30,157.9,M,-34.4,M,,*59
lng=-77.440620, lat=43.141201, altitude=157.90, speed=0.28, satellites=7, angle=281.8000, fixquality=1
$GPRMC,132113.750,A,4308.4722,N,07726.4369,W,0.25,281.80,200519,,,A*76
$GPGGA,132114.000,4308.4722,N,07726.4369,W,1,07,1.30,158.0,M,-34.4,M,,*5D
lng=-77.440620, lat=43.141201, altitude=157.90, speed=0.25, satellites=7, angle=281.8000, fixquality=1
$GPRMC,132114.250,A,4308.4722,N,07726.4369,W,0.19,281.80,200519,,,A*7B
$GPGGA,132114.500,4308.4722,N,07726.4369,W,1,07,1.30,158.0,M,-34.4,M,,*58
lng=-77.440620, lat=43.141201, altitude=158.00, speed=0.19, satellites=7, angle=281.8000, fixquality=1
$GPRMC,132114.750,A,4308.4722,N,07726.4369,W,0.00,281.80,200519,,,A*76
$GPGGA,132115.000,4308.4722,N,07726.4369,W,1,07,1.30,158.0,M,-34.4,M,,*5C
lng=-77.440620, lat=43.141201, altitude=158.00, speed=0.00, satellites=7, angle=281.8000, fixquality=1
$GPRMC,132115.250,A,4308.4722,N,07726.4369,W,0.06,281.80,200519,,,A*74
$GPGGA,132115.500,4308.4722,N,07726.4369,W,1,07,1.30,158.0,M,-34.4,M,,*59
lng=-77.440620, lat=43.141201, altitude=158.00, speed=0.06, satellites=7, angle=281.8000, fixquality=1
$GPRMC,132115.750,A,4308.4722,N,07726.4369,W,0.09,281.80,200519,,,A*7E
$GPGGA,132116.000,4308.4722,N,07726.4369,W,1,07,1.30,158.0,M,-34.4,M,,*5F
lng=-77.440620, lat=43.141201, altitude=158.00, speed=0.09, satellites=7, angle=281.8000, fixquality=1
$GPRMC,132116.250,A,4308.4722,N,07726.4369,W,0.10,281.80,200519,,,A*70
$GPGGA,132116.500,4308.4722,N,07726.4369,W,1,07,1.30,158.0,M,-34.4,M,,*5A
lng=-77.440620, lat=43.141201, altitude=158.00, speed=0.10, satellites=7, angle=281.8000, fixquality=1
$GPRMC,132116.750,A,4308.4722,N,07726.4369,W,0.11,281.80,200519,,,A*74
$GPGGA,132117.000,4308.4722,N,07726.4369,W,1,07,1.30,158.0,M,-34.4,M,,*5E
lng=-77.440620, lat=43.141201, altitude=158.00, speed=0.11, satellites=7, angle=281.8000, fixquality=1
$GPRMC,132117.250,A,4308.4722,N,07726.4370,W,0.08,281.80,200519,,,A*70
$GPGGA,132117.500,4308.4722,N,07726.4370,W,1,07,1.30,158.0,M,-34.4,M,,*53
lng=-77.440620, lat=43.141201, altitude=158.00, speed=0.08, satellites=7, angle=281.8000, fixquality=1
$GPRMC,132117.750,A,4308.4722,N,07726.4370,W,0.01,281.80,200519,,,A*7C
$GPGGA,132118.000,4308.4722,N,07726.4370,W,1,07,1.30,158.0,M,-34.4,M,,*59
lng=-77.440620, lat=43.141201, altitude=158.00, speed=0.01, satellites=7, angle=281.8000, fixquality=1
$GPRMC,132118.250,A,4308.4722,N,07726.4370,W,0.05,281.80,200519,,,A*72
$GPGGA,132118.500,4308.4722,N,07726.4370,W,1,07,1.30,158.0,M,-34.4,M,,*5C
lng=-77.440620, lat=43.141201, altitude=158.00, speed=0.05, satellites=7, angle=281.8000, fixquality=1
$GPRMC,132118.750,A,4308.4722,N,07726.4370,W,0.10,281.80,200519,,,A*73
$GPGGA,132119.000,4308.4722,N,07726.4370,W,1,07,1.30,158.0,M,-34.4,M,,*58
lng=-77.440620, lat=43.141201, altitude=158.00, speed=0.10, satellites=7, angle=281.8000, fixquality=1
$GPRMC,132119.250,A,4308.4722,N,07726.4370,W,0.05,281.80,200519,,,A*73
$GPGGA,132119.500,4308.4722,N,07726.4370,W,1,07,1.30,158.0,M,-34.4,M,,*5D
lng=-77.440620, lat=43.141201, altitude=158.00, speed=0.05, satellites=7, angle=281.8000, fixquality=1
$GPRMC,132119.750,A,4308.4722,N,07726.4370,W,0.08,281.80,200519,,,A*7B
$GPGGA,132120.000,4308.4722,N,07726.4370,W,1,07,1.30,158.0,M,-34.4,M,,*52
lng=-77.440620, lat=43.141201, altitude=158.00, speed=0.08, satellites=7, angle=281.8000, fixquality=1
$GPRMC,132120.250,A,4308.4722,N,07726.4370,W,0.13,281.80,200519,,,A*7E
$GPGGA,132120.500,4308.4722,N,07726.4370,W,1,07,1.30,158.0,M,-34.4,M,,*57
lng=-77.440620, lat=43.141201, altitude=158.00, speed=0.13, satellites=7, angle=281.8000, fixquality=1
$GPRMC,132120.750,A,4308.4722,N,07726.4370,W,0.21,258.42,200519,,,A*70
$GPGGA,132121.000,4308.4722,N,07726.4370,W,1,07,1.30,158.0,M,-34.4,M,,*53
lng=-77.440620, lat=43.141201, altitude=158.00, speed=0.21, satellites=7, angle=258.4200, fixquality=1
$GPRMC,132121.250,A,4308.4722,N,07726.4371,W,0.18,241.73,200519,,,A*75
$GPGGA,132121.500,4308.4722,N,07726.4371,W,1,07,1.30,158.0,M,-34.4,M,,*57
lng=-77.440620, lat=43.141201, altitude=158.00, speed=0.18, satellites=7, angle=241.7300, fixquality=1
$GPRMC,132121.750,A,4308.4722,N,07726.4371,W,0.16,241.73,200519,,,A*7E
$GPGGA,132122.000,4308.4722,N,07726.4371,W,1,07,1.30,158.0,M,-34.4,M,,*51
lng=-77.440620, lat=43.141201, altitude=158.00, speed=0.16, satellites=7, angle=241.7300, fixquality=1
$GPRMC,132122.250,A,4308.4722,N,07726.4371,W,0.13,241.73,200519,,,A*7D
$GPGGA,132122.500,4308.4722,N,07726.4371,W,1,07,1.30,158.1,M,-34.4,M,,*55
lng=-77.440620, lat=43.141201, altitude=158.00, speed=0.13, satellites=7, angle=241.7300, fixquality=1
$GPRMC,132122.750,A,4308.4722,N,07726.4371,W,0.13,241.73,200519,,,A*78
$GPGGA,132123.000,4308.4721,N,07726.4371,W,1,07,1.30,158.1,M,-34.4,M,,*52
lng=-77.440620, lat=43.141201, altitude=158.10, speed=0.13, satellites=7, angle=241.7300, fixquality=1
$GPRMC,132123.250,A,4308.4721,N,07726.4371,W,0.14,241.73,200519,,,A*78
$GPGGA,132123.500,4308.4721,N,07726.4371,W,1,07,1.30,158.1,M,-34.4,M,,*57
lng=-77.440620, lat=43.141201, altitude=158.10, speed=0.14, satellites=7, angle=241.7300, fixquality=1
$GPRMC,132123.750,A,4308.4721,N,07726.4372,W,0.26,241.73,200519,,,A*7F
$GPGGA,132124.000,4308.4721,N,07726.4372,W,1,07,1.30,158.1,M,-34.4,M,,*56
lng=-77.440620, lat=43.141201, altitude=158.10, speed=0.26, satellites=7, angle=241.7300, fixquality=1
$GPRMC,132124.250,A,4308.4721,N,07726.4372,W,0.35,241.73,200519,,,A*7F
$GPGGA,132124.500,4308.4721,N,07726.4373,W,1,07,1.30,158.1,M,-34.4,M,,*52
lng=-77.440620, lat=43.141201, altitude=158.10, speed=0.35, satellites=7, angle=241.7300, fixquality=1
$GPRMC,132124.750,A,4308.4721,N,07726.4373,W,0.55,260.61,200519,,,A*7D
$GPGGA,132125.000,4308.4721,N,07726.4374,W,1,07,1.30,158.1,M,-34.4,M,,*51
lng=-77.440628, lat=43.141201, altitude=158.10, speed=0.55, satellites=7, angle=260.6100, fixquality=1
$GPRMC,132125.250,A,4308.4721,N,07726.4374,W,0.71,261.24,200519,,,A*78
$GPGGA,132125.500,4308.4721,N,07726.4375,W,1,07,1.30,158.1,M,-34.4,M,,*55
lng=-77.440628, lat=43.141201, altitude=158.10, speed=0.71, satellites=7, angle=261.2400, fixquality=1
$GPRMC,132125.750,A,4308.4721,N,07726.4376,W,0.91,259.84,200519,,,A*70
$GPGGA,132126.000,4308.4720,N,07726.4376,W,1,07,1.30,158.1,M,-34.4,M,,*51
lng=-77.440628, lat=43.141201, altitude=158.10, speed=0.91, satellites=7, angle=259.8400, fixquality=1
$GPRMC,132126.250,A,4308.4720,N,07726.4377,W,0.88,262.26,200519,,,A*7E
$GPGGA,132126.500,4308.4720,N,07726.4378,W,1,07,1.30,158.1,M,-34.4,M,,*5A
lng=-77.440628, lat=43.141201, altitude=158.10, speed=0.88, satellites=7, angle=262.2600, fixquality=1
$GPRMC,132126.750,A,4308.4720,N,07726.4379,W,0.80,263.86,200519,,,A*76
$GPGGA,132127.000,4308.4720,N,07726.4380,W,1,07,1.30,158.2,M,-34.4,M,,*5A
lng=-77.440635, lat=43.141201, altitude=158.10, speed=0.80, satellites=7, angle=263.8600, fixquality=1
$GPRMC,132127.250,A,4308.4720,N,07726.4380,W,0.70,259.96,200519,,,A*73
$GPGGA,132127.500,4308.4720,N,07726.4381,W,1,07,1.30,158.2,M,-34.4,M,,*5E
lng=-77.440635, lat=43.141201, altitude=158.20, speed=0.70, satellites=7, angle=259.9600, fixquality=1
$GPRMC,132127.750,A,4308.4720,N,07726.4382,W,0.55,247.91,200519,,,A*7B
$GPGGA,132128.000,4308.4720,N,07726.4382,W,1,07,1.30,158.2,M,-34.4,M,,*57
lng=-77.440635, lat=43.141201, altitude=158.20, speed=0.55, satellites=7, angle=247.9100, fixquality=1
$GPRMC,132128.250,A,4308.4719,N,07726.4383,W,0.43,245.19,200519,,,A*7F
$GPGGA,132128.500,4308.4719,N,07726.4383,W,1,07,1.30,158.2,M,-34.4,M,,*59
lng=-77.440643, lat=43.141193, altitude=158.20, speed=0.43, satellites=7, angle=245.1900, fixquality=1
$GPRMC,132128.750,A,4308.4719,N,07726.4383,W,0.31,232.17,200519,,,A*71
$GPGGA,132129.000,4308.4719,N,07726.4384,W,1,07,1.30,158.2,M,-34.4,M,,*5A
lng=-77.440643, lat=43.141193, altitude=158.20, speed=0.31, satellites=7, angle=232.1700, fixquality=1
$GPRMC,132129.250,A,4308.4719,N,07726.4384,W,0.27,223.22,200519,,,A*73
$GPGGA,132129.500,4308.4719,N,07726.4384,W,1,07,1.30,158.2,M,-34.4,M,,*5F
lng=-77.440643, lat=43.141193, altitude=158.20, speed=0.27, satellites=7, angle=223.2200, fixquality=1
$GPRMC,132129.750,A,4308.4719,N,07726.4384,W,0.21,214.48,200519,,,A*78
$GPGGA,132130.000,4308.4718,N,07726.4384,W,1,07,1.30,158.3,M,-34.4,M,,*52
lng=-77.440643, lat=43.141193, altitude=158.20, speed=0.21, satellites=7, angle=214.4800, fixquality=1
$GPRMC,132130.250,A,4308.4718,N,07726.4384,W,0.18,214.29,200519,,,A*79
$GPGGA,132130.500,4308.4718,N,07726.4384,W,1,07,1.30,158.3,M,-34.4,M,,*57
lng=-77.440643, lat=43.141193, altitude=158.30, speed=0.18, satellites=7, angle=214.2900, fixquality=1
$GPRMC,132130.750,A,4308.4718,N,07726.4384,W,0.32,208.30,200519,,,A*71
$GPGGA,132131.000,4308.4718,N,07726.4384,W,1,07,1.30,158.3,M,-34.4,M,,*53
lng=-77.440643, lat=43.141193, altitude=158.30, speed=0.32, satellites=7, angle=208.3000, fixquality=1
$GPRMC,132131.250,A,4308.4718,N,07726.4384,W,0.24,202.96,200519,,,A*74
$GPGGA,132131.500,4308.4718,N,07726.4384,W,1,07,1.30,158.3,M,-34.4,M,,*56
lng=-77.440643, lat=43.141193, altitude=158.30, speed=0.24, satellites=7, angle=202.9600, fixquality=1
$GPRMC,132131.750,A,4308.4718,N,07726.4384,W,0.06,202.96,200519,,,A*71
$GPGGA,132132.000,4308.4718,N,07726.4384,W,1,07,1.30,158.3,M,-34.4,M,,*50
lng=-77.440643, lat=43.141193, altitude=158.30, speed=0.06, satellites=7, angle=202.9600, fixquality=1
$GPRMC,132132.250,A,4308.4718,N,07726.4384,W,0.01,202.96,200519,,,A*70
$GPGGA,132132.500,4308.4718,N,07726.4384,W,1,07,1.30,158.3,M,-34.4,M,,*55
lng=-77.440643, lat=43.141193, altitude=158.30, speed=0.01, satellites=7, angle=202.9600, fixquality=1
$GPRMC,132132.750,A,4308.4718,N,07726.4384,W,0.03,202.96,200519,,,A*77
$GPGGA,132133.000,4308.4718,N,07726.4384,W,1,07,1.30,158.3,M,-34.4,M,,*51
