Vers 81
USE_SERIAL_FEEDBACK=true
DEVELOPMENT_MODE=false
USE_RMC_ONLY=false

$GPRMC,143850.000,A,4309.4559,N,07732.2564,W,8.68,266.39,291019,,,A*7C
$GPGGA,143850.250,4309.4559,N,07732.2571,W,1,05,1.56,109.5,M,-34.4,M,,*55
$GPGGA,143850.750,4309.4559,N,07732.2584,W,1,05,1.56,109.4,M,-34.4,M,,*5B
$GPRMC,143850.750,A,4309.4559,N,07732.2584,W,8.04,265.00,291019,,A*73
$GPRMC,143851.250,A,4309.4558,N,07732.2595,W,7.35,263.44,291019,,,A*7D
$GPGGA,143851.500,4309.4557,N,07732.2600,W,1,05,1.56,109.2,M,-34.4,M,,*5A
$GPGGA,143852.000,4309.4556,N,07732.2609,W,1,05,1.56,109.1,M,-34.4,M,,*57
$GPRMC,143852.000,A,4309.4556,N,07732.2609,W,6.36,261.19,2910191,05,1.56,109.0,M,-34.4,M,,*5A
$GPGGA,143852.750,4309.4555,N,07732.2621,W,1,05,1.56,108.9,M,-34.4,M,,*55
$GPRMC,143852.750,A,4309.4555,N,07732.2621,W,5.42,259.87,291019,,A*7E
$GPGGA,143853.000,4309.4555,N,07732.2624,W,1,05,1.56,108.8,M,-3A
$GPGGA,143853.250,4309.4555,N,07732.2627,W,1,05,1.56,108.8,M,-34.4,M,,*56
$GPGGA,143853.750,4309.4555,N,07732.2632,W,1,05,1.56,108.6,M,-34.4,M,,*59
$GPRMC,143853.750,A,4309.4555,N,07732.2632,W,4.26,264.01,2910194,W,1,05,1.56,108.6,M,-34.4,M,,*5A
$GPGGA,143854.500,4309.4556,N,07732.2637,W,1,05,1.56,108.5,M,-34.4,M,,*5C
$GPRMC,143854.500,A,4309.4556,N,07732.2637,W,3.33,272.16,291019,,A*7A
$GPGGA,143854.750,4309.4556,N,07732.2639,W,1,05,1.56,108.4,M,-3
$GPGGA,143855.000,4309.4556,N,07732.2640,W,1,05,1.56,108.4,M,-34.4,M,,*59
$GPGGA,143855.500,4309.4558,N,07732.2641,W,1,05,1.56,108.4,M,-34.4,M,,*53
$GPRMC,143855.500,A,4309.4558,N,07732.2641,W,2.44,271.52,291019,,A*76
$GPRMC,143856.000,A,4309.4559,N,07732.2643,W,2.10,271.52,291019,,,A*72
$GPGGA,143856.250,4309.4560,N,07732.2643,W,1,05,1.56,108.3,M,-34.4,M,,*5C
$GPGGA,143856.750,4309.4561,N,07732.2643,W,1,05,1.56,108.3,M,-34.4,M,,*58
$GPRMC,143856.750,A,4309.4561,N,07732.2643,W,1.69,271.52,291019,,,A*76
$GPGGA,143857.250,4309.4562,N,07732.2645,W,1,05,1.56,108.2,M,-34.4,M,,*58
$GPRMC,143857.250,A,4309.4562,N,07732.2645,W,1.78,271.52,291019,,,A*77
$GPGGA,143857.750,4309.4562,N,07732.2645,W,1,05,1.56,108.2,M,-34.4,M,,*5D
$GPRMC,143857.750,A,4309.4562,N,07732.2645,W,1.82,271.52,291019W,1,05,1.56,108.2,M,-34.4,M,,*53
$GPRMC,143858.000,A,4309.4562,N,07732.2646,W,1.80,271.52,291019
$GPGGA,143858.500,4309.4564,N,07732.2646,W,1,05,1.56,108.2,M,-34.4,M,,*50
$GPGGA,143859.000,4309.4564,N,07732.2646,W,1,05,1.56,108.2,M,-34.4,M,,*54
$GPRMC,143859.000,A,4309.4564,N,07732.2646,W,1.54,271.52,291019,,A*75
$GPGGA,143859.500,4309.4566,N,07732.2645,W,1,05,1.56,108.2,M,-34.4,M,,*50
$GPRMC,143859.500,A,4309.4566,N,07732.2645,W,1.24,271.52,291019,,A*76
$GPRMC,143900.000,A,4309.4565,N,07732.2647,W,1.08,271.52,291019,,,A*71
$GPGGA,143900.250,4309.4565,N,07732.2648,W,1,05,1.56,108.0,M,-34.4,M,,*53
$GPGGA,143900.750,4309.4565,N,07732.2650,W,1,05,1.56,107.9,M,-34.4,M,,*59
$GPRMC,143900.750,A,4309.4565,N,07732.2650,W,1.06,271.52,291019,,A*7B
$GPGGA,143901.250,4309.4565,N,07732.2652,W,1,05,1.56,107.8,M,-34.4,M,,*5E
$GPRMC,143901.250,A,4309.4565,N,07732.2652,W,1.11,271.52,291019,,,A*7B
$GPGGA,143901.750,4309.4565,N,07732.2654,W,1,05,1.56,107.7,M,-34.4,M,,*52
$GPRMC,143901.750,A,4309.4565,N,07732.2654,W,1.02,271.52,2910191,05,1.56,107.7,M,-34.4,M,,*52
$GPGGA,143902.500,4309.4565,N,07732.2657,W,1,05,1.56,107.6,M,-34.4,M,,*54
$GPRMC,143902.500,A,4309.4565,N,07732.2657,W,0.87,271.52,291019,,A*71
$GPGGA,143902.750,4309.4565,N,07732.2658,W,1,05,1.56,107.6,M,-3A
$GPGGA,143903.000,4309.4564,N,07732.2658,W,1,05,1.56,107.5,M,-34.4,M,,*5D
$GPGGA,143903.500,4309.4564,N,07732.2659,W,1,05,3.48,107.5,M,-34.4,M,,*54
$GPRMC,143903.500,A,4309.4564,N,07732.2659,W,0.00,271.52,291019,,,A*70
$GPRMC,143904.000,A,4309.4564,N,07732.2659,W,0.00,271.52,291019,,,A*72
$GPGGA,143904.250,4309.4564,N,07732.2659,W,1,05,3.48,107.5,M,-34.4,M,,*51
$GPGGA,143904.750,4309.4564,N,07732.2659,W,1,05,3.48,107.5,M,-34.4,M,,*54
$GPRMC,143904.750,A,4309.4564,N,07732.2659,W,0.00,271.52,291019,,,A*70
$GPRMC,143905.250,A,4309.4564,N,07732.2659,W,0.00,271.52,291019,,,A*74
$GPGGA,143905.500,4309.4564,N,07732.2659,W,1,05,1.56,107.5,M,-34.4,M,,*5F
$GPGGA,143906.000,4309.4564,N,07732.2659,W,1,05,1.56,107.5,M,-34.4,M,,*59
$GPRMC,143906.000,A,4309.4564,N,07732.2659,W,0.01,271.52,291019,05,1.56,107.5,M,-34.4,M,,*5E
$GPGGA,143906.750,4309.4564,N,07732.2659,W,1,05,1.56,107.5,M,-34.4,M,,*5B
$GPRMC,143906.750,A,4309.4564,N,07732.2659,W,0.02,271.52,291019,,A*70
$GPGGA,143907.250,4309.4564,N,07732.2658,W,1,05,3.48,107.5,M,-34.4,M,,*53
$GPRMC,143907.250,A,4309.4564,N,07732.2658,W,0.00,271.52,291019,,A*77
$GPGGA,143907.750,4309.4564,N,07732.2659,W,1,05,3.48,107.5,M,-34.4,M,,*57
$GPRMC,143907.750,A,4309.4564,N,07732.2659,W,0.00,271.52,291019,,,A*73
$GPRMC,143908.250,A,4309.4564,N,07732.2658,W,0.00,271.52,291019,,,A*78
$GPGGA,143908.500,4309.4564,N,07732.2658,W,1,05,1.56,107.5,M,-34.4,M,,*53
$GPGGA,143909.000,4309.4564,N,07732.2658,W,1,05,3.48,107.5,M,-34.4,M,,*5A
$GPRMC,143909.000,A,4309.4564,N,07732.2658,W,0.00,271.52,291019,,A*7E
$GPGGA,143909.250,4309.4564,N,07732.2658,W,1,05,3.48,107.5,M,-
$GPGGA,143909.500,4309.4564,N,07732.2658,W,1,05,3.48,107.5,M,-34.4,M,,*5F
$GPGGA,143910.000,4309.4564,N,07732.2658,W,1,05,3.48,107.5,M,-34.4,M,,*52
$GPRMC,143910.000,A,4309.4564,N,07732.2658,W,0.00,271.52,291019,05,3.48,107.5,M,-34.4,M,,*55
$GPGGA,143910.750,4309.4564,N,07732.2658,W,1,05,3.48,107.5,M,-34.4,M,,*50
$GPRMC,143910.750,A,4309.4564,N,07732.2658,W,0.00,271.52,291019,,A*74
$GPGGA,143911.250,4309.4564,N,07732.2658,W,1,05,3.48,107.5,M,-34.4,M,,*54
$GPRMC,143911.250,A,4309.4564,N,07732.2658,W,0.00,271.52,291019,,A*70
$GPGGA,143911.750,4309.4564,N,07732.2658,W,2,05,3.48,107.7,M,-34.4,M,0000,0000*50
$GPRMC,143911.750,A,4309.4564,N,07732.2658,W,0.00,271.52,291019,D*70
$GPRMC,143912.250,A,4309.4563,N,07732.2656,W,0.00,271.52,291019,,,D*7F
$GPGGA,143912.500,4309.4564,N,07732.2655,W,2,05,1.56,108.2,M,-34.4,M,0000,0000*5E
$GPRMC,143913.000,A,4309.4565,N,07732.2651,W,0.00,271.52,291019,,,D*78
$GPGGA,143913.250,4309.4565,N,07732.2648,W,2,05,1.56,108.8,M,-34.4,M,0000,0000*5A
$GPGGA,143913.750,4309.4565,N,07732.2646,W,2,05,1.56,109.1,M,-34.4,M,0000,0000*59
$GPRMC,143913.750,A,4309.4565,N,07732.2646,W,0.00,271.52,291019,D*7C
$GPGGA,143914.250,4309.4565,N,07732.2643,W,2,05,1.56,109.4,M,-34.4,M,0000,0000*5B
$GPRMC,143914.250,A,4309.4565,N,07732.2643,W,0.00,271.52,29101905,1.56,109.5,M,-34.4,M,0000,0000*59
$GPGGA,143915.000,4309.4564,N,07732.2641,W,2,05,1.56,109.7,M,-34.4,M,0000,0000*5D
$GPRMC,143915.000,A,4309.4564,N,07732.2641,W,0.01,271.52,291019,D*7F
$GPGGA,143915.250,4309.4564,N,07732.2641,W,2,05,1.56,109.8,M,-378
$GPGGA,143915.500,4309.4563,N,07732.2640,W,2,05,1.56,109.9,M,-34.4,M,0000,0000*50
$GPGGA,143916.000,4309.4563,N,07732.2639,W,2,05,1.56,110.0,M,-34.4,M,0000,0000*59
$GPRMC,143916.000,A,4309.4563,N,07732.2639,W,0.01,271.52,291019110.1,M,-34.4,M,0000,0000*5E
$GPGGA,143916.750,4309.4562,N,07732.2638,W,2,05,1.56,110.3,M,-34.4,M,0000,0000*58
$GPRMC,143916.750,A,4309.4562,N,07732.2638,W,0.01,271.52,291019,D*76
$GPGGA,143917.250,4309.4563,N,07732.2636,W,2,05,1.56,110.4,M,-34.4,M,0000,0000*54
$GPRMC,143917.250,A,4309.4563,N,07732.2636,W,0.01,271.52,291019,D*7D
$GPGGA,143917.500,4309.4563,N,07732.2634,W,2,05,1.56,110.5,M,-37D
$GPGGA,143917.750,4309.4562,N,07732.2634,W,2,05,1.56,110.5,M,-34.4,M,0000,0000*53
$GPRMC,143918.250,A,4309.4562,N,07732.2634,W,0.02,271.52,291019,,,D*72
$GPGGA,143918.500,4309.4561,N,07732.2636,W,2,05,1.56,110.7,M,-34.4,M,0000,0000*58
$GPGGA,143919.000,4309.4560,N,07732.2638,W,2,05,1.56,110.8,M,-34.4,M,0000,0000*5C
$GPRMC,143919.000,A,4309.4560,N,07732.2638,W,0.07,271.52,291019,D*7F
$GPGGA,143919.250,4309.4559,N,07732.2641,W,2,05,1.56,110.8,M,-3
$GPGGA,143919.500,4309.4560,N,07732.2646,W,2,05,1.56,110.8,M,-34.4,M,0000,0000*50
$GPRMC,143920.000,A,4309.4559,N,07732.2651,W,1.32,241.15,291019,,,D*77
$GPGGA,143920.250,4309.4558,N,07732.2655,W,2,05,1.56,111.0,M,-34.4,M,0000,0000*58
$GPGGA,143920.750,4309.4556,N,07732.2662,W,2,05,1.56,111.1,M,-34.4,M,0000,0000*56
$GPRMC,143920.750,A,4309.4556,N,07732.2662,W,1.79,243.36,291019,D*76
$GPGGA,143921.000,4309.4555,N,07732.2667,W,2,05,1.56,111.1,M,-372
$GPGGA,143921.250,4309.4554,N,07732.2672,W,2,05,1.56,111.2,M,-34.4,M,0000,0000*52
$GPRMC,143921.250,A,4309.4554,N,07732.2672,W,2.23,245.15,29101948.24,291019,,,D*70
$GPGGA,143921.750,4309.4554,N,07732.2685,W,2,05,1.56,111.3,M,-34.4,M,0000,0000*5E
$GPGGA,143922.250,4309.4553,N,07732.2702,W,2,05,3.48,111.4,M,-34.4,M,0000,0000*5B
$GPRMC,143922.250,A,4309.4553,N,07732.2702,W,5.87,260.39,291019,D*78
$GPGGA,143922.750,4309.4553,N,07732.2724,W,2,05,1.56,111.5,M,-34.4,M,0000,0000*56
$GPRMC,143922.750,A,4309.4553,N,07732.2724,W,7.80,265.93,291019,D*79
$GPGGA,143923.250,4309.4554,N,07732.2755,W,2,05,1.56,111.6,M,-34.4,M,0000,0000*50
$GPRMC,143923.250,A,4309.4554,N,07732.2755,W,11.40,268.17,29101,,D*46
$GPRMC,143923.750,A,4309.4553,N,07732.2785,W,12.85,268.51,291019,,,D*41
$GPGGA,143924.000,4309.4553,N,07732.2801,W,2,05,1.56,111.9,M,-34.4,M,0000,0000*56
$GPGGA,143924.500,4309.4552,N,07732.2834,W,2,05,1.56,112.1,M,-34.4,M,0000,0000*5F
$GPRMC,143924.500,A,4309.4552,N,07732.2834,W,14.76,267.95,29101,,D*48
$GPGGA,143925.000,4309.4550,N,07732.2869,W,2,05,1.56,112.4,M,-34.4,M,0000,0000*54
$GPRMC,143925.000,A,4309.4550,N,07732.2869,W,15.34,267.91,29101,,D*45
$GPRMC,143925.500,A,4309.4548,N,07732.2903,W,15.58,268.53,291019,,,D*4F
$GPGGA,143925.750,4309.4548,N,07732.2919,W,2,05,1.56,112.8,M,-34.4,M,0000,0000*55
$GPGGA,143926.250,4309.4547,N,07732.2951,W,2,05,3.48,112.9,M,-34.4,M,0000,0000*5C
$GPRMC,143926.250,A,4309.4547,N,07732.2951,W,16.16,268.98,29101,,D*48
$GPRMC,143926.750,A,4309.4547,N,07732.2985,W,16.59,268.40,291019,,,D*4A
$GPGGA,143927.000,4309.4546,N,07732.3001,W,2,05,1.56,113.0,M,-34.4,M,0000,0000*53
$GPRMC,143927.500,A,4309.4546,N,07732.3038,W,17.48,266.97,291019,,,D*46
$GPGGA,143927.750,4309.4546,N,07732.3056,W,2,05,1.56,113.0,M,-34.4,M,0000,0000*53
$GPGGA,143928.250,4309.4544,N,07732.3091,W,2,05,1.56,113.1,M,-34.4,M,0000,0000*51
$GPRMC,143928.250,A,4309.4544,N,07732.3091,W,17.93,265.63,29101,,D*44
$GPGGA,143928.750,4309.4542,N,07732.3127,W,2,05,3.48,113.1,M,-34.4,M,0000,0000*53
$GPRMC,143928.750,A,4309.4542,N,07732.3127,W,18.19,265.63,29101,,D*46
$GPGGA,143929.250,4309.4540,N,07732.3163,W,2,05,1.56,113.2,M,-34.4,M,0000,0000*5B
$GPRMC,143929.250,A,4309.4540,N,07732.3163,W,18.30,265.30,29101,,D*4D
$GPRMC,143929.750,A,4309.4538,N,07732.3199,W,18.42,265.27,291019,,,D*41
$GPGGA,143930.000,4309.4537,N,07732.3217,W,2,05,1.56,113.3,M,-34.4,M,0000,0000*55
$GPGGA,143930.500,4309.4534,N,07732.3253,W,2,05,1.56,113.3,M,-34.4,M,0000,0000*53
$GPRMC,143930.500,A,4309.4534,N,07732.3253,W,18.68,265.37,29101,,D*4E
$GPGGA,143930.750,4309.4533,N,07732.3271,W,2,05,1.56,113.3,M,-32
$GPGGA,143931.000,4309.4532,N,07732.3290,W,2,05,1.56,113.4,M,-34.4,M,0000,0000*59
$GPGGA,143931.500,4309.4530,N,07732.3328,W,2,05,1.56,113.3,M,-34.4,M,0000,0000*5B
$GPRMC,143931.500,A,4309.4530,N,07732.3328,W,19.37,265.64,29101.56,113.4,M,-34.4,M,0000,0000*51
$GPGGA,143932.250,4309.4526,N,07732.3409,W,2,05,1.56,113.4,M,-34.4,M,0000,0000*5E
$GPRMC,143932.250,A,4309.4526,N,07732.3409,W,22.56,265.70,29101,,D*43
$GPGGA,143932.750,4309.4526,N,07732.3457,W,2,05,1.56,113.5,M,-34.4,M,0000,0000*51
$GPRMC,143932.750,A,4309.4526,N,07732.3457,W,23.29,267.33,29101,,D*41
$GPGGA,143933.250,4309.4527,N,07732.3506,W,2,05,3.48,113.7,M,-34.4,M,0000,0000*5E
$GPRMC,143933.250,A,4309.4527,N,07732.3506,W,23.70,268.86,291013.8,M,-34.4,M,0000,0000*5F
$GPGGA,143934.000,4309.4526,N,07732.3576,W,2,05,1.56,114.0,M,-34.4,M,0000,0000*55
$GPRMC,143934.000,A,4309.4526,N,07732.3576,W,23.78,269.60,29101,,D*4B
$GPRMC,143934.500,A,4309.4526,N,07732.3625,W,23.78,269.63,291019,,,D*48
$GPGGA,143934.750,4309.4526,N,07732.3649,W,2,05,1.56,114.4,M,-34.4,M,0000,0000*5C
$GPGGA,143935.250,4309.4526,N,07732.3700,W,2,05,3.49,114.5,M,-34.4,M,0000,0000*59
$GPRMC,143935.250,A,4309.4526,N,07732.3700,W,24.20,269.10,29101-34.4,M,0000,0000*5F
$GPGGA,143936.000,4309.4525,N,07732.3776,W,2,05,1.56,114.7,M,-34.4,M,0000,0000*51
$GPRMC,143936.000,A,4309.4525,N,07732.3776,W,24.57,268.71,29101,,D*43
$GPRMC,143936.500,A,4309.4524,N,07732.3827,W,24.84,268.20,291019,,,D*46
$GPGGA,143936.750,4309.4524,N,07732.3854,W,2,05,1.56,114.8,M,-34.4,M,0000,0000*52
$GPGGA,143937.250,4309.4523,N,07732.3905,W,2,05,3.49,114.9,M,-34.4,M,0000,0000*59
$GPRMC,143937.250,A,4309.4523,N,07732.3905,W,25.13,267.71,29101,,D*47
$GPRMC,143937.750,A,4309.4522,N,07732.3955,W,25.07,267.42,291019,,,D*43
$GPGGA,143938.000,4309.4521,N,07732.3980,W,2,05,3.48,115.0,M,-34.4,M,0000,0000*57
$GPGGA,143938.500,4309.4520,N,07732.4030,W,2,05,3.48,115.1,M,-34.4,M,0000,0000*57
$GPRMC,143938.500,A,4309.4520,N,07732.4030,W,24.88,268.83,29101,,D*40
$GPRMC,143939.000,A,4309.4520,N,07732.4079,W,24.59,270.64,291019,,,D*45
$GPGGA,143939.250,4309.4521,N,07732.4102,W,2,05,3.49,115.2,M,-34.4,M,0000,0000*57
$GPGGA,143939.750,4309.4525,N,07732.4147,W,2,05,1.56,115.3,M,-34.4,M,0000,0000*5A
$GPRMC,143939.750,A,4309.4525,N,07732.4147,W,23.73,275.81,291016,115.4,M,-34.4,M,0000,0000*5F
$GPGGA,143940.500,4309.4534,N,07732.4212,W,2,05,3.48,115.4,M,-34.4,M,0000,0000*5A
$GPRMC,143940.500,A,4309.4534,N,07732.4212,W,23.51,280.57,29101,,D*44
$GPRMC,143941.000,A,4309.4541,N,07732.4257,W,23.59,282.33,291019,,,D*4B
$GPGGA,143941.250,4309.4544,N,07732.4278,W,2,05,3.48,115.4,M,-34.4,M,0000,0000*52
$GPGGA,143941.750,4309.4552,N,07732.4320,W,2,05,1.55,115.5,M,-34.4,M,0000,0000*53
$GPRMC,143941.750,A,4309.4552,N,07732.4320,W,23.24,283.51,29101M,-34.4,M,0000,0000*53
$GPRMC,143942.500,A,4309.4567,N,07732.4380,W,22.92,287.02,291019,,,D*43
$GPGGA,143942.750,4309.4572,N,07732.4399,W,2,05,1.56,115.5,M,-34.4,M,0000,0000*53
$GPGGA,143943.250,4309.4591,N,07732.4430,W,2,05,3.48,115.5,M,-34.4,M,0000,0000*53
$GPRMC,143943.250,A,4309.4591,N,07732.4430,W,22.58,295.63,29101,,D*47
$GPRMC,143943.750,A,4309.4608,N,07732.4465,W,22.49,298.68,291019,,,D*47
$GPGGA,143944.000,4309.4618,N,07732.4483,W,2,05,1.56,115.7,M,-34.4,M,0000,0000*56
$GPRMC,143944.500,A,4309.4641,N,07732.4517,W,22.86,305.13,291019,,,D*44
$GPGGA,143944.750,4309.4652,N,07732.4533,W,2,05,1.55,115.8,M,-34.4,M,0000,0000*5C
$GPRMC,143945.250,A,4309.4682,N,07732.4558,W,23.77,314.05,291019,,,D*4B
$GPGGA,143945.500,4309.4698,N,07732.4569,W,2,05,3.48,116.2,M,-34.4,M,0000,0000*54
$GPGGA,143946.000,4309.4723,N,07732.4598,W,2,05,3.49,117.0,M,-34.4,M,0000,0000*5F
$GPRMC,143946.000,A,4309.4723,N,07732.4598,W,23.52,321.91,29101,,D*45
$GPRMC,143946.500,A,4309.4752,N,07732.4623,W,23.77,325.55,291019,,,D*4E
$GPGGA,143946.750,4309.4766,N,07732.4635,W,2,05,1.56,117.3,M,-34.4,M,0000,0000*57
$GPGGA,143947.250,4309.4793,N,07732.4649,W,2,05,3.48,117.8,M,-34.4,M,0000,0000*54
$GPRMC,143947.250,A,4309.4793,N,07732.4649,W,22.30,332.75,29101,,D*4A
$GPRMC,143947.750,A,4309.4821,N,07732.4665,W,22.27,335.23,291019,,,D*45
$GPGGA,143948.000,4309.4839,N,07732.4670,W,2,05,1.55,118.0,M,-34.4,M,0000,0000*50
$GPGGA,143948.500,4309.4874,N,07732.4675,W,2,05,3.49,118.1,M,-34.4,M,0000,0000*57
$GPRMC,143948.500,A,4309.4874,N,07732.4675,W,23.56,344.69,2910134.4,M,0000,0000*58
$GPGGA,143949.250,4309.4922,N,07732.4668,W,2,05,3.48,118.1,M,-34.4,M,0000,0000*5B
$GPRMC,143949.250,A,4309.4922,N,07732.4668,W,22.59,356.74,29101,,D*4F
$GPRMC,143949.750,A,4309.4954,N,07732.4662,W,22.67,0.61,291019,,,D*48
$GPGGA,143950.000,4309.4972,N,07732.4655,W,2,05,3.49,118.0,M,-34.4,M,0000,0000*5F
$GPGGA,143950.500,4309.5005,N,07732.4646,W,2,05,3.49,118.0,M,-34.4,M,0000,0000*50
$GPRMC,143950.500,A,4309.5005,N,07732.4646,W,23.20,7.19,291019,$GPRMC,143950.750,A,4309.5021,N,07732.4641,W,23.16,8.53,291019,,,D*45
$GPRMC,143951.250,A,4309.5054,N,07732.4613,W,23.75,19.62,291019,,,D*73
$GPGGA,143951.500,4309.5070,N,07732.4599,W,2,05,3.48,117.9,M,-34.4,M,0000,0000*55
$GPGGA,143952.000,4309.5101,N,07732.4573,W,2,05,3.49,117.7,M,-34.4,M,0000,0000*5F
$GPRMC,143952.000,A,4309.5101,N,07732.4573,W,24.00,29.12,291019,D*72
$GPRMC,143952.500,A,4309.5132,N,07732.4541,W,25.18,35.57,291019,,,D*72
$GPGGA,143952.750,4309.5146,N,07732.4525,W,2,05,3.48,117.5,M,-3M,0000,0000*5E
$GPGGA,143953.250,4309.5173,N,07732.4489,W,2,05,1.56,117.5,M,-34.4,M,0000,0000*56
$GPRMC,143953.250,A,4309.5173,N,07732.4489,W,26.30,45.24,291019,D*7B
$GPRMC,143953.750,A,4309.5198,N,07732.4448,W,26.55,50.46,291019,,,D*75
$GPGGA,143954.000,4309.5208,N,07732.4426,W,2,05,1.56,117.4,M,-34.4,M,0000,0000*5D
$GPGGA,143954.500,4309.5228,N,07732.4379,W,2,05,3.49,117.5,M,-34.4,M,0000,0000*5A
$GPRMC,143954.500,A,4309.5228,N,07732.4379,W,27.12,60.42,291019,D*7D
$GPRMC,143955.000,A,4309.5245,N,07732.4334,W,27.14,63.24,291019,,,D*7E
$GPGGA,143955.250,4309.5251,N,07732.4311,W,2,05,1.56,117.8,M,-34.4,M,0000,0000*58
$GPGGA,143955.750,4309.5263,N,07732.4262,W,2,05,1.56,117.9,M,-34.4,M,0000,0000*58
$GPRMC,143955.750,A,4309.5263,N,07732.4262,W,26.27,71.13,291019,D*7C
$GPRMC,143956.250,A,4309.5272,N,07732.4210,W,26.76,76.93,291019,,,D*74
$GPGGA,143956.500,4309.5274,N,07732.4184,W,2,05,3.49,118.4,M,-34.4,M,0000,0000*5F
$GPRMC,143957.000,A,4309.5277,N,07732.4130,W,27.92,86.71,291019,,,D*7E
$GPGGA,143957.250,4309.5276,N,07732.4103,W,2,05,1.56,118.9,M,-3M,0000,0000*50
$GPGGA,143957.750,4309.5271,N,07732.4049,W,2,05,1.55,119.4,M,-34.4,M,0000,0000*52
$GPRMC,143957.750,A,4309.5271,N,07732.4049,W,28.48,96.68,291019,D*74
$GPRMC,143958.250,A,4309.5262,N,07732.3994,W,28.78,103.32,291019,,,D*43
$GPGGA,143958.500,4309.5255,N,07732.3968,W,2,05,3.48,119.7,M,-34.4,M,0000,0000*5C
$GPRMC,143959.000,A,4309.5238,N,07732.3914,W,29.13,112.88,291019,,,D*4F
$GPGGA,143959.250,4309.5228,N,07732.3888,W,2,05,3.49,120.0,M,-34.4,M,0000,0000*56
$GPRMC,143959.750,A,4309.5206,N,07732.3836,W,31.53,119.66,291019,,,D*47
$GPGGA,144000.000,4309.5193,N,07732.3813,W,2,05,3.49,120.5,M,-34.4,M,0000,0000*57
$GPGGA,144000.500,4309.5164,N,07732.3766,W,2,05,3.49,120.8,M,-34.4,M,0000,0000*5A
$GPRMC,144000.500,A,4309.5164,N,07732.3766,W,31.58,128.47,29101,,D*45
$GPRMC,144001.000,A,4309.5134,N,07732.3721,W,31.83,130.79,291019,,,D*45
$GPGGA,144001.250,4309.5118,N,07732.3701,W,2,05,3.49,121.3,M,-34.4,M,0000,0000*59
$GPRMC,144001.750,A,4309.5084,N,07732.3669,W,30.07,139.13,291019,,,D*48
$GPGGA,144002.000,4309.5068,N,07732.3653,W,2,05,1.56,121.9,M,-34.4,M,0000,0000*5B
$GPGGA,144002.500,4309.5033,N,07732.3623,W,2,05,1.56,122.2,M,-34.4,M,0000,0000*5F
$GPRMC,144002.500,A,4309.5033,N,07732.3623,W,28.95,144.95,29101,,D*48
$GPRMC,144003.000,A,4309.4986,N,07732.3601,W,32.15,153.02,291019,,,D*41
$GPGGA,144003.250,4309.4965,N,07732.3588,W,2,05,3.49,122.8,M,-34.4,M,0000,0000*53
$GPGGA,144003.750,4309.4923,N,07732.3565,W,2,05,1.56,123.0,M,-34.4,M,0000,0000*52
$GPRMC,144003.750,A,4309.4923,N,07732.3565,W,31.88,157.36,29101,M,-34.4,M,0000,0000*55
$GPGGA,144004.500,4309.4857,N,07732.3537,W,2,05,1.56,123.4,M,-34.4,M,0000,0000*53
$GPRMC,144004.500,A,4309.4857,N,07732.3537,W,32.71,161.96,29101,,D*46
$GPRMC,144005.000,A,4309.4807,N,07732.3520,W,32.88,164.92,291019,,,D*46
$GPGGA,144005.250,4309.4781,N,07732.3512,W,2,05,3.49,123.9,M,-34.4,M,0000,0000*52
$GPGGA,144005.750,4309.4730,N,07732.3494,W,2,05,1.55,124.3,M,-34.4,M,0000,0000*50
$GPRMC,144005.750,A,4309.4730,N,07732.3494,W,36.99,165.91,29101-34.4,M,0000,0000*5F
$GPGGA,144006.500,4309.4651,N,07732.3470,W,2,05,3.49,125.1,M,-34.4,M,0000,0000*54
$GPRMC,144006.500,A,4309.4651,N,07732.3470,W,38.19,166.55,29101,,D*42
$GPRMC,144007.000,A,4309.4597,N,07732.3453,W,38.82,166.39,291019,,,D*46
$GPGGA,144007.250,4309.4570,N,07732.3443,W,2,05,3.49,125.9,M,-34.4,M,0000,0000*5F
$GPGGA,144007.750,4309.4515,N,07732.3426,W,2,05,1.55,126.3,M,-34.4,M,0000,0000*5C
$GPRMC,144007.750,A,4309.4515,N,07732.3426,W,39.83,166.25,29101,,D*41
$GPRMC,144008.250,A,4309.4459,N,07732.3406,W,40.50,165.38,291019,,,D*4F
$GPGGA,144008.500,4309.4431,N,07732.3396,W,2,05,3.49,127.1,M,-34.4,M,0000,0000*53
$GPRMC,144008.500,A,4309.4431,N,07732.3396,W,41.13,165.22,2910
$GPGGA,144009.000,4309.4374,N,07732.3375,W,2,05,3.49,127.5,M,-34.4,M,0000,0000*58
$GPGGA,144009.500,4309.4315,N,07732.3353,W,2,05,3.49,128.1,M,-34.4,M,0000,0000*55
$GPRMC,144009.500,A,4309.4315,N,07732.3353,W,42.31,164.70,29101,,D*4C
$GPRMC,144010.000,A,4309.4256,N,07732.3331,W,42.68,164.35,291019,,,D*4E
$GPGGA,144010.250,4309.4227,N,07732.3320,W,2,05,3.49,128.9,M,-3M,0000,0000*53
$GPGGA,144010.750,4309.4167,N,07732.3297,W,2,05,1.56,129.4,M,-34.4,M,0000,0000*5C
$GPRMC,144010.750,A,4309.4167,N,07732.3297,W,43.61,164.54,29101,,D*4F
$GPRMC,144011.250,A,4309.4108,N,07732.3275,W,43.58,164.57,291019,,,D*47
$GPGGA,144011.500,4309.4077,N,07732.3264,W,2,05,3.49,130.0,M,-34.4,M,0000,0000*56
$GPGGA,144012.000,4309.4016,N,07732.3241,W,2,05,3.49,130.3,M,-34.4,M,0000,0000*53
$GPRMC,144012.000,A,4309.4016,N,07732.3241,W,43.98,164.70,291016,M,-34.4,M,0000,0000*53
$GPGGA,144012.750,4309.3922,N,07732.3207,W,2,05,1.56,131.0,M,-34.4,M,0000,0000*54
$GPRMC,144012.750,A,4309.3922,N,07732.3207,W,46.17,165.12,29101,,D*4D
$GPRMC,144013.250,A,4309.3858,N,07732.3185,W,46.94,165.64,291019,,,D*46
$GPGGA,144013.500,4309.3825,N,07732.3173,W,2,05,3.49,131.6,M,-34.4,M,0000,0000*5E
$GPGGA,144014.000,4309.3761,N,07732.3152,W,2,05,3.49,132.1,M,-34.4,M,0000,0000*54
$GPRMC,144014.000,A,4309.3761,N,07732.3152,W,47.41,166.09,29101,,D*48
$GPRMC,144014.500,A,4309.3696,N,07732.3132,W,47.45,166.04,291019,,,D*4B
$GPGGA,144014.750,4309.3664,N,07732.3122,W,2,05,1.56,132.7,M,-34.4,M,0000,0000*5F
$GPGGA,144015.250,4309.3599,N,07732.3101,W,2,05,3.48,133.1,M,-34.4,M,0000,0000*51
$GPRMC,144015.250,A,4309.3599,N,07732.3101,W,47.39,166.28,29101,,D*41
$GPRMC,144015.750,A,4309.3534,N,07732.3080,W,47.39,166.53,291019,,,D*47
$GPGGA,144016.000,4309.3501,N,07732.3069,W,2,05,3.49,133.7,M,-34.4,M,0000,0000*5C
$GPGGA,144016.500,4309.3435,N,07732.3047,W,2,05,3.49,134.2,M,-34.4,M,0000,0000*51
$GPRMC,144016.500,A,4309.3435,N,07732.3047,W,48.16,166.44,29101.4,M,0000,0000*5C
$GPGGA,144017.250,4309.3334,N,07732.3015,W,2,05,3.49,134.7,M,-34.4,M,0000,0000*56
$GPRMC,144017.250,A,4309.3334,N,07732.3015,W,48.53,167.02,29101,,D*4C
$GPRMC,144017.750,A,4309.3267,N,07732.2994,W,48.62,167.26,291019,,,D*4B
$GPGGA,144018.000,4309.3233,N,07732.2983,W,2,05,3.49,135.0,M,-34.4,M,0000,0000*59
$GPGGA,144018.500,4309.3165,N,07732.2961,W,2,05,3.49,135.3,M,-34.4,M,0000,0000*53
$GPRMC,144018.500,A,4309.3165,N,07732.2961,W,49.43,167.34,29101M,-34.4,M,0000,0000*5D
$GPGGA,144019.250,4309.3063,N,07732.2932,W,2,05,3.49,135.7,M,-34.4,M,0000,0000*55
$GPRMC,144019.250,A,4309.3063,N,07732.2932,W,49.96,168.44,29101,,D*4B
$GPRMC,144019.750,A,4309.2994,N,07732.2913,W,50.05,168.78,291019,,,D*40
$GPGGA,144020.000,4309.2959,N,07732.2904,W,2,05,1.55,135.8,M,-34.4,M,0000,0000*5C
$GPGGA,144020.500,4309.2890,N,07732.2886,W,2,05,3.49,135.9,M,-34.4,M,0000,0000*58
$GPRMC,144020.500,A,4309.2890,N,07732.2886,W,50.24,169.99,29101,,D*48
$GPGGA,144021.250,4309.2783,N,07732.2866,W,2,05,3.49,136.3,M,-34.4,M,0000,0000*51
$GPRMC,144021.250,A,4309.2783,N,07732.2866,W,50.96,172.23,29101,,D*4A
$GPRMC,144021.750,A,4309.2710,N,07732.2856,W,51.08,173.58,291019,,,D*4D
$GPGGA,144022.000,4309.2674,N,07732.2852,W,2,05,1.56,136.7,M,-34.4,M,0000,0000*53
$GPGGA,144022.500,4309.2601,N,07732.2847,W,2,05,3.49,136.8,M,-34.4,M,0000,0000*53
$GPRMC,144022.500,A,4309.2601,N,07732.2847,W,52.02,176.13,29101,,D*4B
$GPGGA,144023.250,4309.2490,N,07732.2840,W,2,05,1.56,137.0,M,-34.4,M,0000,0000*58
$GPRMC,144023.250,A,4309.2490,N,07732.2840,W,53.56,177.68,29101,,D*48
$GPRMC,144023.750,A,4309.2414,N,07732.2840,W,53.94,178.95,291019,,,D*42
$GPGGA,144024.000,4309.2377,N,07732.2842,W,2,05,3.49,137.4,M,-34.4,M,0000,0000*5C
$GPGGA,144024.500,4309.2301,N,07732.2848,W,2,05,3.49,137.7,M,-34.4,M,0000,0000*51
$GPRMC,144024.500,A,4309.2301,N,07732.2848,W,54.21,181.88,29101,,D*4A
$GPRMC,144025.000,A,4309.2224,N,07732.2854,W,54.33,183.04,291019,,,D*40
$GPGGA,144025.250,4309.2185,N,07732.2858,W,2,05,3.49,138.2,M,-3,0000,0000*57
$GPGGA,144025.750,4309.2108,N,07732.2866,W,2,05,1.55,138.6,M,-34.4,M,0000,0000*51
$GPRMC,144025.750,A,4309.2108,N,07732.2866,W,54.68,184.58,29101,,D*4E
$GPRMC,144026.250,A,4309.2032,N,07732.2877,W,54.84,185.41,291019,,,D*4B
$GPGGA,144026.500,4309.1993,N,07732.2883,W,2,05,3.49,139.1,M,-34.4,M,0000,0000*5E
$GPGGA,144027.000,4309.1916,N,07732.2898,W,2,05,3.49,139.5,M,-34.4,M,0000,0000*59
$GPRMC,144027.000,A,4309.1916,N,07732.2898,W,54.81,186.88,29101,,D*43
$GPRMC,144027.500,A,4309.1839,N,07732.2916,W,54.64,188.81,291019,,,D*41
$GPGGA,144027.750,4309.1801,N,07732.2926,W,2,05,1.56,140.2,M,-34.4,M,0000,0000*5D
$GPGGA,144028.250,4309.1726,N,07732.2949,W,2,05,3.49,140.4,M,-34.4,M,0000,0000*5E
$GPRMC,144028.250,A,4309.1726,N,07732.2949,W,54.81,191.84,29101,,D*41
$GPRMC,144028.750,A,4309.1653,N,07732.2975,W,54.84,193.30,291019,,,D*40
$GPGGA,144029.000,4309.1618,N,07732.2989,W,2,05,3.49,140.8,M,-34.4,M,0000,0000*54
$GPGGA,144029.500,4309.1547,N,07732.3019,W,2,05,3.49,141.1,M,-34.4,M,0000,0000*51
$GPRMC,144029.500,A,4309.1547,N,07732.3019,W,53.87,195.88,29101-34.4,M,0000,0000*5C
$GPGGA,144030.250,4309.1442,N,07732.3067,W,2,05,3.49,142.0,M,-34.4,M,0000,0000*54
$GPRMC,144030.250,A,4309.1442,N,07732.3067,W,53.50,197.75,29101,,D*4E
$GPRMC,144030.750,A,4309.1374,N,07732.3100,W,52.74,198.47,291019,,,D*40
$GPGGA,144031.000,4309.1340,N,07732.3116,W,2,05,3.49,143.0,M,-34.4,M,0000,0000*51
$GPGGA,144031.500,4309.1273,N,07732.3149,W,2,05,3.49,143.6,M,-34.4,M,0000,0000*59
$GPRMC,144031.500,A,4309.1273,N,07732.3149,W,52.38,199.37,291014.4,M,0000,0000*52
$GPRMC,144031.750,A,4309.1239,N,07732.3166,W,52.25,199.80,291018
$GPGGA,144032.250,4309.1174,N,07732.3201,W,2,05,3.49,144.6,M,-34.4,M,0000,0000*54
$GPGGA,144032.750,4309.1113,N,07732.3233,W,2,05,1.56,143.3,M,-34.4,M,0000,0000*5F
$GPRMC,144032.750,A,4309.1113,N,07732.3233,W,50.22,200.71,29101,,D*44
$GPRMC,144033.250,A,4309.1049,N,07732.3268,W,49.79,201.15,291019,,,D*45
$GPGGA,144033.500,4309.1017,N,07732.3285,W,2,05,3.49,144.0,M,-34.4,M,0000,0000*59
$GPRMC,144034.000,A,4309.0953,N,07732.3319,W,49.10,201.28,291019,,,D*40
$GPGGA,144034.250,4309.0922,N,07732.3337,W,2,05,3.49,145.0,M,-34.4,M,0000,0000*5B
$GPGGA,144034.750,4309.0862,N,07732.3368,W,2,05,1.55,144.1,M,-34.4,M,0000,0000*5E
$GPRMC,144034.750,A,4309.0862,N,07732.3368,W,48.55,201.01,29101,,D*4C
$GPRMC,144035.250,A,4309.0800,N,07732.3403,W,48.26,201.04,291019,,,D*47
$GPGGA,144035.500,4309.0770,N,07732.3420,W,2,05,3.49,144.8,M,-34.4,M,0000,0000*59
$GPRMC,144036.000,A,4309.0708,N,07732.3454,W,47.81,201.13,291019,,,D*42
$GPGGA,144036.250,4309.0677,N,07732.3471,W,2,05,3.49,145.7,M,-34.4,M,0000,0000*54
$GPRMC,144036.250,A,4309.0677,N,07732.3471,W,47.75,200.90,29101
$GPGGA,144036.750,4309.0614,N,07732.3504,W,2,05,1.56,146.4,M,-34.4,M,0000,0000*5B
$GPGGA,144037.250,4309.0552,N,07732.3539,W,2,05,3.49,147.1,M,-34.4,M,0000,0000*58
$GPRMC,144037.250,A,4309.0552,N,07732.3539,W,47.81,200.77,29101,,D*40
$GPRMC,144037.750,A,4309.0490,N,07732.3573,W,47.61,200.84,291019,,,D*46
$GPGGA,144038.000,4309.0459,N,07732.3589,W,2,05,3.49,148.3,M,-3M,0000,0000*5C
$GPRMC,144038.500,A,4309.0397,N,07732.3622,W,47.30,200.84,291019,,,D*4D
$GPGGA,144038.750,4309.0366,N,07732.3639,W,2,05,3.49,149.4,M,-34.4,M,0000,0000*5B
$GPRMC,144039.250,A,4309.0304,N,07732.3672,W,47.27,200.81,291019,,,D*42
$GPGGA,144039.500,4309.0273,N,07732.3688,W,2,05,3.49,150.6,M,-34.4,M,0000,0000*58
$GPGGA,144040.000,4309.0214,N,07732.3720,W,2,05,3.49,149.7,M,-34.4,M,0000,0000*58
$GPRMC,144040.000,A,4309.0214,N,07732.3720,W,47.30,200.60,29101,,D*44
$GPRMC,144040.500,A,4309.0152,N,07732.3755,W,47.90,201.03,291019,,,D*4C
$GPGGA,144040.750,4309.0121,N,07732.3772,W,2,05,1.56,150.7,M,-34.4,M,0000,0000*5C
$GPGGA,144041.250,4309.0058,N,07732.3806,W,2,05,3.49,151.3,M,-34.4,M,0000,0000*52
$GPRMC,144041.250,A,4309.0058,N,07732.3806,W,48.11,201.33,29101,,D*48
$GPRMC,144041.750,A,4308.9996,N,07732.3841,W,48.41,201.52,291019,,,D*4F
$GPGGA,144042.000,4308.9964,N,07732.3859,W,2,05,3.49,152.4,M,-34.4,M,0000,0000*56
$GPGGA,144042.500,4308.9902,N,07732.3893,W,2,05,3.49,153.1,M,-34.4,M,0000,0000*51
$GPRMC,144042.500,A,4308.9902,N,07732.3893,W,48.44,201.63,29101-34.4,M,0000,0000*5C
$GPRMC,144042.750,A,4308.9870,N,07732.3910,W,48.27,201.61,2910140
$GPGGA,144043.250,4308.9809,N,07732.3944,W,2,05,3.49,154.2,M,-34.4,M,0000,0000*57
$GPGGA,144043.750,4308.9747,N,07732.3977,W,2,05,1.55,155.0,M,-34.4,M,0000,0000*5B
$GPRMC,144043.750,A,4308.9747,N,07732.3977,W,47.41,201.25,29101,,D*44
$GPRMC,144044.250,A,4308.9687,N,07732.4009,W,46.87,201.33,291019,,,D*40
$GPGGA,144044.500,4308.9656,N,07732.4026,W,2,05,3.49,155.9,M,-34.4,M,0000,0000*56
$GPRMC,144045.000,A,4308.9595,N,07732.4059,W,46.79,201.01,291019,,,D*43
$GPGGA,144045.250,4308.9565,N,07732.4075,W,2,05,3.49,157.0,M,-34.4,M,0000,0000*5B
$GPGGA,144045.750,4308.9505,N,07732.4107,W,2,05,3.49,157.6,M,-34.4,M,0000,0000*5A
$GPRMC,144045.750,A,4308.9505,N,07732.4107,W,46.33,200.54,29101,,D*4D
$GPRMC,144046.250,A,4308.9445,N,07732.4138,W,46.20,200.32,291019,,,D*40
$GPGGA,144046.500,4308.9416,N,07732.4154,W,2,05,3.49,158.5,M,-34.4,M,0000,0000*57
$GPRMC,144047.000,A,4308.9357,N,07732.4185,W,45.45,200.45,291019,,,D*44
$GPGGA,144047.250,4308.9327,N,07732.4201,W,2,05,3.49,159.4,M,-34.4,M,0000,0000*52
$GPGGA,144047.750,4308.9269,N,07732.4231,W,2,05,1.56,160.0,M,-34.4,M,0000,0000*5D
$GPRMC,144047.750,A,4308.9269,N,07732.4231,W,45.21,200.38,29101,,D*4E
$GPRMC,144048.250,A,4308.9211,N,07732.4260,W,44.35,199.88,291019,,,D*43
$GPGGA,144048.500,4308.9182,N,07732.4274,W,2,05,3.49,160.8,M,-34.4,M,0000,0000*56
$GPGGA,144049.000,4308.9125,N,07732.4301,W,2,05,3.49,161.4,M,-34.4,M,0000,0000*51
$GPRMC,144049.000,A,4308.9125,N,07732.4301,W,44.05,198.83,291019,,,D*4E
$GPGGA,144049.250,4308.9096,N,07732.4315,W,2,05,3.49,161.7,M,-34.4,M,0000,0000*59
$GPRMC,144049.250,A,4308.9096,N,07732.4315,W,44.11,198.50,29101,,D*4E
$GPRMC,144049.750,A,4308.9036,N,07732.4343,W,44.91,198.38,291019,,,D*44
$GPGGA,144050.000,4308.9005,N,07732.4357,W,2,05,3.49,162.6,M,-34.4,M,0000,0000*58
$GPGGA,144050.500,4308.8944,N,07732.4385,W,2,05,3.49,163.1,M,-34.4,M,0000,0000*59
$GPRMC,144050.500,A,4308.8944,N,07732.4385,W,46.14,197.99,29101,M,0000,0000*5B
$GPGGA,144051.250,4308.8851,N,07732.4430,W,2,05,3.49,164.0,M,-34.4,M,0000,0000*50
$GPRMC,144051.250,A,4308.8851,N,07732.4430,W,47.51,199.10,29101,,D*47
$GPRMC,144051.750,A,4308.8787,N,07732.4462,W,48.53,199.46,291019,,,D*4F
$GPGGA,144052.000,4308.8754,N,07732.4479,W,2,05,3.49,164.7,M,-34.4,M,0000,0000*54
$GPGGA,144052.500,4308.8686,N,07732.4514,W,2,05,3.49,165.1,M,-34.4,M,0000,0000*52
$GPRMC,144052.500,A,4308.8686,N,07732.4514,W,51.66,199.49,29101,,D*4A
$GPRMC,144053.000,A,4308.8617,N,07732.4548,W,52.69,199.82,291019,,,D*44
$GPGGA,144053.250,4308.8582,N,07732.4567,W,2,05,3.49,165.9,M,-34.4,M,0000,0000*5A
$GPGGA,144053.750,4308.8510,N,07732.4606,W,2,05,1.56,166.5,M,-34.4,M,0000,0000*53
$GPRMC,144053.750,A,4308.8510,N,07732.4606,W,54.44,200.94,29101,,D*46
$GPRMC,144054.250,A,4308.8439,N,07732.4646,W,54.98,201.78,291019,,,D*48
$GPGGA,144054.500,4308.8404,N,07732.4667,W,2,05,3.49,167.1,M,-34.4,M,0000,0000*59
$GPRMC,144055.000,A,4308.8332,N,07732.4709,W,56.60,202.69,291019,,,D*4E
$GPGGA,144055.250,4308.8296,N,07732.4731,W,2,05,3.49,167.7,M,-34.4,M,0000,0000*53
$GPGGA,144055.750,4308.8224,N,07732.4775,W,2,05,1.55,168.1,M,-34.4,M,0000,0000*59
$GPRMC,144055.750,A,4308.8224,N,07732.4775,W,57.76,203.74,29101,,D*4A
$GPRMC,144056.250,A,4308.8152,N,07732.4820,W,58.02,204.23,291019,,,D*48
$GPGGA,144056.500,4308.8116,N,07732.4844,W,2,05,3.49,168.7,M,-34.4,M,0000,0000*5B
$GPRMC,144057.000,A,4308.8044,N,07732.4892,W,58.44,205.58,291019,,,D*4E
$GPGGA,144057.250,4308.8007,N,07732.4917,W,2,05,3.49,169.2,M,-3M,0000,0000*5A
$GPRMC,144057.750,A,4308.7935,N,07732.4968,W,58.83,206.55,291019,,,D*4D
$GPGGA,144058.000,4308.7898,N,07732.4993,W,2,05,3.49,169.9,M,-34.4,M,0000,0000*54
$GPGGA,144058.500,4308.7826,N,07732.5045,W,2,05,3.49,170.3,M,-34.4,M,0000,0000*55
$GPRMC,144058.500,A,4308.7826,N,07732.5045,W,59.16,206.82,29101,,D*46
$GPRMC,144059.000,A,4308.7754,N,07732.5094,W,59.24,206.32,291019,,,D*4E
$GPGGA,144059.250,4308.7718,N,07732.5120,W,2,05,3.49,169.8,M,-34.4,M,0000,0000*55
$GPRMC,144059.750,A,4308.7646,N,07732.5172,W,59.25,207.03,291019,,,D*45
$GPGGA,144100.000,4308.7610,N,07732.5199,W,2,05,3.49,170.5,M,-34.4,M,0000,0000*51
$GPGGA,144100.500,4308.7538,N,07732.5253,W,2,05,3.49,171.0,M,-34.4,M,0000,0000*5C
$GPRMC,144100.500,A,4308.7538,N,07732.5253,W,58.85,208.63,29101,,D*47
$GPRMC,144101.000,A,4308.7469,N,07732.5310,W,58.30,210.22,291019,,,D*42
$GPGGA,144101.250,4308.7434,N,07732.5341,W,2,05,3.49,171.6,M,-34.4,M,0000,0000*56
$GPGGA,144101.750,4308.7366,N,07732.5402,W,2,05,3.49,172.0,M,-34.4,M,0000,0000*56
$GPRMC,144101.750,A,4308.7366,N,07732.5402,W,58.76,212.52,2910100,0000*50
$GPRMC,144102.000,A,4308.7332,N,07732.5435,W,59.05,213.37,2910147
$GPGGA,144102.500,4308.7264,N,07732.5500,W,2,05,3.49,172.6,M,-34.4,M,0000,0000*54
$GPRMC,144103.000,A,4308.7197,N,07732.5566,W,59.39,215.55,291019,,,D*4E
$GPGGA,144103.250,4308.7165,N,07732.5600,W,2,05,3.49,173.1,M,-34.4,M,0000,0000*50
$GPGGA,144103.750,4308.7104,N,07732.5667,W,2,05,1.55,171.8,M,-34.4,M,0000,0000*57
$GPRMC,144103.750,A,4308.7104,N,07732.5667,W,59.13,217.17,29101$GPGGA,144104.500,4308.7008,N,07732.5772,W,2,05,3.49,172.1,M,-34.4,M,0000,0000*5A
$GPRMC,144104.500,A,4308.7008,N,07732.5772,W,59.17,218.24,2910
$GPGGA,144105.000,4308.6944,N,07732.5845,W,2,05,3.49,172.3,M,-34.4,M,0000,0000*57
$GPGGA,144105.500,4308.6883,N,07732.5919,W,2,05,3.49,172.5,M,-34.4,M,0000,0000*56
$GPRMC,144105.500,A,4308.6883,N,07732.5919,W,59.40,220.63,29101,,D*49
$GPRMC,144106.000,A,4308.6822,N,07732.5995,W,59.06,222.00,291019,,,D*45
$GPGGA,144106.250,4308.6793,N,07732.6033,W,2,05,3.49,172.6,M,-3,M,0000,0000*58
$GPRMC,144106.750,A,4308.6734,N,07732.6112,W,59.09,223.67,291019,,,D*44
$GPGGA,144107.000,4308.6705,N,07732.6152,W,2,05,3.49,172.6,M,-34.4,M,0000,0000*57
$GPGGA,144107.500,4308.6648,N,07732.6234,W,2,05,3.49,172.6,M,-34.4,M,0000,0000*59
$GPRMC,144107.500,A,4308.6648,N,07732.6234,W,59.75,225.52,29101,,D*44
$GPRMC,144108.000,A,4308.6592,N,07732.6318,W,60.33,226.82,291019,,,D*43
$GPGGA,144108.250,4308.6564,N,07732.6361,W,2,05,3.49,172.6,M,-34.4,M,0000,0000*58
$GPRMC,144108.750,A,4308.6508,N,07732.6448,W,60.63,228.45,291019,,,D*40
$GPGGA,144109.000,4308.6481,N,07732.6493,W,2,05,3.49,172.6,M,-34.4,M,0000,0000*5E
$GPGGA,144109.500,4308.6428,N,07732.6583,W,2,05,3.49,172.7,M,-34.4,M,0000,0000*59
$GPRMC,144109.500,A,4308.6428,N,07732.6583,W,60.89,230.61,29101,,D*48
$GPRMC,144110.000,A,4308.6375,N,07732.6675,W,61.18,231.61,291019,,,D*48
$GPGGA,144110.250,4308.6350,N,07732.6722,W,2,05,3.49,172.8,M,-34.4,M,0000,0000*5D
$GPRMC,144110.750,A,4308.6299,N,07732.6816,W,61.30,233.07,291019,,,D*4A
$GPGGA,144111.000,4308.6274,N,07732.6862,W,2,05,1.55,173.1,M,-34.4,M,0000,0000*50
$GPGGA,144111.500,4308.6224,N,07732.6954,W,2,05,1.56,173.6,M,-34.4,M,0000,0000*50
$GPRMC,144111.500,A,4308.6224,N,07732.6954,W,61.11,233.68,29101,,D*47
$GPRMC,144112.000,A,4308.6179,N,07732.7053,W,61.23,236.19,291019,,,D*47
$GPGGA,144112.250,4308.6161,N,07732.7101,W,2,05,1.55,173.9,M,-34.4,M,0000,0000*56
$GPGGA,144112.750,4308.6122,N,07732.7199,W,2,05,1.55,173.4,M,-34.4,M,0000,0000*58
$GPRMC,144112.750,A,4308.6122,N,07732.7199,W,60.43,240.03,29101-34.4,M,0000,0000*57
$GPRMC,144113.000,A,4308.6102,N,07732.7249,W,60.29,241.01,29101
$GPGGA,144113.500,4308.6066,N,07732.7350,W,2,05,1.55,172.9,M,-34.4,M,0000,0000*54
$GPRMC,144114.000,A,4308.6034,N,07732.7451,W,61.54,244.90,291019,,,D*4B
$GPGGA,144114.250,4308.6018,N,07732.7503,W,2,05,1.55,173.0,M,-34.4,M,0000,0000*50
$GPGGA,144114.750,4308.5989,N,07732.7606,W,2,05,1.55,173.2,M,-34.4,M,0000,0000*53
$GPRMC,144114.750,A,4308.5989,N,07732.7606,W,58.02,248.48,29101,,D*45
$GPRMC,144115.250,A,4308.5962,N,07732.7710,W,57.30,249.51,291019,,,D*45
$GPGGA,144115.500,4308.5950,N,07732.7763,W,2,05,1.55,173.2,M,-34.4,M,0000,0000*53
$GPGGA,144116.000,4308.5926,N,07732.7873,W,2,04,2.22,173.3,M,-34.4,M,0000,0000*59
$GPRMC,144116.000,A,4308.5926,N,07732.7873,W,60.36,252.04,29101,,D*43
$GPRMC,144116.500,A,4308.5904,N,07732.7984,W,60.75,253.30,291019,,,D*4E
$GPGGA,144116.750,4308.5894,N,07732.8040,W,2,04,2.22,173.6,M,-34.4,M,0000,0000*51
$GPRMC,144117.250,A,4308.5872,N,07732.8152,W,61.46,254.36,291019,,,D*41
$GPGGA,144117.500,4308.5862,N,07732.8208,W,2,04,2.22,174.0,M,-34.4,M,0000,0000*51
$GPGGA,144118.000,4308.5840,N,07732.8322,W,2,04,2.22,174.0,M,-34.4,M,0000,0000*52
$GPRMC,144118.000,A,4308.5840,N,07732.8322,W,61.70,254.59,29101,,D*41
$GPRMC,144118.500,A,4308.5818,N,07732.8434,W,61.60,254.50,291019,,,D*41
$GPGGA,144118.750,4308.5807,N,07732.8490,W,2,04,2.22,174.4,M,-34.4,M,0000,0000*59
$GPRMC,144119.250,A,4308.5785,N,07732.8601,W,61.27,254.55,291019,,,D*4B
$GPGGA,144119.500,4308.5774,N,07732.8655,W,2,05,1.55,174.9,M,-3,M,0000,0000*50
$GPRMC,144120.000,A,4308.5757,N,07732.8763,W,60.41,254.98,291019,,,D*4C
$GPGGA,144120.250,4308.5769,N,07732.8805,W,2,05,1.56,175.4,M,-34.4,M,0000,0000*50
$GPGGA,144120.750,4308.5752,N,07732.8907,W,2,05,1.55,175.8,M,-34.4,M,0000,0000*51
$GPRMC,144120.750,A,4308.5752,N,07732.8907,W,57.04,258.18,29101,,D*46
$GPRMC,144121.250,A,4308.5736,N,07732.9010,W,56.76,258.07,291019,,,D*44
$GPGGA,144121.500,4308.5727,N,07732.9062,W,2,05,1.55,176.3,M,-34.4,M,0000,0000*56
$GPRMC,144122.000,A,4308.5707,N,07732.9165,W,56.61,257.04,291019,,,D*4B
$GPGGA,144122.250,4308.5696,N,07732.9217,W,2,05,1.55,176.7,M,-34.4,M,0000,0000*58
$GPGGA,144122.750,4308.5675,N,07732.9329,W,2,05,1.56,177.0,M,-34.4,M,0000,0000*59
$GPRMC,144122.750,A,4308.5675,N,07732.9329,W,56.62,255.63,29101,,D*47
$GPRMC,144123.250,A,4308.5655,N,07732.9445,W,58.65,255.14,291019,,,D*45
$GPGGA,144123.500,4308.5642,N,07732.9508,W,2,05,1.55,177.4,M,-34.4,M,0000,0000*59
$GPGGA,144124.000,4308.5620,N,07732.9623,W,2,05,1.55,177.7,M,-34.4,M,0000,0000*56
$GPRMC,144124.000,A,4308.5620,N,07732.9623,W,60.50,254.93,2910134.4,M,0000,0000*55
$GPRMC,144124.250,A,4308.5610,N,07732.9681,W,60.99,255.14,2910148
$GPGGA,144124.750,4308.5591,N,07732.9793,W,2,05,1.55,177.9,M,-34.4,M,0000,0000*59
$GPGGA,144125.250,4308.5570,N,07732.9905,W,2,05,1.55,178.2,M,-34.4,M,0000,0000*57
$GPRMC,144125.250,A,4308.5570,N,07732.9905,W,60.99,254.91,29101,,D*4A
$GPRMC,144125.750,A,4308.5550,N,07733.0017,W,60.84,253.85,291019,,,D*41
$GPGGA,144126.000,4308.5540,N,07733.0072,W,2,05,1.55,178.5,M,-3,0000,0000*56
$GPRMC,144126.000,A,4308.5540,N,07733.0072,W,60.42,252.64,29101E
$GPGGA,144126.500,4308.5518,N,07733.0180,W,2,05,1.55,178.4,M,-34.4,M,0000,0000*53
$GPRMC,144127.000,A,4308.5491,N,07733.0287,W,59.81,249.07,291019,,,D*48
$GPGGA,144127.250,4308.5479,N,07733.0335,W,2,05,1.56,178.5,M,-34.4,M,0000,0000*58
$GPGGA,144127.750,4308.5449,N,07733.0438,W,2,05,1.55,178.8,M,-34.4,M,0000,0000*5A
$GPRMC,144127.750,A,4308.5449,N,07733.0438,W,58.88,247.86,29101,,D*42
$GPRMC,144128.250,A,4308.5411,N,07733.0544,W,60.30,245.05,291019,,,D*4E
$GPGGA,144128.500,4308.5390,N,07733.0595,W,2,05,1.55,179.2,M,-34.4,M,0000,0000*5C
$GPGGA,144129.000,4308.5349,N,07733.0695,W,2,05,1.56,179.5,M,-34.4,M,0000,0000*5B
$GPRMC,144129.000,A,4308.5349,N,07733.0695,W,61.25,240.23,29101,,D*49
$GPRMC,144129.500,A,4308.5304,N,07733.0795,W,61.84,237.60,291019,,,D*48
$GPGGA,144129.750,4308.5280,N,07733.0844,W,2,05,1.55,179.5,M,-34.4,M,0000,0000*5C
$GPRMC,144130.250,A,4308.5232,N,07733.0941,W,62.80,235.26,291019,,,D*46
$GPGGA,144130.500,4308.5206,N,07733.0987,W,2,05,1.56,179.8,M,-300,0000*5D
$GPRMC,144130.500,A,4308.5206,N,07733.0987,W,62.76,234.05,2910144
$GPGGA,144131.000,4308.5154,N,07733.1077,W,2,05,1.56,180.2,M,-34.4,M,0000,0000*56
$GPGGA,144131.500,4308.5097,N,07733.1160,W,2,05,1.55,180.5,M,-34.4,M,0000,0000*5E
$GPRMC,144131.500,A,4308.5097,N,07733.1160,W,59.56,227.88,29101,,D*46
$GPRMC,144132.000,A,4308.5037,N,07733.1237,W,59.76,224.68,291019,,,D*44
$GPGGA,144132.250,4308.5003,N,07733.1276,W,2,05,1.55,180.9,M,-34.4,M,0000,0000*5A
$GPRMC,144132.750,A,4308.4938,N,07733.1349,W,61.19,221.32,291019,,,D*41
$GPGGA,144133.000,4308.4905,N,07733.1378,W,2,05,1.55,181.2,M,-34.4,M,0000,0000*57
$GPGGA,144133.500,4308.4836,N,07733.1437,W,2,05,1.55,181.3,M,-34.4,M,0000,0000*5E
$GPRMC,144133.500,A,4308.4836,N,07733.1437,W,60.85,216.02,29101,,D*45
$GPRMC,144134.000,A,4308.4764,N,07733.1493,W,61.12,212.76,291019,,,D*49
$GPGGA,144134.250,4308.4727,N,07733.1518,W,2,05,1.56,181.4,M,-34.4,M,0000,0000*5C
$GPRMC,144134.750,A,4308.4653,N,07733.1570,W,61.06,208.91,291019,,,D*45
$GPGGA,144135.000,4308.4618,N,07733.1591,W,2,05,1.56,181.5,M,-34.4,M,0000,0000*57
$GPGGA,144135.500,4308.4545,N,07733.1630,W,2,05,1.55,181.0,M,-34.4,M,0000,0000*57
$GPRMC,144135.500,A,4308.4545,N,07733.1630,W,60.89,205.65,29101,,D*40
$GPRMC,144136.000,A,4308.4467,N,07733.1668,W,60.94,203.41,291019,,,D*46
$GPGGA,144136.250,4308.4427,N,07733.1681,W,2,05,1.55,180.7,M,-34.4,M,0000,0000*5F
$GPGGA,144136.750,4308.4348,N,07733.1709,W,2,05,1.55,180.5,M,-34.4,M,0000,0000*57
$GPRMC,144136.750,A,4308.4348,N,07733.1709,W,60.11,198.52,29101M,-34.4,M,0000,0000*5C
$GPGGA,144137.500,4308.4225,N,07733.1751,W,2,05,1.56,180.5,M,-34.4,M,0000,0000*55
$GPRMC,144137.500,A,4308.4225,N,07733.1751,W,60.17,196.16,29101,,D*4F
$GPRMC,144138.000,A,4308.4142,N,07733.1779,W,60.19,194.71,291019,,,D*40
$GPGGA,144138.250,4308.4100,N,07733.1787,W,2,05,1.56,180.8,M,-34.4,M,0000,0000*5A
$GPGGA,144138.750,4308.4016,N,07733.1796,W,2,05,1.55,180.8,M,-34.4,M,0000,0000*5A
$GPRMC,144138.750,A,4308.4016,N,07733.1796,W,59.81,189.64,29101,-34.4,M,0000,0000*56
$GPGGA,144139.500,4308.3886,N,07733.1803,W,2,05,1.55,181.0,M,-34.4,M,0000,0000*50
$GPRMC,144139.500,A,4308.3886,N,07733.1803,W,60.10,185.37,29101,,D*4B
$GPRMC,144140.000,A,4308.3800,N,07733.1808,W,60.57,184.10,291019,,,D*42
$GPGGA,144140.250,4308.3757,N,07733.1808,W,2,05,1.55,181.1,M,-34.4,M,0000,0000*55
$GPGGA,144140.750,4308.3670,N,07733.1811,W,2,05,1.55,181.3,M,-34.4,M,0000,0000*5E
$GPRMC,144140.750,A,4308.3670,N,07733.1811,W,61.09,182.72,29101,,D*49
$GPRMC,144141.250,A,4308.3584,N,07733.1813,W,61.29,182.23,291019,,,D*41
$GPGGA,144141.500,4308.3541,N,07733.1812,W,2,05,1.56,181.4,M,-34.4,M,0000,0000*5E
$GPGGA,144142.000,4308.3455,N,07733.1810,W,2,05,1.55,181.2,M,-34.4,M,0000,0000*5B
$GPRMC,144142.000,A,4308.3455,N,07733.1810,W,61.54,181.76,29101,,D*42
$GPRMC,144142.500,A,4308.3370,N,07733.1810,W,61.50,181.92,291019,,,D*49
$GPGGA,144142.750,4308.3327,N,07733.1809,W,2,05,1.55,181.1,M,-34.4,M,0000,0000*50
$GPGGA,144143.250,4308.3241,N,07733.1810,W,2,05,1.56,181.0,M,-34.4,M,0000,0000*5F
$GPRMC,144143.250,A,4308.3241,N,07733.1810,W,61.60,182.19,291014,M,0000,0000*58
$GPGGA,144144.000,4308.3112,N,07733.1813,W,2,05,1.55,181.0,M,-34.4,M,0000,0000*5A
$GPRMC,144144.000,A,4308.3112,N,07733.1813,W,61.66,182.36,29101,,D*47
$GPRMC,144144.500,A,4308.3026,N,07733.1815,W,61.73,182.60,291019,,,D*45
$GPGGA,144144.750,4308.2983,N,07733.1815,W,2,05,1.55,181.1,M,-34.4,M,0000,0000*5E
$GPGGA,144145.250,4308.2897,N,07733.1818,W,2,05,1.55,181.2,M,-34.4,M,0000,0000*50
$GPRMC,144145.250,A,4308.2897,N,07733.1818,W,62.06,183.15,291014.4,M,0000,0000*5C
$GPGGA,144146.000,4308.2769,N,07733.1820,W,2,05,1.55,181.2,M,-34.4,M,0000,0000*51
$GPRMC,144146.000,A,4308.2769,N,07733.1820,W,62.09,182.69,29101,,D*4E
$GPRMC,144146.500,A,4308.2686,N,07733.1822,W,60.27,182.38,291019,,,D*43
$GPGGA,144146.750,4308.2644,N,07733.1822,W,2,05,1.55,181.2,M,-34.4,M,0000,0000*5F
$GPGGA,144147.250,4308.2561,N,07733.1825,W,2,05,1.55,181.3,M,-34.4,M,0000,0000*59
$GPRMC,144147.250,A,4308.2561,N,07733.1825,W,59.44,182.24,29101,,D*4F
$GPRMC,144147.750,A,4308.2479,N,07733.1827,W,58.89,182.30,291019,,,D*45
$GPGGA,144148.000,4308.2439,N,07733.1829,W,2,05,1.55,181.4,M,-34.4,M,0000,0000*56
$GPGGA,144148.500,4308.2357,N,07733.1832,W,2,05,1.55,181.4,M,-34.4,M,0000,0000*56
$GPRMC,144148.500,A,4308.2357,N,07733.1832,W,58.06,182.41,29101,,D*43
$GPRMC,144149.000,A,4308.2277,N,07733.1836,W,57.59,182.43,291019,,,D*47
$GPGGA,144149.250,4308.2237,N,07733.1837,W,2,05,1.56,181.6,M,-34.4,M,0000,0000*56
$GPRMC,144149.750,A,4308.2157,N,07733.1840,W,57.67,182.13,291019,,,D*4D
$GPGGA,144150.000,4308.2117,N,07733.1842,W,2,05,1.55,182.0,M,-34.4,M,0000,0000*5C
$GPGGA,144150.500,4308.2036,N,07733.1845,W,2,05,1.55,182.2,M,-34.4,M,0000,0000*5E
$GPRMC,144150.500,A,4308.2036,N,07733.1845,W,57.81,182.04,29101,,D*4F
$GPRMC,144151.000,A,4308.1957,N,07733.1848,W,57.81,182.55,291019,,,D*4F
$GPGGA,144151.250,4308.1918,N,07733.1849,W,2,05,1.55,182.5,M,-34.4,M,0000,0000*50
$GPGGA,144151.750,4308.1841,N,07733.1852,W,2,05,1.55,182.6,M,-34.4,M,0000,0000*51
$GPRMC,144151.750,A,4308.1841,N,07733.1852,W,56.44,183.04,29101,-34.4,M,0000,0000*51
$GPGGA,144152.500,4308.1728,N,07733.1857,W,2,05,1.55,182.7,M,-34.4,M,0000,0000*51
$GPRMC,144152.500,A,4308.1728,N,07733.1857,W,54.54,183.72,29101,,D*4E
$GPRMC,144153.000,A,4308.1654,N,07733.1860,W,54.16,183.81,291019,,,D*4E
$GPGGA,144153.250,4308.1617,N,07733.1861,W,2,05,1.56,183.1,M,-34.4,M,0000,0000*5E
$GPRMC,144153.250,A,4308.1617,N,07733.1861,W,53.88,183.57,29101019,,,D*45
$GPGGA,144153.750,4308.1544,N,07733.1865,W,2,05,1.55,183.2,M,-34.4,M,0000,0000*5A
$GPRMC,144154.250,A,4308.1471,N,07733.1868,W,53.40,183.30,291019,,,D*4D
$GPGGA,144154.500,4308.1435,N,07733.1868,W,2,05,1.55,183.6,M,-34.4,M,0000,0000*54
$GPGGA,144155.000,4308.1364,N,07733.1871,W,2,05,1.55,183.7,M,-34.4,M,0000,0000*5A
$GPRMC,144155.000,A,4308.1364,N,07733.1871,W,52.47,183.38,29101,,D*4E
$GPRMC,144155.500,A,4308.1292,N,07733.1873,W,52.34,183.34,291019,,,D*49
$GPGGA,144155.750,4308.1256,N,07733.1874,W,2,05,1.55,184.0,M,-34.4,M,0000,0000*5D
$GPRMC,144156.250,A,4308.1184,N,07733.1876,W,52.67,182.85,291019,,,D*44
$GPGGA,144156.500,4308.1148,N,07733.1877,W,2,05,1.55,184.1,M,-34.4,M,0000,0000*57
$GPGGA,144157.000,4308.1074,N,07733.1879,W,2,05,1.56,184.4,M,-34.4,M,0000,0000*55
$GPRMC,144157.000,A,4308.1074,N,07733.1879,W,52.91,182.57,29101,,D*45
$GPRMC,144157.500,A,4308.1001,N,07733.1882,W,52.99,182.77,291019,,,D*4C
$GPGGA,144157.750,4308.0964,N,07733.1884,W,2,05,1.55,184.8,M,-34.4,M,0000,0000*53
$GPGGA,144158.250,4308.0890,N,07733.1887,W,2,05,1.55,185.1,M,-34.4,M,0000,0000*58
$GPRMC,144158.250,A,4308.0890,N,07733.1887,W,53.40,182.96,29101-34.4,M,0000,0000*58
$GPRMC,144159.000,A,4308.0778,N,07733.1893,W,53.69,182.73,291019,,,D*45
$GPGGA,144159.250,4308.0741,N,07733.1895,W,2,05,1.55,185.7,M,-34.4,M,0000,0000*5F
$GPGGA,144159.750,4308.0666,N,07733.1900,W,2,05,1.55,185.9,M,-34.4,M,0000,0000*5D
$GPRMC,144159.750,A,4308.0666,N,07733.1900,W,54.10,183.25,29101,,D*49
$GPRMC,144200.250,A,4308.0591,N,07733.1905,W,54.18,183.24,291019,,,D*44
$GPGGA,144200.500,4308.0553,N,07733.1906,W,2,05,1.56,186.2,M,-3000,0000*5D
$GPGGA,144201.000,4308.0478,N,07733.1911,W,2,05,1.55,186.6,M,-34.4,M,0000,0000*50
$GPRMC,144201.000,A,4308.0478,N,07733.1911,W,54.49,183.14,29101,,D*46
$GPRMC,144201.500,A,4308.0402,N,07733.1915,W,54.51,182.99,291019,,,D*47
$GPGGA,144201.750,4308.0365,N,07733.1917,W,2,05,1.56,187.0,M,-34.4,M,0000,0000*5B
$GPGGA,144202.250,4308.0290,N,07733.1920,W,2,05,1.55,187.1,M,-34.4,M,0000,0000*50
$GPRMC,144202.250,A,4308.0290,N,07733.1920,W,53.98,182.65,29101,,D*4C
$GPRMC,144202.750,A,4308.0216,N,07733.1923,W,53.43,182.64,291019,,,D*43
$GPGGA,144203.000,4308.0180,N,07733.1924,W,2,05,1.55,187.5,M,-34.4,M,0000,0000*54
$GPGGA,144203.500,4308.0108,N,07733.1927,W,2,05,1.55,187.5,M,-34.4,M,0000,0000*52
$GPRMC,144203.500,A,4308.0108,N,07733.1927,W,52.81,182.99,29101,,D*40
$GPRMC,144204.000,A,4308.0036,N,07733.1930,W,52.52,182.75,291019,,,D*44
$GPGGA,144204.250,4308.0000,N,07733.1931,W,2,05,1.55,187.8,M,-34.4,M,0000,0000*54
$GPGGA,144204.750,4307.9930,N,07733.1934,W,2,05,1.55,188.1,M,-34.4,M,0000,0000*5E
$GPRMC,144204.750,A,4307.9930,N,07733.1934,W,51.24,182.49,2910134.4,M,0000,0000*50
$GPGGA,144205.500,4307.9823,N,07733.1937,W,2,05,1.55,188.5,M,-34.4,M,0000,0000*5C
$GPRMC,144205.500,A,4307.9823,N,07733.1937,W,51.34,181.83,29101,,D*44
$GPRMC,144206.000,A,4307.9752,N,07733.1938,W,51.46,181.50,291019,,,D*4F
$GPGGA,144206.250,4307.9717,N,07733.1938,W,2,05,1.55,188.9,M,-34.4,M,0000,0000*56
$GPRMC,144206.750,A,4307.9645,N,07733.1939,W,51.92,181.20,291019,,,D*45
$GPGGA,144207.000,4307.9608,N,07733.1939,W,2,05,1.56,189.3,M,-3,0000,0000*56
$GPGGA,144207.500,4307.9535,N,07733.1940,W,2,05,1.55,189.5,M,-34.4,M,0000,0000*55
$GPRMC,144207.500,A,4307.9535,N,07733.1940,W,52.14,181.24,29101,,D*40
$GPRMC,144208.000,A,4307.9461,N,07733.1941,W,53.46,181.71,291019,,,D*4D
$GPGGA,144208.250,4307.9424,N,07733.1942,W,2,05,1.55,189.8,M,-34.4,M,0000,0000*56
$GPGGA,144208.750,4307.9348,N,07733.1946,W,2,05,1.55,190.0,M,-34.4,M,0000,0000*5A
$GPRMC,144208.750,A,4307.9348,N,07733.1946,W,54.27,182.20,29101,,D*43
$GPRMC,144209.250,A,4307.9273,N,07733.1949,W,54.76,182.15,291019,,,D*43
$GPGGA,144209.500,4307.9235,N,07733.1950,W,2,05,1.55,190.4,M,-34.4,M,0000,0000*54
$GPGGA,144210.000,4307.9158,N,07733.1953,W,2,05,1.55,190.6,M,-34.4,M,0000,0000*50
$GPRMC,144210.000,A,4307.9158,N,07733.1953,W,55.07,181.95,29101,,D*41
$GPRMC,144210.500,A,4307.9082,N,07733.1956,W,55.49,181.87,291019,,,D*4E
$GPGGA,144210.750,4307.9043,N,07733.1958,W,2,05,1.55,190.9,M,-34.4,M,0000,0000*5D
$GPGGA,144211.250,4307.8966,N,07733.1962,W,2,05,1.55,191.2,M,-34.4,M,0000,0000*55
$GPRMC,144211.250,A,4307.8966,N,07733.1962,W,55.69,182.31,29101,-34.4,M,0000,0000*56
$GPGGA,144212.000,4307.8848,N,07733.1968,W,2,05,1.55,191.6,M,-34.4,M,0000,0000*52
$GPRMC,144212.000,A,4307.8848,N,07733.1968,W,55.93,182.29,29101,,D*4B
$GPRMC,144212.500,A,4307.8770,N,07733.1973,W,56.96,182.30,291019,,,D*4E
$GPGGA,144212.750,4307.8730,N,07733.1975,W,2,05,1.56,191.9,M,-34.4,M,0000,0000*50
$GPGGA,144213.250,4307.8651,N,07733.1979,W,2,05,1.56,192.0,M,-34.4,M,0000,0000*54
$GPRMC,144213.250,A,4307.8651,N,07733.1979,W,57.17,182.47,29101-34.4,M,0000,0000*5A
$GPGGA,144214.000,4307.8532,N,07733.1985,W,2,05,1.55,192.3,M,-34.4,M,0000,0000*51
$GPRMC,144214.000,A,4307.8532,N,07733.1985,W,57.25,182.26,29101,,D*4E
$GPRMC,144214.500,A,4307.8453,N,07733.1989,W,57.21,182.20,291019,,,D*43
$GPGGA,144214.750,4307.8413,N,07733.1991,W,2,05,1.55,192.6,M,-34.4,M,0000,0000*51
$GPGGA,144215.250,4307.8334,N,07733.1996,W,2,05,1.55,192.9,M,-34.4,M,0000,0000*5F
$GPRMC,144215.250,A,4307.8334,N,07733.1996,W,57.15,182.10,29101,,D*4C
$GPRMC,144215.750,A,4307.8254,N,07733.2000,W,57.19,182.08,291019,,,D*4E
$GPGGA,144216.000,4307.8215,N,07733.2001,W,2,05,1.55,193.3,M,-34.4,M,0000,0000*56
$GPGGA,144216.500,4307.8136,N,07733.2005,W,2,05,3.49,193.5,M,-34.4,M,0000,0000*5C
$GPRMC,144216.500,A,4307.8136,N,07733.2005,W,57.28,182.03,29101,,D*41
$GPRMC,144217.000,A,4307.8057,N,07733.2009,W,56.91,182.10,291019,,,D*4E
$GPGGA,144217.250,4307.8019,N,07733.2011,W,2,05,1.55,193.6,M,-34.4,M,0000,0000*5A
$GPGGA,144217.750,4307.7940,N,07733.2015,W,2,05,1.56,193.9,M,-34.4,M,0000,0000*5D
$GPRMC,144217.750,A,4307.7940,N,07733.2015,W,56.40,182.21,29101,-34.4,M,0000,0000*5A
$GPGGA,144218.500,4307.7824,N,07733.2020,W,2,05,1.55,194.2,M,-34.4,M,0000,0000*5F
$GPRMC,144218.500,A,4307.7824,N,07733.2020,W,55.84,181.89,29101,,D*48
$GPRMC,144219.000,A,4307.7748,N,07733.2024,W,55.75,181.66,291019,,,D*42
$GPGGA,144219.250,4307.7710,N,07733.2025,W,2,05,1.55,194.2,M,-34.4,M,0000,0000*51
$GPGGA,144219.750,4307.7634,N,07733.2027,W,2,05,1.55,194.3,M,-34.4,M,0000,0000*50
$GPRMC,144219.750,A,4307.7634,N,07733.2027,W,55.61,181.64,29101-34.4,M,0000,0000*5B
$GPGGA,144220.500,4307.7519,N,07733.2031,W,2,05,3.48,194.6,M,-34.4,M,0000,0000*5D
$GPRMC,144220.500,A,4307.7519,N,07733.2031,W,55.35,182.10,29101,,D*49
$GPRMC,144221.000,A,4307.7443,N,07733.2034,W,55.25,182.28,291019,,,D*4C
$GPGGA,144221.250,4307.7406,N,07733.2035,W,2,05,1.55,194.7,M,-34.4,M,0000,0000*5A
$GPGGA,144221.750,4307.7329,N,07733.2038,W,2,05,1.55,194.9,M,-34.4,M,0000,0000*56
$GPRMC,144221.750,A,4307.7329,N,07733.2038,W,55.24,182.31,29101,,D*40
$GPRMC,144222.250,A,4307.7253,N,07733.2041,W,55.23,182.23,291019,,,D*40
$GPGGA,144222.500,4307.7216,N,07733.2043,W,2,05,1.55,195.0,M,-34.4,M,0000,0000*5B
$GPRMC,144223.000,A,4307.7139,N,07733.2046,W,55.23,182.51,291019,,,D*4B
$GPGGA,144223.250,4307.7102,N,07733.2048,W,2,05,1.55,195.2,M,-34.4,M,0000,0000*57
$GPGGA,144223.750,4307.7026,N,07733.2052,W,2,05,1.55,195.4,M,-34.4,M,0000,0000*58
$GPRMC,144223.750,A,4307.7026,N,07733.2052,W,55.00,182.26,29101,,D*42
$GPRMC,144224.250,A,4307.6949,N,07733.2055,W,55.17,182.20,291019,,,D*46
$GPGGA,144224.500,4307.6912,N,07733.2056,W,2,05,1.56,195.5,M,-34.4,M,0000,0000*51
$GPGGA,144225.000,4307.6835,N,07733.2059,W,2,05,1.55,195.7,M,-34.4,M,0000,0000*5F
$GPRMC,144225.000,A,4307.6835,N,07733.2059,W,55.20,182.35,29101,,D*46
$GPRMC,144225.500,A,4307.6759,N,07733.2063,W,55.23,182.13,291019,,,D*48
$GPGGA,144225.750,4307.6721,N,07733.2064,W,2,05,1.55,196.0,M,-34.4,M,0000,0000*5D
$GPGGA,144226.250,4307.6645,N,07733.2068,W,2,05,1.56,196.3,M,-34.4,M,0000,0000*54
$GPRMC,144226.250,A,4307.6645,N,07733.2068,W,55.48,182.08,2910105,1.55,196.4,M,-34.4,M,0000,0000*5C
$GPRMC,144227.000,A,4307.6530,N,07733.2074,W,55.48,182.36,291019,,,D*4E
$GPGGA,144227.250,4307.6492,N,07733.2076,W,2,05,3.48,196.5,M,-34.4,M,0000,0000*59
$GPGGA,144227.750,4307.6415,N,07733.2079,W,2,05,1.55,196.7,M,-34.4,M,0000,0000*50
$GPRMC,144227.750,A,4307.6415,N,07733.2079,W,55.53,182.30,29101,,D*4B
$GPRMC,144228.250,A,4307.6338,N,07733.2084,W,55.79,182.70,291019,,,D*47
$GPGGA,144228.500,4307.6300,N,07733.2087,W,2,05,1.55,196.9,M,-34.4,M,0000,0000*54
$GPGGA,144229.000,4307.6223,N,07733.2092,W,2,05,1.55,197.2,M,-34.4,M,0000,0000*5E
$GPRMC,144229.000,A,4307.6223,N,07733.2092,W,55.80,183.11,29101,,D*4D
$GPRMC,144229.500,A,4307.6147,N,07733.2097,W,55.78,183.19,291019,,,D*43
$GPGGA,144229.750,4307.6108,N,07733.2100,W,2,05,1.55,197.3,M,-34.4,M,0000,0000*5D
$GPGGA,144230.250,4307.6032,N,07733.2105,W,2,05,3.49,197.5,M,-34.4,M,0000,0000*54
$GPRMC,144230.250,A,4307.6032,N,07733.2105,W,55.72,182.69,29101,,D*4C
$GPGGA,144231.000,4307.5917,N,07733.2112,W,2,05,1.55,198.0,M,-34.4,M,0000,0000*5C
$GPRMC,144231.000,A,4307.5917,N,07733.2112,W,55.44,182.75,29101,,D*49
$GPGGA,144231.500,4307.5838,N,07733.2116,W,2,05,1.56,198.3,M,-34.4,M,0000,0000*51
$GPRMC,144231.500,A,4307.5838,N,07733.2116,W,55.48,182.04,29101,,D*4E
$GPRMC,144232.000,A,4307.5760,N,07733.2120,W,55.57,182.45,291019,,,D*44
$GPGGA,144232.250,4307.5721,N,07733.2122,W,2,05,1.55,198.7,M,-34.4,M,0000,0000*57
$GPGGA,144232.750,4307.5644,N,07733.2127,W,2,05,1.55,198.7,M,-34.4,M,0000,0000*55
$GPRMC,144232.750,A,4307.5644,N,07733.2127,W,55.84,183.14,29101,-34.4,M,0000,0000*51
$GPGGA,144233.500,4307.5530,N,07733.2133,W,2,05,3.49,199.0,M,-34.4,M,0000,0000*5F
$GPRMC,144233.500,A,4307.5530,N,07733.2133,W,55.26,183.03,29101,,D*40
$GPRMC,144234.000,A,4307.5454,N,07733.2138,W,55.16,182.77,291019,,,D*4B
$GPGGA,144234.250,4307.5416,N,07733.2140,W,2,05,1.55,199.6,M,-34.4,M,0000,0000*52
$GPGGA,144234.750,4307.5340,N,07733.2144,W,2,05,1.55,199.6,M,-34.4,M,0000,0000*57
$GPRMC,144234.750,A,4307.5340,N,07733.2144,W,54.91,182.53,29101M,-34.4,M,0000,0000*51
$GPGGA,144235.500,4307.5226,N,07733.2148,W,2,05,1.55,200.0,M,-34.4,M,0000,0000*59
$GPRMC,144235.500,A,4307.5226,N,07733.2148,W,54.98,182.15,29101,,D*48
$GPRMC,144236.000,A,4307.5150,N,07733.2151,W,55.03,181.98,291019,,,D*41
$GPGGA,144236.250,4307.5112,N,07733.2151,W,2,05,1.55,200.4,M,-34.4,M,0000,0000*50
$GPGGA,144236.750,4307.5036,N,07733.2155,W,2,05,1.55,200.5,M,-34.4,M,0000,0000*57
$GPRMC,144236.750,A,4307.5036,N,07733.2155,W,55.60,182.58,29101,,D*4C
$GPRMC,144237.250,A,4307.4959,N,07733.2158,W,55.62,182.84,291019,,,D*47
$GPGGA,144237.500,4307.4920,N,07733.2160,W,2,05,1.55,200.9,M,-34.4,M,0000,0000*54
$GPGGA,144238.000,4307.4842,N,07733.2164,W,2,05,1.56,201.0,M,-34.4,M,0000,0000*54
$GPRMC,144238.000,A,4307.4842,N,07733.2164,W,56.90,183.12,29101,,D*4B
$GPRMC,144238.500,A,4307.4763,N,07733.2169,W,57.26,183.14,291019,,,D*45
$GPGGA,144238.750,4307.4724,N,07733.2171,W,2,05,1.55,201.4,M,-34.4,M,0000,0000*5A
$GPRMC,144239.250,A,4307.4645,N,07733.2174,W,57.64,182.51,291019,,,D*49
$GPGGA,144239.500,4307.4605,N,07733.2176,W,2,05,1.55,201.7,M,-34.4,M,0000,0000*5A
$GPGGA,144240.000,4307.4525,N,07733.2181,W,2,05,1.55,202.1,M,-34.4,M,0000,0000*5D
$GPRMC,144240.000,A,4307.4525,N,07733.2181,W,57.74,182.77,29101,,D*4A
$GPRMC,144240.500,A,4307.4444,N,07733.2188,W,57.71,183.15,291019,,,D*40
$GPGGA,144240.750,4307.4404,N,07733.2191,W,2,05,1.55,202.6,M,-34.4,M,0000,0000*5B
$GPGGA,144241.250,4307.4324,N,07733.2198,W,2,05,1.55,202.8,M,-34.4,M,0000,0000*5D
$GPRMC,144241.250,A,4307.4324,N,07733.2198,W,57.53,183.13,29101M,-34.4,M,0000,0000*5E
$GPGGA,144242.000,4307.4205,N,07733.2206,W,2,05,1.55,203.1,M,-34.4,M,0000,0000*57
$GPRMC,144242.000,A,4307.4205,N,07733.2206,W,57.48,183.17,29101,,D*49
$GPRMC,144242.500,A,4307.4126,N,07733.2208,W,57.34,182.89,291019,,,D*4D
$GPGGA,144242.750,4307.4087,N,07733.2208,W,2,05,1.55,203.4,M,-34.4,M,0000,0000*56
$GPGGA,144243.250,4307.4008,N,07733.2213,W,2,05,3.48,203.7,M,-34.4,M,0000,0000*52
$GPRMC,144243.250,A,4307.4008,N,07733.2213,W,57.22,182.82,291018,M,-34.4,M,0000,0000*50
$GPGGA,144244.000,4307.3891,N,07733.2218,W,2,05,1.55,204.1,M,-34.4,M,0000,0000*59
$GPRMC,144244.000,A,4307.3891,N,07733.2218,W,57.04,182.36,29101,,D*4A
$GPRMC,144244.500,A,4307.3815,N,07733.2220,W,56.16,182.57,291019,,,D*4D
$GPGGA,144244.750,4307.3776,N,07733.2223,W,2,05,1.55,204.2,M,-34.4,M,0000,0000*56
$GPGGA,144245.250,4307.3699,N,07733.2226,W,2,05,3.48,204.5,M,-34.4,M,0000,0000*5E
$GPRMC,144245.250,A,4307.3699,N,07733.2226,W,55.74,182.73,29101,,D*43
$GPRMC,144245.750,A,4307.3623,N,07733.2231,W,55.31,182.72,291019,,,D*41
$GPGGA,144246.000,4307.3585,N,07733.2233,W,2,05,1.55,204.9,M,-34.4,M,0000,0000*52
$GPRMC,144246.500,A,4307.3509,N,07733.2237,W,54.76,182.28,291019,,,D*45
$GPGGA,144246.750,4307.3471,N,07733.2239,W,2,05,1.55,205.4,M,-34.4,M,0000,0000*5C
$GPGGA,144247.250,4307.3397,N,07733.2243,W,2,05,3.48,205.5,M,-34.4,M,0000,0000*55
$GPRMC,144247.250,A,4307.3397,N,07733.2243,W,54.55,182.43,29101,,D*48
$GPRMC,144247.750,A,4307.3322,N,07733.2249,W,54.62,182.64,291019,,,D*48
$GPGGA,144248.000,4307.3284,N,07733.2252,W,2,05,1.55,206.0,M,-3.4,M,0000,0000*56
$GPGGA,144248.500,4307.3209,N,07733.2257,W,2,05,3.49,206.3,M,-34.4,M,0000,0000*5F
$GPRMC,144248.500,A,4307.3209,N,07733.2257,W,54.88,182.76,29101,,D*40
$GPRMC,144249.000,A,4307.3134,N,07733.2262,W,54.88,182.84,291019,,,D*42
$GPGGA,144249.250,4307.3097,N,07733.2264,W,2,05,3.48,206.4,M,-34.4,M,0000,0000*5F
$GPGGA,144249.750,4307.3021,N,07733.2269,W,2,05,1.55,206.7,M,-34.4,M,0000,0000*57
$GPRMC,144249.750,A,4307.3021,N,07733.2269,W,54.85,182.85,29101206.9,M,-34.4,M,0000,0000*5A
$GPGGA,144250.500,4307.2908,N,07733.2271,W,2,05,3.48,207.3,M,-34.4,M,0000,0000*59
$GPRMC,144250.500,A,4307.2908,N,07733.2271,W,55.16,181.24,29101,,D*44
$GPRMC,144251.000,A,4307.2832,N,07733.2269,W,55.11,180.25,291019,,,D*46
$GPGGA,144251.250,4307.2795,N,07733.2267,W,2,05,3.48,207.9,M,-34.4,M,0000,0000*5D
$GPGGA,144251.750,4307.2720,N,07733.2262,W,2,05,1.55,207.7,M,-34.4,M,0000,0000*53
$GPRMC,144251.750,A,4307.2720,N,07733.2262,W,55.16,179.12,29101,,D*46
$GPRMC,144252.250,A,4307.2645,N,07733.2257,W,55.11,178.40,291019,,,D*45
$GPGGA,144252.500,4307.2608,N,07733.2255,W,2,05,3.48,208.1,M,-34.4,M,0000,0000*5F
$GPGGA,144253.000,4307.2534,N,07733.2250,W,2,05,1.55,208.2,M,-34.4,M,0000,0000*5F
$GPRMC,144253.000,A,4307.2534,N,07733.2250,W,55.04,177.50,29101,,D*4B
$GPRMC,144253.500,A,4307.2459,N,07733.2245,W,54.96,176.89,291019,,,D*4F
$GPGGA,144253.750,4307.2421,N,07733.2241,W,2,05,1.55,208.4,M,-34.4,M,0000,0000*5E
$GPGGA,144254.250,4307.2347,N,07733.2230,W,2,05,1.55,208.5,M,-34.4,M,0000,0000*5C
$GPRMC,144254.250,A,4307.2347,N,07733.2230,W,54.89,174.18,29101-34.4,M,0000,0000*51
$GPRMC,144255.000,A,4307.2236,N,07733.2205,W,54.93,171.48,291019,,,D*48
$GPGGA,144255.250,4307.2199,N,07733.2193,W,2,05,3.48,208.6,M,-34.4,M,0000,0000*5B
$GPGGA,144255.750,4307.2125,N,07733.2171,W,2,05,3.48,208.7,M,-34.4,M,0000,0000*54
$GPRMC,144255.750,A,4307.2125,N,07733.2171,W,55.16,168.61,29101,,D*44
$GPRMC,144256.250,A,4307.2051,N,07733.2145,W,55.32,167.16,291019,,,D*4E
$GPGGA,144256.500,4307.2014,N,07733.2131,W,2,05,3.48,208.9,M,-34.4,M,0000,0000*59
$GPRMC,144256.500,A,4307.2014,N,07733.2131,W,55.39,166.28,291014B
$GPGGA,144257.000,4307.1940,N,07733.2103,W,2,05,1.56,209.1,M,-34.4,M,0000,0000*53
$GPGGA,144257.500,4307.1866,N,07733.2072,W,2,05,1.55,209.3,M,-34.4,M,0000,0000*55
$GPRMC,144257.500,A,4307.1866,N,07733.2072,W,56.44,164.45,29101,,D*40
$GPRMC,144258.000,A,4307.1793,N,07733.2038,W,56.42,163.38,291019,,,D*4A
$GPGGA,144258.250,4307.1757,N,07733.2021,W,2,05,3.48,209.5,M,-34.4,M,0000,0000*5B
