Vers 57
USE_SERIAL_FEEDBACK=false
DEVELOPMENT_MODE=false
USE_RMC_ONLY=false

$GPRMC,144250.400,A,4308.3003,N,07726.2629,W,0.06,88.84,130419,,,A*4E
$GPGGA,144250.600,4308.3003,N,07726.2628,W,1,10,0.89,148.9,M,-34.4,M,,*51
lng=-77.437713, lat=43.138339, altitude=148.90, speed=0.06, satellites=10, angle=88.8400, fixquality=1
$GPRMC,144250.800,A,4308.3003,N,07726.2628,W,0.04,83.24,130419,,,A*40
$GPGGA,144251.000,4308.3003,N,07726.2628,W,1,10,0.89,148.9,M,-34.4,M,,*56
lng=-77.437713, lat=43.138339, altitude=148.90, speed=0.04, satellites=10, angle=83.2400, fixquality=1
$GPRMC,144251.200,A,4308.3003,N,07726.2628,W,0.04,93.03,130419,,,A*4F
$GPGGA,144251.400,4308.3003,N,07726.2628,W,1,10,0.89,148.9,M,-34.4,M,,*52
lng=-77.437713, lat=43.138339, altitude=148.90, speed=0.04, satellites=10, angle=93.0300, fixquality=1
$GPRMC,144251.600,A,4308.3003,N,07726.2628,W,0.06,104.02,130419,,,A*77
$GPGGA,144251.800,4308.3003,N,07726.2628,W,1,10,0.89,148.9,M,-34.4,M,,*5E
lng=-77.437713, lat=43.138339, altitude=148.90, speed=0.06, satellites=10, angle=104.0200, fixquality=1
$GPRMC,144252.000,A,4308.3003,N,07726.2628,W,0.08,95.40,130419,,,A*43
$GPGGA,144252.200,4308.3003,N,07726.2628,W,1,10,0.89,148.9,M,-34.4,M,,*57
lng=-77.437713, lat=43.138339, altitude=148.90, speed=0.08, satellites=10, angle=95.4000, fixquality=1
$GPRMC,144252.400,A,4308.3003,N,07726.2628,W,0.08,91.47,130419,,,A*44
$GPGGA,144252.600,4308.3003,N,07726.2628,W,1,10,0.89,148.9,M,-34.4,M,,*53
lng=-77.437713, lat=43.138339, altitude=148.90, speed=0.08, satellites=10, angle=91.4700, fixquality=1
$GPRMC,144252.800,A,4308.3003,N,07726.2628,W,0.09,83.56,130419,,,A*4A
$GPGGA,144253.000,4308.3003,N,07726.2628,W,1,10,0.89,148.9,M,-34.4,M,,*54
lng=-77.437713, lat=43.138339, altitude=148.90, speed=0.09, satellites=10, angle=83.5600, fixquality=1
$GPRMC,144253.200,A,4308.3003,N,07726.2628,W,0.09,73.09,130419,,,A*44
$GPGGA,144253.400,4308.3003,N,07726.2628,W,1,10,0.89,148.9,M,-34.4,M,,*50
lng=-77.437713, lat=43.138339, altitude=148.90, speed=0.09, satellites=10, angle=73.0900, fixquality=1
$GPRMC,144253.600,A,4308.3003,N,07726.2628,W,0.08,72.98,130419,,,A*48
$GPGGA,144253.800,4308.3003,N,07726.2628,W,1,10,0.89,148.8,M,-34.4,M,,*5D
lng=-77.437713, lat=43.138339, altitude=148.90, speed=0.08, satellites=10, angle=72.9800, fixquality=1
$GPRMC,144254.000,A,4308.3003,N,07726.2628,W,0.08,88.46,130419,,,A*4F
$GPGGA,144254.200,4308.3003,N,07726.2628,W,1,10,0.89,148.8,M,-34.4,M,,*50
lng=-77.437713, lat=43.138339, altitude=148.80, speed=0.08, satellites=10, angle=88.4600, fixquality=1
$GPRMC,144254.400,A,4308.3003,N,07726.2627,W,0.09,90.63,130419,,,A*4B
$GPGGA,144254.600,4308.3003,N,07726.2627,W,1,10,0.89,148.8,M,-34.4,M,,*5B
lng=-77.437713, lat=43.138339, altitude=148.80, speed=0.09, satellites=10, angle=90.6300, fixquality=1
$GPRMC,144254.800,A,4308.3003,N,07726.2627,W,0.11,89.77,130419,,,A*43
$GPGGA,144255.000,4308.3003,N,07726.2627,W,1,10,0.89,148.8,M,-34.4,M,,*5C
lng=-77.437713, lat=43.138339, altitude=148.80, speed=0.11, satellites=10, angle=89.7700, fixquality=1
$GPRMC,144255.200,A,4308.3003,N,07726.2627,W,0.12,90.29,130419,,,A*48
$GPGGA,144255.400,4308.3003,N,07726.2627,W,1,10,0.89,148.8,M,-34.4,M,,*58
lng=-77.437713, lat=43.138339, altitude=148.80, speed=0.12, satellites=10, angle=90.2900, fixquality=1
$GPRMC,144255.600,A,4308.3003,N,07726.2627,W,0.12,90.32,130419,,,A*46
$GPGGA,144255.800,4308.3003,N,07726.2627,W,1,10,0.89,148.8,M,-34.4,M,,*54
lng=-77.437713, lat=43.138339, altitude=148.80, speed=0.12, satellites=10, angle=90.3200, fixquality=1
$GPRMC,144256.000,A,4308.3003,N,07726.2627,W,0.13,93.10,130419,,,A*41
$GPGGA,144256.200,4308.3003,N,07726.2627,W,1,10,0.89,148.8,M,-34.4,M,,*5D
lng=-77.437713, lat=43.138339, altitude=148.80, speed=0.13, satellites=10, angle=93.1000, fixquality=1
$GPRMC,144256.400,A,4308.3003,N,07726.2627,W,0.12,97.77,130419,,,A*41
$GPGGA,144256.600,4308.3003,N,07726.2626,W,1,10,0.89,148.8,M,-34.4,M,,*58
lng=-77.437713, lat=43.138339, altitude=148.80, speed=0.12, satellites=10, angle=97.7700, fixquality=1
$GPRMC,144256.800,A,4308.3003,N,07726.2626,W,0.14,96.92,130419,,,A*40
$GPGGA,144257.000,4308.3003,N,07726.2626,W,1,10,0.89,148.7,M,-34.4,M,,*50
lng=-77.437713, lat=43.138339, altitude=148.80, speed=0.14, satellites=10, angle=96.9200, fixquality=1
$GPRMC,144257.200,A,4308.3003,N,07726.2626,W,0.15,91.52,130419,,,A*41
$GPGGA,144257.400,4308.3003,N,07726.2626,W,1,10,0.89,148.7,M,-34.4,M,,*54
lng=-77.437713, lat=43.138339, altitude=148.70, speed=0.15, satellites=10, angle=91.5200, fixquality=1
$GPRMC,144257.600,A,4308.3003,N,07726.2626,W,0.15,88.18,130419,,,A*43
$GPGGA,144257.800,4308.3003,N,07726.2626,W,1,10,0.89,148.7,M,-34.4,M,,*58
lng=-77.437713, lat=43.138339, altitude=148.70, speed=0.15, satellites=10, angle=88.1800, fixquality=1
$GPRMC,144258.000,A,4308.3003,N,07726.2626,W,0.13,88.51,130419,,,A*41
$GPGGA,144258.200,4308.3003,N,07726.2626,W,1,10,0.89,148.7,M,-34.4,M,,*5D
lng=-77.437713, lat=43.138339, altitude=148.70, speed=0.13, satellites=10, angle=88.5100, fixquality=1
$GPRMC,144258.400,A,4308.3003,N,07726.2625,W,0.13,91.12,130419,,,A*49
$GPGGA,144258.600,4308.3003,N,07726.2625,W,1,10,0.89,148.7,M,-34.4,M,,*5A
lng=-77.437713, lat=43.138339, altitude=148.70, speed=0.13, satellites=10, angle=91.1200, fixquality=1
$GPRMC,144258.800,A,4308.3003,N,07726.2625,W,0.13,101.33,130419,,,A*7E
$GPGGA,144259.000,4308.3003,N,07726.2625,W,1,10,0.89,148.6,M,-34.4,M,,*5C
lng=-77.437713, lat=43.138339, altitude=148.70, speed=0.13, satellites=10, angle=101.3300, fixquality=1
$GPRMC,144259.200,A,4308.3003,N,07726.2625,W,0.14,105.23,130419,,,A*77
$GPGGA,144259.400,4308.3003,N,07726.2625,W,1,10,0.89,148.6,M,-34.4,M,,*58
lng=-77.437713, lat=43.138339, altitude=148.60, speed=0.14, satellites=10, angle=105.2300, fixquality=1
$GPRMC,144259.600,A,4308.3003,N,07726.2625,W,0.13,107.82,130419,,,A*7D
$GPGGA,144259.800,4308.3002,N,07726.2625,W,1,10,0.89,148.6,M,-34.4,M,,*55
lng=-77.437713, lat=43.138339, altitude=148.60, speed=0.13, satellites=10, angle=107.8200, fixquality=1
$GPRMC,144300.000,A,4308.3002,N,07726.2625,W,0.13,111.97,130419,,,A*74
$GPGGA,144300.200,4308.3002,N,07726.2625,W,1,10,0.89,148.6,M,-34.4,M,,*52
lng=-77.437713, lat=43.138339, altitude=148.60, speed=0.13, satellites=10, angle=111.9700, fixquality=1
$GPRMC,144300.400,A,4308.3002,N,07726.2624,W,0.13,108.20,130419,,,A*75
$GPGGA,144300.600,4308.3002,N,07726.2624,W,1,10,0.89,148.6,M,-34.4,M,,*57
lng=-77.437705, lat=43.138339, altitude=148.60, speed=0.13, satellites=10, angle=108.2000, fixquality=1
$GPRMC,144300.800,A,4308.3002,N,07726.2624,W,0.12,100.96,130419,,,A*7D
$GPGGA,144301.000,4308.3002,N,07726.2624,W,1,10,0.89,148.5,M,-34.4,M,,*53
lng=-77.437705, lat=43.138339, altitude=148.60, speed=0.12, satellites=10, angle=100.9600, fixquality=1
$GPRMC,144301.200,A,4308.3002,N,07726.2624,W,0.12,102.25,130419,,,A*7C
$GPGGA,144301.400,4308.3002,N,07726.2624,W,1,10,0.89,148.5,M,-34.4,M,,*57
lng=-77.437705, lat=43.138339, altitude=148.50, speed=0.12, satellites=10, angle=102.2500, fixquality=1
$GPRMC,144301.600,A,4308.3002,N,07726.2624,W,0.11,101.29,130419,,,A*74
$GPGGA,144301.800,4308.3002,N,07726.2624,W,1,10,0.89,148.5,M,-34.4,M,,*5B
lng=-77.437705, lat=43.138339, altitude=148.50, speed=0.11, satellites=10, angle=101.2900, fixquality=1
$GPRMC,144302.000,A,4308.3002,N,07726.2624,W,0.11,105.31,130419,,,A*7C
$GPGGA,144302.200,4308.3002,N,07726.2624,W,1,10,0.89,148.5,M,-34.4,M,,*52
lng=-77.437705, lat=43.138339, altitude=148.50, speed=0.11, satellites=10, angle=105.3100, fixquality=1
$GPRMC,144302.400,A,4308.3002,N,07726.2624,W,0.11,104.16,130419,,,A*7C
$GPGGA,144302.600,4308.3002,N,07726.2624,W,1,10,0.89,148.4,M,-34.4,M,,*57
lng=-77.437705, lat=43.138339, altitude=148.50, speed=0.11, satellites=10, angle=104.1600, fixquality=1
$GPRMC,144302.800,A,4308.3002,N,07726.2624,W,0.02,128.97,130419,,,A*75
$GPGGA,144303.000,4308.3002,N,07726.2624,W,1,10,0.89,148.4,M,-34.4,M,,*50
lng=-77.437705, lat=43.138339, altitude=148.40, speed=0.02, satellites=10, angle=128.9700, fixquality=1
$GPRMC,144303.200,A,4308.3002,N,07726.2624,W,0.01,206.85,130419,,,A*71
$GPGGA,144303.400,4308.3002,N,07726.2624,W,1,10,0.89,148.4,M,-34.4,M,,*54
lng=-77.437705, lat=43.138339, altitude=148.40, speed=0.01, satellites=10, angle=206.8500, fixquality=1
$GPRMC,144303.600,A,4308.3002,N,07726.2624,W,0.01,255.32,130419,,,A*7F
$GPGGA,144303.800,4308.3002,N,07726.2624,W,1,10,0.89,148.4,M,-34.4,M,,*58
lng=-77.437705, lat=43.138339, altitude=148.40, speed=0.01, satellites=10, angle=255.3200, fixquality=1
$GPRMC,144304.000,A,4308.3002,N,07726.2624,W,0.01,292.90,130419,,,A*7D
$GPGGA,144304.200,4308.3002,N,07726.2624,W,1,10,0.89,148.4,M,-34.4,M,,*55
lng=-77.437705, lat=43.138339, altitude=148.40, speed=0.01, satellites=10, angle=292.9000, fixquality=1
$GPRMC,144304.400,A,4308.3002,N,07726.2624,W,0.01,42.41,130419,,,A*4A
$GPGGA,144304.600,4308.3002,N,07726.2624,W,1,10,0.89,148.4,M,-34.4,M,,*51
lng=-77.437705, lat=43.138339, altitude=148.40, speed=0.01, satellites=10, angle=42.4100, fixquality=1
$GPRMC,144304.800,A,4308.3002,N,07726.2624,W,0.01,334.02,130419,,,A*73
$GPGGA,144305.000,4308.3002,N,07726.2624,W,1,10,0.89,148.4,M,-34.4,M,,*56
lng=-77.437705, lat=43.138339, altitude=148.40, speed=0.01, satellites=10, angle=334.0200, fixquality=1
$GPRMC,144305.200,A,4308.3002,N,07726.2624,W,0.01,247.87,130419,,,A*70
$GPGGA,144305.400,4308.3002,N,07726.2624,W,1,10,0.89,148.4,M,-34.4,M,,*52
lng=-77.437705, lat=43.138339, altitude=148.40, speed=0.01, satellites=10, angle=247.8700, fixquality=1
$GPRMC,144305.600,A,4308.3002,N,07726.2624,W,0.00,312.76,130419,,,A*7A
$GPGGA,144305.800,4308.3002,N,07726.2624,W,1,10,0.89,148.4,M,-34.4,M,,*5E
lng=-77.437705, lat=43.138339, altitude=148.40, speed=0.00, satellites=10, angle=312.7600, fixquality=1
$GPRMC,144306.000,A,4308.3002,N,07726.2624,W,0.01,179.45,130419,,,A*71
$GPGGA,144306.200,4308.3002,N,07726.2624,W,1,10,0.89,148.4,M,-34.4,M,,*57
lng=-77.437705, lat=43.138339, altitude=148.40, speed=0.01, satellites=10, angle=179.4500, fixquality=1
$GPRMC,144306.400,A,4308.3002,N,07726.2624,W,0.01,173.43,130419,,,A*79
$GPGGA,144306.600,4308.3002,N,07726.2624,W,1,10,0.89,148.4,M,-34.4,M,,*53
lng=-77.437705, lat=43.138339, altitude=148.40, speed=0.01, satellites=10, angle=173.4300, fixquality=1
$GPRMC,144306.800,A,4308.3002,N,07726.2624,W,0.00,0.00,130419,,,A*76
$GPGGA,144307.000,4308.3002,N,07726.2624,W,1,10,0.89,148.4,M,-34.4,M,,*54
lng=-77.437705, lat=43.138339, altitude=148.40, speed=0.00, satellites=10, angle=0.0000, fixquality=1
$GPRMC,144307.200,A,4308.3002,N,07726.2624,W,0.00,0.00,130419,,,A*7D
$GPGGA,144307.400,4308.3002,N,07726.2624,W,1,10,0.89,148.4,M,-34.4,M,,*50
lng=-77.437705, lat=43.138339, altitude=148.40, speed=0.00, satellites=10, angle=0.0000, fixquality=1
$GPRMC,144307.600,A,4308.3002,N,07726.2624,W,0.00,104.32,130419,,,A*7D
$GPGGA,144307.800,4308.3002,N,07726.2624,W,1,10,0.89,148.4,M,-34.4,M,,*5C
lng=-77.437705, lat=43.138339, altitude=148.40, speed=0.00, satellites=10, angle=104.3200, fixquality=1
$GPRMC,144308.000,A,4308.3002,N,07726.2624,W,0.01,154.07,130419,,,A*76
$GPGGA,144308.200,4308.3002,N,07726.2624,W,1,10,0.89,148.4,M,-34.4,M,,*59
lng=-77.437705, lat=43.138339, altitude=148.40, speed=0.01, satellites=10, angle=154.0700, fixquality=1
$GPRMC,144308.400,A,4308.3002,N,07726.2624,W,0.01,173.09,130419,,,A*79
$GPGGA,144308.600,4308.3002,N,07726.2624,W,1,10,0.89,148.4,M,-34.4,M,,*5D
lng=-77.437705, lat=43.138339, altitude=148.40, speed=0.01, satellites=10, angle=173.0900, fixquality=1
$GPRMC,144308.800,A,4308.3002,N,07726.2624,W,0.01,210.00,130419,,,A*7A
$GPGGA,144309.000,4308.3002,N,07726.2624,W,1,10,0.89,148.4,M,-34.4,M,,*5A
lng=-77.437705, lat=43.138339, altitude=148.40, speed=0.01, satellites=10, angle=210.0000, fixquality=1
$GPRMC,144309.200,A,4308.3002,N,07726.2624,W,0.00,121.51,130419,,,A*75
$GPGGA,144309.400,4308.3002,N,07726.2624,W,1,10,0.89,148.4,M,-34.4,M,,*5E
lng=-77.437705, lat=43.138339, altitude=148.40, speed=0.00, satellites=10, angle=121.5100, fixquality=1
$GPRMC,144309.600,A,4308.3002,N,07726.2624,W,0.00,107.65,130419,,,A*72
$GPGGA,144309.800,4308.3002,N,07726.2624,W,1,10,0.89,148.4,M,-34.4,M,,*52
lng=-77.437705, lat=43.138339, altitude=148.40, speed=0.00, satellites=10, angle=107.6500, fixquality=1
$GPRMC,144310.000,A,4308.3002,N,07726.2624,W,0.01,136.45,130419,,,A*7D
$GPGGA,144310.200,4308.3002,N,07726.2623,W,1,10,0.89,148.4,M,-34.4,M,,*57
lng=-77.437705, lat=43.138339, altitude=148.40, speed=0.01, satellites=10, angle=136.4500, fixquality=1
$GPRMC,144310.400,A,4308.3002,N,07726.2623,W,0.01,143.51,130419,,,A*79
$GPGGA,144310.600,4308.3002,N,07726.2623,W,1,10,0.89,148.4,M,-34.4,M,,*53
lng=-77.437705, lat=43.138339, altitude=148.40, speed=0.01, satellites=10, angle=143.5100, fixquality=1
$GPRMC,144310.800,A,4308.3002,N,07726.2623,W,0.00,133.71,130419,,,A*71
$GPGGA,144311.000,4308.3002,N,07726.2623,W,1,10,0.89,148.4,M,-34.4,M,,*54
lng=-77.437705, lat=43.138339, altitude=148.40, speed=0.00, satellites=10, angle=133.7100, fixquality=1
$GPRMC,144311.200,A,4308.3002,N,07726.2623,W,0.00,49.22,130419,,,A*40
$GPGGA,144311.400,4308.3002,N,07726.2623,W,1,10,0.89,148.4,M,-34.4,M,,*50
lng=-77.437705, lat=43.138339, altitude=148.40, speed=0.00, satellites=10, angle=49.2200, fixquality=1
$GPRMC,144311.600,A,4308.3002,N,07726.2623,W,0.00,45.10,130419,,,A*49
$GPGGA,144311.800,4308.3002,N,07726.2623,W,1,10,0.89,148.4,M,-34.4,M,,*5C
lng=-77.437705, lat=43.138339, altitude=148.40, speed=0.00, satellites=10, angle=45.1000, fixquality=1
$GPRMC,144312.000,A,4308.3002,N,07726.2623,W,0.01,128.83,130419,,,A*7D
$GPGGA,144312.200,4308.3002,N,07726.2623,W,1,10,0.89,148.4,M,-34.4,M,,*55
lng=-77.437705, lat=43.138339, altitude=148.40, speed=0.01, satellites=10, angle=128.8300, fixquality=1
$GPRMC,144312.400,A,4308.3002,N,07726.2623,W,0.01,208.76,130419,,,A*72
$GPGGA,144312.600,4308.3002,N,07726.2623,W,1,10,0.89,148.4,M,-34.4,M,,*51
lng=-77.437705, lat=43.138339, altitude=148.40, speed=0.01, satellites=10, angle=208.7600, fixquality=1
$GPRMC,144312.800,A,4308.3002,N,07726.2623,W,0.01,182.35,130419,,,A*78
$GPGGA,144313.000,4308.3002,N,07726.2623,W,1,10,0.89,148.4,M,-34.4,M,,*56
lng=-77.437705, lat=43.138339, altitude=148.40, speed=0.01, satellites=10, angle=182.3500, fixquality=1
$GPRMC,144313.200,A,4308.3002,N,07726.2623,W,0.01,160.44,130419,,,A*79
$GPGGA,144313.400,4308.3002,N,07726.2623,W,1,10,0.89,148.4,M,-34.4,M,,*52
lng=-77.437705, lat=43.138339, altitude=148.40, speed=0.01, satellites=10, angle=160.4400, fixquality=1
$GPRMC,144313.600,A,4308.3002,N,07726.2623,W,0.01,160.57,130419,,,A*7F
$GPGGA,144313.800,4308.3002,N,07726.2623,W,1,10,0.89,148.4,M,-34.4,M,,*5E
lng=-77.437705, lat=43.138339, altitude=148.40, speed=0.01, satellites=10, angle=160.5700, fixquality=1
$GPRMC,144314.000,A,4308.3002,N,07726.2623,W,0.00,80.15,130419,,,A*46
$GPGGA,144314.200,4308.3002,N,07726.2623,W,1,09,0.92,148.4,M,-34.4,M,,*51
lng=-77.437705, lat=43.138339, altitude=148.40, speed=0.00, satellites=10, angle=80.1500, fixquality=1
$GPRMC,144314.400,A,4308.3002,N,07726.2623,W,0.01,126.71,130419,,,A*7C
$GPGGA,144314.600,4308.3002,N,07726.2623,W,1,09,0.92,148.4,M,-34.4,M,,*55
lng=-77.437705, lat=43.138339, altitude=148.40, speed=0.01, satellites=9, angle=126.7100, fixquality=1
$GPRMC,144314.800,A,4308.3002,N,07726.2623,W,0.01,104.04,130419,,,A*72
$GPGGA,144315.000,4308.3002,N,07726.2623,W,1,09,0.92,148.4,M,-34.4,M,,*52
lng=-77.437705, lat=43.138339, altitude=148.40, speed=0.01, satellites=9, angle=104.0400, fixquality=1
$GPRMC,144315.200,A,4308.3002,N,07726.2623,W,0.01,129.52,130419,,,A*75
$GPGGA,144315.400,4308.3002,N,07726.2623,W,1,09,0.92,148.4,M,-34.4,M,,*56
lng=-77.437705, lat=43.138339, altitude=148.40, speed=0.01, satellites=9, angle=129.5200, fixquality=1
$GPRMC,144315.600,A,4308.3002,N,07726.2623,W,0.00,244.91,130419,,,A*77
$GPGGA,144315.800,4308.3002,N,07726.2623,W,1,09,0.92,148.4,M,-34.4,M,,*5A
lng=-77.437705, lat=43.138339, altitude=148.40, speed=0.00, satellites=9, angle=244.9100, fixquality=1
$GPRMC,144316.000,A,4308.3002,N,07726.2623,W,0.00,247.97,130419,,,A*77
$GPGGA,144316.200,4308.3002,N,07726.2623,W,1,09,0.92,148.4,M,-34.4,M,,*53
lng=-77.437705, lat=43.138339, altitude=148.40, speed=0.00, satellites=9, angle=247.9700, fixquality=1
$GPRMC,144316.400,A,4308.3002,N,07726.2623,W,0.01,144.39,130419,,,A*76
$GPGGA,144316.600,4308.3002,N,07726.2623,W,1,09,0.92,148.4,M,-34.4,M,,*57
lng=-77.437705, lat=43.138339, altitude=148.40, speed=0.01, satellites=9, angle=144.3900, fixquality=1
$GPRMC,144316.800,A,4308.3002,N,07726.2623,W,0.01,162.47,130419,,,A*77
$GPGGA,144317.000,4308.3002,N,07726.2623,W,1,09,0.92,148.4,M,-34.4,M,,*50
lng=-77.437705, lat=43.138339, altitude=148.40, speed=0.01, satellites=9, angle=162.4700, fixquality=1
$GPRMC,144317.200,A,4308.3002,N,07726.2623,W,0.01,136.16,130419,,,A*79
$GPGGA,144317.400,4308.3002,N,07726.2623,W,1,09,0.92,148.4,M,-34.4,M,,*54
lng=-77.437705, lat=43.138339, altitude=148.40, speed=0.01, satellites=9, angle=136.1600, fixquality=1
$GPRMC,144317.600,A,4308.3002,N,07726.2623,W,0.01,132.62,130419,,,A*7A
$GPGGA,144317.800,4308.3002,N,07726.2623,W,1,09,0.92,148.4,M,-34.4,M,,*58
lng=-77.437705, lat=43.138339, altitude=148.40, speed=0.01, satellites=9, angle=132.6200, fixquality=1
$GPRMC,144318.000,A,4308.3002,N,07726.2623,W,0.00,133.88,130419,,,A*77
$GPGGA,144318.200,4308.3002,N,07726.2623,W,1,10,0.89,148.4,M,-34.4,M,,*5F
lng=-77.437705, lat=43.138339, altitude=148.40, speed=0.00, satellites=9, angle=133.8800, fixquality=1
$GPRMC,144318.400,A,4308.3002,N,07726.2623,W,0.01,116.49,130419,,,A*78
$GPGGA,144318.600,4308.3002,N,07726.2623,W,1,09,0.92,148.4,M,-34.4,M,,*59
lng=-77.437705, lat=43.138339, altitude=148.40, speed=0.01, satellites=10, angle=116.4900, fixquality=1
$GPRMC,144318.800,A,4308.3002,N,07726.2623,W,0.00,183.31,130419,,,A*76
$GPGGA,144319.000,4308.3002,N,07726.2623,W,1,09,0.92,148.4,M,-34.4,M,,*5E
lng=-77.437705, lat=43.138339, altitude=148.40, speed=0.00, satellites=9, angle=183.3100, fixquality=1
$GPRMC,144319.200,A,4308.3002,N,07726.2623,W,0.00,141.53,130419,,,A*77
$GPGGA,144319.400,4308.3002,N,07726.2623,W,1,10,0.89,148.4,M,-34.4,M,,*58
lng=-77.437705, lat=43.138339, altitude=148.40, speed=0.00, satellites=9, angle=141.5300, fixquality=1
$GPRMC,144319.600,A,4308.3002,N,07726.2623,W,0.00,145.82,130419,,,A*7B
$GPGGA,144319.800,4308.3002,N,07726.2623,W,1,09,0.92,148.4,M,-34.4,M,,*56
lng=-77.437705, lat=43.138339, altitude=148.40, speed=0.00, satellites=10, angle=145.8200, fixquality=1
$GPRMC,144320.000,A,4308.3002,N,07726.2623,W,0.00,129.72,130419,,,A*72
$GPGGA,144320.200,4308.3002,N,07726.2623,W,1,10,0.89,148.4,M,-34.4,M,,*54
lng=-77.437705, lat=43.138339, altitude=148.40, speed=0.00, satellites=9, angle=129.7200, fixquality=1
$GPRMC,144320.400,A,4308.3002,N,07726.2623,W,0.01,128.41,130419,,,A*76
$GPGGA,144320.600,4308.3002,N,07726.2623,W,1,10,0.89,148.4,M,-34.4,M,,*50
lng=-77.437705, lat=43.138339, altitude=148.40, speed=0.01, satellites=10, angle=128.4100, fixquality=1
$GPRMC,144320.800,A,4308.3002,N,07726.2623,W,0.01,120.65,130419,,,A*74
$GPGGA,144321.000,4308.3002,N,07726.2623,W,1,10,0.89,148.4,M,-34.4,M,,*57
lng=-77.437705, lat=43.138339, altitude=148.40, speed=0.01, satellites=10, angle=120.6500, fixquality=1
$GPRMC,144321.200,A,4308.3002,N,07726.2623,W,0.01,116.14,130419,,,A*7C
$GPGGA,144321.400,4308.3002,N,07726.2623,W,1,10,0.89,148.4,M,-34.4,M,,*53
lng=-77.437705, lat=43.138339, altitude=148.40, speed=0.01, satellites=10, angle=116.1400, fixquality=1
$GPRMC,144321.600,A,4308.3002,N,07726.2623,W,0.01,125.21,130419,,,A*7E
$GPGGA,144321.800,4308.3002,N,07726.2623,W,1,10,0.89,148.4,M,-34.4,M,,*5F
lng=-77.437705, lat=43.138339, altitude=148.40, speed=0.01, satellites=10, angle=125.2100, fixquality=1
$GPRMC,144322.000,A,4308.3002,N,07726.2623,W,0.00,166.12,130419,,,A*7D
$GPGGA,144322.200,4308.3002,N,07726.2623,W,1,10,0.89,148.4,M,-34.4,M,,*56
lng=-77.437705, lat=43.138339, altitude=148.40, speed=0.00, satellites=10, angle=166.1200, fixquality=1
$GPRMC,144322.400,A,4308.3002,N,07726.2623,W,0.01,324.90,130419,,,A*76
$GPGGA,144322.600,4308.3002,N,07726.2623,W,1,10,0.89,148.4,M,-34.4,M,,*52
lng=-77.437705, lat=43.138339, altitude=148.40, speed=0.01, satellites=10, angle=324.9000, fixquality=1
$GPRMC,144322.800,A,4308.3002,N,07726.2623,W,0.01,172.64,130419,,,A*70
$GPGGA,144323.000,4308.3002,N,07726.2623,W,1,09,0.92,148.4,M,-34.4,M,,*57
lng=-77.437705, lat=43.138339, altitude=148.40, speed=0.01, satellites=10, angle=172.6400, fixquality=1
$GPRMC,144323.200,A,4308.3002,N,07726.2623,W,0.00,149.08,130419,,,A*78
$GPGGA,144323.400,4308.3002,N,07726.2623,W,1,10,0.89,148.4,M,-34.4,M,,*51
lng=-77.437705, lat=43.138339, altitude=148.40, speed=0.00, satellites=9, angle=149.0800, fixquality=1
$GPRMC,144323.600,A,4308.3002,N,07726.2623,W,0.00,152.47,130419,,,A*7D
$GPGGA,144323.800,4308.3001,N,07726.2623,W,1,09,0.92,148.4,M,-34.4,M,,*5C
lng=-77.437705, lat=43.138339, altitude=148.40, speed=0.00, satellites=10, angle=152.4700, fixquality=1
$GPRMC,144324.000,A,4308.3001,N,07726.2623,W,0.01,186.98,130419,,,A*75
$GPGGA,144324.200,4308.3001,N,07726.2623,W,1,10,0.79,148.4,M,-34.4,M,,*5C
lng=-77.437705, lat=43.138339, altitude=148.40, speed=0.01, satellites=9, angle=186.9800, fixquality=1
$GPRMC,144324.400,A,4308.3001,N,07726.2623,W,0.01,118.60,130419,,,A*71
$GPGGA,144324.600,4308.3001,N,07726.2623,W,1,10,0.79,148.4,M,-34.4,M,,*58
lng=-77.437705, lat=43.138339, altitude=148.40, speed=0.01, satellites=10, angle=118.6000, fixquality=1
$GPRMC,144324.800,A,4308.3001,N,07726.2623,W,0.01,161.62,130419,,,A*71
$GPGGA,144325.000,4308.3001,N,07726.2623,W,1,10,0.79,148.4,M,-34.4,M,,*5F
lng=-77.437705, lat=43.138339, altitude=148.40, speed=0.01, satellites=10, angle=161.6200, fixquality=1
$GPRMC,144325.200,A,4308.3001,N,07726.2623,W,0.00,101.69,130419,,,A*76
$GPGGA,144325.400,4308.3001,N,07726.2623,W,1,10,0.79,148.4,M,-34.4,M,,*5B
lng=-77.437705, lat=43.138339, altitude=148.40, speed=0.00, satellites=10, angle=101.6900, fixquality=1
$GPRMC,144325.600,A,4308.3001,N,07726.2623,W,0.01,142.56,130419,,,A*78
$GPGGA,144325.800,4308.3001,N,07726.2623,W,1,11,0.75,148.4,M,-34.4,M,,*5A
lng=-77.437705, lat=43.138339, altitude=148.40, speed=0.01, satellites=10, angle=142.5600, fixquality=1
$GPRMC,144326.000,A,4308.3001,N,07726.2623,W,0.01,188.95,130419,,,A*74
$GPGGA,144326.200,4308.3001,N,07726.2623,W,1,11,0.75,148.4,M,-34.4,M,,*53
lng=-77.437705, lat=43.138339, altitude=148.40, speed=0.01, satellites=11, angle=188.9500, fixquality=1
$GPRMC,144326.400,A,4308.3001,N,07726.2623,W,0.00,343.17,130419,,,A*7E
$GPGGA,144326.600,4308.3001,N,07726.2623,W,1,11,0.75,148.4,M,-34.4,M,,*57
lng=-77.437705, lat=43.138339, altitude=148.40, speed=0.00, satellites=11, angle=343.1700, fixquality=1
$GPRMC,144326.800,A,4308.3001,N,07726.2623,W,0.01,82.11,130419,,,A*4B
$GPGGA,144327.000,4308.3001,N,07726.2623,W,1,11,0.75,148.4,M,-34.4,M,,*50
lng=-77.437705, lat=43.138339, altitude=148.40, speed=0.01, satellites=11, angle=82.1100, fixquality=1
$GPRMC,144327.200,A,4308.3001,N,07726.2622,W,0.00,348.78,130419,,,A*7A
$GPGGA,144327.400,4308.3001,N,07726.2622,W,1,11,0.75,148.4,M,-34.4,M,,*55
lng=-77.437705, lat=43.138339, altitude=148.40, speed=0.00, satellites=11, angle=348.7800, fixquality=1
$GPRMC,144327.600,A,4308.3001,N,07726.2622,W,0.00,0.00,130419,,,A*7E
$GPGGA,144327.800,4308.3001,N,07726.2622,W,1,11,0.75,148.4,M,-34.4,M,,*59
lng=-77.437705, lat=43.138339, altitude=148.40, speed=0.00, satellites=11, angle=0.0000, fixquality=1
$GPRMC,144328.000,A,4308.3001,N,07726.2622,W,0.01,116.62,130419,,,A*74
$GPGGA,144328.200,4308.3001,N,07726.2622,W,1,11,0.75,148.4,M,-34.4,M,,*5C
lng=-77.437705, lat=43.138339, altitude=148.40, speed=0.01, satellites=11, angle=116.6200, fixquality=1
$GPRMC,144328.400,A,4308.3001,N,07726.2622,W,0.01,177.68,130419,,,A*7D
$GPGGA,144328.600,4308.3001,N,07726.2622,W,1,11,0.75,148.4,M,-34.4,M,,*58
lng=-77.437705, lat=43.138339, altitude=148.40, speed=0.01, satellites=11, angle=177.6800, fixquality=1
$GPRMC,144328.800,A,4308.3001,N,07726.2622,W,0.01,176.20,130419,,,A*7C
$GPGGA,144329.000,4308.3001,N,07726.2622,W,1,11,0.75,148.4,M,-34.4,M,,*5F
lng=-77.437705, lat=43.138339, altitude=148.40, speed=0.01, satellites=11, angle=176.2000, fixquality=1
$GPRMC,144329.200,A,4308.3001,N,07726.2622,W,0.01,133.05,130419,,,A*71
$GPGGA,144329.400,4308.3001,N,07726.2622,W,1,11,0.75,148.4,M,-34.4,M,,*5B
lng=-77.437705, lat=43.138339, altitude=148.40, speed=0.01, satellites=11, angle=133.0500, fixquality=1
$GPRMC,144329.600,A,4308.3001,N,07726.2622,W,0.00,215.56,130419,,,A*75
$GPGGA,144329.800,4308.3001,N,07726.2622,W,1,11,0.75,148.4,M,-34.4,M,,*57
lng=-77.437705, lat=43.138339, altitude=148.40, speed=0.00, satellites=11, angle=215.5600, fixquality=1
$GPRMC,144330.000,A,4308.3001,N,07726.2622,W,0.01,136.76,130419,,,A*7A
$GPGGA,144330.200,4308.3001,N,07726.2622,W,1,10,0.79,148.4,M,-34.4,M,,*58
lng=-77.437705, lat=43.138339, altitude=148.40, speed=0.01, satellites=11, angle=136.7600, fixquality=1
$GPRMC,144330.400,A,4308.3001,N,07726.2622,W,0.00,67.98,130419,,,A*4A
$GPGGA,144330.600,4308.3001,N,07726.2622,W,1,10,0.79,148.4,M,-34.4,M,,*5C
lng=-77.437705, lat=43.138339, altitude=148.40, speed=0.00, satellites=10, angle=67.9800, fixquality=1
$GPRMC,144330.800,A,4308.3001,N,07726.2622,W,0.01,350.57,130419,,,A*73
$GPGGA,144331.000,4308.3001,N,07726.2622,W,1,11,0.75,148.4,M,-34.4,M,,*56
lng=-77.437705, lat=43.138339, altitude=148.40, speed=0.01, satellites=10, angle=350.5700, fixquality=1
$GPRMC,144331.200,A,4308.3001,N,07726.2622,W,0.00,100.72,130419,,,A*79
$GPGGA,144331.400,4308.3001,N,07726.2622,W,1,11,0.75,148.4,M,-34.4,M,,*52
lng=-77.437705, lat=43.138339, altitude=148.40, speed=0.00, satellites=11, angle=100.7200, fixquality=1
$GPRMC,144331.600,A,4308.3001,N,07726.2622,W,0.00,182.26,130419,,,A*76
$GPGGA,144331.800,4308.3001,N,07726.2622,W,1,11,0.75,148.4,M,-34.4,M,,*5E
lng=-77.437705, lat=43.138339, altitude=148.40, speed=0.00, satellites=11, angle=182.2600, fixquality=1
$GPRMC,144332.000,A,4308.3001,N,07726.2622,W,0.01,107.85,130419,,,A*76
$GPGGA,144332.200,4308.3001,N,07726.2622,W,1,11,0.75,148.4,M,-34.4,M,,*57
lng=-77.437705, lat=43.138339, altitude=148.40, speed=0.01, satellites=11, angle=107.8500, fixquality=1
$GPRMC,144332.400,A,4308.3001,N,07726.2622,W,0.01,55.80,130419,,,A*41
$GPGGA,144332.600,4308.3001,N,07726.2622,W,1,11,0.75,148.4,M,-34.4,M,,*53
lng=-77.437705, lat=43.138339, altitude=148.40, speed=0.01, satellites=11, angle=55.8000, fixquality=1
$GPRMC,144332.800,A,4308.3001,N,07726.2622,W,0.00,38.84,130419,,,A*43
$GPGGA,144333.000,4308.3001,N,07726.2622,W,1,11,0.75,148.4,M,-34.4,M,,*54
lng=-77.437705, lat=43.138339, altitude=148.40, speed=0.00, satellites=11, angle=38.8400, fixquality=1
$GPRMC,144333.200,A,4308.3001,N,07726.2622,W,0.00,58.02,130419,,,A*40
$GPGGA,144333.400,4308.3001,N,07726.2622,W,1,11,0.75,148.4,M,-34.4,M,,*50
lng=-77.437705, lat=43.138339, altitude=148.40, speed=0.00, satellites=11, angle=58.0200, fixquality=1
$GPRMC,144333.600,A,4308.3001,N,07726.2622,W,0.01,229.13,130419,,,A*71
$GPGGA,144333.800,4308.3001,N,07726.2622,W,1,11,0.75,148.4,M,-34.4,M,,*5C
lng=-77.437705, lat=43.138339, altitude=148.40, speed=0.01, satellites=11, angle=229.1300, fixquality=1
$GPRMC,144334.000,A,4308.3001,N,07726.2622,W,0.00,115.64,130419,,,A*7D
$GPGGA,144334.200,4308.3001,N,07726.2622,W,1,11,0.75,148.4,M,-34.4,M,,*51
lng=-77.437705, lat=43.138339, altitude=148.40, speed=0.00, satellites=11, angle=115.6400, fixquality=1
$GPRMC,144334.400,A,4308.3001,N,07726.2622,W,0.00,73.24,130419,,,A*4C
$GPGGA,144334.600,4308.3001,N,07726.2622,W,1,11,0.75,148.4,M,-34.4,M,,*55
lng=-77.437705, lat=43.138339, altitude=148.40, speed=0.00, satellites=11, angle=73.2400, fixquality=1
$GPRMC,144334.800,A,4308.3001,N,07726.2622,W,0.01,38.35,130419,,,A*4E
$GPGGA,144335.000,4308.3001,N,07726.2622,W,1,10,0.79,148.4,M,-34.4,M,,*5F
lng=-77.437705, lat=43.138339, altitude=148.40, speed=0.01, satellites=11, angle=38.3500, fixquality=1
$GPRMC,144335.200,A,4308.3001,N,07726.2622,W,0.00,0.00,130419,,,A*79
$GPGGA,144335.400,4308.3001,N,07726.2622,W,1,10,0.79,148.4,M,-34.4,M,,*5B
lng=-77.437705, lat=43.138339, altitude=148.40, speed=0.00, satellites=10, angle=0.0000, fixquality=1
$GPRMC,144335.600,A,4308.3001,N,07726.2622,W,0.00,162.21,130419,,,A*7B
$GPGGA,144335.800,4308.3001,N,07726.2622,W,1,10,0.79,148.4,M,-34.4,M,,*57
lng=-77.437705, lat=43.138339, altitude=148.40, speed=0.00, satellites=10, angle=162.2100, fixquality=1
$GPRMC,144336.000,A,4308.3001,N,07726.2622,W,0.00,218.79,130419,,,A*7D
$GPGGA,144336.200,4308.3001,N,07726.2622,W,1,11,0.75,148.4,M,-34.4,M,,*53
lng=-77.437705, lat=43.138339, altitude=148.40, speed=0.00, satellites=10, angle=218.7900, fixquality=1
$GPRMC,144336.400,A,4308.3001,N,07726.2622,W,0.01,114.75,130419,,,A*7B
$GPGGA,144336.600,4308.3001,N,07726.2622,W,1,11,0.75,148.4,M,-34.4,M,,*57
lng=-77.437705, lat=43.138339, altitude=148.40, speed=0.01, satellites=11, angle=114.7500, fixquality=1
$GPRMC,144336.800,A,4308.3001,N,07726.2622,W,0.01,76.84,130419,,,A*4C
$GPGGA,144337.000,4308.3001,N,07726.2622,W,1,11,0.75,148.4,M,-34.4,M,,*50
lng=-77.437705, lat=43.138339, altitude=148.40, speed=0.01, satellites=11, angle=76.8400, fixquality=1
$GPRMC,144337.200,A,4308.3001,N,07726.2622,W,0.00,97.29,130419,,,A*4E
$GPGGA,144337.400,4308.3001,N,07726.2622,W,1,11,0.75,148.4,M,-34.4,M,,*54
lng=-77.437705, lat=43.138339, altitude=148.40, speed=0.00, satellites=11, angle=97.2900, fixquality=1
$GPRMC,144337.600,A,4308.3001,N,07726.2622,W,0.00,217.19,130419,,,A*73
$GPGGA,144337.800,4308.3001,N,07726.2622,W,1,11,0.75,148.4,M,-34.4,M,,*58
lng=-77.437705, lat=43.138339, altitude=148.40, speed=0.00, satellites=11, angle=217.1900, fixquality=1
$GPRMC,144338.000,A,4308.3001,N,07726.2622,W,0.00,112.51,130419,,,A*70
$GPGGA,144338.200,4308.3001,N,07726.2622,W,1,11,0.75,148.4,M,-34.4,M,,*5D
lng=-77.437705, lat=43.138339, altitude=148.40, speed=0.00, satellites=11, angle=112.5100, fixquality=1
$GPRMC,144338.400,A,4308.3001,N,07726.2622,W,0.00,111.00,130419,,,A*73
$GPGGA,144338.600,4308.3001,N,07726.2622,W,1,11,0.75,148.4,M,-34.4,M,,*59
lng=-77.437705, lat=43.138339, altitude=148.40, speed=0.00, satellites=11, angle=111.0000, fixquality=1
$GPRMC,144338.800,A,4308.3001,N,07726.2622,W,0.00,176.36,130419,,,A*7B
$GPGGA,144339.000,4308.3001,N,07726.2622,W,1,11,0.75,148.4,M,-34.4,M,,*5E
lng=-77.437705, lat=43.138339, altitude=148.40, speed=0.00, satellites=11, angle=176.3600, fixquality=1
$GPRMC,144339.200,A,4308.3001,N,07726.2622,W,0.00,116.38,130419,,,A*78
$GPGGA,144339.400,4308.3001,N,07726.2622,W,1,11,0.75,148.4,M,-34.4,M,,*5A
lng=-77.437705, lat=43.138339, altitude=148.40, speed=0.00, satellites=11, angle=116.3800, fixquality=1
$GPRMC,144339.600,A,4308.3001,N,07726.2622,W,0.00,97.34,130419,,,A*48
$GPGGA,144339.800,4308.3001,N,07726.2622,W,1,11,0.75,148.4,M,-34.4,M,,*56
lng=-77.437705, lat=43.138339, altitude=148.40, speed=0.00, satellites=11, angle=97.3400, fixquality=1
$GPRMC,144340.000,A,4308.3001,N,07726.2622,W,0.01,127.29,130419,,,A*77
$GPGGA,144340.200,4308.3001,N,07726.2622,W,1,11,0.75,148.4,M,-34.4,M,,*52
lng=-77.437705, lat=43.138339, altitude=148.40, speed=0.01, satellites=11, angle=127.2900, fixquality=1
$GPRMC,144340.400,A,4308.3001,N,07726.2622,W,0.01,106.73,130419,,,A*7F
$GPGGA,144340.600,4308.3001,N,07726.2622,W,1,11,0.75,148.4,M,-34.4,M,,*56
lng=-77.437705, lat=43.138339, altitude=148.40, speed=0.01, satellites=11, angle=106.7300, fixquality=1
$GPRMC,144340.800,A,4308.3001,N,07726.2622,W,0.00,113.65,130419,,,A*71
$GPGGA,144341.000,4308.3001,N,07726.2622,W,1,11,0.75,148.4,M,-34.4,M,,*51
lng=-77.437705, lat=43.138339, altitude=148.40, speed=0.00, satellites=11, angle=113.6500, fixquality=1
$GPRMC,144341.200,A,4308.3001,N,07726.2622,W,0.00,112.57,130419,,,A*7A
$GPGGA,144341.400,4308.3001,N,07726.2622,W,1,11,0.75,148.4,M,-34.4,M,,*55
lng=-77.437705, lat=43.138339, altitude=148.40, speed=0.00, satellites=11, angle=112.5700, fixquality=1
$GPRMC,144341.600,A,4308.3001,N,07726.2622,W,0.00,154.08,130419,,,A*76
$GPGGA,144341.800,4308.3001,N,07726.2622,W,1,11,0.75,148.4,M,-34.4,M,,*59
lng=-77.437705, lat=43.138339, altitude=148.40, speed=0.00, satellites=11, angle=154.0800, fixquality=1
$GPRMC,144342.000,A,4308.3001,N,07726.2622,W,0.01,144.94,130419,,,A*76
$GPGGA,144342.200,4308.3001,N,07726.2622,W,1,11,0.75,148.4,M,-34.4,M,,*50
lng=-77.437705, lat=43.138339, altitude=148.40, speed=0.01, satellites=11, angle=144.9400, fixquality=1
$GPRMC,144342.400,A,4308.3001,N,07726.2622,W,0.00,202.65,130419,,,A*7C
$GPGGA,144342.600,4308.3001,N,07726.2622,W,1,11,0.75,148.4,M,-34.4,M,,*54
lng=-77.437705, lat=43.138339, altitude=148.40, speed=0.00, satellites=11, angle=202.6500, fixquality=1
$GPRMC,144342.800,A,4308.3001,N,07726.2622,W,0.00,335.28,130419,,,A*7C
$GPGGA,144343.000,4308.3001,N,07726.2622,W,1,11,0.75,148.4,M,-34.4,M,,*53
lng=-77.437705, lat=43.138339, altitude=148.40, speed=0.00, satellites=11, angle=335.2800, fixquality=1
$GPRMC,144343.200,A,4308.3001,N,07726.2622,W,0.00,0.00,130419,,,A*78
$GPGGA,144343.400,4308.3001,N,07726.2622,W,1,11,0.75,148.4,M,-34.4,M,,*57
lng=-77.437705, lat=43.138339, altitude=148.40, speed=0.00, satellites=11, angle=0.0000, fixquality=1
$GPRMC,144343.600,A,4308.3001,N,07726.2622,W,0.01,111.19,130419,,,A*74
$GPGGA,144343.800,4308.3001,N,07726.2622,W,1,11,0.75,148.4,M,-34.4,M,,*5B
lng=-77.437705, lat=43.138339, altitude=148.40, speed=0.01, satellites=11, angle=111.1900, fixquality=1
$GPRMC,144344.000,A,4308.3001,N,07726.2622,W,0.00,147.13,130419,,,A*7D
$GPGGA,144344.200,4308.3001,N,07726.2622,W,1,11,0.75,148.4,M,-34.4,M,,*56
lng=-77.437705, lat=43.138339, altitude=148.40, speed=0.00, satellites=11, angle=147.1300, fixquality=1
$GPRMC,144344.400,A,4308.3001,N,07726.2622,W,0.00,246.85,130419,,,A*74
$GPGGA,144344.600,4308.3001,N,07726.2622,W,1,11,0.75,148.4,M,-34.4,M,,*52
lng=-77.437705, lat=43.138339, altitude=148.40, speed=0.00, satellites=11, angle=246.8500, fixquality=1
$GPRMC,144344.800,A,4308.3001,N,07726.2622,W,0.01,21.18,130419,,,A*4E
$GPGGA,144345.000,4308.3001,N,07726.2622,W,1,11,0.75,148.4,M,-34.4,M,,*55
lng=-77.437705, lat=43.138339, altitude=148.40, speed=0.01, satellites=11, angle=21.1800, fixquality=1
$GPRMC,144345.200,A,4308.3001,N,07726.2622,W,0.00,130.31,130419,,,A*7E
$GPGGA,144345.400,4308.3001,N,07726.2622,W,1,11,0.75,148.4,M,-34.4,M,,*51
lng=-77.437705, lat=43.138339, altitude=148.40, speed=0.00, satellites=11, angle=130.3100, fixquality=1
$GPRMC,144345.600,A,4308.3001,N,07726.2622,W,0.00,147.55,130419,,,A*78
$GPGGA,144345.800,4308.3001,N,07726.2622,W,1,11,0.75,148.4,M,-34.4,M,,*5D
lng=-77.437705, lat=43.138339, altitude=148.40, speed=0.00, satellites=11, angle=147.5500, fixquality=1
$GPRMC,144346.000,A,4308.3001,N,07726.2622,W,0.01,75.34,130419,,,A*4B
$GPGGA,144346.200,4308.3001,N,07726.2622,W,1,11,0.75,148.4,M,-34.4,M,,*54
lng=-77.437705, lat=43.138339, altitude=148.40, speed=0.01, satellites=11, angle=75.3400, fixquality=1
$GPRMC,144346.400,A,4308.3001,N,07726.2622,W,0.00,84.96,130419,,,A*48
$GPGGA,144346.600,4308.3001,N,07726.2622,W,1,11,0.75,148.4,M,-34.4,M,,*50
lng=-77.437705, lat=43.138339, altitude=148.40, speed=0.00, satellites=11, angle=84.9600, fixquality=1
$GPRMC,144346.800,A,4308.3001,N,07726.2622,W,0.01,215.18,130419,,,A*79
$GPGGA,144347.000,4308.3001,N,07726.2622,W,1,11,0.75,148.4,M,-34.4,M,,*57
lng=-77.437705, lat=43.138339, altitude=148.40, speed=0.01, satellites=11, angle=215.1800, fixquality=1
$GPRMC,144347.200,A,4308.3001,N,07726.2622,W,0.00,105.63,130419,,,A*7D
$GPGGA,144347.400,4308.3001,N,07726.2622,W,1,11,0.75,148.4,M,-34.4,M,,*53
lng=-77.437705, lat=43.138339, altitude=148.40, speed=0.00, satellites=11, angle=105.6300, fixquality=1
$GPRMC,144347.600,A,4308.3001,N,07726.2622,W,0.00,125.04,130419,,,A*7A
$GPGGA,144347.800,4308.3001,N,07726.2622,W,1,11,0.75,148.4,M,-34.4,M,,*5F
lng=-77.437705, lat=43.138339, altitude=148.40, speed=0.00, satellites=11, angle=125.0400, fixquality=1
$GPRMC,144348.000,A,4308.3001,N,07726.2622,W,0.01,76.52,130419,,,A*46
$GPGGA,144348.200,4308.3001,N,07726.2622,W,1,11,0.75,148.4,M,-34.4,M,,*5A
lng=-77.437705, lat=43.138339, altitude=148.40, speed=0.01, satellites=11, angle=76.5200, fixquality=1
$GPRMC,144348.400,A,4308.3001,N,07726.2622,W,0.00,329.19,130419,,,A*75
$GPGGA,144348.600,4308.3001,N,07726.2622,W,1,11,0.75,148.4,M,-34.4,M,,*5E
lng=-77.437705, lat=43.138339, altitude=148.40, speed=0.00, satellites=11, angle=329.1900, fixquality=1
$GPRMC,144348.800,A,4308.3001,N,07726.2622,W,0.00,352.18,130419,,,A*74
$GPGGA,144349.000,4308.3001,N,07726.2622,W,1,11,0.75,148.4,M,-34.4,M,,*59
lng=-77.437705, lat=43.138339, altitude=148.40, speed=0.00, satellites=11, angle=352.1800, fixquality=1
$GPRMC,144349.200,A,4308.3001,N,07726.2622,W,0.00,166.33,130419,,,A*73
$GPGGA,144349.400,4308.3001,N,07726.2622,W,1,11,0.75,148.4,M,-34.4,M,,*5D
lng=-77.437705, lat=43.138339, altitude=148.40, speed=0.00, satellites=11, angle=166.3300, fixquality=1
$GPRMC,144349.600,A,4308.3001,N,07726.2622,W,0.00,229.11,130419,,,A*7F
$GPGGA,144349.800,4308.3001,N,07726.2622,W,1,11,0.75,148.4,M,-34.4,M,,*51
lng=-77.437705, lat=43.138339, altitude=148.40, speed=0.00, satellites=11, angle=229.1100, fixquality=1
$GPRMC,144350.000,A,4308.3001,N,07726.2622,W,0.00,28.16,130419,,,A*45
$GPGGA,144350.200,4308.3001,N,07726.2622,W,1,11,0.75,148.4,M,-34.4,M,,*53
lng=-77.437705, lat=43.138339, altitude=148.40, speed=0.00, satellites=11, angle=28.1600, fixquality=1
$GPRMC,144350.400,A,4308.3001,N,07726.2622,W,0.00,9.12,130419,,,A*76
$GPGGA,144350.600,4308.3001,N,07726.2622,W,1,11,0.75,148.4,M,-34.4,M,,*57
lng=-77.437705, lat=43.138339, altitude=148.40, speed=0.00, satellites=11, angle=9.1200, fixquality=1
$GPRMC,144350.800,A,4308.3001,N,07726.2622,W,0.01,42.19,130419,,,A*4F
$GPGGA,144351.000,4308.3001,N,07726.2622,W,1,11,0.75,148.4,M,-34.4,M,,*50
lng=-77.437705, lat=43.138339, altitude=148.40, speed=0.01, satellites=11, angle=42.1900, fixquality=1
$GPRMC,144351.200,A,4308.3001,N,07726.2622,W,0.00,19.85,130419,,,A*4E
$GPGGA,144351.400,4308.3001,N,07726.2622,W,1,11,0.75,148.4,M,-34.4,M,,*54
lng=-77.437705, lat=43.138339, altitude=148.40, speed=0.00, satellites=11, angle=19.8500, fixquality=1
$GPRMC,144351.600,A,4308.3001,N,07726.2622,W,0.00,122.11,130419,,,A*7E
$GPGGA,144351.800,4308.3001,N,07726.2622,W,1,11,0.75,148.4,M,-34.4,M,,*58
lng=-77.437705, lat=43.138339, altitude=148.40, speed=0.00, satellites=11, angle=122.1100, fixquality=1
$GPRMC,144352.000,A,4308.3001,N,07726.2622,W,0.00,99.00,130419,,,A*4A
$GPGGA,144352.200,4308.3001,N,07726.2622,W,1,11,0.75,148.4,M,-34.4,M,,*51
lng=-77.437705, lat=43.138339, altitude=148.40, speed=0.00, satellites=11, angle=99.0000, fixquality=1
$GPRMC,144352.400,A,4308.3001,N,07726.2622,W,0.00,65.27,130419,,,A*48
$GPGGA,144352.600,4308.3001,N,07726.2622,W,1,11,0.75,148.4,M,-34.4,M,,*55
lng=-77.437705, lat=43.138339, altitude=148.40, speed=0.00, satellites=11, angle=65.2700, fixquality=1
$GPRMC,144352.800,A,4308.3001,N,07726.2622,W,0.00,230.17,130419,,,A*75
$GPGGA,144353.000,4308.3001,N,07726.2622,W,1,11,0.75,148.4,M,-34.4,M,,*52
lng=-77.437705, lat=43.138339, altitude=148.40, speed=0.00, satellites=11, angle=230.1700, fixquality=1
$GPRMC,144353.200,A,4308.3001,N,07726.2622,W,0.00,119.78,130419,,,A*7F
$GPGGA,144353.400,4308.3001,N,07726.2622,W,1,11,0.75,148.4,M,-34.4,M,,*56
lng=-77.437705, lat=43.138339, altitude=148.40, speed=0.00, satellites=11, angle=119.7800, fixquality=1
$GPRMC,144353.600,A,4308.3001,N,07726.2622,W,0.00,66.38,130419,,,A*46
$GPGGA,144353.800,4308.3001,N,07726.2622,W,1,11,0.75,148.4,M,-34.4,M,,*5A
lng=-77.437705, lat=43.138339, altitude=148.40, speed=0.00, satellites=11, angle=66.3800, fixquality=1
$GPRMC,144354.000,A,4308.3001,N,07726.2622,W,0.01,354.05,130419,,,A*7A
$GPGGA,144354.200,4308.3001,N,07726.2622,W,1,11,0.75,148.4,M,-34.4,M,,*57
lng=-77.437705, lat=43.138339, altitude=148.40, speed=0.01, satellites=11, angle=354.0500, fixquality=1
$GPRMC,144354.400,A,4308.3001,N,07726.2622,W,0.00,25.51,130419,,,A*4B
$GPGGA,144354.600,4308.3001,N,07726.2622,W,1,11,0.75,148.4,M,-34.4,M,,*53
lng=-77.437705, lat=43.138339, altitude=148.40, speed=0.00, satellites=11, angle=25.5100, fixquality=1
$GPRMC,144354.800,A,4308.3001,N,07726.2622,W,0.01,123.73,130419,,,A*71
$GPGGA,144355.000,4308.3001,N,07726.2622,W,1,11,0.75,148.4,M,-34.4,M,,*54
lng=-77.437705, lat=43.138339, altitude=148.40, speed=0.01, satellites=11, angle=123.7300, fixquality=1
$GPRMC,144355.200,A,4308.3001,N,07726.2622,W,0.01,109.57,130419,,,A*74
$GPGGA,144355.400,4308.3001,N,07726.2622,W,1,11,0.75,148.4,M,-34.4,M,,*50
lng=-77.437705, lat=43.138339, altitude=148.40, speed=0.01, satellites=11, angle=109.5700, fixquality=1
$GPRMC,144355.600,A,4308.3001,N,07726.2622,W,0.00,70.21,130419,,,A*4F
$GPGGA,144355.800,4308.3001,N,07726.2622,W,1,11,0.75,148.4,M,-34.4,M,,*5C
lng=-77.437705, lat=43.138339, altitude=148.40, speed=0.00, satellites=11, angle=70.2100, fixquality=1
$GPRMC,144356.000,A,4308.3001,N,07726.2622,W,0.00,24.86,130419,,,A*46
$GPGGA,144356.200,4308.3001,N,07726.2622,W,1,11,0.75,148.4,M,-34.4,M,,*55
lng=-77.437705, lat=43.138339, altitude=148.40, speed=0.00, satellites=11, angle=24.8600, fixquality=1
$GPRMC,144356.400,A,4308.3001,N,07726.2622,W,0.00,155.44,130419,,,A*7B
$GPGGA,144356.600,4308.3001,N,07726.2622,W,1,11,0.75,148.4,M,-34.4,M,,*51
lng=-77.437705, lat=43.138339, altitude=148.40, speed=0.00, satellites=11, angle=155.4400, fixquality=1
$GPRMC,144356.800,A,4308.3001,N,07726.2622,W,0.00,353.36,130419,,,A*76
$GPGGA,144357.000,4308.3001,N,07726.2622,W,1,11,0.75,148.4,M,-34.4,M,,*56
lng=-77.437705, lat=43.138339, altitude=148.40, speed=0.00, satellites=11, angle=353.3600, fixquality=1
$GPRMC,144357.200,A,4308.3001,N,07726.2622,W,0.00,9.28,130419,,,A*7E
$GPGGA,144357.400,4308.3001,N,07726.2622,W,1,11,0.75,148.4,M,-34.4,M,,*52
lng=-77.437705, lat=43.138339, altitude=148.40, speed=0.00, satellites=11, angle=9.2800, fixquality=1
$GPRMC,144357.600,A,4308.3001,N,07726.2622,W,0.01,183.51,130419,,,A*76
$GPGGA,144357.800,4308.3001,N,07726.2622,W,1,11,0.75,148.4,M,-34.4,M,,*5E
lng=-77.437705, lat=43.138339, altitude=148.40, speed=0.01, satellites=11, angle=183.5100, fixquality=1
$GPRMC,144358.000,A,4308.3001,N,07726.2621,W,0.01,141.86,130419,,,A*78
$GPGGA,144358.200,4308.3001,N,07726.2621,W,1,11,0.75,148.3,M,-34.4,M,,*5F
lng=-77.437705, lat=43.138339, altitude=148.40, speed=0.01, satellites=11, angle=141.8600, fixquality=1
$GPRMC,144358.400,A,4308.3001,N,07726.2621,W,0.00,153.93,130419,,,A*7A
$GPGGA,144358.600,4308.3001,N,07726.2621,W,1,11,0.75,148.3,M,-34.4,M,,*5B
lng=-77.437705, lat=43.138339, altitude=148.30, speed=0.00, satellites=11, angle=153.9300, fixquality=1
$GPRMC,144358.800,A,4308.3001,N,07726.2621,W,0.01,83.48,130419,,,A*4D
$GPGGA,144359.000,4308.3001,N,07726.2621,W,1,11,0.75,148.3,M,-34.4,M,,*5C
lng=-77.437705, lat=43.138339, altitude=148.30, speed=0.01, satellites=11, angle=83.4800, fixquality=1
$GPRMC,144359.200,A,4308.3001,N,07726.2621,W,0.00,246.05,130419,,,A*75
$GPGGA,144359.400,4308.3001,N,07726.2621,W,1,11,0.75,148.3,M,-34.4,M,,*58
lng=-77.437705, lat=43.138339, altitude=148.30, speed=0.00, satellites=11, angle=246.0500, fixquality=1
$GPRMC,144359.600,A,4308.3001,N,07726.2621,W,0.00,58.45,130419,,,A*48
$GPGGA,144359.800,4308.3001,N,07726.2621,W,1,11,0.75,148.3,M,-34.4,M,,*54
lng=-77.437705, lat=43.138339, altitude=148.30, speed=0.00, satellites=11, angle=58.4500, fixquality=1
$GPRMC,144400.000,A,4308.3001,N,07726.2621,W,0.01,200.23,130419,,,A*7B
$GPGGA,144400.200,4308.3001,N,07726.2621,W,1,11,0.75,148.3,M,-34.4,M,,*55
lng=-77.437705, lat=43.138339, altitude=148.30, speed=0.01, satellites=11, angle=200.2300, fixquality=1
$GPRMC,144400.400,A,4308.3001,N,07726.2621,W,0.00,184.09,130419,,,A*79
$GPGGA,144400.600,4308.3001,N,07726.2621,W,1,11,0.75,148.3,M,-34.4,M,,*51
lng=-77.437705, lat=43.138339, altitude=148.30, speed=0.00, satellites=11, angle=184.0900, fixquality=1
$GPRMC,144400.800,A,4308.3001,N,07726.2621,W,0.00,224.65,130419,,,A*76
$GPGGA,144401.000,4308.3001,N,07726.2621,W,1,11,0.75,148.3,M,-34.4,M,,*56
lng=-77.437705, lat=43.138339, altitude=148.30, speed=0.00, satellites=11, angle=224.6500, fixquality=1
$GPRMC,144401.200,A,4308.3001,N,07726.2621,W,0.00,162.31,130419,,,A*7D
$GPGGA,144401.400,4308.3001,N,07726.2621,W,1,11,0.75,148.3,M,-34.4,M,,*52
lng=-77.437705, lat=43.138339, altitude=148.30, speed=0.00, satellites=11, angle=162.3100, fixquality=1
$GPRMC,144401.600,A,4308.3001,N,07726.2621,W,0.00,111.64,130419,,,A*7D
$GPGGA,144401.800,4308.3001,N,07726.2621,W,1,11,0.75,148.3,M,-34.4,M,,*5E
lng=-77.437705, lat=43.138339, altitude=148.30, speed=0.00, satellites=11, angle=111.6400, fixquality=1
$GPRMC,144402.000,A,4308.3001,N,07726.2621,W,0.00,108.62,130419,,,A*76
$GPGGA,144402.200,4308.3001,N,07726.2621,W,1,11,0.75,148.3,M,-34.4,M,,*57
lng=-77.437705, lat=43.138339, altitude=148.30, speed=0.00, satellites=11, angle=108.6200, fixquality=1
$GPRMC,144402.400,A,4308.3001,N,07726.2621,W,0.01,149.15,130419,,,A*76
$GPGGA,144402.600,4308.3001,N,07726.2621,W,1,11,0.75,148.3,M,-34.4,M,,*53
lng=-77.437705, lat=43.138339, altitude=148.30, speed=0.01, satellites=11, angle=149.1500, fixquality=1
$GPRMC,144402.800,A,4308.3001,N,07726.2621,W,0.01,182.05,130419,,,A*7C
$GPGGA,144403.000,4308.3001,N,07726.2621,W,1,11,0.75,148.3,M,-34.4,M,,*54
lng=-77.437705, lat=43.138339, altitude=148.30, speed=0.01, satellites=11, angle=182.0500, fixquality=1
$GPRMC,144403.200,A,4308.3001,N,07726.2621,W,0.00,183.58,130419,,,A*7F
$GPGGA,144403.400,4308.3001,N,07726.2621,W,1,11,0.75,148.3,M,-34.4,M,,*50
lng=-77.437705, lat=43.138339, altitude=148.30, speed=0.00, satellites=11, angle=183.5800, fixquality=1
$GPRMC,144403.600,A,4308.3001,N,07726.2621,W,0.00,0.00,130419,,,A*7C
$GPGGA,144403.800,4308.3001,N,07726.2621,W,1,11,0.75,148.3,M,-34.4,M,,*5C
lng=-77.437705, lat=43.138339, altitude=148.30, speed=0.00, satellites=11, angle=0.0000, fixquality=1
$GPRMC,144404.000,A,4308.3001,N,07726.2621,W,0.01,106.18,130419,,,A*72
$GPGGA,144404.200,4308.3001,N,07726.2621,W,1,11,0.75,148.3,M,-34.4,M,,*51
lng=-77.437705, lat=43.138339, altitude=148.30, speed=0.01, satellites=11, angle=106.1800, fixquality=1
$GPRMC,144404.400,A,4308.3001,N,07726.2621,W,0.00,26.21,130419,,,A*4E
$GPGGA,144404.600,4308.3001,N,07726.2621,W,1,11,0.75,148.3,M,-34.4,M,,*55
lng=-77.437705, lat=43.138339, altitude=148.30, speed=0.00, satellites=11, angle=26.2100, fixquality=1
$GPRMC,144404.800,A,4308.3001,N,07726.2621,W,0.01,207.09,130419,,,A*78
$GPGGA,144405.000,4308.3001,N,07726.2621,W,1,11,0.75,148.3,M,-34.4,M,,*52
lng=-77.437705, lat=43.138339, altitude=148.30, speed=0.01, satellites=11, angle=207.0900, fixquality=1
$GPRMC,144405.200,A,4308.3001,N,07726.2621,W,0.00,177.17,130419,,,A*79
$GPGGA,144405.400,4308.3001,N,07726.2621,W,1,11,0.75,148.3,M,-34.4,M,,*56
lng=-77.437705, lat=43.138339, altitude=148.30, speed=0.00, satellites=11, angle=177.1700, fixquality=1
$GPRMC,144405.600,A,4308.3001,N,07726.2621,W,0.00,208.53,130419,,,A*76
$GPGGA,144405.800,4308.3001,N,07726.2621,W,1,11,0.75,148.3,M,-34.4,M,,*5A
lng=-77.437705, lat=43.138339, altitude=148.30, speed=0.00, satellites=11, angle=208.5300, fixquality=1
$GPRMC,144406.000,A,4308.3001,N,07726.2621,W,0.00,88.20,130419,,,A*4D
$GPGGA,144406.200,4308.3001,N,07726.2621,W,1,11,0.75,148.3,M,-34.4,M,,*53
lng=-77.437705, lat=43.138339, altitude=148.30, speed=0.00, satellites=11, angle=88.2000, fixquality=1
$GPRMC,144406.400,A,4308.3001,N,07726.2621,W,0.00,283.29,130419,,,A*79
$GPGGA,144406.600,4308.3001,N,07726.2621,W,1,11,0.75,148.3,M,-34.4,M,,*57
lng=-77.437705, lat=43.138339, altitude=148.30, speed=0.00, satellites=11, angle=283.2900, fixquality=1
$GPRMC,144406.800,A,4308.3001,N,07726.2621,W,0.01,196.39,130419,,,A*72
$GPGGA,144407.000,4308.3001,N,07726.2621,W,1,11,0.75,148.3,M,-34.4,M,,*50
lng=-77.437705, lat=43.138339, altitude=148.30, speed=0.01, satellites=11, angle=196.3900, fixquality=1
$GPRMC,144407.200,A,4308.3001,N,07726.2621,W,0.00,247.12,130419,,,A*7E
$GPGGA,144407.400,4308.3001,N,07726.2621,W,1,11,0.75,148.3,M,-34.4,M,,*54
lng=-77.437705, lat=43.138339, altitude=148.30, speed=0.00, satellites=11, angle=247.1200, fixquality=1
$GPRMC,144407.600,A,4308.3001,N,07726.2621,W,0.01,66.13,130419,,,A*4B
$GPGGA,144407.800,4308.3001,N,07726.2621,W,1,11,0.75,148.3,M,-34.4,M,,*58
lng=-77.437705, lat=43.138339, altitude=148.30, speed=0.01, satellites=11, angle=66.1300, fixquality=1
$GPRMC,144408.000,A,4308.3001,N,07726.2621,W,0.00,168.44,130419,,,A*7E
$GPGGA,144408.200,4308.3001,N,07726.2621,W,1,11,0.75,148.3,M,-34.4,M,,*5D
lng=-77.437705, lat=43.138339, altitude=148.30, speed=0.00, satellites=11, angle=168.4400, fixquality=1
$GPRMC,144408.400,A,4308.3001,N,07726.2621,W,0.00,96.43,130419,,,A*4D
$GPGGA,144408.600,4308.3001,N,07726.2621,W,1,11,0.75,148.3,M,-34.4,M,,*59
lng=-77.437705, lat=43.138339, altitude=148.30, speed=0.00, satellites=11, angle=96.4300, fixquality=1
$GPRMC,144408.800,A,4308.3001,N,07726.2621,W,0.00,84.54,130419,,,A*44
$GPGGA,144409.000,4308.3001,N,07726.2621,W,1,11,0.75,148.3,M,-34.4,M,,*5E
lng=-77.437705, lat=43.138339, altitude=148.30, speed=0.00, satellites=11, angle=84.5400, fixquality=1
$GPRMC,144409.200,A,4308.3001,N,07726.2621,W,0.00,128.79,130419,,,A*77
$GPGGA,144409.400,4308.3001,N,07726.2621,W,1,11,0.75,148.3,M,-34.4,M,,*5A
lng=-77.437705, lat=43.138339, altitude=148.30, speed=0.00, satellites=11, angle=128.7900, fixquality=1
$GPRMC,144409.600,A,4308.3001,N,07726.2621,W,0.00,246.93,130419,,,A*7C
$GPGGA,144409.800,4308.3001,N,07726.2621,W,1,11,0.75,148.3,M,-34.4,M,,*56
lng=-77.437705, lat=43.138339, altitude=148.30, speed=0.00, satellites=11, angle=246.9300, fixquality=1
$GPRMC,144410.000,A,4308.3001,N,07726.2621,W,0.00,273.92,130419,,,A*75
$GPGGA,144410.200,4308.3001,N,07726.2621,W,1,11,0.75,148.3,M,-34.4,M,,*54
lng=-77.437705, lat=43.138339, altitude=148.30, speed=0.00, satellites=11, angle=273.9200, fixquality=1
$GPRMC,144410.400,A,4308.3001,N,07726.2621,W,0.01,185.96,130419,,,A*7E
$GPGGA,144410.600,4308.3001,N,07726.2621,W,1,11,0.75,148.3,M,-34.4,M,,*50
lng=-77.437705, lat=43.138339, altitude=148.30, speed=0.01, satellites=11, angle=185.9600, fixquality=1
$GPRMC,144410.800,A,4308.3001,N,07726.2621,W,0.01,62.90,130419,,,A*4C
$GPGGA,144411.000,4308.3001,N,07726.2621,W,1,11,0.75,148.3,M,-34.4,M,,*57
lng=-77.437705, lat=43.138339, altitude=148.30, speed=0.01, satellites=11, angle=62.9000, fixquality=1
$GPRMC,144411.200,A,4308.3001,N,07726.2621,W,0.01,84.15,130419,,,A*42
$GPGGA,144411.400,4308.3001,N,07726.2621,W,1,11,0.75,148.3,M,-34.4,M,,*53
lng=-77.437705, lat=43.138339, altitude=148.30, speed=0.01, satellites=11, angle=84.1500, fixquality=1
$GPRMC,144411.600,A,4308.3001,N,07726.2621,W,0.01,124.59,130419,,,A*75
$GPGGA,144411.800,4308.3001,N,07726.2621,W,1,11,0.75,148.3,M,-34.4,M,,*5F
lng=-77.437705, lat=43.138339, altitude=148.30, speed=0.01, satellites=11, angle=124.5900, fixquality=1
$GPRMC,144412.000,A,4308.3001,N,07726.2621,W,0.01,109.94,130419,,,A*7E
$GPGGA,144412.200,4308.3001,N,07726.2621,W,1,11,0.75,148.3,M,-34.4,M,,*56
lng=-77.437705, lat=43.138339, altitude=148.30, speed=0.01, satellites=11, angle=109.9400, fixquality=1
$GPRMC,144412.400,A,4308.3001,N,07726.2621,W,0.00,21.96,130419,,,A*42
$GPGGA,144412.600,4308.3001,N,07726.2621,W,1,11,0.75,148.3,M,-34.4,M,,*52
lng=-77.437705, lat=43.138339, altitude=148.30, speed=0.00, satellites=11, angle=21.9600, fixquality=1
$GPRMC,144412.800,A,4308.3001,N,07726.2621,W,0.00,335.25,130419,,,A*70
$GPGGA,144413.000,4308.3001,N,07726.2621,W,1,11,0.75,148.3,M,-34.4,M,,*55
lng=-77.437705, lat=43.138339, altitude=148.30, speed=0.00, satellites=11, angle=335.2500, fixquality=1
$GPRMC,144413.200,A,4308.3001,N,07726.2621,W,0.00,151.38,130419,,,A*77
$GPGGA,144413.400,4308.3001,N,07726.2621,W,1,11,0.75,148.3,M,-34.4,M,,*51
lng=-77.437705, lat=43.138339, altitude=148.30, speed=0.00, satellites=11, angle=151.3800, fixquality=1
$GPRMC,144413.600,A,4308.3001,N,07726.2621,W,0.00,132.61,130419,,,A*7A
$GPGGA,144413.800,4308.3001,N,07726.2621,W,1,11,0.75,148.3,M,-34.4,M,,*5D
lng=-77.437705, lat=43.138339, altitude=148.30, speed=0.00, satellites=11, angle=132.6100, fixquality=1
$GPRMC,144414.000,A,4308.3001,N,07726.2621,W,0.01,142.47,130419,,,A*79
$GPGGA,144414.200,4308.3001,N,07726.2621,W,1,11,0.75,148.3,M,-34.4,M,,*50
lng=-77.437705, lat=43.138339, altitude=148.30, speed=0.01, satellites=11, angle=142.4700, fixquality=1
$GPRMC,144414.400,A,4308.3001,N,07726.2621,W,0.01,135.23,130419,,,A*7F
$GPGGA,144414.600,4308.3001,N,07726.2621,W,1,11,0.75,148.3,M,-34.4,M,,*54
lng=-77.437705, lat=43.138339, altitude=148.30, speed=0.01, satellites=11, angle=135.2300, fixquality=1
$GPRMC,144414.800,A,4308.3001,N,07726.2621,W,0.00,47.82,130419,,,A*4D
$GPGGA,144415.000,4308.3001,N,07726.2621,W,1,11,0.75,148.3,M,-34.4,M,,*53
lng=-77.437705, lat=43.138339, altitude=148.30, speed=0.00, satellites=11, angle=47.8200, fixquality=1
$GPRMC,144415.200,A,4308.3001,N,07726.2621,W,0.00,34.72,130419,,,A*4D
$GPGGA,144415.400,4308.3001,N,07726.2621,W,1,11,0.75,148.3,M,-34.4,M,,*57
lng=-77.437705, lat=43.138339, altitude=148.30, speed=0.00, satellites=11, angle=34.7200, fixquality=1
$GPRMC,144415.600,A,4308.3001,N,07726.2621,W,0.01,75.64,130419,,,A*4A
$GPGGA,144415.800,4308.3001,N,07726.2621,W,1,11,0.75,148.3,M,-34.4,M,,*5B
lng=-77.437705, lat=43.138339, altitude=148.30, speed=0.01, satellites=11, angle=75.6400, fixquality=1
$GPRMC,144416.000,A,4308.3001,N,07726.2621,W,0.00,0.00,130419,,,A*7E
$GPGGA,144416.200,4308.3001,N,07726.2621,W,1,11,0.75,148.3,M,-34.4,M,,*52
lng=-77.437705, lat=43.138339, altitude=148.30, speed=0.00, satellites=11, angle=0.0000, fixquality=1
$GPRMC,144416.400,A,4308.3001,N,07726.2621,W,0.00,17.34,130419,,,A*4B
$GPGGA,144416.600,4308.3001,N,07726.2621,W,1,11,0.75,148.3,M,-34.4,M,,*56
lng=-77.437705, lat=43.138339, altitude=148.30, speed=0.00, satellites=11, angle=17.3400, fixquality=1
$GPRMC,144416.800,A,4308.3001,N,07726.2621,W,0.01,56.27,130419,,,A*41
$GPGGA,144417.000,4308.3001,N,07726.2621,W,1,11,0.75,148.3,M,-34.4,M,,*51
lng=-77.437705, lat=43.138339, altitude=148.30, speed=0.01, satellites=11, angle=56.2700, fixquality=1
$GPRMC,144417.200,A,4308.3001,N,07726.2621,W,0.00,69.17,130419,,,A*44
$GPGGA,144417.400,4308.3001,N,07726.2621,W,1,11,0.75,148.3,M,-34.4,M,,*55
lng=-77.437705, lat=43.138339, altitude=148.30, speed=0.00, satellites=11, angle=69.1700, fixquality=1
$GPRMC,144417.600,A,4308.3001,N,07726.2621,W,0.01,38.56,130419,,,A*40
$GPGGA,144417.800,4308.3001,N,07726.2621,W,1,11,0.75,148.3,M,-34.4,M,,*59
lng=-77.437705, lat=43.138339, altitude=148.30, speed=0.01, satellites=11, angle=38.5600, fixquality=1
$GPRMC,144418.000,A,4308.3001,N,07726.2621,W,0.01,82.86,130419,,,A*45
$GPGGA,144418.200,4308.3001,N,07726.2621,W,1,11,0.75,148.3,M,-34.4,M,,*5C
lng=-77.437705, lat=43.138339, altitude=148.30, speed=0.01, satellites=11, angle=82.8600, fixquality=1
$GPRMC,144418.400,A,4308.3001,N,07726.2621,W,0.01,100.15,130419,,,A*70
$GPGGA,144418.600,4308.3001,N,07726.2621,W,1,11,0.75,148.3,M,-34.4,M,,*58
lng=-77.437705, lat=43.138339, altitude=148.30, speed=0.01, satellites=11, angle=100.1500, fixquality=1
$GPRMC,144418.800,A,4308.3001,N,07726.2621,W,0.01,52.13,130419,,,A*4C
$GPGGA,144419.000,4308.3001,N,07726.2621,W,1,11,0.75,148.3,M,-34.4,M,,*5F
lng=-77.437705, lat=43.138339, altitude=148.30, speed=0.01, satellites=11, angle=52.1300, fixquality=1
$GPRMC,144419.200,A,4308.3001,N,07726.2621,W,0.00,76.05,130419,,,A*47
$GPGGA,144419.400,4308.3001,N,07726.2621,W,1,11,0.75,148.3,M,-34.4,M,,*5B
lng=-77.437705, lat=43.138339, altitude=148.30, speed=0.00, satellites=11, angle=76.0500, fixquality=1
$GPRMC,144419.600,A,4308.3001,N,07726.2621,W,0.00,0.00,130419,,,A*77
$GPGGA,144419.800,4308.3001,N,07726.2621,W,1,11,0.75,148.3,M,-34.4,M,,*57
lng=-77.437705, lat=43.138339, altitude=148.30, speed=0.00, satellites=11, angle=0.0000, fixquality=1
$GPRMC,144420.000,A,4308.3001,N,07726.2621,W,0.01,137.15,130419,,,A*7B
$GPGGA,144420.200,4308.3001,N,07726.2621,W,1,11,0.75,148.3,M,-34.4,M,,*57
lng=-77.437705, lat=43.138339, altitude=148.30, speed=0.01, satellites=11, angle=137.1500, fixquality=1
$GPRMC,144420.400,A,4308.3001,N,07726.2621,W,0.00,91.76,130419,,,A*46
$GPGGA,144420.600,4308.3001,N,07726.2621,W,1,11,0.75,148.3,M,-34.4,M,,*53
lng=-77.437705, lat=43.138339, altitude=148.30, speed=0.00, satellites=11, angle=91.7600, fixquality=1
$GPRMC,144420.800,A,4308.3001,N,07726.2621,W,0.00,168.72,130419,,,A*79
$GPGGA,144421.000,4308.3001,N,07726.2621,W,1,11,0.75,148.3,M,-34.4,M,,*54
lng=-77.437705, lat=43.138339, altitude=148.30, speed=0.00, satellites=11, angle=168.7200, fixquality=1
$GPRMC,144421.200,A,4308.3001,N,07726.2621,W,0.01,98.90,130419,,,A*41
$GPGGA,144421.400,4308.3001,N,07726.2621,W,1,11,0.75,148.3,M,-34.4,M,,*50
lng=-77.437705, lat=43.138339, altitude=148.30, speed=0.01, satellites=11, angle=98.9000, fixquality=1
$GPRMC,144421.600,A,4308.3001,N,07726.2621,W,0.01,166.51,130419,,,A*78
$GPGGA,144421.800,4308.3001,N,07726.2621,W,1,11,0.75,148.3,M,-34.4,M,,*5C
lng=-77.437705, lat=43.138339, altitude=148.30, speed=0.01, satellites=11, angle=166.5100, fixquality=1
$GPRMC,144422.000,A,4308.3001,N,07726.2621,W,0.00,77.67,130419,,,A*48
$GPGGA,144422.200,4308.3001,N,07726.2621,W,1,11,0.75,148.3,M,-34.4,M,,*55
lng=-77.437705, lat=43.138339, altitude=148.30, speed=0.00, satellites=11, angle=77.6700, fixquality=1
$GPRMC,144422.400,A,4308.3001,N,07726.2621,W,0.01,58.79,130419,,,A*4F
$GPGGA,144422.600,4308.3001,N,07726.2621,W,1,11,0.75,148.3,M,-34.4,M,,*51
lng=-77.437705, lat=43.138339, altitude=148.30, speed=0.01, satellites=11, angle=58.7900, fixquality=1
$GPRMC,144422.800,A,4308.3001,N,07726.2621,W,0.00,0.00,130419,,,A*71
$GPGGA,144423.000,4308.3001,N,07726.2621,W,1,11,0.75,148.3,M,-34.4,M,,*56
lng=-77.437705, lat=43.138339, altitude=148.30, speed=0.00, satellites=11, angle=0.0000, fixquality=1
$GPRMC,144423.200,A,4308.3001,N,07726.2621,W,0.00,13.07,130419,,,A*4F
$GPGGA,144423.400,4308.3001,N,07726.2621,W,1,11,0.75,148.3,M,-34.4,M,,*52
lng=-77.437705, lat=43.138339, altitude=148.30, speed=0.00, satellites=11, angle=13.0700, fixquality=1
$GPRMC,144423.600,A,4308.3001,N,07726.2621,W,0.01,186.31,130419,,,A*72
$GPGGA,144423.800,4308.3001,N,07726.2621,W,1,11,0.75,148.3,M,-34.4,M,,*5E
lng=-77.437705, lat=43.138339, altitude=148.30, speed=0.01, satellites=11, angle=186.3100, fixquality=1
$GPRMC,144424.000,A,4308.3001,N,07726.2621,W,0.01,153.69,130419,,,A*76
$GPGGA,144424.200,4308.3001,N,07726.2621,W,1,11,0.75,148.3,M,-34.4,M,,*53
lng=-77.437705, lat=43.138339, altitude=148.30, speed=0.01, satellites=11, angle=153.6900, fixquality=1
$GPRMC,144424.400,A,4308.3001,N,07726.2621,W,0.00,0.00,130419,,,A*7B
$GPGGA,144424.600,4308.3001,N,07726.2621,W,1,11,0.75,148.3,M,-34.4,M,,*57
lng=-77.437705, lat=43.138339, altitude=148.30, speed=0.00, satellites=11, angle=0.0000, fixquality=1
$GPRMC,144424.800,A,4308.3001,N,07726.2621,W,0.00,16.25,130419,,,A*47
$GPGGA,144425.000,4308.3001,N,07726.2621,W,1,11,0.75,148.3,M,-34.4,M,,*50
lng=-77.437705, lat=43.138339, altitude=148.30, speed=0.00, satellites=11, angle=16.2500, fixquality=1
$GPRMC,144425.200,A,4308.3001,N,07726.2621,W,0.00,98.62,130419,,,A*49
$GPGGA,144425.400,4308.3001,N,07726.2621,W,1,11,0.75,148.3,M,-34.4,M,,*54
lng=-77.437705, lat=43.138339, altitude=148.30, speed=0.00, satellites=11, angle=98.6200, fixquality=1
$GPRMC,144425.600,A,4308.3001,N,07726.2621,W,0.00,112.44,130419,,,A*7A
$GPGGA,144425.800,4308.3001,N,07726.2621,W,1,11,0.75,148.3,M,-34.4,M,,*58
lng=-77.437705, lat=43.138339, altitude=148.30, speed=0.00, satellites=11, angle=112.4400, fixquality=1
$GPRMC,144426.000,A,4308.3001,N,07726.2621,W,0.01,325.83,130419,,,A*73
$GPGGA,144426.200,4308.3001,N,07726.2621,W,1,11,0.75,148.3,M,-34.4,M,,*51
lng=-77.437705, lat=43.138339, altitude=148.30, speed=0.01, satellites=11, angle=325.8300, fixquality=1
$GPRMC,144426.400,A,4308.3001,N,07726.2621,W,0.01,355.43,130419,,,A*7C
$GPGGA,144426.600,4308.3001,N,07726.2621,W,1,11,0.75,148.3,M,-34.4,M,,*55
lng=-77.437705, lat=43.138339, altitude=148.30, speed=0.01, satellites=11, angle=355.4300, fixquality=1
$GPRMC,144426.800,A,4308.3001,N,07726.2621,W,0.00,337.20,130419,,,A*70
