Vers 57
USE_SERIAL_FEEDBACK=false
DEVELOPMENT_MODE=false
USE_RMC_ONLY=false

$GPRMC,142025.000,A,4308.3012,N,07726.2634,W,0.00,178.07,180419,,,D*7D
$GPGGA,142025.200,4308.3012,N,07726.2634,W,2,09,0.92,158.0,M,-34.4,M,0000,0000*57
lng=-77.437721, lat=43.138355, altitude=158.00, speed=0.00, satellites=9, angle=178.0700, fixquality=2
$GPRMC,142025.400,A,4308.3012,N,07726.2634,W,0.00,178.07,180419,,,D*79
$GPGGA,142025.600,4308.3012,N,07726.2634,W,2,09,0.92,158.0,M,-34.4,M,0000,0000*53
lng=-77.437721, lat=43.138355, altitude=158.00, speed=0.00, satellites=9, angle=178.0700, fixquality=2
$GPRMC,142025.800,A,4308.3012,N,07726.2634,W,0.00,178.07,180419,,,D*75
$GPGGA,142026.000,4308.3012,N,07726.2634,W,2,09,0.92,158.0,M,-34.4,M,0000,0000*56
lng=-77.437721, lat=43.138355, altitude=158.00, speed=0.00, satellites=9, angle=178.0700, fixquality=2
$GPRMC,142026.200,A,4308.3012,N,07726.2634,W,0.00,178.07,180419,,,D*7C
$GPGGA,142026.400,4308.3012,N,07726.2634,W,2,09,0.92,158.0,M,-34.4,M,0000,0000*52
lng=-77.437721, lat=43.138355, altitude=158.00, speed=0.00, satellites=9, angle=178.0700, fixquality=2
$GPRMC,142026.600,A,4308.3012,N,07726.2634,W,0.00,178.07,180419,,,D*78
$GPGGA,142026.800,4308.3012,N,07726.2634,W,2,09,0.92,158.0,M,-34.4,M,0000,0000*5E
lng=-77.437721, lat=43.138355, altitude=158.00, speed=0.00, satellites=9, angle=178.0700, fixquality=2
$GPRMC,142027.000,A,4308.3012,N,07726.2634,W,0.00,178.07,180419,,,D*7F
$GPGGA,142027.200,4308.3012,N,07726.2634,W,2,09,0.92,158.0,M,-34.4,M,0000,0000*55
lng=-77.437721, lat=43.138355, altitude=158.00, speed=0.00, satellites=9, angle=178.0700, fixquality=2
$GPRMC,142027.400,A,4308.3012,N,07726.2634,W,0.00,178.07,180419,,,D*7B
$GPGGA,142027.600,4308.3012,N,07726.2634,W,2,09,0.92,158.0,M,-34.4,M,0000,0000*51
lng=-77.437721, lat=43.138355, altitude=158.00, speed=0.00, satellites=9, angle=178.0700, fixquality=2
$GPRMC,142027.800,A,4308.3012,N,07726.2634,W,0.00,178.07,180419,,,D*77
$GPGGA,142028.000,4308.3012,N,07726.2634,W,2,09,0.92,158.0,M,-34.4,M,0000,0000*58
lng=-77.437721, lat=43.138355, altitude=158.00, speed=0.00, satellites=9, angle=178.0700, fixquality=2
$GPRMC,142028.200,A,4308.3012,N,07726.2634,W,0.00,178.07,180419,,,D*72
$GPGGA,142028.400,4308.3012,N,07726.2634,W,2,09,0.92,158.0,M,-34.4,M,0000,0000*5C
lng=-77.437721, lat=43.138355, altitude=158.00, speed=0.00, satellites=9, angle=178.0700, fixquality=2
$GPRMC,142028.600,A,4308.3012,N,07726.2634,W,0.00,178.07,180419,,,D*76
$GPGGA,142028.800,4308.3012,N,07726.2634,W,2,09,0.92,158.0,M,-34.4,M,0000,0000*50
lng=-77.437721, lat=43.138355, altitude=158.00, speed=0.00, satellites=9, angle=178.0700, fixquality=2
$GPRMC,142029.000,A,4308.3012,N,07726.2634,W,0.00,178.07,180419,,,D*71
$GPGGA,142029.200,4308.3012,N,07726.2634,W,2,09,0.92,158.0,M,-34.4,M,0000,0000*5B
lng=-77.437721, lat=43.138355, altitude=158.00, speed=0.00, satellites=9, angle=178.0700, fixquality=2
$GPRMC,142029.400,A,4308.3012,N,07726.2634,W,0.00,178.07,180419,,,D*75
$GPGGA,142029.600,4308.3012,N,07726.2634,W,2,09,0.92,158.0,M,-34.4,M,0000,0000*5F
lng=-77.437721, lat=43.138355, altitude=158.00, speed=0.00, satellites=9, angle=178.0700, fixquality=2
$GPRMC,142029.800,A,4308.3012,N,07726.2634,W,0.00,178.07,180419,,,D*79
$GPGGA,142030.000,4308.3012,N,07726.2634,W,2,09,0.92,158.0,M,-34.4,M,0000,0000*51
lng=-77.437721, lat=43.138355, altitude=158.00, speed=0.00, satellites=9, angle=178.0700, fixquality=2
$GPRMC,142030.200,A,4308.3012,N,07726.2634,W,0.00,178.07,180419,,,D*7B
$GPGGA,142030.400,4308.3012,N,07726.2634,W,2,09,0.92,158.0,M,-34.4,M,0000,0000*55
lng=-77.437721, lat=43.138355, altitude=158.00, speed=0.00, satellites=9, angle=178.0700, fixquality=2
$GPRMC,142030.600,A,4308.3012,N,07726.2634,W,0.00,178.07,180419,,,D*7F
$GPGGA,142030.800,4308.3012,N,07726.2634,W,2,09,0.92,158.0,M,-34.4,M,0000,0000*59
lng=-77.437721, lat=43.138355, altitude=158.00, speed=0.00, satellites=9, angle=178.0700, fixquality=2
$GPRMC,142031.000,A,4308.3012,N,07726.2634,W,0.00,178.07,180419,,,D*78
$GPGGA,142031.200,4308.3012,N,07726.2634,W,2,09,0.92,158.0,M,-34.4,M,0000,0000*52
lng=-77.437721, lat=43.138355, altitude=158.00, speed=0.00, satellites=9, angle=178.0700, fixquality=2
$GPRMC,142031.400,A,4308.3012,N,07726.2634,W,0.00,178.07,180419,,,D*7C
$GPGGA,142031.600,4308.3012,N,07726.2634,W,2,09,0.92,158.0,M,-34.4,M,0000,0000*56
lng=-77.437721, lat=43.138355, altitude=158.00, speed=0.00, satellites=9, angle=178.0700, fixquality=2
$GPRMC,142031.800,A,4308.3012,N,07726.2634,W,0.00,178.07,180419,,,D*70
$GPGGA,142032.000,4308.3012,N,07726.2634,W,2,09,0.92,158.0,M,-34.4,M,0000,0000*53
lng=-77.437721, lat=43.138355, altitude=158.00, speed=0.00, satellites=9, angle=178.0700, fixquality=2
$GPRMC,142032.200,A,4308.3012,N,07726.2634,W,0.01,178.07,180419,,,D*78
$GPGGA,142032.400,4308.3012,N,07726.2634,W,2,09,0.92,158.0,M,-34.4,M,0000,0000*57
lng=-77.437721, lat=43.138355, altitude=158.00, speed=0.01, satellites=9, angle=178.0700, fixquality=2
$GPRMC,142032.600,A,4308.3012,N,07726.2634,W,0.00,178.07,180419,,,D*7D
$GPGGA,142032.800,4308.3012,N,07726.2634,W,2,09,0.92,158.0,M,-34.4,M,0000,0000*5B
lng=-77.437721, lat=43.138355, altitude=158.00, speed=0.00, satellites=9, angle=178.0700, fixquality=2
$GPRMC,142033.000,A,4308.3012,N,07726.2634,W,0.01,178.07,180419,,,D*7B
$GPGGA,142033.200,4308.3012,N,07726.2634,W,2,09,0.92,158.0,M,-34.4,M,0000,0000*50
lng=-77.437721, lat=43.138355, altitude=158.00, speed=0.01, satellites=9, angle=178.0700, fixquality=2
$GPRMC,142033.400,A,4308.3012,N,07726.2634,W,0.00,178.07,180419,,,D*7E
$GPGGA,142033.600,4308.3012,N,07726.2634,W,2,09,0.92,158.0,M,-34.4,M,0000,0000*54
lng=-77.437721, lat=43.138355, altitude=158.00, speed=0.00, satellites=9, angle=178.0700, fixquality=2
$GPRMC,142033.800,A,4308.3012,N,07726.2634,W,0.01,178.07,180419,,,D*73
$GPGGA,142034.000,4308.3012,N,07726.2634,W,2,09,0.92,158.0,M,-34.4,M,0000,0000*55
lng=-77.437721, lat=43.138355, altitude=158.00, speed=0.01, satellites=9, angle=178.0700, fixquality=2
$GPRMC,142034.200,A,4308.3012,N,07726.2634,W,0.00,178.07,180419,,,D*7F
$GPGGA,142034.400,4308.3012,N,07726.2634,W,2,09,0.92,158.0,M,-34.4,M,0000,0000*51
lng=-77.437721, lat=43.138355, altitude=158.00, speed=0.00, satellites=9, angle=178.0700, fixquality=2
$GPRMC,142034.600,A,4308.3012,N,07726.2634,W,0.00,178.07,180419,,,D*7B
$GPGGA,142034.800,4308.3012,N,07726.2634,W,2,09,0.92,158.0,M,-34.4,M,0000,0000*5D
lng=-77.437721, lat=43.138355, altitude=158.00, speed=0.00, satellites=9, angle=178.0700, fixquality=2
$GPRMC,142035.000,A,4308.3012,N,07726.2634,W,0.00,178.07,180419,,,D*7C
$GPGGA,142035.200,4308.3012,N,07726.2634,W,2,09,0.92,158.0,M,-34.4,M,0000,0000*56
lng=-77.437721, lat=43.138355, altitude=158.00, speed=0.00, satellites=9, angle=178.0700, fixquality=2
$GPRMC,142035.400,A,4308.3012,N,07726.2634,W,0.01,178.07,180419,,,D*79
$GPGGA,142035.600,4308.3012,N,07726.2634,W,2,09,0.92,158.0,M,-34.4,M,0000,0000*52
lng=-77.437721, lat=43.138355, altitude=158.00, speed=0.01, satellites=9, angle=178.0700, fixquality=2
$GPRMC,142035.800,A,4308.3012,N,07726.2634,W,0.00,178.07,180419,,,D*74
$GPGGA,142036.000,4308.3012,N,07726.2634,W,2,09,0.92,157.9,M,-34.4,M,0000,0000*51
lng=-77.437721, lat=43.138355, altitude=158.00, speed=0.00, satellites=9, angle=178.0700, fixquality=2
$GPRMC,142036.200,A,4308.3012,N,07726.2634,W,0.00,178.07,180419,,,D*7D
$GPGGA,142036.400,4308.3012,N,07726.2634,W,2,09,0.92,157.9,M,-34.4,M,0000,0000*55
lng=-77.437721, lat=43.138355, altitude=157.90, speed=0.00, satellites=9, angle=178.0700, fixquality=2
$GPRMC,142036.600,A,4308.3012,N,07726.2634,W,0.00,178.07,180419,,,D*79
$GPGGA,142036.800,4308.3012,N,07726.2634,W,2,09,0.92,157.9,M,-34.4,M,0000,0000*59
lng=-77.437721, lat=43.138355, altitude=157.90, speed=0.00, satellites=9, angle=178.0700, fixquality=2
$GPRMC,142037.000,A,4308.3012,N,07726.2634,W,0.00,178.07,180419,,,D*7E
$GPGGA,142037.200,4308.3012,N,07726.2634,W,2,09,0.92,157.9,M,-34.4,M,0000,0000*52
lng=-77.437721, lat=43.138355, altitude=157.90, speed=0.00, satellites=9, angle=178.0700, fixquality=2
$GPRMC,142037.400,A,4308.3012,N,07726.2634,W,0.01,178.07,180419,,,D*7B
$GPGGA,142037.600,4308.3012,N,07726.2634,W,2,09,0.92,157.9,M,-34.4,M,0000,0000*56
lng=-77.437721, lat=43.138355, altitude=157.90, speed=0.01, satellites=9, angle=178.0700, fixquality=2
$GPRMC,142037.800,A,4308.3012,N,07726.2634,W,0.00,178.07,180419,,,D*76
$GPGGA,142038.000,4308.3012,N,07726.2634,W,2,09,0.92,157.9,M,-34.4,M,0000,0000*5F
lng=-77.437721, lat=43.138355, altitude=157.90, speed=0.00, satellites=9, angle=178.0700, fixquality=2
$GPRMC,142038.200,A,4308.3012,N,07726.2634,W,0.01,178.07,180419,,,D*72
$GPGGA,142038.400,4308.3012,N,07726.2634,W,2,09,0.92,157.9,M,-34.4,M,0000,0000*5B
lng=-77.437721, lat=43.138355, altitude=157.90, speed=0.01, satellites=9, angle=178.0700, fixquality=2
$GPRMC,142038.600,A,4308.3012,N,07726.2634,W,0.00,178.07,180419,,,D*77
$GPGGA,142038.800,4308.3011,N,07726.2634,W,2,09,0.92,157.9,M,-34.4,M,0000,0000*54
lng=-77.437721, lat=43.138355, altitude=157.90, speed=0.00, satellites=9, angle=178.0700, fixquality=2
$GPRMC,142039.000,A,4308.3011,N,07726.2634,W,0.00,178.07,180419,,,D*73
$GPGGA,142039.200,4308.3011,N,07726.2634,W,2,09,0.92,157.9,M,-34.4,M,0000,0000*5F
lng=-77.437721, lat=43.138355, altitude=157.90, speed=0.00, satellites=9, angle=178.0700, fixquality=2
$GPRMC,142039.400,A,4308.3011,N,07726.2634,W,0.00,178.07,180419,,,D*77
$GPGGA,142039.600,4308.3011,N,07726.2634,W,2,09,0.92,157.9,M,-34.4,M,0000,0000*5B
lng=-77.437721, lat=43.138355, altitude=157.90, speed=0.00, satellites=9, angle=178.0700, fixquality=2
$GPRMC,142039.800,A,4308.3011,N,07726.2634,W,0.00,178.07,180419,,,D*7B
$GPGGA,142040.000,4308.3011,N,07726.2634,W,2,09,0.92,157.9,M,-34.4,M,0000,0000*53
lng=-77.437721, lat=43.138355, altitude=157.90, speed=0.00, satellites=9, angle=178.0700, fixquality=2
$GPRMC,142040.200,A,4308.3011,N,07726.2634,W,0.00,178.07,180419,,,D*7F
$GPGGA,142040.400,4308.3011,N,07726.2634,W,2,09,0.92,157.9,M,-34.4,M,0000,0000*57
lng=-77.437721, lat=43.138355, altitude=157.90, speed=0.00, satellites=9, angle=178.0700, fixquality=2
$GPRMC,142040.600,A,4308.3011,N,07726.2634,W,0.00,178.07,180419,,,D*7B
$GPGGA,142040.800,4308.3011,N,07726.2634,W,2,09,0.92,157.9,M,-34.4,M,0000,0000*5B
lng=-77.437721, lat=43.138355, altitude=157.90, speed=0.00, satellites=9, angle=178.0700, fixquality=2
$GPRMC,142041.000,A,4308.3011,N,07726.2634,W,0.00,178.07,180419,,,D*7C
$GPGGA,142041.200,4308.3011,N,07726.2634,W,2,09,0.92,157.9,M,-34.4,M,0000,0000*50
lng=-77.437721, lat=43.138355, altitude=157.90, speed=0.00, satellites=9, angle=178.0700, fixquality=2
$GPRMC,142041.400,A,4308.3011,N,07726.2634,W,0.00,178.07,180419,,,D*78
$GPGGA,142041.600,4308.3011,N,07726.2634,W,2,09,0.92,157.9,M,-34.4,M,0000,0000*54
lng=-77.437721, lat=43.138355, altitude=157.90, speed=0.00, satellites=9, angle=178.0700, fixquality=2
$GPRMC,142041.800,A,4308.3011,N,07726.2634,W,0.00,178.07,180419,,,D*74
$GPGGA,142042.000,4308.3011,N,07726.2634,W,2,09,0.92,157.9,M,-34.4,M,0000,0000*51
lng=-77.437721, lat=43.138355, altitude=157.90, speed=0.00, satellites=9, angle=178.0700, fixquality=2
$GPRMC,142042.200,A,4308.3011,N,07726.2634,W,0.00,178.07,180419,,,D*7D
$GPGGA,142042.400,4308.3011,N,07726.2634,W,2,09,0.92,157.9,M,-34.4,M,0000,0000*55
lng=-77.437721, lat=43.138355, altitude=157.90, speed=0.00, satellites=9, angle=178.0700, fixquality=2
$GPRMC,142042.600,A,4308.3011,N,07726.2634,W,0.00,178.07,180419,,,D*79
$GPGGA,142042.800,4308.3011,N,07726.2634,W,2,09,0.92,157.9,M,-34.4,M,0000,0000*59
lng=-77.437721, lat=43.138355, altitude=157.90, speed=0.00, satellites=9, angle=178.0700, fixquality=2
$GPRMC,142043.000,A,4308.3011,N,07726.2634,W,0.00,178.07,180419,,,D*7E
$GPGGA,142043.200,4308.3011,N,07726.2634,W,2,09,0.92,157.9,M,-34.4,M,0000,0000*52
lng=-77.437721, lat=43.138355, altitude=157.90, speed=0.00, satellites=9, angle=178.0700, fixquality=2
$GPRMC,142043.400,A,4308.3011,N,07726.2634,W,0.00,178.07,180419,,,D*7A
$GPGGA,142043.600,4308.3011,N,07726.2634,W,2,09,0.92,157.9,M,-34.4,M,0000,0000*56
lng=-77.437721, lat=43.138355, altitude=157.90, speed=0.00, satellites=9, angle=178.0700, fixquality=2
$GPRMC,142043.800,A,4308.3011,N,07726.2634,W,0.01,178.07,180419,,,D*77
$GPGGA,142044.000,4308.3011,N,07726.2634,W,2,09,0.92,157.9,M,-34.4,M,0000,0000*57
lng=-77.437721, lat=43.138355, altitude=157.90, speed=0.01, satellites=9, angle=178.0700, fixquality=2
$GPRMC,142044.200,A,4308.3011,N,07726.2634,W,0.01,178.07,180419,,,D*7A
$GPGGA,142044.400,4308.3011,N,07726.2634,W,2,09,0.92,157.9,M,-34.4,M,0000,0000*53
lng=-77.437721, lat=43.138355, altitude=157.90, speed=0.01, satellites=9, angle=178.0700, fixquality=2
$GPRMC,142044.600,A,4308.3011,N,07726.2634,W,0.01,178.07,180419,,,D*7E
$GPGGA,142044.800,4308.3012,N,07726.2634,W,2,09,0.92,157.9,M,-34.4,M,0000,0000*5C
lng=-77.437721, lat=43.138355, altitude=157.90, speed=0.01, satellites=9, angle=178.0700, fixquality=2
$GPRMC,142045.000,A,4308.3012,N,07726.2634,W,0.01,178.07,180419,,,D*7A
$GPGGA,142045.200,4308.3012,N,07726.2634,W,2,09,0.92,157.9,M,-34.4,M,0000,0000*57
lng=-77.437721, lat=43.138355, altitude=157.90, speed=0.01, satellites=9, angle=178.0700, fixquality=2
$GPRMC,142045.400,A,4308.3012,N,07726.2634,W,0.01,178.07,180419,,,D*7E
$GPGGA,142045.600,4308.3012,N,07726.2634,W,2,09,0.92,157.9,M,-34.4,M,0000,0000*53
lng=-77.437721, lat=43.138355, altitude=157.90, speed=0.01, satellites=9, angle=178.0700, fixquality=2
$GPRMC,142045.800,A,4308.3012,N,07726.2634,W,0.01,178.07,180419,,,D*72
$GPGGA,142046.000,4308.3012,N,07726.2634,W,2,09,0.92,157.9,M,-34.4,M,0000,0000*56
lng=-77.437721, lat=43.138355, altitude=157.90, speed=0.01, satellites=9, angle=178.0700, fixquality=2
$GPRMC,142046.200,A,4308.3012,N,07726.2634,W,0.01,178.07,180419,,,D*7B
$GPGGA,142046.400,4308.3012,N,07726.2634,W,2,09,0.92,157.9,M,-34.4,M,0000,0000*52
lng=-77.437721, lat=43.138355, altitude=157.90, speed=0.01, satellites=9, angle=178.0700, fixquality=2
$GPRMC,142046.600,A,4308.3012,N,07726.2634,W,0.01,178.07,180419,,,D*7F
$GPGGA,142046.800,4308.3012,N,07726.2634,W,2,09,0.92,157.9,M,-34.4,M,0000,0000*5E
lng=-77.437721, lat=43.138355, altitude=157.90, speed=0.01, satellites=9, angle=178.0700, fixquality=2
$GPRMC,142047.000,A,4308.3012,N,07726.2634,W,0.01,178.07,180419,,,D*78
$GPGGA,142047.200,4308.3012,N,07726.2634,W,2,09,0.92,157.9,M,-34.4,M,0000,0000*55
lng=-77.437721, lat=43.138355, altitude=157.90, speed=0.01, satellites=9, angle=178.0700, fixquality=2
$GPRMC,142047.400,A,4308.3012,N,07726.2634,W,0.01,178.07,180419,,,D*7C
$GPGGA,142047.600,4308.3012,N,07726.2634,W,2,09,0.92,157.8,M,-34.4,M,0000,0000*50
lng=-77.437721, lat=43.138355, altitude=157.90, speed=0.01, satellites=9, angle=178.0700, fixquality=2
$GPRMC,142047.800,A,4308.3012,N,07726.2634,W,0.01,178.07,180419,,,D*70
$GPGGA,142048.000,4308.3012,N,07726.2634,W,2,09,0.92,157.8,M,-34.4,M,0000,0000*59
lng=-77.437721, lat=43.138355, altitude=157.80, speed=0.01, satellites=9, angle=178.0700, fixquality=2
$GPRMC,142048.200,A,4308.3012,N,07726.2634,W,0.02,178.07,180419,,,D*76
$GPGGA,142048.400,4308.3012,N,07726.2634,W,2,09,0.92,157.8,M,-34.4,M,0000,0000*5D
lng=-77.437721, lat=43.138355, altitude=157.80, speed=0.02, satellites=9, angle=178.0700, fixquality=2
$GPRMC,142048.600,A,4308.3012,N,07726.2634,W,0.03,178.07,180419,,,D*73
$GPGGA,142048.800,4308.3012,N,07726.2634,W,2,09,0.92,157.8,M,-34.4,M,0000,0000*51
lng=-77.437721, lat=43.138355, altitude=157.80, speed=0.03, satellites=9, angle=178.0700, fixquality=2
$GPRMC,142049.000,A,4308.3012,N,07726.2634,W,0.05,178.07,180419,,,D*72
$GPGGA,142049.200,4308.3012,N,07726.2634,W,2,09,0.92,157.8,M,-34.4,M,0000,0000*5A
lng=-77.437721, lat=43.138355, altitude=157.80, speed=0.05, satellites=9, angle=178.0700, fixquality=2
$GPRMC,142049.400,A,4308.3012,N,07726.2634,W,0.10,178.07,180419,,,D*72
$GPGGA,142049.600,4308.3012,N,07726.2634,W,2,09,0.92,157.8,M,-34.4,M,0000,0000*5E
lng=-77.437721, lat=43.138355, altitude=157.80, speed=0.10, satellites=9, angle=178.0700, fixquality=2
$GPRMC,142049.800,A,4308.3012,N,07726.2634,W,0.10,178.07,180419,,,D*7E
$GPGGA,142050.000,4308.3012,N,07726.2635,W,2,08,0.97,157.8,M,-34.4,M,0000,0000*55
lng=-77.437721, lat=43.138355, altitude=157.80, speed=0.10, satellites=9, angle=178.0700, fixquality=2
$GPRMC,142050.200,A,4308.3012,N,07726.2635,W,0.06,178.07,180419,,,D*7A
$GPGGA,142050.400,4308.3012,N,07726.2635,W,2,08,0.97,157.8,M,-34.4,M,0000,0000*51
lng=-77.437728, lat=43.138355, altitude=157.80, speed=0.06, satellites=8, angle=178.0700, fixquality=2
$GPRMC,142050.600,A,4308.3012,N,07726.2635,W,0.07,178.07,180419,,,D*7F
$GPGGA,142050.800,4308.3012,N,07726.2635,W,2,09,0.90,157.8,M,-34.4,M,0000,0000*5B
lng=-77.437728, lat=43.138355, altitude=157.80, speed=0.07, satellites=8, angle=178.0700, fixquality=2
$GPRMC,142051.000,A,4308.3012,N,07726.2635,W,0.27,344.29,180419,,,D*7B
$GPGGA,142051.200,4308.3013,N,07726.2635,W,2,09,0.90,157.8,M,-34.4,M,0000,0000*51
lng=-77.437728, lat=43.138355, altitude=157.80, speed=0.27, satellites=9, angle=344.2900, fixquality=2
$GPRMC,142051.400,A,4308.3013,N,07726.2635,W,0.43,344.90,180419,,,D*7E
$GPGGA,142051.600,4308.3013,N,07726.2635,W,2,09,0.90,157.8,M,-34.4,M,0000,0000*55
lng=-77.437728, lat=43.138355, altitude=157.80, speed=0.43, satellites=9, angle=344.9000, fixquality=2
$GPRMC,142051.800,A,4308.3013,N,07726.2635,W,0.59,347.90,180419,,,D*7A
$GPGGA,142052.000,4308.3015,N,07726.2635,W,2,09,0.92,157.7,M,-34.4,M,0000,0000*5B
lng=-77.437728, lat=43.138355, altitude=157.80, speed=0.59, satellites=9, angle=347.9000, fixquality=2
$GPRMC,142052.200,A,4308.3017,N,07726.2636,W,0.80,350.22,180419,,,D*7F
$GPGGA,142052.400,4308.3019,N,07726.2636,W,2,09,0.92,157.5,M,-34.4,M,0000,0000*52
lng=-77.437728, lat=43.138362, altitude=157.70, speed=0.80, satellites=9, angle=350.2200, fixquality=2
$GPRMC,142052.600,A,4308.3021,N,07726.2637,W,1.05,351.62,180419,,,D*76
$GPGGA,142052.800,4308.3023,N,07726.2637,W,2,09,0.92,157.4,M,-34.4,M,0000,0000*57
lng=-77.437728, lat=43.138370, altitude=157.50, speed=1.05, satellites=9, angle=351.6200, fixquality=2
$GPRMC,142053.000,A,4308.3026,N,07726.2638,W,1.74,350.56,180419,,,D*79
$GPGGA,142053.200,4308.3028,N,07726.2639,W,2,09,0.92,157.2,M,-34.4,M,0000,0000*5F
lng=-77.437728, lat=43.138378, altitude=157.40, speed=1.74, satellites=9, angle=350.5600, fixquality=2
$GPRMC,142053.400,A,4308.3030,N,07726.2639,W,2.43,354.41,180419,,,D*7E
$GPGGA,142053.600,4308.3035,N,07726.2643,W,2,09,0.92,157.0,M,-34.4,M,0000,0000*58
lng=-77.437728, lat=43.138385, altitude=157.20, speed=2.43, satellites=9, angle=354.4100, fixquality=2
$GPRMC,142053.800,A,4308.3039,N,07726.2644,W,3.01,359.53,180419,,,D*78
$GPGGA,142054.000,4308.3043,N,07726.2646,W,2,09,0.92,156.7,M,-34.4,M,0000,0000*5B
lng=-77.437736, lat=43.138393, altitude=157.00, speed=3.01, satellites=9, angle=359.5300, fixquality=2
$GPRMC,142054.200,A,4308.3047,N,07726.2647,W,3.35,1.59,180419,,,D*7C
$GPGGA,142054.400,4308.3050,N,07726.2648,W,2,09,0.92,156.4,M,-34.4,M,0000,0000*50
lng=-77.437744, lat=43.138412, altitude=156.70, speed=3.35, satellites=9, angle=1.5900, fixquality=2
$GPRMC,142054.600,A,4308.3054,N,07726.2649,W,3.43,2.05,180419,,,D*7F
$GPGGA,142054.800,4308.3057,N,07726.2650,W,2,09,0.92,156.1,M,-34.4,M,0000,0000*57
lng=-77.437751, lat=43.138420, altitude=156.40, speed=3.43, satellites=9, angle=2.0500, fixquality=2
$GPRMC,142055.000,A,4308.3061,N,07726.2650,W,3.50,1.05,180419,,,D*77
$GPGGA,142055.200,4308.3063,N,07726.2650,W,2,09,0.92,155.8,M,-34.4,M,0000,0000*51
lng=-77.437751, lat=43.138435, altitude=156.10, speed=3.50, satellites=9, angle=1.0500, fixquality=2
$GPRMC,142055.400,A,4308.3066,N,07726.2651,W,3.71,5.42,180419,,,D*71
$GPGGA,142055.600,4308.3069,N,07726.2651,W,2,09,0.92,155.5,M,-34.4,M,0000,0000*53
lng=-77.437751, lat=43.138442, altitude=155.80, speed=3.71, satellites=9, angle=5.4200, fixquality=2
$GPRMC,142055.800,A,4308.3071,N,07726.2651,W,3.82,8.56,180419,,,D*7F
$GPGGA,142056.000,4308.3073,N,07726.2652,W,2,09,0.92,155.2,M,-34.4,M,0000,0000*59
lng=-77.437751, lat=43.138450, altitude=155.50, speed=3.82, satellites=9, angle=8.5600, fixquality=2
$GPRMC,142056.200,A,4308.3076,N,07726.2652,W,3.94,7.31,180419,,,D*7B
$GPGGA,142056.400,4308.3079,N,07726.2652,W,2,09,0.92,155.0,M,-34.4,M,0000,0000*55
lng=-77.437751, lat=43.138462, altitude=155.20, speed=3.94, satellites=9, angle=7.3100, fixquality=2
$GPRMC,142056.600,A,4308.3081,N,07726.2652,W,4.02,7.05,180419,,,D*78
$GPGGA,142056.800,4308.3084,N,07726.2651,W,2,09,0.92,154.7,M,-34.4,M,0000,0000*5E
lng=-77.437751, lat=43.138469, altitude=155.00, speed=4.02, satellites=9, angle=7.0500, fixquality=2
$GPRMC,142057.000,A,4308.3087,N,07726.2651,W,4.08,8.58,180419,,,D*77
$GPGGA,142057.200,4308.3090,N,07726.2651,W,2,09,0.92,154.5,M,-34.4,M,0000,0000*52
lng=-77.437751, lat=43.138477, altitude=154.70, speed=4.08, satellites=9, angle=8.5800, fixquality=2
$GPRMC,142057.400,A,4308.3092,N,07726.2650,W,4.14,9.57,180419,,,D*75
$GPGGA,142057.600,4308.3094,N,07726.2650,W,2,09,0.92,154.2,M,-34.4,M,0000,0000*54
lng=-77.437751, lat=43.138484, altitude=154.50, speed=4.14, satellites=9, angle=9.5700, fixquality=2
$GPRMC,142057.800,A,4308.3097,N,07726.2650,W,4.18,9.13,180419,,,D*70
$GPGGA,142058.000,4308.3099,N,07726.2650,W,2,09,0.92,154.0,M,-34.4,M,0000,0000*52
lng=-77.437751, lat=43.138492, altitude=154.20, speed=4.18, satellites=9, angle=9.1300, fixquality=2
$GPRMC,142058.200,A,4308.3103,N,07726.2649,W,4.24,9.24,180419,,,D*7A
$GPGGA,142058.400,4308.3106,N,07726.2648,W,2,09,0.92,153.6,M,-34.4,M,0000,0000*59
lng=-77.437751, lat=43.138500, altitude=154.00, speed=4.24, satellites=9, angle=9.2400, fixquality=2
$GPRMC,142058.600,A,4308.3109,N,07726.2648,W,4.28,10.73,180419,,,D*43
$GPGGA,142058.800,4308.3112,N,07726.2648,W,2,09,0.92,153.3,M,-34.4,M,0000,0000*55
lng=-77.437744, lat=43.138515, altitude=153.60, speed=4.28, satellites=9, angle=10.7300, fixquality=2
$GPRMC,142059.000,A,4308.3114,N,07726.2647,W,4.23,11.57,180419,,,D*4B
$GPGGA,142059.200,4308.3117,N,07726.2647,W,2,09,0.92,153.0,M,-34.4,M,0000,0000*57
lng=-77.437744, lat=43.138526, altitude=153.30, speed=4.23, satellites=9, angle=11.5700, fixquality=2
$GPRMC,142059.400,A,4308.3119,N,07726.2646,W,3.92,10.30,180419,,,D*4E
$GPGGA,142059.600,4308.3121,N,07726.2646,W,2,09,0.92,152.7,M,-34.4,M,0000,0000*51
lng=-77.437744, lat=43.138534, altitude=153.00, speed=3.92, satellites=9, angle=10.3000, fixquality=2
$GPRMC,142059.800,A,4308.3124,N,07726.2646,W,3.39,8.71,180419,,,D*71
$GPGGA,142100.000,4308.3127,N,07726.2644,W,2,09,0.92,152.4,M,-34.4,M,0000,0000*5D
lng=-77.437744, lat=43.138542, altitude=152.70, speed=3.39, satellites=9, angle=8.7100, fixquality=2
$GPRMC,142100.200,A,4308.3130,N,07726.2643,W,2.61,12.71,180419,,,D*41
$GPGGA,142100.400,4308.3132,N,07726.2642,W,2,09,0.92,152.1,M,-34.4,M,0000,0000*5E
lng=-77.437736, lat=43.138549, altitude=152.40, speed=2.61, satellites=9, angle=12.7100, fixquality=2
$GPRMC,142100.600,A,4308.3133,N,07726.2641,W,1.76,17.31,180419,,,D*40
$GPGGA,142100.800,4308.3134,N,07726.2641,W,2,09,0.90,151.8,M,-34.4,M,0000,0000*5F
lng=-77.437736, lat=43.138557, altitude=152.10, speed=1.76, satellites=9, angle=17.3100, fixquality=2
$GPRMC,142101.000,A,4308.3133,N,07726.2642,W,0.26,19.60,180419,,,D*4A
$GPGGA,142101.200,4308.3133,N,07726.2642,W,2,09,0.90,151.7,M,-34.4,M,0000,0000*5F
lng=-77.437736, lat=43.138557, altitude=151.80, speed=0.26, satellites=9, angle=19.6000, fixquality=2
$GPRMC,142101.400,A,4308.3133,N,07726.2642,W,0.19,19.60,180419,,,D*42
$GPGGA,142101.600,4308.3134,N,07726.2642,W,2,09,0.92,151.6,M,-34.4,M,0000,0000*5F
lng=-77.437736, lat=43.138557, altitude=151.70, speed=0.19, satellites=9, angle=19.6000, fixquality=2
$GPRMC,142101.800,A,4308.3134,N,07726.2641,W,0.12,19.60,180419,,,D*41
$GPGGA,142102.000,4308.3134,N,07726.2641,W,2,09,0.92,151.3,M,-34.4,M,0000,0000*5C
lng=-77.437736, lat=43.138557, altitude=151.60, speed=0.12, satellites=9, angle=19.6000, fixquality=2
$GPRMC,142102.200,A,4308.3135,N,07726.2641,W,0.07,19.60,180419,,,D*4D
$GPGGA,142102.400,4308.3135,N,07726.2640,W,2,09,0.90,151.2,M,-34.4,M,0000,0000*5B
lng=-77.437736, lat=43.138557, altitude=151.30, speed=0.07, satellites=9, angle=19.6000, fixquality=2
$GPRMC,142102.600,A,4308.3134,N,07726.2641,W,0.05,19.60,180419,,,D*4A
$GPGGA,142102.800,4308.3134,N,07726.2642,W,2,09,0.92,151.2,M,-34.4,M,0000,0000*56
lng=-77.437736, lat=43.138557, altitude=151.20, speed=0.05, satellites=9, angle=19.6000, fixquality=2
$GPRMC,142103.000,A,4308.3134,N,07726.2642,W,0.03,19.60,180419,,,D*48
$GPGGA,142103.200,4308.3133,N,07726.2642,W,2,09,0.90,151.0,M,-34.4,M,0000,0000*5A
lng=-77.437736, lat=43.138557, altitude=151.20, speed=0.03, satellites=9, angle=19.6000, fixquality=2
$GPRMC,142103.400,A,4308.3132,N,07726.2642,W,0.02,19.60,180419,,,D*4B
$GPGGA,142103.600,4308.3132,N,07726.2642,W,2,09,0.90,150.9,M,-34.4,M,0000,0000*57
lng=-77.437736, lat=43.138549, altitude=151.00, speed=0.02, satellites=9, angle=19.6000, fixquality=2
$GPRMC,142103.800,A,4308.3131,N,07726.2643,W,0.03,19.60,180419,,,D*44
$GPGGA,142104.000,4308.3131,N,07726.2643,W,2,09,0.90,150.7,M,-34.4,M,0000,0000*5A
lng=-77.437736, lat=43.138549, altitude=150.90, speed=0.03, satellites=9, angle=19.6000, fixquality=2
$GPRMC,142104.200,A,4308.3131,N,07726.2642,W,0.03,19.60,180419,,,D*48
$GPGGA,142104.400,4308.3131,N,07726.2642,W,2,09,0.90,150.7,M,-34.4,M,0000,0000*5F
lng=-77.437736, lat=43.138549, altitude=150.70, speed=0.03, satellites=9, angle=19.6000, fixquality=2
$GPRMC,142104.600,A,4308.3131,N,07726.2642,W,0.01,19.60,180419,,,D*4E
$GPGGA,142104.800,4308.3131,N,07726.2642,W,2,09,0.90,150.7,M,-34.4,M,0000,0000*53
lng=-77.437736, lat=43.138549, altitude=150.70, speed=0.01, satellites=9, angle=19.6000, fixquality=2
$GPRMC,142105.000,A,4308.3131,N,07726.2642,W,0.01,19.60,180419,,,D*49
$GPGGA,142105.200,4308.3131,N,07726.2642,W,2,09,0.90,150.7,M,-34.4,M,0000,0000*58
lng=-77.437736, lat=43.138549, altitude=150.70, speed=0.01, satellites=9, angle=19.6000, fixquality=2
$GPRMC,142105.400,A,4308.3131,N,07726.2642,W,0.02,19.60,180419,,,D*4E
$GPGGA,142105.600,4308.3131,N,07726.2642,W,2,09,0.90,150.7,M,-34.4,M,0000,0000*5C
lng=-77.437736, lat=43.138549, altitude=150.70, speed=0.02, satellites=9, angle=19.6000, fixquality=2
$GPRMC,142105.800,A,4308.3131,N,07726.2642,W,0.04,19.60,180419,,,D*44
$GPGGA,142106.000,4308.3131,N,07726.2642,W,2,09,0.90,150.6,M,-34.4,M,0000,0000*58
lng=-77.437736, lat=43.138549, altitude=150.70, speed=0.04, satellites=9, angle=19.6000, fixquality=2
$GPRMC,142106.200,A,4308.3131,N,07726.2642,W,0.05,19.60,180419,,,D*4C
$GPGGA,142106.400,4308.3131,N,07726.2642,W,2,09,0.90,150.6,M,-34.4,M,0000,0000*5C
lng=-77.437736, lat=43.138549, altitude=150.60, speed=0.05, satellites=9, angle=19.6000, fixquality=2
$GPRMC,142106.600,A,4308.3131,N,07726.2642,W,0.07,19.60,180419,,,D*4A
$GPGGA,142106.800,4308.3131,N,07726.2642,W,2,09,0.90,150.6,M,-34.4,M,0000,0000*50
lng=-77.437736, lat=43.138549, altitude=150.60, speed=0.07, satellites=9, angle=19.6000, fixquality=2
$GPRMC,142107.000,A,4308.3131,N,07726.2642,W,0.03,19.60,180419,,,D*49
$GPGGA,142107.200,4308.3131,N,07726.2642,W,2,09,0.90,150.6,M,-34.4,M,0000,0000*5B
lng=-77.437736, lat=43.138549, altitude=150.60, speed=0.03, satellites=9, angle=19.6000, fixquality=2
$GPRMC,142107.400,A,4308.3131,N,07726.2642,W,0.02,19.60,180419,,,D*4C
$GPGGA,142107.600,4308.3131,N,07726.2642,W,2,09,0.90,150.6,M,-34.4,M,0000,0000*5F
lng=-77.437736, lat=43.138549, altitude=150.60, speed=0.02, satellites=9, angle=19.6000, fixquality=2
$GPRMC,142107.800,A,4308.3131,N,07726.2642,W,0.04,19.60,180419,,,D*46
$GPGGA,142108.000,4308.3131,N,07726.2642,W,2,09,0.90,150.6,M,-34.4,M,0000,0000*56
lng=-77.437736, lat=43.138549, altitude=150.60, speed=0.04, satellites=9, angle=19.6000, fixquality=2
$GPRMC,142108.200,A,4308.3131,N,07726.2642,W,0.01,19.60,180419,,,D*46
$GPGGA,142108.400,4308.3131,N,07726.2642,W,2,09,0.90,150.6,M,-34.4,M,0000,0000*52
lng=-77.437736, lat=43.138549, altitude=150.60, speed=0.01, satellites=9, angle=19.6000, fixquality=2
$GPRMC,142108.600,A,4308.3131,N,07726.2642,W,0.01,19.60,180419,,,D*42
$GPGGA,142108.800,4308.3131,N,07726.2642,W,2,09,0.90,150.6,M,-34.4,M,0000,0000*5E
lng=-77.437736, lat=43.138549, altitude=150.60, speed=0.01, satellites=9, angle=19.6000, fixquality=2
$GPRMC,142109.000,A,4308.3130,N,07726.2642,W,0.02,19.60,180419,,,D*47
$GPGGA,142109.200,4308.3130,N,07726.2642,W,2,09,0.90,150.6,M,-34.4,M,0000,0000*54
lng=-77.437736, lat=43.138549, altitude=150.60, speed=0.02, satellites=9, angle=19.6000, fixquality=2
$GPRMC,142109.400,A,4308.3130,N,07726.2642,W,0.03,19.60,180419,,,D*42
$GPGGA,142109.600,4308.3130,N,07726.2642,W,2,09,0.90,150.6,M,-34.4,M,0000,0000*50
lng=-77.437736, lat=43.138549, altitude=150.60, speed=0.03, satellites=9, angle=19.6000, fixquality=2
$GPRMC,142109.800,A,4308.3131,N,07726.2642,W,0.04,19.60,180419,,,D*48
$GPGGA,142110.000,4308.3131,N,07726.2642,W,2,09,0.90,150.6,M,-34.4,M,0000,0000*5F
lng=-77.437736, lat=43.138549, altitude=150.60, speed=0.04, satellites=9, angle=19.6000, fixquality=2
$GPRMC,142110.200,A,4308.3130,N,07726.2642,W,0.02,19.60,180419,,,D*4D
$GPGGA,142110.400,4308.3130,N,07726.2642,W,2,09,0.90,150.6,M,-34.4,M,0000,0000*5A
lng=-77.437736, lat=43.138549, altitude=150.60, speed=0.02, satellites=9, angle=19.6000, fixquality=2
$GPRMC,142110.600,A,4308.3130,N,07726.2642,W,0.02,19.60,180419,,,D*49
$GPGGA,142110.800,4308.3130,N,07726.2642,W,2,09,0.90,150.6,M,-34.4,M,0000,0000*56
lng=-77.437736, lat=43.138549, altitude=150.60, speed=0.02, satellites=9, angle=19.6000, fixquality=2
$GPRMC,142111.000,A,4308.3130,N,07726.2642,W,0.01,19.60,180419,,,D*4D
$GPGGA,142111.200,4308.3130,N,07726.2642,W,2,09,0.90,150.6,M,-34.4,M,0000,0000*5D
lng=-77.437736, lat=43.138549, altitude=150.60, speed=0.01, satellites=9, angle=19.6000, fixquality=2
$GPRMC,142111.400,A,4308.3130,N,07726.2642,W,0.01,19.60,180419,,,D*49
$GPGGA,142111.600,4308.3130,N,07726.2642,W,2,09,0.90,150.6,M,-34.4,M,0000,0000*59
lng=-77.437736, lat=43.138549, altitude=150.60, speed=0.01, satellites=9, angle=19.6000, fixquality=2
$GPRMC,142111.800,A,4308.3130,N,07726.2642,W,0.04,19.60,180419,,,D*40
$GPGGA,142112.000,4308.3130,N,07726.2642,W,2,09,0.90,150.6,M,-34.4,M,0000,0000*5C
lng=-77.437736, lat=43.138549, altitude=150.60, speed=0.04, satellites=9, angle=19.6000, fixquality=2
$GPRMC,142112.200,A,4308.3130,N,07726.2642,W,0.03,19.60,180419,,,D*4E
$GPGGA,142112.400,4308.3130,N,07726.2642,W,2,09,0.90,150.6,M,-34.4,M,0000,0000*58
lng=-77.437736, lat=43.138549, altitude=150.60, speed=0.03, satellites=9, angle=19.6000, fixquality=2
$GPRMC,142112.600,A,4308.3130,N,07726.2642,W,0.02,19.60,180419,,,D*4B
$GPGGA,142112.800,4308.3131,N,07726.2642,W,2,09,0.90,150.6,M,-34.4,M,0000,0000*55
lng=-77.437736, lat=43.138549, altitude=150.60, speed=0.02, satellites=9, angle=19.6000, fixquality=2
$GPRMC,142113.000,A,4308.3130,N,07726.2642,W,0.01,19.60,180419,,,D*4F
$GPGGA,142113.200,4308.3130,N,07726.2642,W,2,09,0.92,150.6,M,-34.4,M,0000,0000*5D
lng=-77.437736, lat=43.138549, altitude=150.60, speed=0.01, satellites=9, angle=19.6000, fixquality=2
$GPRMC,142113.400,A,4308.3131,N,07726.2642,W,0.02,19.60,180419,,,D*49
$GPGGA,142113.600,4308.3131,N,07726.2642,W,2,09,0.92,150.6,M,-34.4,M,0000,0000*58
lng=-77.437736, lat=43.138549, altitude=150.60, speed=0.02, satellites=9, angle=19.6000, fixquality=2
$GPRMC,142113.800,A,4308.3131,N,07726.2642,W,0.01,19.60,180419,,,D*46
$GPGGA,142114.000,4308.3131,N,07726.2642,W,2,09,0.92,150.6,M,-34.4,M,0000,0000*59
lng=-77.437736, lat=43.138549, altitude=150.60, speed=0.01, satellites=9, angle=19.6000, fixquality=2
$GPRMC,142114.200,A,4308.3131,N,07726.2642,W,0.01,19.60,180419,,,D*4B
$GPGGA,142114.400,4308.3131,N,07726.2642,W,2,09,0.92,150.6,M,-34.4,M,0000,0000*5D
lng=-77.437736, lat=43.138549, altitude=150.60, speed=0.01, satellites=9, angle=19.6000, fixquality=2
$GPRMC,142114.600,A,4308.3131,N,07726.2642,W,0.01,19.60,180419,,,D*4F
$GPGGA,142114.800,4308.3131,N,07726.2642,W,2,09,0.92,150.6,M,-34.4,M,0000,0000*51
lng=-77.437736, lat=43.138549, altitude=150.60, speed=0.01, satellites=9, angle=19.6000, fixquality=2
$GPRMC,142115.000,A,4308.3131,N,07726.2642,W,0.00,19.60,180419,,,D*49
$GPGGA,142115.200,4308.3131,N,07726.2642,W,2,09,0.92,150.6,M,-34.4,M,0000,0000*5A
lng=-77.437736, lat=43.138549, altitude=150.60, speed=0.00, satellites=9, angle=19.6000, fixquality=2
$GPRMC,142115.400,A,4308.3131,N,07726.2642,W,0.01,19.60,180419,,,D*4C
$GPGGA,142115.600,4308.3131,N,07726.2642,W,2,09,0.92,150.6,M,-34.4,M,0000,0000*5E
lng=-77.437736, lat=43.138549, altitude=150.60, speed=0.01, satellites=9, angle=19.6000, fixquality=2
$GPRMC,142115.800,A,4308.3131,N,07726.2642,W,0.00,19.60,180419,,,D*41
$GPGGA,142116.000,4308.3131,N,07726.2642,W,2,09,0.92,150.6,M,-34.4,M,0000,0000*5B
lng=-77.437736, lat=43.138549, altitude=150.60, speed=0.00, satellites=9, angle=19.6000, fixquality=2
$GPRMC,142116.200,A,4308.3131,N,07726.2642,W,0.01,19.60,180419,,,D*49
$GPGGA,142116.400,4308.3131,N,07726.2642,W,2,09,0.92,150.6,M,-34.4,M,0000,0000*5F
lng=-77.437736, lat=43.138549, altitude=150.60, speed=0.01, satellites=9, angle=19.6000, fixquality=2
$GPRMC,142116.600,A,4308.3131,N,07726.2642,W,0.01,19.60,180419,,,D*4D
$GPGGA,142116.800,4308.3131,N,07726.2642,W,2,09,0.92,150.6,M,-34.4,M,0000,0000*53
lng=-77.437736, lat=43.138549, altitude=150.60, speed=0.01, satellites=9, angle=19.6000, fixquality=2
$GPRMC,142117.000,A,4308.3131,N,07726.2642,W,0.00,19.60,180419,,,D*4B
$GPGGA,142117.200,4308.3131,N,07726.2642,W,2,09,0.92,150.6,M,-34.4,M,0000,0000*58
lng=-77.437736, lat=43.138549, altitude=150.60, speed=0.00, satellites=9, angle=19.6000, fixquality=2
$GPRMC,142117.400,A,4308.3131,N,07726.2642,W,0.01,19.60,180419,,,D*4E
$GPGGA,142117.600,4308.3131,N,07726.2642,W,2,09,0.92,150.6,M,-34.4,M,0000,0000*5C
lng=-77.437736, lat=43.138549, altitude=150.60, speed=0.01, satellites=9, angle=19.6000, fixquality=2
$GPRMC,142117.800,A,4308.3131,N,07726.2642,W,0.00,19.60,180419,,,D*43
$GPGGA,142118.000,4308.3131,N,07726.2642,W,2,09,0.92,150.6,M,-34.4,M,0000,0000*55
lng=-77.437736, lat=43.138549, altitude=150.60, speed=0.00, satellites=9, angle=19.6000, fixquality=2
$GPRMC,142118.200,A,4308.3131,N,07726.2642,W,0.01,19.60,180419,,,D*47
$GPGGA,142118.400,4308.3131,N,07726.2642,W,2,09,0.92,150.6,M,-34.4,M,0000,0000*51
lng=-77.437736, lat=43.138549, altitude=150.60, speed=0.01, satellites=9, angle=19.6000, fixquality=2
$GPRMC,142118.600,A,4308.3131,N,07726.2642,W,0.00,19.60,180419,,,D*42
$GPGGA,142118.800,4308.3131,N,07726.2642,W,2,09,0.92,150.6,M,-34.4,M,0000,0000*5D
lng=-77.437736, lat=43.138549, altitude=150.60, speed=0.00, satellites=9, angle=19.6000, fixquality=2
$GPRMC,142119.000,A,4308.3131,N,07726.2642,W,0.00,19.60,180419,,,D*45
$GPGGA,142119.200,4308.3131,N,07726.2642,W,2,09,0.92,150.6,M,-34.4,M,0000,0000*56
lng=-77.437736, lat=43.138549, altitude=150.60, speed=0.00, satellites=9, angle=19.6000, fixquality=2
$GPRMC,142119.400,A,4308.3131,N,07726.2642,W,0.00,19.60,180419,,,D*41
$GPGGA,142119.600,4308.3131,N,07726.2642,W,2,09,0.92,150.6,M,-34.4,M,0000,0000*52
lng=-77.437736, lat=43.138549, altitude=150.60, speed=0.00, satellites=9, angle=19.6000, fixquality=2
$GPRMC,142119.800,A,4308.3131,N,07726.2642,W,0.01,19.60,180419,,,D*4C
$GPGGA,142120.000,4308.3131,N,07726.2642,W,2,09,0.92,150.6,M,-34.4,M,0000,0000*5E
lng=-77.437736, lat=43.138549, altitude=150.60, speed=0.01, satellites=9, angle=19.6000, fixquality=2
$GPRMC,142120.200,A,4308.3131,N,07726.2642,W,0.01,19.60,180419,,,D*4C
$GPGGA,142120.400,4308.3131,N,07726.2642,W,2,09,0.92,150.6,M,-34.4,M,0000,0000*5A
lng=-77.437736, lat=43.138549, altitude=150.60, speed=0.01, satellites=9, angle=19.6000, fixquality=2
$GPRMC,142120.600,A,4308.3131,N,07726.2642,W,0.01,19.60,180419,,,D*48
$GPGGA,142120.800,4308.3131,N,07726.2642,W,2,09,0.92,150.6,M,-34.4,M,0000,0000*56
lng=-77.437736, lat=43.138549, altitude=150.60, speed=0.01, satellites=9, angle=19.6000, fixquality=2
$GPRMC,142121.000,A,4308.3131,N,07726.2642,W,0.01,19.60,180419,,,D*4F
$GPGGA,142121.200,4308.3131,N,07726.2642,W,2,09,0.92,150.6,M,-34.4,M,0000,0000*5D
lng=-77.437736, lat=43.138549, altitude=150.60, speed=0.01, satellites=9, angle=19.6000, fixquality=2
$GPRMC,142121.400,A,4308.3131,N,07726.2642,W,0.00,19.60,180419,,,D*4A
$GPGGA,142121.600,4308.3131,N,07726.2642,W,2,09,0.92,150.5,M,-34.4,M,0000,0000*5A
lng=-77.437736, lat=43.138549, altitude=150.60, speed=0.00, satellites=9, angle=19.6000, fixquality=2
$GPRMC,142121.800,A,4308.3131,N,07726.2642,W,0.00,19.60,180419,,,D*46
$GPGGA,142122.000,4308.3131,N,07726.2642,W,2,09,0.92,150.5,M,-34.4,M,0000,0000*5F
lng=-77.437736, lat=43.138549, altitude=150.50, speed=0.00, satellites=9, angle=19.6000, fixquality=2
$GPRMC,142122.200,A,4308.3131,N,07726.2642,W,0.01,19.60,180419,,,D*4E
$GPGGA,142122.400,4308.3131,N,07726.2642,W,2,09,0.92,150.5,M,-34.4,M,0000,0000*5B
lng=-77.437736, lat=43.138549, altitude=150.50, speed=0.01, satellites=9, angle=19.6000, fixquality=2
$GPRMC,142122.600,A,4308.3131,N,07726.2642,W,0.01,19.60,180419,,,D*4A
$GPGGA,142122.800,4308.3131,N,07726.2642,W,2,09,0.92,150.5,M,-34.4,M,0000,0000*57
lng=-77.437736, lat=43.138549, altitude=150.50, speed=0.01, satellites=9, angle=19.6000, fixquality=2
$GPRMC,142123.000,A,4308.3131,N,07726.2642,W,0.01,19.60,180419,,,D*4D
$GPGGA,142123.200,4308.3131,N,07726.2642,W,2,09,0.92,150.5,M,-34.4,M,0000,0000*5C
lng=-77.437736, lat=43.138549, altitude=150.50, speed=0.01, satellites=9, angle=19.6000, fixquality=2
$GPRMC,142123.400,A,4308.3131,N,07726.2642,W,0.00,19.60,180419,,,D*48
$GPGGA,142123.600,4308.3131,N,07726.2642,W,2,09,0.92,150.5,M,-34.4,M,0000,0000*58
lng=-77.437736, lat=43.138549, altitude=150.50, speed=0.00, satellites=9, angle=19.6000, fixquality=2
$GPRMC,142123.800,A,4308.3131,N,07726.2642,W,0.00,19.60,180419,,,D*44
$GPGGA,142124.000,4308.3131,N,07726.2642,W,2,09,0.92,150.5,M,-34.4,M,0000,0000*59
lng=-77.437736, lat=43.138549, altitude=150.50, speed=0.00, satellites=9, angle=19.6000, fixquality=2
$GPRMC,142124.200,A,4308.3131,N,07726.2642,W,0.00,19.60,180419,,,D*49
$GPGGA,142124.400,4308.3131,N,07726.2642,W,2,10,0.80,150.5,M,-34.4,M,0000,0000*56
lng=-77.437736, lat=43.138549, altitude=150.50, speed=0.00, satellites=9, angle=19.6000, fixquality=2
$GPRMC,142124.600,A,4308.3131,N,07726.2642,W,0.01,19.60,180419,,,D*4C
$GPGGA,142124.800,4308.3131,N,07726.2642,W,2,10,0.80,150.5,M,-34.4,M,0000,0000*5A
lng=-77.437736, lat=43.138549, altitude=150.50, speed=0.01, satellites=10, angle=19.6000, fixquality=2
$GPRMC,142125.000,A,4308.3131,N,07726.2642,W,0.01,19.60,180419,,,D*4B
$GPGGA,142125.200,4308.3131,N,07726.2642,W,2,10,0.80,150.5,M,-34.4,M,0000,0000*51
lng=-77.437736, lat=43.138549, altitude=150.50, speed=0.01, satellites=10, angle=19.6000, fixquality=2
$GPRMC,142125.400,A,4308.3131,N,07726.2642,W,0.00,19.60,180419,,,D*4E
$GPGGA,142125.600,4308.3131,N,07726.2642,W,2,10,0.80,150.5,M,-34.4,M,0000,0000*55
lng=-77.437736, lat=43.138549, altitude=150.50, speed=0.00, satellites=10, angle=19.6000, fixquality=2
$GPRMC,142125.800,A,4308.3131,N,07726.2642,W,0.01,19.60,180419,,,D*43
$GPGGA,142126.000,4308.3131,N,07726.2642,W,2,10,0.80,150.5,M,-34.4,M,0000,0000*50
lng=-77.437736, lat=43.138549, altitude=150.50, speed=0.01, satellites=10, angle=19.6000, fixquality=2
$GPRMC,142126.200,A,4308.3131,N,07726.2642,W,0.01,19.60,180419,,,D*4A
$GPGGA,142126.400,4308.3131,N,07726.2642,W,2,10,0.80,150.5,M,-34.4,M,0000,0000*54
lng=-77.437736, lat=43.138549, altitude=150.50, speed=0.01, satellites=10, angle=19.6000, fixquality=2
$GPRMC,142126.600,A,4308.3131,N,07726.2642,W,0.01,19.60,180419,,,D*4E
$GPGGA,142126.800,4308.3131,N,07726.2642,W,2,10,0.80,150.5,M,-34.4,M,0000,0000*58
lng=-77.437736, lat=43.138549, altitude=150.50, speed=0.01, satellites=10, angle=19.6000, fixquality=2
$GPRMC,142127.000,A,4308.3131,N,07726.2642,W,0.01,19.60,180419,,,D*49
$GPGGA,142127.200,4308.3131,N,07726.2642,W,2,10,0.80,150.5,M,-34.4,M,0000,0000*53
lng=-77.437736, lat=43.138549, altitude=150.50, speed=0.01, satellites=10, angle=19.6000, fixquality=2
$GPRMC,142127.400,A,4308.3131,N,07726.2642,W,0.00,19.60,180419,,,D*4C
$GPGGA,142127.600,4308.3131,N,07726.2642,W,2,10,0.80,150.5,M,-34.4,M,0000,0000*57
lng=-77.437736, lat=43.138549, altitude=150.50, speed=0.00, satellites=10, angle=19.6000, fixquality=2
$GPRMC,142127.800,A,4308.3131,N,07726.2642,W,0.01,19.60,180419,,,D*41
$GPGGA,142128.000,4308.3131,N,07726.2642,W,2,10,0.80,150.5,M,-34.4,M,0000,0000*5E
lng=-77.437736, lat=43.138549, altitude=150.50, speed=0.01, satellites=10, angle=19.6000, fixquality=2
$GPRMC,142128.200,A,4308.3131,N,07726.2642,W,0.01,19.60,180419,,,D*44
$GPGGA,142128.400,4308.3131,N,07726.2642,W,2,10,0.80,150.5,M,-34.4,M,0000,0000*5A
lng=-77.437736, lat=43.138549, altitude=150.50, speed=0.01, satellites=10, angle=19.6000, fixquality=2
$GPRMC,142128.600,A,4308.3131,N,07726.2642,W,0.01,19.60,180419,,,D*40
$GPGGA,142128.800,4308.3131,N,07726.2642,W,2,10,0.80,150.5,M,-34.4,M,0000,0000*56
lng=-77.437736, lat=43.138549, altitude=150.50, speed=0.01, satellites=10, angle=19.6000, fixquality=2
$GPRMC,142129.000,A,4308.3131,N,07726.2642,W,0.00,19.60,180419,,,D*46
$GPGGA,142129.200,4308.3131,N,07726.2642,W,2,10,0.80,150.5,M,-34.4,M,0000,0000*5D
lng=-77.437736, lat=43.138549, altitude=150.50, speed=0.00, satellites=10, angle=19.6000, fixquality=2
$GPRMC,142129.400,A,4308.3131,N,07726.2642,W,0.01,19.60,180419,,,D*43
$GPGGA,142129.600,4308.3131,N,07726.2642,W,2,10,0.80,150.5,M,-34.4,M,0000,0000*59
lng=-77.437736, lat=43.138549, altitude=150.50, speed=0.01, satellites=10, angle=19.6000, fixquality=2
$GPRMC,142129.800,A,4308.3131,N,07726.2642,W,0.00,19.60,180419,,,D*4E
$GPGGA,142130.000,4308.3131,N,07726.2642,W,2,10,0.80,150.5,M,-34.4,M,0000,0000*57
lng=-77.437736, lat=43.138549, altitude=150.50, speed=0.00, satellites=10, angle=19.6000, fixquality=2
$GPRMC,142130.200,A,4308.3131,N,07726.2642,W,0.01,19.60,180419,,,D*4D
$GPGGA,142130.400,4308.3131,N,07726.2642,W,2,10,0.80,150.5,M,-34.4,M,0000,0000*53
lng=-77.437736, lat=43.138549, altitude=150.50, speed=0.01, satellites=10, angle=19.6000, fixquality=2
$GPRMC,142130.600,A,4308.3131,N,07726.2642,W,0.01,19.60,180419,,,D*49
$GPGGA,142130.800,4308.3131,N,07726.2642,W,2,10,0.80,150.5,M,-34.4,M,0000,0000*5F
lng=-77.437736, lat=43.138549, altitude=150.50, speed=0.01, satellites=10, angle=19.6000, fixquality=2
$GPRMC,142131.000,A,4308.3131,N,07726.2642,W,0.00,19.60,180419,,,D*4F
$GPGGA,142131.200,4308.3131,N,07726.2642,W,2,10,0.80,150.5,M,-34.4,M,0000,0000*54
lng=-77.437736, lat=43.138549, altitude=150.50, speed=0.00, satellites=10, angle=19.6000, fixquality=2
$GPRMC,142131.400,A,4308.3131,N,07726.2642,W,0.01,19.60,180419,,,D*4A
$GPGGA,142131.600,4308.3131,N,07726.2642,W,2,10,0.80,150.5,M,-34.4,M,0000,0000*50
lng=-77.437736, lat=43.138549, altitude=150.50, speed=0.01, satellites=10, angle=19.6000, fixquality=2
$GPRMC,142131.800,A,4308.3131,N,07726.2642,W,0.00,19.60,180419,,,D*47
$GPGGA,142132.000,4308.3131,N,07726.2642,W,2,10,0.80,150.5,M,-34.4,M,0000,0000*55
lng=-77.437736, lat=43.138549, altitude=150.50, speed=0.00, satellites=10, angle=19.6000, fixquality=2
$GPRMC,142132.200,A,4308.3131,N,07726.2642,W,0.00,19.60,180419,,,D*4E
$GPGGA,142132.400,4308.3131,N,07726.2642,W,2,10,0.80,150.5,M,-34.4,M,0000,0000*51
lng=-77.437736, lat=43.138549, altitude=150.50, speed=0.00, satellites=10, angle=19.6000, fixquality=2
$GPRMC,142132.600,A,4308.3131,N,07726.2642,W,0.00,19.60,180419,,,D*4A
$GPGGA,142132.800,4308.3131,N,07726.2642,W,2,10,0.80,150.5,M,-34.4,M,0000,0000*5D
lng=-77.437736, lat=43.138549, altitude=150.50, speed=0.00, satellites=10, angle=19.6000, fixquality=2
$GPRMC,142133.000,A,4308.3131,N,07726.2642,W,0.01,19.60,180419,,,D*4C
$GPGGA,142133.200,4308.3131,N,07726.2642,W,2,10,0.80,150.5,M,-34.4,M,0000,0000*56
lng=-77.437736, lat=43.138549, altitude=150.50, speed=0.01, satellites=10, angle=19.6000, fixquality=2
$GPRMC,142133.400,A,4308.3131,N,07726.2642,W,0.00,19.60,180419,,,D*49
$GPGGA,142133.600,4308.3131,N,07726.2642,W,2,10,0.80,150.5,M,-34.4,M,0000,0000*52
lng=-77.437736, lat=43.138549, altitude=150.50, speed=0.00, satellites=10, angle=19.6000, fixquality=2
$GPRMC,142133.800,A,4308.3131,N,07726.2642,W,0.01,19.60,180419,,,D*44
$GPGGA,142134.000,4308.3131,N,07726.2642,W,2,10,0.80,150.5,M,-34.4,M,0000,0000*53
lng=-77.437736, lat=43.138549, altitude=150.50, speed=0.01, satellites=10, angle=19.6000, fixquality=2
$GPRMC,142134.200,A,4308.3131,N,07726.2642,W,0.01,19.60,180419,,,D*49
$GPGGA,142134.400,4308.3131,N,07726.2642,W,2,10,0.80,150.5,M,-34.4,M,0000,0000*57
lng=-77.437736, lat=43.138549, altitude=150.50, speed=0.01, satellites=10, angle=19.6000, fixquality=2
$GPRMC,142134.600,A,4308.3131,N,07726.2642,W,0.00,19.60,180419,,,D*4C
$GPGGA,142134.800,4308.3131,N,07726.2642,W,2,10,0.80,150.5,M,-34.4,M,0000,0000*5B
lng=-77.437736, lat=43.138549, altitude=150.50, speed=0.00, satellites=10, angle=19.6000, fixquality=2
$GPRMC,142135.000,A,4308.3131,N,07726.2642,W,0.00,19.60,180419,,,D*4B
$GPGGA,142135.200,4308.3131,N,07726.2642,W,2,10,0.80,150.5,M,-34.4,M,0000,0000*50
lng=-77.437736, lat=43.138549, altitude=150.50, speed=0.00, satellites=10, angle=19.6000, fixquality=2
$GPRMC,142135.400,A,4308.3131,N,07726.2642,W,0.00,19.60,180419,,,D*4F
$GPGGA,142135.600,4308.3131,N,07726.2642,W,2,10,0.80,150.5,M,-34.4,M,0000,0000*54
lng=-77.437736, lat=43.138549, altitude=150.50, speed=0.00, satellites=10, angle=19.6000, fixquality=2
$GPRMC,142135.800,A,4308.3131,N,07726.2642,W,0.00,19.60,180419,,,D*43
$GPGGA,142136.000,4308.3131,N,07726.2642,W,2,10,0.80,150.5,M,-34.4,M,0000,0000*51
lng=-77.437736, lat=43.138549, altitude=150.50, speed=0.00, satellites=10, angle=19.6000, fixquality=2
$GPRMC,142136.200,A,4308.3131,N,07726.2642,W,0.00,19.60,180419,,,D*4A
$GPGGA,142136.400,4308.3131,N,07726.2642,W,2,10,0.80,150.5,M,-34.4,M,0000,0000*55
lng=-77.437736, lat=43.138549, altitude=150.50, speed=0.00, satellites=10, angle=19.6000, fixquality=2
$GPRMC,142136.600,A,4308.3131,N,07726.2642,W,0.01,19.60,180419,,,D*4F
$GPGGA,142136.800,4308.3131,N,07726.2642,W,2,10,0.80,150.5,M,-34.4,M,0000,0000*59
lng=-77.437736, lat=43.138549, altitude=150.50, speed=0.01, satellites=10, angle=19.6000, fixquality=2
$GPRMC,142137.000,A,4308.3131,N,07726.2642,W,0.00,19.60,180419,,,D*49
$GPGGA,142137.200,4308.3131,N,07726.2642,W,2,10,0.80,150.5,M,-34.4,M,0000,0000*52
lng=-77.437736, lat=43.138549, altitude=150.50, speed=0.00, satellites=10, angle=19.6000, fixquality=2
$GPRMC,142137.400,A,4308.3131,N,07726.2642,W,0.00,19.60,180419,,,D*4D
$GPGGA,142137.600,4308.3131,N,07726.2642,W,2,10,0.80,150.5,M,-34.4,M,0000,0000*56
lng=-77.437736, lat=43.138549, altitude=150.50, speed=0.00, satellites=10, angle=19.6000, fixquality=2
$GPRMC,142137.800,A,4308.3131,N,07726.2642,W,0.00,19.60,180419,,,D*41
$GPGGA,142138.000,4308.3131,N,07726.2642,W,2,10,0.80,150.5,M,-34.4,M,0000,0000*5F
lng=-77.437736, lat=43.138549, altitude=150.50, speed=0.00, satellites=10, angle=19.6000, fixquality=2
$GPRMC,142138.200,A,4308.3131,N,07726.2642,W,0.00,19.60,180419,,,D*44
$GPGGA,142138.400,4308.3131,N,07726.2642,W,2,10,0.80,150.5,M,-34.4,M,0000,0000*5B
lng=-77.437736, lat=43.138549, altitude=150.50, speed=0.00, satellites=10, angle=19.6000, fixquality=2
$GPRMC,142138.600,A,4308.3131,N,07726.2642,W,0.01,19.60,180419,,,D*41
$GPGGA,142138.800,4308.3131,N,07726.2642,W,2,10,0.80,150.5,M,-34.4,M,0000,0000*57
lng=-77.437736, lat=43.138549, altitude=150.50, speed=0.01, satellites=10, angle=19.6000, fixquality=2
$GPRMC,142139.000,A,4308.3131,N,07726.2642,W,0.00,19.60,180419,,,D*47
$GPGGA,142139.200,4308.3131,N,07726.2642,W,2,10,0.80,150.5,M,-34.4,M,0000,0000*5C
lng=-77.437736, lat=43.138549, altitude=150.50, speed=0.00, satellites=10, angle=19.6000, fixquality=2
$GPRMC,142139.400,A,4308.3131,N,07726.2642,W,0.01,19.60,180419,,,D*42
$GPGGA,142139.600,4308.3131,N,07726.2642,W,2,10,0.80,150.5,M,-34.4,M,0000,0000*58
lng=-77.437736, lat=43.138549, altitude=150.50, speed=0.01, satellites=10, angle=19.6000, fixquality=2
$GPRMC,142139.800,A,4308.3131,N,07726.2642,W,0.00,19.60,180419,,,D*4F
$GPGGA,142140.000,4308.3131,N,07726.2642,W,2,10,0.80,150.5,M,-34.4,M,0000,0000*50
lng=-77.437736, lat=43.138549, altitude=150.50, speed=0.00, satellites=10, angle=19.6000, fixquality=2
$GPRMC,142140.200,A,4308.3131,N,07726.2642,W,0.01,19.60,180419,,,D*4A
$GPGGA,142140.400,4308.3131,N,07726.2642,W,2,10,0.80,150.5,M,-34.4,M,0000,0000*54
lng=-77.437736, lat=43.138549, altitude=150.50, speed=0.01, satellites=10, angle=19.6000, fixquality=2
$GPRMC,142140.600,A,4308.3131,N,07726.2642,W,0.01,19.60,180419,,,D*4E
$GPGGA,142140.800,4308.3131,N,07726.2642,W,2,10,0.80,150.5,M,-34.4,M,0000,0000*58
lng=-77.437736, lat=43.138549, altitude=150.50, speed=0.01, satellites=10, angle=19.6000, fixquality=2
$GPRMC,142141.000,A,4308.3131,N,07726.2642,W,0.01,19.60,180419,,,D*49
$GPGGA,142141.200,4308.3131,N,07726.2642,W,2,10,0.80,150.5,M,-34.4,M,0000,0000*53
lng=-77.437736, lat=43.138549, altitude=150.50, speed=0.01, satellites=10, angle=19.6000, fixquality=2
$GPRMC,142141.400,A,4308.3131,N,07726.2642,W,0.00,19.60,180419,,,D*4C
$GPGGA,142141.600,4308.3131,N,07726.2642,W,2,10,0.80,150.5,M,-34.4,M,0000,0000*57
lng=-77.437736, lat=43.138549, altitude=150.50, speed=0.00, satellites=10, angle=19.6000, fixquality=2
$GPRMC,142141.800,A,4308.3131,N,07726.2642,W,0.01,19.60,180419,,,D*41
$GPGGA,142142.000,4308.3131,N,07726.2642,W,2,10,0.80,150.5,M,-34.4,M,0000,0000*52
lng=-77.437736, lat=43.138549, altitude=150.50, speed=0.01, satellites=10, angle=19.6000, fixquality=2
$GPRMC,142142.200,A,4308.3131,N,07726.2642,W,0.00,19.60,180419,,,D*49
$GPGGA,142142.400,4308.3131,N,07726.2642,W,2,10,0.80,150.5,M,-34.4,M,0000,0000*56
lng=-77.437736, lat=43.138549, altitude=150.50, speed=0.00, satellites=10, angle=19.6000, fixquality=2
$GPRMC,142142.600,A,4308.3131,N,07726.2642,W,0.01,19.60,180419,,,D*4C
$GPGGA,142142.800,4308.3131,N,07726.2642,W,2,10,0.80,150.5,M,-34.4,M,0000,0000*5A
lng=-77.437736, lat=43.138549, altitude=150.50, speed=0.01, satellites=10, angle=19.6000, fixquality=2
$GPRMC,142143.000,A,4308.3131,N,07726.2642,W,0.00,19.60,180419,,,D*4A
$GPGGA,142143.200,4308.3131,N,07726.2642,W,2,10,0.80,150.5,M,-34.4,M,0000,0000*51
lng=-77.437736, lat=43.138549, altitude=150.50, speed=0.00, satellites=10, angle=19.6000, fixquality=2
$GPRMC,142143.400,A,4308.3131,N,07726.2642,W,0.01,19.60,180419,,,D*4F
$GPGGA,142143.600,4308.3131,N,07726.2642,W,2,10,0.80,150.5,M,-34.4,M,0000,0000*55
lng=-77.437736, lat=43.138549, altitude=150.50, speed=0.01, satellites=10, angle=19.6000, fixquality=2
$GPRMC,142143.800,A,4308.3131,N,07726.2642,W,0.01,19.60,180419,,,D*43
$GPGGA,142144.000,4308.3131,N,07726.2642,W,2,10,0.80,150.5,M,-34.4,M,0000,0000*54
lng=-77.437736, lat=43.138549, altitude=150.50, speed=0.01, satellites=10, angle=19.6000, fixquality=2
$GPRMC,142144.200,A,4308.3131,N,07726.2642,W,0.00,19.60,180419,,,D*4F
$GPGGA,142144.400,4308.3131,N,07726.2642,W,2,10,0.80,150.5,M,-34.4,M,0000,0000*50
lng=-77.437736, lat=43.138549, altitude=150.50, speed=0.00, satellites=10, angle=19.6000, fixquality=2
$GPRMC,142144.600,A,4308.3131,N,07726.2642,W,0.01,19.60,180419,,,D*4A
$GPGGA,142144.800,4308.3131,N,07726.2642,W,2,10,0.80,150.5,M,-34.4,M,0000,0000*5C
lng=-77.437736, lat=43.138549, altitude=150.50, speed=0.01, satellites=10, angle=19.6000, fixquality=2
$GPRMC,142145.000,A,4308.3131,N,07726.2642,W,0.00,19.60,180419,,,D*4C
$GPGGA,142145.200,4308.3131,N,07726.2642,W,2,10,0.80,150.5,M,-34.4,M,0000,0000*57
lng=-77.437736, lat=43.138549, altitude=150.50, speed=0.00, satellites=10, angle=19.6000, fixquality=2
$GPRMC,142145.400,A,4308.3131,N,07726.2642,W,0.00,19.60,180419,,,D*48
$GPGGA,142145.600,4308.3131,N,07726.2642,W,2,10,0.80,150.5,M,-34.4,M,0000,0000*53
lng=-77.437736, lat=43.138549, altitude=150.50, speed=0.00, satellites=10, angle=19.6000, fixquality=2
$GPRMC,142145.800,A,4308.3131,N,07726.2642,W,0.00,19.60,180419,,,D*44
$GPGGA,142146.000,4308.3131,N,07726.2642,W,2,10,0.80,150.5,M,-34.4,M,0000,0000*56
lng=-77.437736, lat=43.138549, altitude=150.50, speed=0.00, satellites=10, angle=19.6000, fixquality=2
$GPRMC,142146.200,A,4308.3131,N,07726.2642,W,0.00,19.60,180419,,,D*4D
$GPGGA,142146.400,4308.3131,N,07726.2642,W,2,10,0.80,150.5,M,-34.4,M,0000,0000*52
lng=-77.437736, lat=43.138549, altitude=150.50, speed=0.00, satellites=10, angle=19.6000, fixquality=2
$GPRMC,142146.600,A,4308.3131,N,07726.2642,W,0.01,19.60,180419,,,D*48
$GPGGA,142146.800,4308.3131,N,07726.2642,W,2,10,0.80,150.5,M,-34.4,M,0000,0000*5E
lng=-77.437736, lat=43.138549, altitude=150.50, speed=0.01, satellites=10, angle=19.6000, fixquality=2
$GPRMC,142147.000,A,4308.3131,N,07726.2642,W,0.01,19.60,180419,,,D*4F
$GPGGA,142147.200,4308.3131,N,07726.2642,W,2,10,0.80,150.5,M,-34.4,M,0000,0000*55
lng=-77.437736, lat=43.138549, altitude=150.50, speed=0.01, satellites=10, angle=19.6000, fixquality=2
$GPRMC,142147.400,A,4308.3131,N,07726.2642,W,0.01,19.60,180419,,,D*4B
$GPGGA,142147.600,4308.3131,N,07726.2642,W,2,10,0.80,150.5,M,-34.4,M,0000,0000*51
lng=-77.437736, lat=43.138549, altitude=150.50, speed=0.01, satellites=10, angle=19.6000, fixquality=2
$GPRMC,142147.800,A,4308.3131,N,07726.2642,W,0.00,19.60,180419,,,D*46
$GPGGA,142148.000,4308.3131,N,07726.2642,W,2,10,0.80,150.5,M,-34.4,M,0000,0000*58
lng=-77.437736, lat=43.138549, altitude=150.50, speed=0.00, satellites=10, angle=19.6000, fixquality=2
$GPRMC,142148.200,A,4308.3131,N,07726.2642,W,0.00,19.60,180419,,,D*43
$GPGGA,142148.400,4308.3131,N,07726.2642,W,2,10,0.80,150.5,M,-34.4,M,0000,0000*5C
lng=-77.437736, lat=43.138549, altitude=150.50, speed=0.00, satellites=10, angle=19.6000, fixquality=2
$GPRMC,142148.600,A,4308.3131,N,07726.2642,W,0.00,19.60,180419,,,D*47
$GPGGA,142148.800,4308.3131,N,07726.2642,W,2,10,0.80,150.5,M,-34.4,M,0000,0000*50
lng=-77.437736, lat=43.138549, altitude=150.50, speed=0.00, satellites=10, angle=19.6000, fixquality=2
$GPRMC,142149.000,A,4308.3131,N,07726.2642,W,0.01,19.60,180419,,,D*41
$GPGGA,142149.200,4308.3131,N,07726.2642,W,2,10,0.80,150.5,M,-34.4,M,0000,0000*5B
lng=-77.437736, lat=43.138549, altitude=150.50, speed=0.01, satellites=10, angle=19.6000, fixquality=2
$GPRMC,142149.400,A,4308.3131,N,07726.2642,W,0.00,19.60,180419,,,D*44
$GPGGA,142149.600,4308.3131,N,07726.2642,W,2,10,0.80,150.5,M,-34.4,M,0000,0000*5F
lng=-77.437736, lat=43.138549, altitude=150.50, speed=0.00, satellites=10, angle=19.6000, fixquality=2
$GPRMC,142149.800,A,4308.3131,N,07726.2642,W,0.01,19.60,180419,,,D*49
$GPGGA,142150.000,4308.3131,N,07726.2642,W,2,10,0.80,150.5,M,-34.4,M,0000,0000*51
lng=-77.437736, lat=43.138549, altitude=150.50, speed=0.01, satellites=10, angle=19.6000, fixquality=2
$GPRMC,142150.200,A,4308.3131,N,07726.2642,W,0.02,19.60,180419,,,D*48
$GPGGA,142150.400,4308.3131,N,07726.2642,W,2,10,0.80,150.5,M,-34.4,M,0000,0000*55
lng=-77.437736, lat=43.138549, altitude=150.50, speed=0.02, satellites=10, angle=19.6000, fixquality=2
$GPRMC,142150.600,A,4308.3131,N,07726.2642,W,0.00,19.60,180419,,,D*4E
$GPGGA,142150.800,4308.3131,N,07726.2642,W,2,10,0.80,150.5,M,-34.4,M,0000,0000*59
lng=-77.437736, lat=43.138549, altitude=150.50, speed=0.00, satellites=10, angle=19.6000, fixquality=2
$GPRMC,142151.000,A,4308.3131,N,07726.2642,W,0.00,19.60,180419,,,D*49
$GPGGA,142151.200,4308.3131,N,07726.2642,W,2,10,0.80,150.5,M,-34.4,M,0000,0000*52
lng=-77.437736, lat=43.138549, altitude=150.50, speed=0.00, satellites=10, angle=19.6000, fixquality=2
$GPRMC,142151.400,A,4308.3131,N,07726.2642,W,0.01,19.60,180419,,,D*4C
$GPGGA,142151.600,4308.3131,N,07726.2642,W,2,10,0.80,150.5,M,-34.4,M,0000,0000*56
lng=-77.437736, lat=43.138549, altitude=150.50, speed=0.01, satellites=10, angle=19.6000, fixquality=2
$GPRMC,142151.800,A,4308.3131,N,07726.2642,W,0.01,19.60,180419,,,D*40
$GPGGA,142152.000,4308.3131,N,07726.2642,W,2,10,0.80,150.5,M,-34.4,M,0000,0000*53
lng=-77.437736, lat=43.138549, altitude=150.50, speed=0.01, satellites=10, angle=19.6000, fixquality=2
$GPRMC,142152.200,A,4308.3131,N,07726.2642,W,0.01,19.60,180419,,,D*49
$GPGGA,142152.400,4308.3131,N,07726.2642,W,2,10,0.80,150.5,M,-34.4,M,0000,0000*57
lng=-77.437736, lat=43.138549, altitude=150.50, speed=0.01, satellites=10, angle=19.6000, fixquality=2
$GPRMC,142152.600,A,4308.3131,N,07726.2642,W,0.00,19.60,180419,,,D*4C
$GPGGA,142152.800,4308.3131,N,07726.2642,W,2,10,0.80,150.5,M,-34.4,M,0000,0000*5B
lng=-77.437736, lat=43.138549, altitude=150.50, speed=0.00, satellites=10, angle=19.6000, fixquality=2
$GPRMC,142153.000,A,4308.3131,N,07726.2642,W,0.00,19.60,180419,,,D*4B
$GPGGA,142153.200,4308.3131,N,07726.2642,W,2,10,0.80,150.5,M,-34.4,M,0000,0000*50
lng=-77.437736, lat=43.138549, altitude=150.50, speed=0.00, satellites=10, angle=19.6000, fixquality=2
$GPRMC,142153.400,A,4308.3131,N,07726.2642,W,0.00,19.60,180419,,,D*4F
$GPGGA,142153.600,4308.3131,N,07726.2642,W,2,10,0.80,150.5,M,-34.4,M,0000,0000*54
lng=-77.437736, lat=43.138549, altitude=150.50, speed=0.00, satellites=10, angle=19.6000, fixquality=2
$GPRMC,142153.800,A,4308.3131,N,07726.2642,W,0.00,19.60,180419,,,D*43
$GPGGA,142154.000,4308.3131,N,07726.2642,W,2,10,0.80,150.5,M,-34.4,M,0000,0000*55
lng=-77.437736, lat=43.138549, altitude=150.50, speed=0.00, satellites=10, angle=19.6000, fixquality=2
$GPRMC,142154.200,A,4308.3131,N,07726.2642,W,0.00,19.60,180419,,,D*4E
$GPGGA,142154.400,4308.3131,N,07726.2642,W,2,10,0.80,150.5,M,-34.4,M,0000,0000*51
lng=-77.437736, lat=43.138549, altitude=150.50, speed=0.00, satellites=10, angle=19.6000, fixquality=2
$GPRMC,142154.600,A,4308.3131,N,07726.2642,W,0.00,19.60,180419,,,D*4A
$GPGGA,142154.800,4308.3131,N,07726.2642,W,2,10,0.80,150.5,M,-34.4,M,0000,0000*5D
lng=-77.437736, lat=43.138549, altitude=150.50, speed=0.00, satellites=10, angle=19.6000, fixquality=2
$GPRMC,142155.000,A,4308.3131,N,07726.2642,W,0.00,19.60,180419,,,D*4D
$GPGGA,142155.200,4308.3131,N,07726.2642,W,2,10,0.80,150.5,M,-34.4,M,0000,0000*56
lng=-77.437736, lat=43.138549, altitude=150.50, speed=0.00, satellites=10, angle=19.6000, fixquality=2
$GPRMC,142155.400,A,4308.3131,N,07726.2642,W,0.01,19.60,180419,,,D*48
$GPGGA,142155.600,4308.3131,N,07726.2642,W,2,10,0.80,150.5,M,-34.4,M,0000,0000*52
lng=-77.437736, lat=43.138549, altitude=150.50, speed=0.01, satellites=10, angle=19.6000, fixquality=2
$GPRMC,142155.800,A,4308.3131,N,07726.2642,W,0.01,19.60,180419,,,D*44
$GPGGA,142156.000,4308.3131,N,07726.2642,W,2,10,0.80,150.5,M,-34.4,M,0000,0000*57
lng=-77.437736, lat=43.138549, altitude=150.50, speed=0.01, satellites=10, angle=19.6000, fixquality=2
$GPRMC,142156.200,A,4308.3131,N,07726.2642,W,0.00,19.60,180419,,,D*4C
$GPGGA,142156.400,4308.3131,N,07726.2642,W,2,10,0.80,150.5,M,-34.4,M,0000,0000*53
lng=-77.437736, lat=43.138549, altitude=150.50, speed=0.00, satellites=10, angle=19.6000, fixquality=2
$GPRMC,142156.600,A,4308.3131,N,07726.2642,W,0.01,19.60,180419,,,D*49
$GPGGA,142156.800,4308.3131,N,07726.2642,W,2,10,0.80,150.5,M,-34.4,M,0000,0000*5F
lng=-77.437736, lat=43.138549, altitude=150.50, speed=0.01, satellites=10, angle=19.6000, fixquality=2
$GPRMC,142157.000,A,4308.3131,N,07726.2642,W,0.00,19.60,180419,,,D*4F
$GPGGA,142157.200,4308.3131,N,07726.2642,W,2,10,0.80,150.5,M,-34.4,M,0000,0000*54
lng=-77.437736, lat=43.138549, altitude=150.50, speed=0.00, satellites=10, angle=19.6000, fixquality=2
$GPRMC,142157.400,A,4308.3131,N,07726.2642,W,0.00,19.60,180419,,,D*4B
$GPGGA,142157.600,4308.3131,N,07726.2642,W,2,10,0.80,150.5,M,-34.4,M,0000,0000*50
lng=-77.437736, lat=43.138549, altitude=150.50, speed=0.00, satellites=10, angle=19.6000, fixquality=2
$GPRMC,142157.800,A,4308.3131,N,07726.2642,W,0.01,19.60,180419,,,D*46
$GPGGA,142158.000,4308.3131,N,07726.2642,W,2,10,0.80,150.5,M,-34.4,M,0000,0000*59
lng=-77.437736, lat=43.138549, altitude=150.50, speed=0.01, satellites=10, angle=19.6000, fixquality=2
$GPRMC,142158.200,A,4308.3131,N,07726.2642,W,0.00,19.60,180419,,,D*42
$GPGGA,142158.400,4308.3131,N,07726.2642,W,2,10,0.80,150.5,M,-34.4,M,0000,0000*5D
lng=-77.437736, lat=43.138549, altitude=150.50, speed=0.00, satellites=10, angle=19.6000, fixquality=2
$GPRMC,142158.600,A,4308.3131,N,07726.2642,W,0.00,19.60,180419,,,D*46
$GPGGA,142158.800,4308.3131,N,07726.2642,W,2,10,0.80,150.5,M,-34.4,M,0000,0000*51
lng=-77.437736, lat=43.138549, altitude=150.50, speed=0.00, satellites=10, angle=19.6000, fixquality=2
