Vers 81
USE_SERIAL_FEEDBACK=true
DEVELOPMENT_MODE=false
USE_RMC_ONLY=false

$GPRMC,134433.500,A,4308.3091,N,07726.2699,W,0.11,28.02,300919,,,A*45
$GPGGA,134433.750,4308.3094,N,07726.2696,W,1,06,2.12,161.4,M,-34.4,M,,*5B
$GPRMC,134434.000,A,4308.3095,N,07726.2695,W,0.01,47.29,300919,,,A*4E
$GPGGA,134434.250,4308.3095,N,07726.2695,W,1,06,2.12,161.9,M,-34.4,M,,*56
$GPRMC,134434.500,A,4308.3095,N,07726.2695,W,0.05,21.14,300919,,,A*41
$GPGGA,134434.750,4308.3094,N,07726.2695,W,1,06,2.12,162.4,M,-34.4,M,,*5C
$GPRMC,134435.000,A,4308.3095,N,07726.2694,W,0.02,346.21,300919,,,A*77
$GPGGA,134435.250,4308.3096,N,07726.2693,W,1,06,2.25,162.9,M,-34.4,M,,*55
$GPRMC,134435.500,A,4308.3097,N,07726.2692,W,0.01,184.04,300919,,,A*7E
$GPGGA,134435.750,4308.3099,N,07726.2691,W,1,06,2.12,163.3,M,-34.4,M,,*52
$GPRMC,134436.000,A,4308.3100,N,07726.2689,W,0.06,217.65,300919,,,A*74
$GPGGA,134436.250,4308.3101,N,07726.2688,W,1,06,2.12,163.7,M,-34.4,M,,*58
$GPRMC,134436.500,A,4308.3102,N,07726.2687,W,0.01,249.00,300919,,,A*72
$GPGGA,134436.750,4308.3103,N,07726.2687,W,1,06,2.12,163.9,M,-34.4,M,,*5E
$GPRMC,134437.000,A,4308.3104,N,07726.2685,W,0.05,2.49,300919,,,A*76
$GPGGA,134437.250,4308.3105,N,07726.2684,W,1,06,2.25,164.1,M,-34.4,M,,*54
$GPRMC,134437.500,A,4308.3107,N,07726.2683,W,0.03,242.55,300919,,,A*7B
$GPGGA,134437.750,4308.3108,N,07726.2682,W,1,06,2.12,164.3,M,-34.4,M,,*5C
$GPRMC,134438.000,A,4308.3109,N,07726.2681,W,0.06,237.97,300919,,,A*74
$GPGGA,134438.250,4308.3110,N,07726.2680,W,1,06,2.12,164.5,M,-34.4,M,,*5B
$GPRMC,134438.500,A,4308.3110,N,07726.2679,W,0.03,191.02,300919,,,A*78
$GPGGA,134438.750,4308.3110,N,07726.2679,W,1,06,2.12,164.6,M,-34.4,M,,*5B
$GPRMC,134439.000,A,4308.3111,N,07726.2677,W,0.04,12.85,300919,,,A*41
$GPGGA,134439.250,4308.3112,N,07726.2676,W,1,06,2.24,164.5,M,-34.4,M,,*54
$GPRMC,134439.500,A,4308.3113,N,07726.2675,W,0.03,59.67,300919,,,A*40
$GPGGA,134439.750,4308.3113,N,07726.2673,W,1,06,2.12,164.4,M,-34.4,M,,*51
$GPRMC,134440.000,A,4308.3113,N,07726.2673,W,0.05,64.16,300919,,,A*43
$GPGGA,134440.250,4308.3112,N,07726.2673,W,1,06,2.12,164.3,M,-34.4,M,,*5C
$GPRMC,134440.500,A,4308.3111,N,07726.2672,W,0.03,103.33,300919,,,A*74
$GPGGA,134440.750,4308.3111,N,07726.2672,W,1,06,2.12,163.9,M,-34.4,M,,*56
$GPRMC,134441.000,A,4308.3110,N,07726.2672,W,0.07,120.15,300919,,,A*70
$GPGGA,134441.250,4308.3110,N,07726.2671,W,1,06,2.12,163.6,M,-34.4,M,,*5F
$GPRMC,134441.500,A,4308.3109,N,07726.2671,W,0.18,99.96,300919,,,A*48
$GPGGA,134441.750,4308.3108,N,07726.2670,W,1,06,2.12,163.5,M,-34.4,M,,*51
$GPRMC,134442.000,A,4308.3108,N,07726.2670,W,0.14,102.22,300919,,,A*7E
$GPGGA,134442.250,4308.3107,N,07726.2670,W,1,06,2.12,163.5,M,-34.4,M,,*58
$GPRMC,134442.500,A,4308.3106,N,07726.2670,W,0.09,105.80,300919,,,A*76
$GPGGA,134442.750,4308.3106,N,07726.2670,W,1,06,2.12,163.3,M,-34.4,M,,*5A
$GPRMC,134443.000,A,4308.3105,N,07726.2670,W,0.02,88.88,300919,,,A*46
$GPGGA,134443.250,4308.3104,N,07726.2670,W,1,06,2.12,163.2,M,-34.4,M,,*5D
$GPRMC,134443.500,A,4308.3104,N,07726.2670,W,0.03,177.43,300919,,,A*75
$GPGGA,134443.750,4308.3103,N,07726.2670,W,1,06,2.12,162.9,M,-34.4,M,,*55
$GPRMC,134444.000,A,4308.3102,N,07726.2670,W,0.02,3.89,300919,,,A*74
$GPGGA,134444.250,4308.3101,N,07726.2670,W,1,06,2.24,162.6,M,-34.4,M,,*5F
$GPRMC,134444.500,A,4308.3100,N,07726.2670,W,0.04,161.96,300919,,,A*7E
$GPGGA,134444.750,4308.3100,N,07726.2670,W,1,06,2.12,162.3,M,-34.4,M,,*5B
$GPRMC,134445.000,A,4308.3099,N,07726.2670,W,0.13,95.83,300919,,,A*43
$GPGGA,134445.250,4308.3099,N,07726.2670,W,1,06,2.12,162.0,M,-34.4,M,,*5D
$GPRMC,134445.500,A,4308.3098,N,07726.2670,W,0.09,140.09,300919,,,A*77
$GPGGA,134445.750,4308.3097,N,07726.2670,W,1,06,2.12,161.6,M,-34.4,M,,*53
$GPRMC,134446.000,A,4308.3097,N,07726.2670,W,0.05,117.74,300919,,,A*7A
$GPGGA,134446.250,4308.3096,N,07726.2669,W,1,06,2.12,161.4,M,-34.4,M,,*5E
$GPRMC,134446.500,A,4308.3096,N,07726.2669,W,0.05,112.92,300919,,,A*7B
$GPGGA,134446.750,4308.3095,N,07726.2669,W,1,06,2.12,161.1,M,-34.4,M,,*5D
$GPRMC,134447.000,A,4308.3095,N,07726.2669,W,0.05,119.59,300919,,,A*70
$GPGGA,134447.250,4308.3095,N,07726.2669,W,1,06,2.12,160.9,M,-34.4,M,,*50
$GPRMC,134447.500,A,4308.3095,N,07726.2668,W,0.10,103.16,300919,,,A*70
$GPGGA,134447.750,4308.3095,N,07726.2667,W,1,06,2.12,160.7,M,-34.4,M,,*55
$GPRMC,134448.000,A,4308.3094,N,07726.2667,W,0.11,92.58,300919,,,A*46
$GPGGA,134448.250,4308.3094,N,07726.2667,W,1,06,2.11,160.4,M,-34.4,M,,*5E
$GPRMC,134448.500,A,4308.3094,N,07726.2667,W,0.08,74.69,300919,,,A*41
$GPGGA,134448.750,4308.3093,N,07726.2668,W,1,06,2.11,160.2,M,-34.4,M,,*55
$GPRMC,134449.000,A,4308.3092,N,07726.2667,W,0.04,116.82,300919,,,A*7F
$GPGGA,134449.250,4308.3092,N,07726.2667,W,1,06,2.11,160.0,M,-34.4,M,,*5D
$GPRMC,134449.500,A,4308.3092,N,07726.2667,W,0.04,38.68,300919,,,A*43
$GPGGA,134449.750,4308.3091,N,07726.2667,W,1,06,2.11,159.7,M,-34.4,M,,*56
$GPRMC,134450.000,A,4308.3091,N,07726.2667,W,0.01,113.08,300919,,,A*76
$GPGGA,134450.250,4308.3091,N,07726.2667,W,1,07,1.89,159.5,M,-34.4,M,,*5A
$GPRMC,134450.500,A,4308.3091,N,07726.2667,W,0.02,216.84,300919,,,A*72
$GPGGA,134450.750,4308.3091,N,07726.2666,W,1,07,1.89,159.3,M,-34.4,M,,*58
$GPRMC,134451.000,A,4308.3091,N,07726.2666,W,0.03,342.77,300919,,,A*7A
$GPGGA,134451.250,4308.3090,N,07726.2666,W,1,07,1.89,159.0,M,-34.4,M,,*5E
$GPRMC,134451.500,A,4308.3090,N,07726.2666,W,0.02,114.21,300919,,,A*7D
$GPGGA,134451.750,4308.3090,N,07726.2665,W,1,07,1.89,158.8,M,-34.4,M,,*51
$GPRMC,134452.000,A,4308.3089,N,07726.2665,W,0.02,156.23,300919,,,A*74
$GPGGA,134452.250,4308.3089,N,07726.2665,W,1,07,1.89,158.5,M,-34.4,M,,*52
$GPRMC,134452.500,A,4308.3089,N,07726.2665,W,0.07,213.17,300919,,,A*71
$GPGGA,134452.750,4308.3089,N,07726.2665,W,1,07,1.89,158.2,M,-34.4,M,,*50
$GPRMC,134453.000,A,4308.3089,N,07726.2665,W,0.06,105.24,300919,,,A*70
$GPGGA,134453.250,4308.3089,N,07726.2665,W,1,07,1.89,157.9,M,-34.4,M,,*50
$GPRMC,134453.500,A,4308.3089,N,07726.2665,W,0.04,39.80,300919,,,A*47
$GPGGA,134453.750,4308.3089,N,07726.2665,W,1,07,1.89,157.7,M,-34.4,M,,*5B
$GPRMC,134454.000,A,4308.3089,N,07726.2665,W,0.03,337.92,300919,,,A*7C
$GPGGA,134454.250,4308.3088,N,07726.2664,W,1,07,1.89,157.5,M,-34.4,M,,*5B
$GPRMC,134454.500,A,4308.3088,N,07726.2664,W,0.01,226.75,300919,,,A*73
$GPGGA,134454.750,4308.3088,N,07726.2664,W,1,07,1.88,157.4,M,-34.4,M,,*5E
$GPRMC,134455.000,A,4308.3088,N,07726.2664,W,0.01,168.61,300919,,,A*7B
$GPGGA,134455.250,4308.3088,N,07726.2664,W,1,07,1.88,157.2,M,-34.4,M,,*5C
$GPRMC,134455.500,A,4308.3088,N,07726.2664,W,0.06,208.20,300919,,,A*79
$GPGGA,134455.750,4308.3087,N,07726.2664,W,1,07,1.88,157.0,M,-34.4,M,,*54
$GPRMC,134456.000,A,4308.3087,N,07726.2664,W,0.02,152.64,300919,,,A*78
$GPGGA,134456.250,4308.3087,N,07726.2665,W,1,07,1.89,156.9,M,-34.4,M,,*5A
$GPRMC,134456.500,A,4308.3087,N,07726.2665,W,0.05,250.71,300919,,,A*7E
$GPGGA,134456.750,4308.3087,N,07726.2665,W,1,07,1.88,156.8,M,-34.4,M,,*5F
$GPRMC,134457.000,A,4308.3087,N,07726.2665,W,0.01,282.47,300919,,,A*74
$GPGGA,134457.250,4308.3087,N,07726.2665,W,1,07,1.88,156.7,M,-34.4,M,,*54
$GPRMC,134457.500,A,4308.3087,N,07726.2665,W,0.02,233.48,300919,,,A*77
$GPGGA,134457.750,4308.3086,N,07726.2666,W,1,07,1.88,156.6,M,-34.4,M,,*52
$GPRMC,134458.000,A,4308.3086,N,07726.2666,W,0.02,92.58,300919,,,A*47
$GPGGA,134458.250,4308.3086,N,07726.2666,W,1,07,1.88,156.5,M,-34.4,M,,*5B
$GPRMC,134458.500,A,4308.3086,N,07726.2666,W,0.04,34.69,300919,,,A*4A
$GPGGA,134458.750,4308.3086,N,07726.2667,W,1,07,1.88,156.4,M,-34.4,M,,*5E
$GPRMC,134459.000,A,4308.3086,N,07726.2667,W,0.20,5.54,300919,,,A*75
$GPGGA,134459.250,4308.3086,N,07726.2667,W,1,07,2.06,156.3,M,-34.4,M,,*58
$GPRMC,134459.500,A,4308.3087,N,07726.2668,W,0.83,357.24,300919,,,A*74
$GPGGA,134459.750,4308.3088,N,07726.2668,W,1,07,2.06,156.1,M,-34.4,M,,*5E
$GPRMC,134500.000,A,4308.3089,N,07726.2669,W,1.15,353.15,300919,,,A*7B
$GPGGA,134500.250,4308.3090,N,07726.2669,W,1,07,2.06,156.0,M,-34.4,M,,*5F
$GPRMC,134500.500,A,4308.3091,N,07726.2669,W,1.50,357.70,300919,,,A*71
$GPGGA,134500.750,4308.3093,N,07726.2669,W,1,07,2.06,155.9,M,-34.4,M,,*53
$GPRMC,134501.000,A,4308.3094,N,07726.2669,W,1.70,5.66,300919,,,A*71
$GPGGA,134501.250,4308.3095,N,07726.2667,W,1,07,2.06,155.8,M,-34.4,M,,*5E
$GPRMC,134501.500,A,4308.3097,N,07726.2665,W,2.00,25.37,300919,,,A*49
$GPGGA,134501.750,4308.3099,N,07726.2663,W,1,07,1.88,155.7,M,-34.4,M,,*59
$GPRMC,134502.000,A,4308.3101,N,07726.2660,W,3.33,49.98,300919,,,A*4A
$GPGGA,134502.250,4308.3103,N,07726.2657,W,1,07,1.88,155.6,M,-34.4,M,,*5B
$GPRMC,134502.500,A,4308.3104,N,07726.2655,W,3.57,56.30,300919,,,A*42
$GPGGA,134502.750,4308.3105,N,07726.2652,W,1,07,1.88,155.6,M,-34.4,M,,*5D
$GPRMC,134503.000,A,4308.3105,N,07726.2649,W,3.60,68.97,300919,,,A*4E
$GPGGA,134503.250,4308.3105,N,07726.2646,W,1,07,1.88,155.5,M,-34.4,M,,*5F
$GPRMC,134503.500,A,4308.3105,N,07726.2643,W,3.32,76.07,300919,,,A*40
$GPGGA,134503.750,4308.3105,N,07726.2641,W,1,07,1.88,155.4,M,-34.4,M,,*5C
$GPRMC,134504.000,A,4308.3105,N,07726.2639,W,2.55,69.75,300919,,,A*44
$GPGGA,134504.250,4308.3105,N,07726.2637,W,1,07,1.88,155.3,M,-34.4,M,,*58
$GPRMC,134504.500,A,4308.3105,N,07726.2637,W,1.28,45.87,300919,,,A*45
$GPGGA,134504.750,4308.3105,N,07726.2637,W,1,07,1.88,155.2,M,-34.4,M,,*5C
$GPRMC,134505.000,A,4308.3104,N,07726.2639,W,0.73,344.56,300919,,,A*7F
$GPGGA,134505.250,4308.3105,N,07726.2641,W,1,07,1.88,155.1,M,-34.4,M,,*5A
$GPRMC,134505.500,A,4308.3104,N,07726.2645,W,1.53,300.48,300919,,,A*7D
$GPGGA,134505.750,4308.3103,N,07726.2650,W,1,07,1.88,155.0,M,-34.4,M,,*58
$GPRMC,134506.000,A,4308.3103,N,07726.2653,W,2.96,284.92,300919,,,A*7B
$GPGGA,134506.250,4308.3103,N,07726.2658,W,1,07,1.88,154.9,M,-34.4,M,,*5E
$GPRMC,134506.500,A,4308.3104,N,07726.2663,W,5.26,287.58,300919,,,A*73
$GPGGA,134506.750,4308.3101,N,07726.2678,W,1,07,2.06,154.8,M,-34.4,M,,*5F
$GPRMC,134507.000,A,4308.3101,N,07726.2688,W,9.98,278.17,300919,,,A*75
$GPGGA,134507.250,4308.3101,N,07726.2699,W,1,07,2.06,154.8,M,-34.4,M,,*54
$GPRMC,134507.500,A,4308.3102,N,07726.2711,W,12.63,279.05,300919,,,A*4E
$GPGGA,134507.750,4308.3103,N,07726.2725,W,1,07,2.06,154.8,M,-34.4,M,,*55
$GPRMC,134508.000,A,4308.3105,N,07726.2738,W,14.81,280.27,300919,,,A*44
$GPGGA,134508.250,4308.3108,N,07726.2753,W,1,07,2.06,154.7,M,-34.4,M,,*5A
$GPRMC,134508.500,A,4308.3112,N,07726.2768,W,17.06,284.58,300919,,,A*42
$GPGGA,134508.750,4308.3116,N,07726.2785,W,1,07,2.06,154.7,M,-34.4,M,,*5B
$GPRMC,134509.000,A,4308.3120,N,07726.2802,W,18.89,286.40,300919,,,A*47
$GPGGA,134509.250,4308.3125,N,07726.2820,W,1,07,2.06,154.6,M,-34.4,M,,*5E
$GPRMC,134509.500,A,4308.3129,N,07726.2839,W,21.01,288.22,300919,,,A*43
$GPGGA,134509.750,4308.3135,N,07726.2858,W,1,06,2.61,154.5,M,-34.4,M,,*56
$GPRMC,134510.000,A,4308.3140,N,07726.2877,W,21.88,289.37,300919,,,A*4F
$GPGGA,134510.250,4308.3145,N,07726.2897,W,1,06,2.53,154.5,M,-34.4,M,,*5E
$GPRMC,134510.500,A,4308.3151,N,07726.2918,W,22.91,289.44,300919,,,A*4D
$GPGGA,134510.750,4308.3156,N,07726.2939,W,1,07,2.06,154.5,M,-34.4,M,,*5D
$GPRMC,134511.000,A,4308.3163,N,07726.2960,W,23.57,289.66,300919,,,A*4C
$GPGGA,134511.250,4308.3170,N,07726.2981,W,1,07,2.06,154.5,M,-34.4,M,,*5E
$GPRMC,134511.500,A,4308.3177,N,07726.3004,W,24.53,291.79,300919,,,A*42
$GPGGA,134511.750,4308.3186,N,07726.3025,W,1,07,2.06,154.5,M,-34.4,M,,*54
$GPRMC,134512.000,A,4308.3195,N,07726.3047,W,25.55,294.75,300919,,,A*41
$GPGGA,134512.250,4308.3205,N,07726.3069,W,1,07,2.06,154.6,M,-34.4,M,,*51
$GPRMC,134512.500,A,4308.3215,N,07726.3091,W,26.75,298.66,300919,,,A*4B
$GPGGA,134512.750,4308.3225,N,07726.3113,W,1,07,2.06,154.6,M,-34.4,M,,*5A
$GPRMC,134513.000,A,4308.3235,N,07726.3135,W,27.61,299.80,300919,,,A*4F
$GPGGA,134513.250,4308.3245,N,07726.3158,W,1,07,2.06,154.7,M,-34.4,M,,*56
$GPRMC,134513.500,A,4308.3257,N,07726.3180,W,28.03,301.98,300919,,,A*42
$GPGGA,134513.750,4308.3268,N,07726.3203,W,1,07,2.06,154.8,M,-34.4,M,,*5E
$GPRMC,134514.000,A,4308.3278,N,07726.3225,W,28.28,302.44,300919,,,A*4A
$GPGGA,134514.250,4308.3289,N,07726.3248,W,1,07,2.06,155.1,M,-34.4,M,,*54
$GPRMC,134514.500,A,4308.3299,N,07726.3270,W,27.13,302.46,300919,,,A*45
$GPGGA,134514.750,4308.3309,N,07726.3292,W,1,07,2.06,155.3,M,-34.4,M,,*5D
$GPRMC,134515.000,A,4308.3319,N,07726.3313,W,27.15,302.29,300919,,,A*43
$GPGGA,134515.250,4308.3329,N,07726.3335,W,1,07,2.06,155.5,M,-34.4,M,,*51
$GPRMC,134515.500,A,4308.3338,N,07726.3356,W,25.68,302.24,300919,,,A*41
$GPGGA,134515.750,4308.3348,N,07726.3376,W,1,07,2.06,155.7,M,-34.4,M,,*56
$GPRMC,134516.000,A,4308.3357,N,07726.3396,W,25.06,302.03,300919,,,A*4F
$GPGGA,134516.250,4308.3367,N,07726.3416,W,1,07,2.06,155.8,M,-34.4,M,,*53
$GPRMC,134516.500,A,4308.3377,N,07726.3436,W,24.70,303.76,300919,,,A*46
$GPGGA,134516.750,4308.3386,N,07726.3455,W,1,07,2.06,156.1,M,-34.4,M,,*54
$GPRMC,134517.000,A,4308.3396,N,07726.3475,W,24.64,305.28,300919,,,A*42
$GPGGA,134517.250,4308.3406,N,07726.3494,W,1,07,2.06,156.1,M,-34.4,M,,*52
$GPRMC,134517.500,A,4308.3416,N,07726.3513,W,24.84,306.75,300919,,,A*4C
$GPGGA,134517.750,4308.3427,N,07726.3532,W,1,07,2.06,156.3,M,-34.4,M,,*5B
$GPRMC,134518.000,A,4308.3437,N,07726.3550,W,24.81,308.30,300919,,,A*48
$GPGGA,134518.250,4308.3448,N,07726.3568,W,1,07,2.06,156.5,M,-34.4,M,,*51
$GPRMC,134518.500,A,4308.3459,N,07726.3586,W,24.77,311.46,300919,,,A*4E
$GPGGA,134518.750,4308.3471,N,07726.3603,W,1,07,2.06,156.6,M,-34.4,M,,*53
$GPRMC,134519.000,A,4308.3483,N,07726.3620,W,24.45,314.65,300919,,,A*47
$GPGGA,134519.250,4308.3495,N,07726.3635,W,1,07,2.06,156.9,M,-34.4,M,,*57
$GPRMC,134519.500,A,4308.3508,N,07726.3650,W,24.40,318.38,300919,,,A*46
$GPGGA,134519.750,4308.3522,N,07726.3665,W,1,07,2.06,157.2,M,-34.4,M,,*50
$GPRMC,134520.000,A,4308.3535,N,07726.3678,W,24.30,323.52,300919,,,A*4E
$GPGGA,134520.250,4308.3549,N,07726.3692,W,1,07,2.06,157.4,M,-34.4,M,,*5C
$GPRMC,134520.500,A,4308.3564,N,07726.3704,W,24.27,327.58,300919,,,A*4D
$GPGGA,134520.750,4308.3579,N,07726.3716,W,1,06,2.60,157.7,M,-34.4,M,,*55
$GPRMC,134521.000,A,4308.3594,N,07726.3727,W,24.69,331.89,300919,,,A*46
$GPGGA,134521.250,4308.3609,N,07726.3738,W,1,07,2.06,157.9,M,-34.4,M,,*56
$GPRMC,134521.500,A,4308.3625,N,07726.3747,W,24.07,335.76,300919,,,A*40
$GPGGA,134521.750,4308.3641,N,07726.3756,W,1,07,2.06,158.3,M,-34.4,M,,*52
$GPRMC,134522.000,A,4308.3657,N,07726.3764,W,24.17,340.18,300919,,,A*49
$GPGGA,134522.250,4308.3673,N,07726.3771,W,1,07,2.06,158.6,M,-34.4,M,,*55
$GPRMC,134522.500,A,4308.3690,N,07726.3777,W,24.22,344.77,300919,,,A*4E
$GPGGA,134522.750,4308.3706,N,07726.3783,W,1,07,2.06,158.8,M,-34.4,M,,*50
$GPRMC,134523.000,A,4308.3723,N,07726.3789,W,24.29,345.34,300919,,,A*4F
$GPGGA,134523.250,4308.3740,N,07726.3794,W,1,07,2.06,159.1,M,-34.4,M,,*58
$GPRMC,134523.500,A,4308.3757,N,07726.3799,W,24.49,346.98,300919,,,A*4B
$GPGGA,134523.750,4308.3774,N,07726.3803,W,1,07,2.05,159.3,M,-34.4,M,,*5A
$GPRMC,134524.000,A,4308.3791,N,07726.3806,W,24.32,350.30,300919,,,A*43
$GPGGA,134524.250,4308.3809,N,07726.3808,W,1,07,2.05,159.5,M,-34.4,M,,*50
$GPRMC,134524.500,A,4308.3827,N,07726.3809,W,24.73,355.55,300919,,,A*48
$GPGGA,134524.750,4308.3844,N,07726.3809,W,1,07,2.05,159.7,M,-34.4,M,,*5F
$GPRMC,134525.000,A,4308.3862,N,07726.3808,W,24.70,359.83,300919,,,A*48
$GPGGA,134525.250,4308.3881,N,07726.3807,W,1,07,2.06,159.6,M,-34.4,M,,*5E
$GPRMC,134525.500,A,4308.3900,N,07726.3805,W,25.42,4.11,300919,,,A*45
$GPGGA,134525.750,4308.3918,N,07726.3802,W,1,07,2.05,159.7,M,-34.4,M,,*5D
$GPRMC,134526.000,A,4308.3936,N,07726.3799,W,25.72,6.71,300919,,,A*4B
$GPGGA,134526.250,4308.3955,N,07726.3795,W,1,07,2.05,159.8,M,-34.4,M,,*5C
$GPRMC,134526.500,A,4308.3974,N,07726.3791,W,26.13,9.00,300919,,,A*4D
$GPGGA,134526.750,4308.3994,N,07726.3786,W,1,07,2.05,159.7,M,-34.4,M,,*59
$GPRMC,134527.000,A,4308.4013,N,07726.3781,W,27.59,10.78,300919,,,A*7F
$GPGGA,134527.250,4308.4033,N,07726.3775,W,1,07,2.05,159.7,M,-34.4,M,,*52
$GPRMC,134527.500,A,4308.4053,N,07726.3769,W,28.35,11.77,300919,,,A*73
$GPGGA,134527.750,4308.4072,N,07726.3763,W,1,07,2.05,159.7,M,-34.4,M,,*55
$GPRMC,134528.000,A,4308.4092,N,07726.3756,W,28.37,12.21,300919,,,A*7A
$GPGGA,134528.250,4308.4111,N,07726.3750,W,1,07,1.88,159.8,M,-34.4,M,,*52
$GPRMC,134528.500,A,4308.4129,N,07726.3745,W,28.45,11.72,300919,,,A*7C
$GPGGA,134528.750,4308.4147,N,07726.3739,W,1,07,2.05,159.9,M,-34.4,M,,*5C
$GPRMC,134529.000,A,4308.4164,N,07726.3734,W,26.62,11.54,300919,,,A*78
$GPGGA,134529.250,4308.4181,N,07726.3729,W,1,07,2.05,160.0,M,-34.4,M,,*50
$GPRMC,134529.500,A,4308.4198,N,07726.3725,W,25.72,11.09,300919,,,A*74
$GPGGA,134529.750,4308.4215,N,07726.3720,W,1,07,2.05,160.1,M,-34.4,M,,*53
$GPRMC,134530.000,A,4308.4231,N,07726.3716,W,25.03,10.61,300919,,,A*70
$GPGGA,134530.250,4308.4247,N,07726.3712,W,1,07,2.05,160.2,M,-34.4,M,,*5B
$GPRMC,134530.500,A,4308.4263,N,07726.3708,W,24.51,9.99,300919,,,A*44
$GPGGA,134530.750,4308.4278,N,07726.3705,W,1,07,2.05,160.2,M,-34.4,M,,*54
$GPRMC,134531.000,A,4308.4294,N,07726.3701,W,23.70,9.57,300919,,,A*47
$GPGGA,134531.250,4308.4309,N,07726.3697,W,1,07,2.05,160.3,M,-34.4,M,,*5C
$GPRMC,134531.500,A,4308.4325,N,07726.3694,W,23.16,9.06,300919,,,A*40
$GPGGA,134531.750,4308.4340,N,07726.3690,W,1,07,2.05,160.5,M,-34.4,M,,*55
$GPRMC,134532.000,A,4308.4355,N,07726.3686,W,22.63,9.93,300919,,,A*4D
$GPGGA,134532.250,4308.4370,N,07726.3682,W,1,07,2.05,160.7,M,-34.4,M,,*51
$GPRMC,134532.500,A,4308.4384,N,07726.3678,W,21.97,10.67,300919,,,A*7E
$GPGGA,134532.750,4308.4397,N,07726.3674,W,1,07,2.05,160.7,M,-34.4,M,,*54
$GPRMC,134533.000,A,4308.4411,N,07726.3670,W,21.47,11.00,300919,,,A*74
$GPGGA,134533.250,4308.4425,N,07726.3667,W,1,07,2.05,160.7,M,-34.4,M,,*5C
$GPRMC,134533.500,A,4308.4436,N,07726.3663,W,20.18,11.93,300919,,,A*77
$GPGGA,134533.750,4308.4446,N,07726.3660,W,1,07,2.05,160.9,M,-34.4,M,,*55
$GPRMC,134534.000,A,4308.4457,N,07726.3657,W,18.62,12.04,300919,,,A*7E
$GPGGA,134534.250,4308.4469,N,07726.3653,W,1,07,2.05,161.0,M,-34.4,M,,*52
$GPRMC,134534.500,A,4308.4476,N,07726.3651,W,16.54,12.94,300919,,,A*7C
$GPGGA,134534.750,4308.4482,N,07726.3649,W,1,07,2.05,161.2,M,-34.4,M,,*5B
$GPRMC,134535.000,A,4308.4488,N,07726.3647,W,13.91,12.76,300919,,,A*7E
$GPGGA,134535.250,4308.4493,N,07726.3646,W,1,06,2.10,161.1,M,-34.4,M,,*56
$GPRMC,134535.500,A,4308.4493,N,07726.3647,W,9.94,11.35,300919,,,A*4B
$GPGGA,134535.750,4308.4496,N,07726.3647,W,1,07,2.05,160.6,M,-34.4,M,,*54
$GPRMC,134536.000,A,4308.4499,N,07726.3647,W,7.66,10.72,300919,,,A*46
$GPGGA,134536.250,4308.4502,N,07726.3646,W,1,07,2.05,160.6,M,-34.4,M,,*5F
$GPRMC,134536.500,A,4308.4506,N,07726.3645,W,6.80,7.45,300919,,,A*7D
$GPGGA,134536.750,4308.4510,N,07726.3645,W,1,07,2.05,160.6,M,-34.4,M,,*5A
$GPRMC,134537.000,A,4308.4515,N,07726.3645,W,7.47,355.69,300919,,,A*7B
$GPGGA,134537.250,4308.4521,N,07726.3645,W,1,07,2.05,160.6,M,-34.4,M,,*5C
$GPRMC,134537.500,A,4308.4526,N,07726.3646,W,8.63,345.70,300919,,,A*7D
$GPGGA,134537.750,4308.4533,N,07726.3649,W,1,07,2.05,160.7,M,-34.4,M,,*57
$GPRMC,134538.000,A,4308.4540,N,07726.3653,W,10.04,329.83,300919,,,A*4D
$GPGGA,134538.250,4308.4546,N,07726.3658,W,1,07,2.05,160.5,M,-34.4,M,,*5D
$GPRMC,134538.500,A,4308.4552,N,07726.3666,W,11.99,310.63,300919,,,A*4C
$GPGGA,134538.750,4308.4557,N,07726.3676,W,1,07,2.05,160.4,M,-34.4,M,,*55
$GPRMC,134539.000,A,4308.4562,N,07726.3687,W,13.74,300.36,300919,,,A*44
$GPGGA,134539.250,4308.4567,N,07726.3699,W,1,07,1.87,160.3,M,-34.4,M,,*5D
$GPRMC,134539.500,A,4308.4573,N,07726.3713,W,16.13,295.75,300919,,,A*43
$GPGGA,134539.750,4308.4578,N,07726.3728,W,1,07,1.87,160.2,M,-34.4,M,,*5C
$GPRMC,134540.000,A,4308.4583,N,07726.3744,W,17.79,293.17,300919,,,A*4A
$GPGGA,134540.250,4308.4586,N,07726.3762,W,1,07,1.87,160.2,M,-34.4,M,,*58
$GPRMC,134540.500,A,4308.4590,N,07726.3780,W,20.03,288.00,300919,,,A*40
$GPGGA,134540.750,4308.4593,N,07726.3801,W,1,07,2.05,160.3,M,-34.4,M,,*5B
$GPRMC,134541.000,A,4308.4596,N,07726.3822,W,22.23,284.47,300919,,,A*4A
$GPGGA,134541.250,4308.4598,N,07726.3844,W,1,07,2.05,160.3,M,-34.4,M,,*55
$GPRMC,134541.500,A,4308.4601,N,07726.3868,W,24.50,281.38,300919,,,A*43
$GPGGA,134541.750,4308.4603,N,07726.3893,W,1,07,2.05,160.4,M,-34.4,M,,*5C
$GPRMC,134542.000,A,4308.4605,N,07726.3918,W,26.46,279.15,300919,,,A*4A
$GPGGA,134542.250,4308.4607,N,07726.3944,W,1,07,2.05,160.5,M,-34.4,M,,*54
$GPRMC,134542.500,A,4308.4609,N,07726.3970,W,27.31,277.60,300919,,,A*40
$GPGGA,134542.750,4308.4611,N,07726.3997,W,1,06,2.59,160.5,M,-34.4,M,,*50
$GPRMC,134543.000,A,4308.4613,N,07726.4023,W,27.47,276.98,300919,,,A*40
$GPGGA,134543.250,4308.4615,N,07726.4049,W,1,06,2.50,160.5,M,-34.4,M,,*54
$GPRMC,134543.500,A,4308.4617,N,07726.4075,W,26.04,276.06,300919,,,A*43
$GPGGA,134543.750,4308.4619,N,07726.4099,W,1,06,2.50,160.5,M,-34.4,M,,*50
$GPRMC,134544.000,A,4308.4622,N,07726.4124,W,25.74,276.58,300919,,,A*4D
$GPGGA,134544.250,4308.4624,N,07726.4148,W,1,07,2.05,160.6,M,-34.4,M,,*53
$GPRMC,134544.500,A,4308.4627,N,07726.4173,W,25.51,276.90,300919,,,A*4C
$GPGGA,134544.750,4308.4629,N,07726.4197,W,1,07,2.05,160.6,M,-34.4,M,,*59
$GPRMC,134545.000,A,4308.4632,N,07726.4221,W,25.24,277.32,300919,,,A*43
$GPGGA,134545.250,4308.4634,N,07726.4245,W,1,07,2.05,160.6,M,-34.4,M,,*5D
$GPRMC,134545.500,A,4308.4636,N,07726.4270,W,25.16,277.38,300919,,,A*4D
$GPGGA,134545.750,4308.4638,N,07726.4294,W,1,07,2.05,160.7,M,-34.4,M,,*59
$GPRMC,134546.000,A,4308.4641,N,07726.4318,W,25.03,277.36,300919,,,A*4E
$GPGGA,134546.250,4308.4643,N,07726.4342,W,1,07,1.87,160.7,M,-34.4,M,,*50
$GPRMC,134546.500,A,4308.4646,N,07726.4366,W,24.81,277.87,300919,,,A*44
$GPGGA,134546.750,4308.4649,N,07726.4389,W,1,07,2.05,160.6,M,-34.4,M,,*50
$GPRMC,134547.000,A,4308.4652,N,07726.4413,W,24.53,279.07,300919,,,A*49
$GPGGA,134547.250,4308.4655,N,07726.4436,W,1,06,2.50,160.6,M,-34.4,M,,*5B
$GPRMC,134547.500,A,4308.4659,N,07726.4458,W,24.23,280.46,300919,,,A*4C
$GPGGA,134547.750,4308.4664,N,07726.4481,W,1,06,2.50,160.6,M,-34.4,M,,*50
$GPRMC,134548.000,A,4308.4667,N,07726.4503,W,24.09,281.87,300919,,,A*40
$GPGGA,134548.250,4308.4671,N,07726.4526,W,1,07,2.05,160.6,M,-34.4,M,,*53
$GPRMC,134548.500,A,4308.4674,N,07726.4549,W,24.64,281.80,300919,,,A*45
$GPGGA,134548.750,4308.4678,N,07726.4573,W,1,06,2.58,160.7,M,-34.4,M,,*57
$GPRMC,134549.000,A,4308.4681,N,07726.4597,W,25.43,281.54,300919,,,A*45
$GPGGA,134549.250,4308.4684,N,07726.4622,W,1,07,1.87,160.7,M,-34.4,M,,*57
$GPRMC,134549.500,A,4308.4686,N,07726.4647,W,26.45,279.50,300919,,,A*4F
$GPGGA,134549.750,4308.4688,N,07726.4673,W,1,07,2.05,160.7,M,-34.4,M,,*53
$GPRMC,134550.000,A,4308.4690,N,07726.4700,W,27.92,278.07,300919,,,A*4F
$GPGGA,134550.250,4308.4692,N,07726.4727,W,1,07,1.87,160.8,M,-34.4,M,,*53
$GPRMC,134550.500,A,4308.4694,N,07726.4755,W,29.21,276.94,300919,,,A*4C
$GPGGA,134550.750,4308.4695,N,07726.4783,W,1,07,1.87,160.9,M,-34.4,M,,*5E
$GPRMC,134551.000,A,4308.4696,N,07726.4812,W,30.09,275.83,300919,,,A*41
$GPGGA,134551.250,4308.4699,N,07726.4841,W,1,07,2.05,161.0,M,-34.4,M,,*56
$GPRMC,134551.500,A,4308.4701,N,07726.4871,W,31.04,276.16,300919,,,A*4D
$GPGGA,134551.750,4308.4703,N,07726.4900,W,1,07,2.04,161.1,M,-34.4,M,,*55
$GPRMC,134552.000,A,4308.4705,N,07726.4931,W,31.83,275.98,300919,,,A*40
$GPGGA,134552.250,4308.4707,N,07726.4961,W,1,07,2.05,161.3,M,-34.4,M,,*53
$GPRMC,134552.500,A,4308.4709,N,07726.4992,W,32.55,276.25,300919,,,A*4D
$GPGGA,134552.750,4308.4711,N,07726.5023,W,1,07,2.04,161.6,M,-34.4,M,,*5B
$GPRMC,134553.000,A,4308.4713,N,07726.5054,W,33.23,275.58,300919,,,A*49
$GPGGA,134553.250,4308.4715,N,07726.5086,W,1,07,2.04,161.6,M,-34.4,M,,*54
$GPRMC,134553.500,A,4308.4717,N,07726.5119,W,33.55,274.85,300919,,,A*40
$GPGGA,134553.750,4308.4719,N,07726.5151,W,1,07,2.04,161.8,M,-34.4,M,,*58
$GPRMC,134554.000,A,4308.4721,N,07726.5184,W,34.20,274.26,300919,,,A*4F
$GPGGA,134554.250,4308.4722,N,07726.5218,W,1,07,2.04,161.9,M,-34.4,M,,*5D
$GPRMC,134554.500,A,4308.4724,N,07726.5251,W,34.62,274.32,300919,,,A*47
$GPGGA,134554.750,4308.4725,N,07726.5285,W,1,07,2.04,162.0,M,-34.4,M,,*51
$GPRMC,134555.000,A,4308.4726,N,07726.5320,W,34.99,273.68,300919,,,A*4A
$GPGGA,134555.250,4308.4727,N,07726.5355,W,1,07,2.04,162.1,M,-34.4,M,,*5A
$GPRMC,134555.500,A,4308.4729,N,07726.5390,W,35.32,273.40,300919,,,A*41
$GPGGA,134555.750,4308.4729,N,07726.5425,W,1,07,2.04,162.1,M,-34.4,M,,*51
$GPRMC,134556.000,A,4308.4730,N,07726.5461,W,35.69,273.79,300919,,,A*42
$GPGGA,134556.250,4308.4731,N,07726.5497,W,1,07,2.04,162.2,M,-34.4,M,,*54
$GPRMC,134556.500,A,4308.4732,N,07726.5534,W,38.02,272.94,300919,,,A*46
$GPGGA,134556.750,4308.4733,N,07726.5571,W,1,07,2.04,162.3,M,-34.4,M,,*5B
$GPRMC,134557.000,A,4308.4734,N,07726.5608,W,38.74,273.52,300919,,,A*42
$GPGGA,134557.250,4308.4735,N,07726.5646,W,1,07,2.04,162.2,M,-34.4,M,,*5F
$GPRMC,134557.500,A,4308.4736,N,07726.5683,W,39.26,273.11,300919,,,A*47
$GPGGA,134557.750,4308.4736,N,07726.5721,W,1,07,2.04,162.4,M,-34.4,M,,*5F
$GPRMC,134558.000,A,4308.4737,N,07726.5759,W,39.52,272.89,300919,,,A*49
$GPGGA,134558.250,4308.4738,N,07726.5798,W,1,07,2.04,162.5,M,-34.4,M,,*58
$GPRMC,134558.500,A,4308.4739,N,07726.5837,W,39.80,273.37,300919,,,A*4E
$GPGGA,134558.750,4308.4740,N,07726.5876,W,1,07,2.04,162.7,M,-34.4,M,,*5F
$GPRMC,134559.000,A,4308.4741,N,07726.5915,W,40.05,273.15,300919,,,A*47
$GPGGA,134559.250,4308.4741,N,07726.5955,W,1,07,2.04,162.9,M,-34.4,M,,*54
$GPRMC,134559.500,A,4308.4742,N,07726.5995,W,41.50,272.61,300919,,,A*4A
$GPGGA,134559.750,4308.4743,N,07726.6035,W,1,07,2.04,163.0,M,-34.4,M,,*57
$GPRMC,134600.000,A,4308.4743,N,07726.6075,W,41.79,272.39,300919,,,A*43
$GPGGA,134600.250,4308.4743,N,07726.6115,W,1,07,2.04,163.2,M,-34.4,M,,*5C
$GPRMC,134600.500,A,4308.4744,N,07726.6156,W,42.29,271.52,300919,,,A*49
$GPGGA,134600.750,4308.4744,N,07726.6197,W,1,07,2.04,163.3,M,-34.4,M,,*55
$GPRMC,134601.000,A,4308.4744,N,07726.6238,W,42.75,270.96,300919,,,A*46
$GPGGA,134601.250,4308.4744,N,07726.6279,W,1,07,2.04,163.5,M,-34.4,M,,*54
$GPRMC,134601.500,A,4308.4744,N,07726.6320,W,43.18,270.89,300919,,,A*4F
$GPGGA,134601.750,4308.4745,N,07726.6361,W,1,07,2.04,163.7,M,-34.4,M,,*5A
$GPRMC,134602.000,A,4308.4745,N,07726.6403,W,43.34,270.79,300919,,,A*4F
$GPGGA,134602.250,4308.4745,N,07726.6444,W,1,07,2.04,163.9,M,-34.4,M,,*52
$GPRMC,134602.500,A,4308.4744,N,07726.6486,W,43.66,270.24,300919,,,A*49
$GPGGA,134602.750,4308.4744,N,07726.6528,W,1,07,2.04,164.1,M,-34.4,M,,*52
$GPRMC,134603.000,A,4308.4743,N,07726.6570,W,43.98,269.91,300919,,,A*45
$GPGGA,134603.250,4308.4743,N,07726.6612,W,1,07,2.04,164.4,M,-34.4,M,,*5E
$GPRMC,134603.500,A,4308.4741,N,07726.6654,W,44.07,268.74,300919,,,A*4C
$GPGGA,134603.750,4308.4739,N,07726.6697,W,1,07,2.04,164.6,M,-34.4,M,,*59
$GPRMC,134604.000,A,4308.4738,N,07726.6739,W,44.23,268.45,300919,,,A*4E
$GPGGA,134604.250,4308.4736,N,07726.6782,W,1,07,2.04,164.9,M,-34.4,M,,*5E
$GPRMC,134604.500,A,4308.4734,N,07726.6824,W,44.49,267.52,300919,,,A*41
$GPGGA,134604.750,4308.4731,N,07726.6867,W,1,07,2.04,165.3,M,-34.4,M,,*53
$GPRMC,134605.000,A,4308.4729,N,07726.6910,W,44.91,267.06,300919,,,A*4B
$GPGGA,134605.250,4308.4726,N,07726.6952,W,1,07,2.04,165.7,M,-34.4,M,,*52
$GPRMC,134605.500,A,4308.4724,N,07726.6995,W,44.88,266.05,300919,,,A*44
$GPGGA,134605.750,4308.4722,N,07726.7036,W,1,07,2.04,166.0,M,-34.4,M,,*5D
$GPRMC,134606.000,A,4308.4720,N,07726.7078,W,44.84,266.28,300919,,,A*4E
$GPGGA,134606.250,4308.4719,N,07726.7119,W,1,07,2.04,166.4,M,-34.4,M,,*5B
$GPRMC,134606.500,A,4308.4718,N,07726.7160,W,44.62,266.74,300919,,,A*49
$GPGGA,134606.750,4308.4716,N,07726.7201,W,1,07,2.04,166.7,M,-34.4,M,,*58
$GPRMC,134607.000,A,4308.4715,N,07726.7241,W,43.05,266.94,300919,,,A*48
$GPGGA,134607.250,4308.4713,N,07726.7282,W,1,07,2.04,167.1,M,-34.4,M,,*55
$GPRMC,134607.500,A,4308.4712,N,07726.7321,W,42.18,266.69,300919,,,A*42
$GPGGA,134607.750,4308.4710,N,07726.7361,W,1,07,2.04,167.5,M,-34.4,M,,*5B
$GPRMC,134608.000,A,4308.4707,N,07726.7401,W,41.65,266.22,300919,,,A*4F
$GPGGA,134608.250,4308.4705,N,07726.7440,W,1,07,1.87,167.9,M,-34.4,M,,*55
$GPRMC,134608.500,A,4308.4702,N,07726.7479,W,40.79,265.82,300919,,,A*45
$GPGGA,134608.750,4308.4700,N,07726.7517,W,1,07,2.04,168.3,M,-34.4,M,,*5B
$GPRMC,134609.000,A,4308.4698,N,07726.7555,W,40.16,265.78,300919,,,A*40
$GPGGA,134609.250,4308.4697,N,07726.7592,W,1,07,2.04,168.8,M,-34.4,M,,*56
$GPRMC,134609.500,A,4308.4695,N,07726.7629,W,39.86,265.92,300919,,,A*43
$GPGGA,134609.750,4308.4694,N,07726.7666,W,1,07,2.04,169.2,M,-34.4,M,,*53
$GPRMC,134610.000,A,4308.4692,N,07726.7702,W,39.56,266.13,300919,,,A*46
$GPGGA,134610.250,4308.4691,N,07726.7739,W,1,07,2.04,169.6,M,-34.4,M,,*54
$GPRMC,134610.500,A,4308.4688,N,07726.7775,W,39.27,266.03,300919,,,A*4F
$GPGGA,134610.750,4308.4686,N,07726.7811,W,1,07,2.04,170.0,M,-34.4,M,,*5C
$GPRMC,134611.000,A,4308.4684,N,07726.7846,W,38.97,265.79,300919,,,A*4C
$GPGGA,134611.250,4308.4682,N,07726.7882,W,1,07,2.04,170.3,M,-34.4,M,,*55
$GPRMC,134611.500,A,4308.4679,N,07726.7917,W,38.64,265.24,300919,,,A*4A
$GPGGA,134611.750,4308.4678,N,07726.7952,W,1,07,2.04,170.4,M,-34.4,M,,*5E
$GPRMC,134612.000,A,4308.4676,N,07726.7986,W,36.73,266.34,300919,,,A*41
$GPGGA,134612.250,4308.4674,N,07726.8021,W,1,07,2.04,170.6,M,-34.4,M,,*54
$GPRMC,134612.500,A,4308.4672,N,07726.8056,W,36.39,266.81,300919,,,A*4B
$GPGGA,134612.750,4308.4670,N,07726.8091,W,1,07,2.04,170.6,M,-34.4,M,,*5E
$GPRMC,134613.000,A,4308.4669,N,07726.8125,W,36.43,266.62,300919,,,A*40
$GPGGA,134613.250,4308.4668,N,07726.8159,W,1,07,2.04,170.7,M,-34.4,M,,*57
$GPRMC,134613.500,A,4308.4666,N,07726.8194,W,36.71,267.11,300919,,,A*44
$GPGGA,134613.750,4308.4664,N,07726.8229,W,1,07,2.04,170.6,M,-34.4,M,,*5B
$GPRMC,134614.000,A,4308.4663,N,07726.8264,W,36.93,267.21,300919,,,A*40
$GPGGA,134614.250,4308.4662,N,07726.8299,W,1,07,2.04,170.6,M,-34.4,M,,*54
$GPRMC,134614.500,A,4308.4661,N,07726.8335,W,37.12,267.63,300919,,,A*4C
$GPGGA,134614.750,4308.4659,N,07726.8370,W,1,07,2.04,170.5,M,-34.4,M,,*5C
$GPRMC,134615.000,A,4308.4658,N,07726.8405,W,37.22,267.52,300919,,,A*47
$GPGGA,134615.250,4308.4655,N,07726.8441,W,1,07,2.04,170.5,M,-34.4,M,,*51
$GPRMC,134615.500,A,4308.4653,N,07726.8478,W,37.54,267.34,300919,,,A*42
$GPGGA,134615.750,4308.4650,N,07726.8514,W,1,07,2.04,170.4,M,-34.4,M,,*51
$GPRMC,134616.000,A,4308.4648,N,07726.8550,W,37.76,266.87,300919,,,A*4C
$GPGGA,134616.250,4308.4646,N,07726.8586,W,1,07,2.04,170.4,M,-34.4,M,,*5B
$GPRMC,134616.500,A,4308.4643,N,07726.8622,W,37.81,266.62,300919,,,A*47
$GPGGA,134616.750,4308.4640,N,07726.8659,W,1,07,2.04,170.2,M,-34.4,M,,*5F
$GPRMC,134617.000,A,4308.4637,N,07726.8696,W,38.08,266.37,300919,,,A*41
$GPGGA,134617.250,4308.4634,N,07726.8732,W,1,07,2.04,170.1,M,-34.4,M,,*57
$GPRMC,134617.500,A,4308.4632,N,07726.8769,W,38.31,266.41,300919,,,A*4B
$GPGGA,134617.750,4308.4628,N,07726.8806,W,1,07,2.04,170.0,M,-34.4,M,,*56
$GPRMC,134618.000,A,4308.4626,N,07726.8843,W,38.57,265.79,300919,,,A*4B
$GPGGA,134618.250,4308.4623,N,07726.8879,W,1,07,2.03,170.1,M,-34.4,M,,*59
$GPRMC,134618.500,A,4308.4620,N,07726.8916,W,38.95,265.32,300919,,,A*48
$GPGGA,134618.750,4308.4617,N,07726.8953,W,1,07,2.04,170.1,M,-34.4,M,,*55
$GPRMC,134619.000,A,4308.4615,N,07726.8990,W,38.97,265.84,300919,,,A*4B
$GPGGA,134619.250,4308.4613,N,07726.9027,W,1,07,2.04,170.3,M,-34.4,M,,*5C
$GPRMC,134619.500,A,4308.4611,N,07726.9065,W,39.13,266.34,300919,,,A*4D
$GPGGA,134619.750,4308.4608,N,07726.9102,W,1,07,2.03,170.2,M,-34.4,M,,*53
$GPRMC,134620.000,A,4308.4606,N,07726.9140,W,39.18,266.14,300919,,,A*4B
$GPGGA,134620.250,4308.4604,N,07726.9177,W,1,07,2.03,170.2,M,-34.4,M,,*52
$GPRMC,134620.500,A,4308.4602,N,07726.9215,W,39.29,266.51,300919,,,A*4A
$GPGGA,134620.750,4308.4599,N,07726.9253,W,1,07,2.03,170.0,M,-34.4,M,,*57
$GPRMC,134621.000,A,4308.4598,N,07726.9290,W,39.42,266.97,300919,,,A*44
$GPGGA,134621.250,4308.4596,N,07726.9328,W,1,07,2.03,169.9,M,-34.4,M,,*50
$GPRMC,134621.500,A,4308.4594,N,07726.9366,W,39.81,267.20,300919,,,A*47
$GPGGA,134621.750,4308.4591,N,07726.9405,W,1,07,2.03,169.6,M,-34.4,M,,*55
$GPRMC,134622.000,A,4308.4590,N,07726.9443,W,40.03,267.18,300919,,,A*4A
$GPGGA,134622.250,4308.4589,N,07726.9481,W,1,07,2.03,169.5,M,-34.4,M,,*55
$GPRMC,134622.500,A,4308.4588,N,07726.9519,W,40.13,267.36,300919,,,A*45
$GPGGA,134622.750,4308.4586,N,07726.9558,W,1,07,2.03,169.4,M,-34.4,M,,*5B
$GPRMC,134623.000,A,4308.4584,N,07726.9596,W,40.27,267.24,300919,,,A*4E
$GPGGA,134623.250,4308.4583,N,07726.9635,W,1,07,2.03,169.3,M,-34.4,M,,*55
$GPRMC,134623.500,A,4308.4581,N,07726.9673,W,40.52,267.13,300919,,,A*40
$GPGGA,134623.750,4308.4579,N,07726.9712,W,1,07,2.03,169.1,M,-34.4,M,,*53
$GPRMC,134624.000,A,4308.4578,N,07726.9751,W,40.78,266.87,300919,,,A*41
$GPGGA,134624.250,4308.4576,N,07726.9790,W,1,07,2.03,168.9,M,-34.4,M,,*5D
$GPRMC,134624.500,A,4308.4573,N,07726.9830,W,41.37,266.65,300919,,,A*41
$GPGGA,134624.750,4308.4570,N,07726.9870,W,1,07,2.03,168.6,M,-34.4,M,,*50
$GPRMC,134625.000,A,4308.4569,N,07726.9909,W,41.46,266.72,300919,,,A*45
$GPGGA,134625.250,4308.4566,N,07726.9949,W,1,07,2.03,168.5,M,-34.4,M,,*5B
$GPRMC,134625.500,A,4308.4564,N,07726.9988,W,41.53,266.85,300919,,,A*48
$GPGGA,134625.750,4308.4561,N,07727.0028,W,1,07,2.03,168.3,M,-34.4,M,,*59
$GPRMC,134626.000,A,4308.4559,N,07727.0068,W,41.59,266.98,300919,,,A*49
$GPGGA,134626.250,4308.4556,N,07727.0108,W,1,07,2.03,168.1,M,-34.4,M,,*5A
$GPRMC,134626.500,A,4308.4553,N,07727.0148,W,41.68,266.76,300919,,,A*47
$GPGGA,134626.750,4308.4550,N,07727.0189,W,1,07,2.03,167.9,M,-34.4,M,,*57
$GPRMC,134627.000,A,4308.4548,N,07727.0229,W,41.79,266.51,300919,,,A*48
$GPGGA,134627.250,4308.4545,N,07727.0269,W,1,07,2.03,167.8,M,-34.4,M,,*5B
$GPRMC,134627.500,A,4308.4542,N,07727.0310,W,42.30,266.43,300919,,,A*41
$GPGGA,134627.750,4308.4538,N,07727.0351,W,1,07,2.03,167.7,M,-34.4,M,,*51
$GPRMC,134628.000,A,4308.4535,N,07727.0391,W,42.36,266.06,300919,,,A*45
$GPGGA,134628.250,4308.4532,N,07727.0432,W,1,07,2.03,167.5,M,-34.4,M,,*51
$GPRMC,134628.500,A,4308.4530,N,07727.0473,W,42.44,266.87,300919,,,A*42
$GPGGA,134628.750,4308.4529,N,07727.0513,W,1,07,2.03,167.4,M,-34.4,M,,*5D
$GPRMC,134629.000,A,4308.4528,N,07727.0553,W,42.61,267.85,300919,,,A*48
$GPGGA,134629.250,4308.4528,N,07727.0594,W,1,07,2.03,167.3,M,-34.4,M,,*50
$GPRMC,134629.500,A,4308.4528,N,07727.0635,W,43.06,269.12,300919,,,A*4E
$GPGGA,134629.750,4308.4528,N,07727.0676,W,1,07,2.03,167.1,M,-34.4,M,,*58
$GPRMC,134630.000,A,4308.4529,N,07727.0718,W,43.28,270.41,300919,,,A*4E
$GPGGA,134630.250,4308.4530,N,07727.0759,W,1,07,2.03,167.1,M,-34.4,M,,*50
$GPRMC,134630.500,A,4308.4531,N,07727.0800,W,43.58,271.33,300919,,,A*47
$GPGGA,134630.750,4308.4531,N,07727.0842,W,1,07,2.03,167.0,M,-34.4,M,,*50
$GPRMC,134631.000,A,4308.4532,N,07727.0883,W,43.60,272.05,300919,,,A*46
$GPGGA,134631.250,4308.4534,N,07727.0924,W,1,07,2.03,167.0,M,-34.4,M,,*50
$GPRMC,134631.500,A,4308.4536,N,07727.0966,W,43.69,273.02,300919,,,A*42
$GPGGA,134631.750,4308.4538,N,07727.1007,W,1,07,2.03,167.1,M,-34.4,M,,*51
$GPRMC,134632.000,A,4308.4541,N,07727.1049,W,43.78,274.09,300919,,,A*4D
$GPGGA,134632.250,4308.4545,N,07727.1090,W,1,07,2.03,167.2,M,-34.4,M,,*50
$GPRMC,134632.500,A,4308.4547,N,07727.1132,W,44.00,274.88,300919,,,A*42
$GPGGA,134632.750,4308.4552,N,07727.1173,W,1,07,2.03,167.4,M,-34.4,M,,*59
$GPRMC,134633.000,A,4308.4556,N,07727.1214,W,43.42,276.67,300919,,,A*43
$GPGGA,134633.250,4308.4561,N,07727.1255,W,1,07,2.03,167.4,M,-34.4,M,,*5A
$GPRMC,134633.500,A,4308.4566,N,07727.1295,W,43.39,278.17,300919,,,A*49
$GPGGA,134633.750,4308.4572,N,07727.1336,W,1,07,2.03,167.6,M,-34.4,M,,*5B
$GPRMC,134634.000,A,4308.4577,N,07727.1378,W,43.59,278.58,300919,,,A*44
$GPGGA,134634.250,4308.4580,N,07727.1419,W,1,07,2.03,167.3,M,-34.4,M,,*5B
$GPRMC,134634.500,A,4308.4585,N,07727.1460,W,43.65,278.25,300919,,,A*47
$GPGGA,134634.750,4308.4589,N,07727.1502,W,1,07,2.03,166.9,M,-34.4,M,,*57
$GPRMC,134635.000,A,4308.4594,N,07727.1543,W,43.39,278.41,300919,,,A*48
$GPGGA,134635.250,4308.4598,N,07727.1584,W,1,07,2.03,166.8,M,-34.4,M,,*5C
$GPRMC,134635.500,A,4308.4602,N,07727.1625,W,43.37,278.70,300919,,,A*4E
$GPGGA,134635.750,4308.4605,N,07727.1667,W,1,07,2.03,166.4,M,-34.4,M,,*5C
$GPRMC,134636.000,A,4308.4610,N,07727.1708,W,43.33,278.73,300919,,,A*42
$GPGGA,134636.250,4308.4615,N,07727.1748,W,1,07,2.03,166.2,M,-34.4,M,,*51
$GPRMC,134636.500,A,4308.4619,N,07727.1789,W,43.30,279.02,300919,,,A*43
$GPGGA,134636.750,4308.4625,N,07727.1830,W,1,07,2.03,165.9,M,-34.4,M,,*5F
$GPRMC,134637.000,A,4308.4630,N,07727.1870,W,43.20,279.92,300919,,,A*4D
$GPGGA,134637.250,4308.4635,N,07727.1911,W,1,07,2.03,165.8,M,-34.4,M,,*59
$GPRMC,134637.500,A,4308.4640,N,07727.1952,W,43.17,280.11,300919,,,A*47
$GPGGA,134637.750,4308.4645,N,07727.1992,W,1,07,2.03,165.6,M,-34.4,M,,*5E
$GPRMC,134638.000,A,4308.4651,N,07727.2033,W,43.21,280.45,300919,,,A*44
$GPGGA,134638.250,4308.4656,N,07727.2074,W,1,07,2.03,165.4,M,-34.4,M,,*56
$GPRMC,134638.500,A,4308.4661,N,07727.2115,W,43.48,279.51,300919,,,A*4B
$GPGGA,134638.750,4308.4667,N,07727.2156,W,1,07,2.03,165.4,M,-34.4,M,,*50
$GPRMC,134639.000,A,4308.4672,N,07727.2196,W,43.55,279.38,300919,,,A*45
$GPGGA,134639.250,4308.4677,N,07727.2237,W,1,07,2.03,165.3,M,-34.4,M,,*56
$GPRMC,134639.500,A,4308.4683,N,07727.2278,W,43.56,279.22,300919,,,A*45
$GPGGA,134639.750,4308.4688,N,07727.2319,W,1,07,2.03,165.2,M,-34.4,M,,*5F
$GPRMC,134640.000,A,4308.4693,N,07727.2360,W,43.63,278.47,300919,,,A*43
$GPGGA,134640.250,4308.4698,N,07727.2401,W,1,07,2.03,165.2,M,-34.4,M,,*5B
$GPRMC,134640.500,A,4308.4704,N,07727.2442,W,43.64,278.67,300919,,,A*4B
$GPGGA,134640.750,4308.4709,N,07727.2483,W,1,07,2.03,165.2,M,-34.4,M,,*5D
$GPRMC,134641.000,A,4308.4715,N,07727.2524,W,43.63,279.63,300919,,,A*4C
$GPGGA,134641.250,4308.4721,N,07727.2564,W,1,07,2.03,165.2,M,-34.4,M,,*5B
$GPRMC,134641.500,A,4308.4726,N,07727.2605,W,43.67,279.65,300919,,,A*4B
$GPGGA,134641.750,4308.4731,N,07727.2645,W,1,07,2.03,165.2,M,-34.4,M,,*5F
$GPRMC,134642.000,A,4308.4737,N,07727.2686,W,43.39,279.23,300919,,,A*4F
$GPGGA,134642.250,4308.4742,N,07727.2727,W,1,07,2.03,165.0,M,-34.4,M,,*5A
$GPRMC,134642.500,A,4308.4747,N,07727.2767,W,43.03,279.10,300919,,,A*4A
$GPGGA,134642.750,4308.4751,N,07727.2808,W,1,07,2.03,164.9,M,-34.4,M,,*57
$GPRMC,134643.000,A,4308.4756,N,07727.2848,W,42.79,279.18,300919,,,A*48
$GPGGA,134643.250,4308.4761,N,07727.2888,W,1,07,2.03,164.9,M,-34.4,M,,*58
$GPRMC,134643.500,A,4308.4766,N,07727.2928,W,42.71,279.36,300919,,,A*4D
$GPGGA,134643.750,4308.4772,N,07727.2967,W,1,07,2.03,164.8,M,-34.4,M,,*5E
$GPRMC,134644.000,A,4308.4777,N,07727.3007,W,42.69,279.47,300919,,,A*45
$GPGGA,134644.250,4308.4782,N,07727.3047,W,1,07,2.03,164.7,M,-34.4,M,,*56
$GPRMC,134644.500,A,4308.4787,N,07727.3087,W,42.63,279.33,300919,,,A*4E
$GPGGA,134644.750,4308.4793,N,07727.3127,W,1,07,2.03,164.6,M,-34.4,M,,*55
$GPRMC,134645.000,A,4308.4798,N,07727.3167,W,42.65,279.43,300919,,,A*4A
$GPGGA,134645.250,4308.4803,N,07727.3206,W,1,07,2.02,164.5,M,-34.4,M,,*55
$GPRMC,134645.500,A,4308.4809,N,07727.3246,W,42.61,279.66,300919,,,A*4B
$GPGGA,134645.750,4308.4814,N,07727.3286,W,1,07,2.02,164.3,M,-34.4,M,,*58
$GPRMC,134646.000,A,4308.4818,N,07727.3327,W,42.64,279.30,300919,,,A*4D
$GPGGA,134646.250,4308.4823,N,07727.3367,W,1,07,2.02,163.9,M,-34.4,M,,*59
$GPRMC,134646.500,A,4308.4828,N,07727.3407,W,42.72,279.90,300919,,,A*43
$GPGGA,134646.750,4308.4833,N,07727.3448,W,1,07,2.02,163.7,M,-34.4,M,,*59
$GPRMC,134647.000,A,4308.4839,N,07727.3488,W,42.90,279.50,300919,,,A*40
$GPGGA,134647.250,4308.4844,N,07727.3528,W,1,07,2.02,163.2,M,-34.4,M,,*5F
$GPRMC,134647.500,A,4308.4849,N,07727.3569,W,43.01,279.35,300919,,,A*46
$GPGGA,134647.750,4308.4854,N,07727.3609,W,1,07,2.02,162.9,M,-34.4,M,,*51
$GPRMC,134648.000,A,4308.4860,N,07727.3650,W,43.06,279.57,300919,,,A*4D
$GPGGA,134648.250,4308.4865,N,07727.3690,W,1,07,2.02,162.7,M,-34.4,M,,*57
$GPRMC,134648.500,A,4308.4870,N,07727.3731,W,43.12,279.76,300919,,,A*49
$GPGGA,134648.750,4308.4875,N,07727.3771,W,1,07,2.02,162.6,M,-34.4,M,,*5C
$GPRMC,134649.000,A,4308.4880,N,07727.3811,W,43.19,279.63,300919,,,A*40
$GPGGA,134649.250,4308.4885,N,07727.3852,W,1,07,2.02,162.4,M,-34.4,M,,*5B
$GPRMC,134649.500,A,4308.4890,N,07727.3893,W,43.28,279.22,300919,,,A*49
$GPGGA,134649.750,4308.4894,N,07727.3934,W,1,07,2.02,162.2,M,-34.4,M,,*59
$GPRMC,134650.000,A,4308.4899,N,07727.3974,W,43.48,278.70,300919,,,A*45
$GPGGA,134650.250,4308.4905,N,07727.4014,W,1,08,1.04,162.3,M,-34.4,M,,*5A
$GPRMC,134650.500,A,4308.4911,N,07727.4055,W,43.50,278.59,300919,,,A*4E
$GPGGA,134650.750,4308.4916,N,07727.4096,W,1,08,1.04,162.3,M,-34.4,M,,*57
$GPRMC,134651.000,A,4308.4923,N,07727.4136,W,43.48,279.18,300919,,,A*42
$GPGGA,134651.250,4308.4929,N,07727.4176,W,1,08,1.04,162.4,M,-34.4,M,,*57
$GPRMC,134651.500,A,4308.4936,N,07727.4216,W,43.48,279.35,300919,,,A*4D
$GPGGA,134651.750,4308.4942,N,07727.4257,W,1,08,1.04,162.4,M,-34.4,M,,*5F
$GPRMC,134652.000,A,4308.4947,N,07727.4297,W,43.42,278.96,300919,,,A*46
$GPGGA,134652.250,4308.4953,N,07727.4337,W,1,08,1.04,162.6,M,-34.4,M,,*5C
$GPRMC,134652.500,A,4308.4959,N,07727.4378,W,43.46,279.15,300919,,,A*42
$GPGGA,134652.750,4308.4964,N,07727.4419,W,1,08,1.04,162.4,M,-34.4,M,,*54
$GPRMC,134653.000,A,4308.4969,N,07727.4459,W,43.68,279.22,300919,,,A*49
$GPGGA,134653.250,4308.4974,N,07727.4500,W,1,08,1.04,162.4,M,-34.4,M,,*58
$GPRMC,134653.500,A,4308.4979,N,07727.4542,W,43.92,279.02,300919,,,A*41
$GPGGA,134653.750,4308.4985,N,07727.4582,W,1,08,1.04,162.5,M,-34.4,M,,*58
$GPRMC,134654.000,A,4308.4991,N,07727.4623,W,44.00,279.58,300919,,,A*42
$GPGGA,134654.250,4308.4996,N,07727.4664,W,1,08,1.04,162.6,M,-34.4,M,,*50
$GPRMC,134654.500,A,4308.5002,N,07727.4706,W,44.12,278.75,300919,,,A*4E
$GPGGA,134654.750,4308.5007,N,07727.4748,W,1,08,1.04,162.6,M,-34.4,M,,*5A
$GPRMC,134655.000,A,4308.5012,N,07727.4790,W,44.24,279.15,300919,,,A*46
$GPGGA,134655.250,4308.5018,N,07727.4831,W,1,08,1.04,162.6,M,-34.4,M,,*51
$GPRMC,134655.500,A,4308.5023,N,07727.4873,W,44.94,279.37,300919,,,A*48
$GPGGA,134655.750,4308.5029,N,07727.4915,W,1,08,1.04,162.7,M,-34.4,M,,*50
$GPRMC,134656.000,A,4308.5034,N,07727.4957,W,45.35,279.14,300919,,,A*44
$GPGGA,134656.250,4308.5039,N,07727.5000,W,1,08,1.04,162.8,M,-34.4,M,,*54
$GPRMC,134656.500,A,4308.5044,N,07727.5043,W,45.68,278.87,300919,,,A*48
$GPGGA,134656.750,4308.5050,N,07727.5086,W,1,08,1.04,163.0,M,-34.4,M,,*59
$GPRMC,134657.000,A,4308.5055,N,07727.5129,W,46.00,279.05,300919,,,A*47
$GPGGA,134657.250,4308.5060,N,07727.5172,W,1,08,1.04,163.1,M,-34.4,M,,*55
$GPRMC,134657.500,A,4308.5065,N,07727.5216,W,46.33,279.17,300919,,,A*4D
$GPGGA,134657.750,4308.5071,N,07727.5259,W,1,08,1.04,163.2,M,-34.4,M,,*59
$GPRMC,134658.000,A,4308.5076,N,07727.5303,W,46.41,279.47,300919,,,A*40
$GPGGA,134658.250,4308.5082,N,07727.5347,W,1,08,1.04,163.3,M,-34.4,M,,*50
$GPRMC,134658.500,A,4308.5087,N,07727.5391,W,46.46,279.75,300919,,,A*46
$GPGGA,134658.750,4308.5093,N,07727.5434,W,1,08,1.04,163.3,M,-34.4,M,,*56
$GPRMC,134659.000,A,4308.5098,N,07727.5478,W,46.28,279.78,300919,,,A*49
$GPGGA,134659.250,4308.5104,N,07727.5521,W,1,08,1.04,163.3,M,-34.4,M,,*58
$GPRMC,134659.500,A,4308.5109,N,07727.5564,W,46.10,279.84,300919,,,A*41
$GPGGA,134659.750,4308.5115,N,07727.5607,W,1,08,1.04,163.3,M,-34.4,M,,*5A
$GPRMC,134700.000,A,4308.5120,N,07727.5650,W,45.98,279.85,300919,,,A*44
$GPGGA,134700.250,4308.5126,N,07727.5693,W,1,08,1.04,163.3,M,-34.4,M,,*5F
$GPRMC,134700.500,A,4308.5130,N,07727.5736,W,45.63,279.39,300919,,,A*42
$GPGGA,134700.750,4308.5136,N,07727.5779,W,1,08,1.04,163.2,M,-34.4,M,,*5F
$GPRMC,134701.000,A,4308.5141,N,07727.5822,W,45.57,279.40,300919,,,A*43
$GPGGA,134701.250,4308.5146,N,07727.5865,W,1,08,1.04,163.0,M,-34.4,M,,*5C
$GPRMC,134701.500,A,4308.5151,N,07727.5908,W,45.57,279.40,300919,,,A*4E
$GPGGA,134701.750,4308.5156,N,07727.5951,W,1,08,1.04,162.8,M,-34.4,M,,*57
$GPRMC,134702.000,A,4308.5162,N,07727.5994,W,45.56,279.24,300919,,,A*4E
$GPGGA,134702.250,4308.5167,N,07727.6037,W,1,08,1.04,162.4,M,-34.4,M,,*55
$GPRMC,134702.500,A,4308.5173,N,07727.6079,W,45.30,279.58,300919,,,A*49
$GPGGA,134702.750,4308.5178,N,07727.6122,W,1,08,1.04,162.0,M,-34.4,M,,*5F
$GPRMC,134703.000,A,4308.5183,N,07727.6164,W,45.08,278.24,300919,,,A*4E
$GPGGA,134703.250,4308.5188,N,07727.6207,W,1,08,1.04,161.8,M,-34.4,M,,*5B
$GPRMC,134703.500,A,4308.5193,N,07727.6249,W,44.84,278.15,300919,,,A*41
$GPGGA,134703.750,4308.5198,N,07727.6291,W,1,08,1.04,161.5,M,-34.4,M,,*5D
$GPRMC,134704.000,A,4308.5202,N,07727.6333,W,44.48,277.56,300919,,,A*4C
$GPGGA,134704.250,4308.5207,N,07727.6375,W,1,08,1.04,161.3,M,-34.4,M,,*57
$GPRMC,134704.500,A,4308.5211,N,07727.6416,W,44.11,277.68,300919,,,A*4A
$GPGGA,134704.750,4308.5215,N,07727.6458,W,1,08,1.04,160.9,M,-34.4,M,,*52
$GPRMC,134705.000,A,4308.5219,N,07727.6500,W,43.97,276.93,300919,,,A*4C
$GPGGA,134705.250,4308.5223,N,07727.6541,W,1,08,1.04,160.7,M,-34.4,M,,*54
$GPRMC,134705.500,A,4308.5227,N,07727.6582,W,43.51,276.29,300919,,,A*45
$GPGGA,134705.750,4308.5230,N,07727.6623,W,1,08,1.04,160.5,M,-34.4,M,,*56
$GPRMC,134706.000,A,4308.5233,N,07727.6664,W,43.13,276.26,300919,,,A*44
$GPGGA,134706.250,4308.5237,N,07727.6705,W,1,08,1.04,160.4,M,-34.4,M,,*53
$GPRMC,134706.500,A,4308.5240,N,07727.6745,W,42.82,275.32,300919,,,A*48
$GPGGA,134706.750,4308.5243,N,07727.6786,W,1,08,1.04,160.3,M,-34.4,M,,*59
$GPRMC,134707.000,A,4308.5246,N,07727.6826,W,42.38,274.77,300919,,,A*41
$GPGGA,134707.250,4308.5249,N,07727.6866,W,1,08,1.04,160.2,M,-34.4,M,,*57
$GPRMC,134707.500,A,4308.5252,N,07727.6906,W,41.92,274.89,300919,,,A*40
$GPGGA,134707.750,4308.5255,N,07727.6945,W,1,08,1.04,160.1,M,-34.4,M,,*5C
$GPRMC,134708.000,A,4308.5257,N,07727.6985,W,41.80,274.38,300919,,,A*4D
$GPGGA,134708.250,4308.5260,N,07727.7024,W,1,08,1.04,160.1,M,-34.4,M,,*5F
$GPRMC,134708.500,A,4308.5262,N,07727.7064,W,41.61,274.24,300919,,,A*4B
$GPGGA,134708.750,4308.5264,N,07727.7103,W,1,08,1.04,159.9,M,-34.4,M,,*58
$GPRMC,134709.000,A,4308.5266,N,07727.7142,W,41.47,274.30,300919,,,A*4F
$GPGGA,134709.250,4308.5269,N,07727.7180,W,1,08,1.04,159.9,M,-34.4,M,,*5A
$GPRMC,134709.500,A,4308.5272,N,07727.7219,W,41.28,274.16,300919,,,A*4F
$GPGGA,134709.750,4308.5274,N,07727.7257,W,1,08,1.04,159.8,M,-34.4,M,,*5B
$GPRMC,134710.000,A,4308.5276,N,07727.7295,W,40.10,273.40,300919,,,A*4C
$GPGGA,134710.250,4308.5278,N,07727.7333,W,1,08,1.04,159.9,M,-34.4,M,,*58
$GPRMC,134710.500,A,4308.5281,N,07727.7370,W,39.68,274.02,300919,,,A*4B
$GPGGA,134710.750,4308.5283,N,07727.7406,W,1,08,1.04,159.9,M,-34.4,M,,*58
$GPRMC,134711.000,A,4308.5285,N,07727.7442,W,37.29,274.00,300919,,,A*44
$GPGGA,134711.250,4308.5287,N,07727.7477,W,1,07,1.71,159.9,M,-34.4,M,,*53
$GPRMC,134711.500,A,4308.5288,N,07727.7511,W,35.79,272.86,300919,,,A*44
$GPGGA,134711.750,4308.5290,N,07727.7545,W,1,08,1.04,159.9,M,-34.4,M,,*5D
$GPRMC,134712.000,A,4308.5291,N,07727.7579,W,35.23,273.05,300919,,,A*41
$GPGGA,134712.250,4308.5293,N,07727.7612,W,1,08,1.04,160.0,M,-34.4,M,,*5A
$GPRMC,134712.500,A,4308.5294,N,07727.7644,W,34.71,272.44,300919,,,A*4E
$GPGGA,134712.750,4308.5295,N,07727.7674,W,1,08,1.04,160.1,M,-34.4,M,,*58
$GPRMC,134713.000,A,4308.5297,N,07727.7704,W,31.53,272.19,300919,,,A*41
$GPGGA,134713.250,4308.5297,N,07727.7733,W,1,08,1.04,160.2,M,-34.4,M,,*5F
$GPRMC,134713.500,A,4308.5298,N,07727.7761,W,28.96,271.54,300919,,,A*43
$GPGGA,134713.750,4308.5300,N,07727.7787,W,1,07,1.71,160.3,M,-34.4,M,,*56
$GPRMC,134714.000,A,4308.5301,N,07727.7813,W,27.06,271.71,300919,,,A*4B
$GPGGA,134714.250,4308.5301,N,07727.7838,W,1,07,1.70,160.4,M,-34.4,M,,*58
$GPRMC,134714.500,A,4308.5302,N,07727.7862,W,25.07,270.94,300919,,,A*42
$GPGGA,134714.750,4308.5302,N,07727.7885,W,1,08,1.04,160.4,M,-34.4,M,,*54
$GPRMC,134715.000,A,4308.5302,N,07727.7907,W,23.62,270.64,300919,,,A*4E
$GPGGA,134715.250,4308.5303,N,07727.7928,W,1,08,1.04,160.5,M,-34.4,M,,*56
$GPRMC,134715.500,A,4308.5304,N,07727.7948,W,21.84,270.23,300919,,,A*4F
$GPGGA,134715.750,4308.5304,N,07727.7968,W,1,08,1.04,160.6,M,-34.4,M,,*53
$GPRMC,134716.000,A,4308.5304,N,07727.7987,W,20.17,269.43,300919,,,A*4F
$GPGGA,134716.250,4308.5304,N,07727.8004,W,1,08,1.04,160.6,M,-34.4,M,,*59
$GPRMC,134716.500,A,4308.5304,N,07727.8022,W,18.30,268.49,300919,,,A*46
$GPGGA,134716.750,4308.5303,N,07727.8037,W,1,08,1.04,160.8,M,-34.4,M,,*55
$GPRMC,134717.000,A,4308.5303,N,07727.8052,W,16.16,267.47,300919,,,A*49
$GPGGA,134717.250,4308.5303,N,07727.8066,W,1,08,1.04,160.9,M,-34.4,M,,*54
$GPRMC,134717.500,A,4308.5302,N,07727.8079,W,13.88,264.85,300919,,,A*4B
$GPGGA,134717.750,4308.5303,N,07727.8090,W,1,08,1.04,161.3,M,-34.4,M,,*53
$GPRMC,134718.000,A,4308.5303,N,07727.8100,W,11.54,266.16,300919,,,A*44
$GPGGA,134718.250,4308.5304,N,07727.8109,W,1,08,1.04,161.7,M,-34.4,M,,*5B
$GPRMC,134718.500,A,4308.5302,N,07727.8116,W,8.14,261.93,300919,,,A*71
$GPGGA,134718.750,4308.5302,N,07727.8122,W,1,08,1.04,162.2,M,-34.4,M,,*57
$GPRMC,134719.000,A,4308.5302,N,07727.8126,W,5.24,256.32,300919,,,A*77
$GPGGA,134719.250,4308.5302,N,07727.8128,W,1,08,1.04,162.6,M,-34.4,M,,*5D
$GPRMC,134719.500,A,4308.5301,N,07727.8130,W,2.34,245.42,300919,,,A*75
$GPGGA,134719.750,4308.5301,N,07727.8130,W,1,08,1.03,162.7,M,-34.4,M,,*54
$GPRMC,134720.000,A,4308.5301,N,07727.8130,W,1.16,245.42,300919,,,A*79
$GPGGA,134720.250,4308.5301,N,07727.8128,W,1,08,1.03,162.7,M,-34.4,M,,*52
$GPRMC,134720.500,A,4308.5301,N,07727.8127,W,1.56,245.42,300919,,,A*7E
$GPGGA,134720.750,4308.5301,N,07727.8126,W,1,08,1.03,162.8,M,-34.4,M,,*56
$GPRMC,134721.000,A,4308.5302,N,07727.8125,W,0.02,245.42,300919,,,A*7B
$GPGGA,134721.250,4308.5302,N,07727.8126,W,1,08,1.03,162.1,M,-34.4,M,,*58
$GPRMC,134721.500,A,4308.5303,N,07727.8129,W,0.09,245.42,300919,,,A*78
$GPGGA,134721.750,4308.5302,N,07727.8134,W,1,08,1.03,162.0,M,-34.4,M,,*5F
$GPRMC,134722.000,A,4308.5303,N,07727.8138,W,4.97,268.67,300919,,,A*75
$GPGGA,134722.250,4308.5305,N,07727.8147,W,1,08,1.04,161.8,M,-34.4,M,,*56
$GPRMC,134722.500,A,4308.5307,N,07727.8155,W,9.63,271.42,300919,,,A*76
$GPGGA,134722.750,4308.5308,N,07727.8165,W,1,08,1.04,161.7,M,-34.4,M,,*51
$GPRMC,134723.000,A,4308.5308,N,07727.8176,W,11.50,272.51,300919,,,A*44
$GPGGA,134723.250,4308.5309,N,07727.8188,W,1,08,1.04,161.8,M,-34.4,M,,*58
$GPRMC,134723.500,A,4308.5310,N,07727.8201,W,13.77,273.34,300919,,,A*4E
$GPGGA,134723.750,4308.5310,N,07727.8215,W,1,08,1.04,161.9,M,-34.4,M,,*53
$GPRMC,134724.000,A,4308.5311,N,07727.8230,W,15.85,274.08,300919,,,A*4C
$GPGGA,134724.250,4308.5312,N,07727.8245,W,1,08,1.04,162.1,M,-34.4,M,,*5D
$GPRMC,134724.500,A,4308.5312,N,07727.8262,W,17.59,274.71,300919,,,A*40
$GPGGA,134724.750,4308.5313,N,07727.8279,W,1,08,1.04,162.2,M,-34.4,M,,*55
$GPRMC,134725.000,A,4308.5314,N,07727.8296,W,18.55,274.76,300919,,,A*4D
$GPGGA,134725.250,4308.5315,N,07727.8314,W,1,08,1.04,162.3,M,-34.4,M,,*5C
$GPRMC,134725.500,A,4308.5316,N,07727.8332,W,19.37,274.46,300919,,,A*43
$GPGGA,134725.750,4308.5318,N,07727.8350,W,1,08,1.04,162.5,M,-34.4,M,,*52
$GPRMC,134726.000,A,4308.5319,N,07727.8369,W,20.00,275.45,300919,,,A*48
$GPGGA,134726.250,4308.5320,N,07727.8389,W,1,08,1.04,162.6,M,-34.4,M,,*58
$GPRMC,134726.500,A,4308.5321,N,07727.8408,W,20.55,274.84,300919,,,A*4A
$GPGGA,134726.750,4308.5323,N,07727.8427,W,1,08,1.04,162.8,M,-34.4,M,,*53
$GPRMC,134727.000,A,4308.5324,N,07727.8447,W,20.61,274.64,300919,,,A*49
$GPGGA,134727.250,4308.5325,N,07727.8467,W,1,08,1.04,163.0,M,-34.4,M,,*5C
$GPRMC,134727.500,A,4308.5327,N,07727.8486,W,20.89,275.02,300919,,,A*45
$GPGGA,134727.750,4308.5328,N,07727.8506,W,1,08,1.04,163.1,M,-34.4,M,,*53
$GPRMC,134728.000,A,4308.5329,N,07727.8526,W,21.24,273.79,300919,,,A*46
$GPGGA,134728.250,4308.5330,N,07727.8546,W,1,08,1.04,163.3,M,-34.4,M,,*56
$GPRMC,134728.500,A,4308.5330,N,07727.8567,W,21.67,273.42,300919,,,A*41
$GPGGA,134728.750,4308.5331,N,07727.8587,W,1,08,1.04,163.5,M,-34.4,M,,*59
$GPRMC,134729.000,A,4308.5332,N,07727.8608,W,22.04,273.08,300919,,,A*45
$GPGGA,134729.250,4308.5332,N,07727.8630,W,1,08,1.04,163.7,M,-34.4,M,,*53
$GPRMC,134729.500,A,4308.5333,N,07727.8651,W,22.49,272.84,300919,,,A*41
$GPGGA,134729.750,4308.5333,N,07727.8672,W,1,08,1.04,163.9,M,-34.4,M,,*5F
$GPRMC,134730.000,A,4308.5334,N,07727.8694,W,23.06,272.76,300919,,,A*45
$GPGGA,134730.250,4308.5334,N,07727.8716,W,1,08,1.04,164.1,M,-34.4,M,,*59
$GPRMC,134730.500,A,4308.5335,N,07727.8739,W,23.62,272.75,300919,,,A*46
$GPGGA,134730.750,4308.5336,N,07727.8761,W,1,08,1.04,164.3,M,-34.4,M,,*5C
$GPRMC,134731.000,A,4308.5337,N,07727.8784,W,24.28,273.16,300919,,,A*4B
$GPGGA,134731.250,4308.5338,N,07727.8808,W,1,08,1.04,164.5,M,-34.4,M,,*50
$GPRMC,134731.500,A,4308.5338,N,07727.8832,W,25.02,273.16,300919,,,A*4A
$GPGGA,134731.750,4308.5339,N,07727.8856,W,1,08,1.04,164.6,M,-34.4,M,,*5C
$GPRMC,134732.000,A,4308.5339,N,07727.8881,W,25.73,272.86,300919,,,A*4B
$GPGGA,134732.250,4308.5340,N,07727.8906,W,1,08,1.04,164.8,M,-34.4,M,,*5E
$GPRMC,134732.500,A,4308.5341,N,07727.8931,W,26.14,273.63,300919,,,A*43
$GPGGA,134732.750,4308.5343,N,07727.8956,W,1,08,1.04,164.9,M,-34.4,M,,*5C
$GPRMC,134733.000,A,4308.5344,N,07727.8982,W,27.12,273.41,300919,,,A*4D
$GPGGA,134733.250,4308.5345,N,07727.9008,W,1,08,1.04,165.1,M,-34.4,M,,*54
$GPRMC,134733.500,A,4308.5345,N,07727.9035,W,27.15,272.24,300919,,,A*48
$GPGGA,134733.750,4308.5345,N,07727.9062,W,1,08,1.04,165.2,M,-34.4,M,,*5E
$GPRMC,134734.000,A,4308.5346,N,07727.9089,W,28.72,271.76,300919,,,A*44
$GPGGA,134734.250,4308.5346,N,07727.9117,W,1,08,1.04,165.3,M,-34.4,M,,*5D
$GPRMC,134734.500,A,4308.5347,N,07727.9145,W,29.45,272.17,300919,,,A*40
$GPGGA,134734.750,4308.5348,N,07727.9173,W,1,08,1.04,165.3,M,-34.4,M,,*54
$GPRMC,134735.000,A,4308.5349,N,07727.9202,W,29.90,271.98,300919,,,A*46
$GPGGA,134735.250,4308.5348,N,07727.9231,W,1,08,1.04,165.4,M,-34.4,M,,*52
$GPRMC,134735.500,A,4308.5348,N,07727.9260,W,30.62,270.78,300919,,,A*4C
$GPGGA,134735.750,4308.5348,N,07727.9289,W,1,08,1.04,165.5,M,-34.4,M,,*55
$GPRMC,134736.000,A,4308.5349,N,07727.9318,W,30.67,271.17,300919,,,A*48
$GPGGA,134736.250,4308.5348,N,07727.9348,W,1,08,1.04,165.6,M,-34.4,M,,*5C
$GPRMC,134736.500,A,4308.5348,N,07727.9377,W,30.85,269.95,300919,,,A*4A
$GPGGA,134736.750,4308.5348,N,07727.9406,W,1,08,1.04,165.4,M,-34.4,M,,*56
$GPRMC,134737.000,A,4308.5349,N,07727.9436,W,31.11,270.90,300919,,,A*4C
$GPGGA,134737.250,4308.5349,N,07727.9466,W,1,08,1.04,165.1,M,-34.4,M,,*50
$GPRMC,134737.500,A,4308.5350,N,07727.9495,W,31.25,272.07,300919,,,A*43
$GPGGA,134737.750,4308.5351,N,07727.9526,W,1,08,1.04,164.8,M,-34.4,M,,*51
$GPRMC,134738.000,A,4308.5352,N,07727.9556,W,31.71,272.34,300919,,,A*44
$GPGGA,134738.250,4308.5353,N,07727.9586,W,1,08,1.04,164.5,M,-34.4,M,,*5E
$GPRMC,134738.500,A,4308.5354,N,07727.9616,W,31.83,272.76,300919,,,A*4B
$GPGGA,134738.750,4308.5355,N,07727.9647,W,1,08,1.04,164.2,M,-34.4,M,,*54
$GPRMC,134739.000,A,4308.5356,N,07727.9678,W,32.05,272.94,300919,,,A*44
$GPGGA,134739.250,4308.5356,N,07727.9710,W,1,08,1.04,163.8,M,-34.4,M,,*5D
$GPRMC,134739.500,A,4308.5357,N,07727.9741,W,32.98,272.15,300919,,,A*46
$GPGGA,134739.750,4308.5357,N,07727.9772,W,1,08,1.04,163.3,M,-34.4,M,,*56
$GPRMC,134740.000,A,4308.5356,N,07727.9805,W,33.39,270.50,300919,,,A*4A
$GPGGA,134740.250,4308.5356,N,07727.9837,W,1,08,1.04,162.6,M,-34.4,M,,*56
$GPRMC,134740.500,A,4308.5355,N,07727.9869,W,33.63,269.97,300919,,,A*4A
$GPGGA,134740.750,4308.5356,N,07727.9901,W,1,08,1.04,161.9,M,-34.4,M,,*5B
$GPRMC,134741.000,A,4308.5356,N,07727.9932,W,33.67,271.42,300919,,,A*47
$GPGGA,134741.250,4308.5357,N,07727.9964,W,1,08,1.04,161.3,M,-34.4,M,,*57
$GPRMC,134741.500,A,4308.5358,N,07727.9997,W,33.96,271.62,300919,,,A*4F
$GPGGA,134741.750,4308.5359,N,07728.0029,W,1,08,1.04,160.6,M,-34.4,M,,*5E
$GPRMC,134742.000,A,4308.5360,N,07728.0061,W,33.90,272.07,300919,,,A*42
$GPGGA,134742.250,4308.5361,N,07728.0093,W,1,08,1.04,160.1,M,-34.4,M,,*55
$GPRMC,134742.500,A,4308.5363,N,07728.0125,W,33.83,272.94,300919,,,A*4D
$GPGGA,134742.750,4308.5364,N,07728.0157,W,1,08,1.04,159.6,M,-34.4,M,,*51
$GPRMC,134743.000,A,4308.5365,N,07728.0188,W,33.78,272.97,300919,,,A*4F
$GPGGA,134743.250,4308.5366,N,07728.0220,W,1,08,1.04,159.3,M,-34.4,M,,*51
$GPRMC,134743.500,A,4308.5367,N,07728.0252,W,33.70,273.10,300919,,,A*4A
$GPGGA,134743.750,4308.5369,N,07728.0283,W,1,08,1.04,159.0,M,-34.4,M,,*51
$GPRMC,134744.000,A,4308.5369,N,07728.0314,W,33.27,273.10,300919,,,A*47
$GPGGA,134744.250,4308.5370,N,07728.0345,W,1,08,1.04,158.8,M,-34.4,M,,*59
$GPRMC,134744.500,A,4308.5370,N,07728.0376,W,32.55,272.92,300919,,,A*41
$GPGGA,134744.750,4308.5371,N,07728.0407,W,1,08,1.04,158.6,M,-34.4,M,,*52
$GPRMC,134745.000,A,4308.5372,N,07728.0437,W,32.06,272.63,300919,,,A*4D
$GPGGA,134745.250,4308.5372,N,07728.0467,W,1,08,1.04,158.5,M,-34.4,M,,*50
$GPRMC,134745.500,A,4308.5373,N,07728.0497,W,31.83,272.61,300919,,,A*4F
$GPGGA,134745.750,4308.5374,N,07728.0527,W,1,08,1.04,158.3,M,-34.4,M,,*50
$GPRMC,134746.000,A,4308.5374,N,07728.0557,W,31.50,272.64,300919,,,A*48
$GPGGA,134746.250,4308.5374,N,07728.0587,W,1,08,1.04,158.3,M,-34.4,M,,*5C
$GPRMC,134746.500,A,4308.5375,N,07728.0616,W,31.35,272.48,300919,,,A*47
$GPGGA,134746.750,4308.5375,N,07728.0646,W,1,08,1.04,158.3,M,-34.4,M,,*56
$GPRMC,134747.000,A,4308.5376,N,07728.0676,W,31.56,271.98,300919,,,A*4D
$GPGGA,134747.250,4308.5376,N,07728.0706,W,1,08,1.04,158.4,M,-34.4,M,,*53
$GPRMC,134747.500,A,4308.5376,N,07728.0736,W,31.87,271.63,300919,,,A*45
$GPGGA,134747.750,4308.5375,N,07728.0766,W,1,08,1.04,158.5,M,-34.4,M,,*52
$GPRMC,134748.000,A,4308.5376,N,07728.0797,W,32.13,271.82,300919,,,A*45
$GPGGA,134748.250,4308.5378,N,07728.0827,W,1,08,1.04,158.6,M,-34.4,M,,*5C
$GPRMC,134748.500,A,4308.5378,N,07728.0857,W,32.32,272.11,300919,,,A*47
$GPGGA,134748.750,4308.5379,N,07728.0888,W,1,08,1.04,158.8,M,-34.4,M,,*53
$GPRMC,134749.000,A,4308.5380,N,07728.0919,W,32.34,272.51,300919,,,A*4D
$GPGGA,134749.250,4308.5381,N,07728.0949,W,1,08,1.03,158.9,M,-34.4,M,,*5A
$GPRMC,134749.500,A,4308.5383,N,07728.0980,W,32.64,272.99,300919,,,A*4A
$GPGGA,134749.750,4308.5385,N,07728.1012,W,1,08,1.04,159.0,M,-34.4,M,,*52
$GPRMC,134750.000,A,4308.5387,N,07728.1043,W,32.94,274.07,300919,,,A*4A
$GPGGA,134750.250,4308.5389,N,07728.1074,W,1,08,1.04,159.1,M,-34.4,M,,*52
$GPRMC,134750.500,A,4308.5390,N,07728.1105,W,32.97,274.09,300919,,,A*47
$GPGGA,134750.750,4308.5392,N,07728.1136,W,1,08,1.04,159.2,M,-34.4,M,,*59
$GPRMC,134751.000,A,4308.5393,N,07728.1167,W,33.17,273.68,300919,,,A*4D
$GPGGA,134751.250,4308.5394,N,07728.1199,W,1,08,1.04,159.2,M,-34.4,M,,*5E
$GPRMC,134751.500,A,4308.5396,N,07728.1230,W,33.09,272.26,300919,,,A*48
$GPGGA,134751.750,4308.5396,N,07728.1261,W,1,08,1.04,159.2,M,-34.4,M,,*5D
$GPRMC,134752.000,A,4308.5397,N,07728.1292,W,32.86,271.95,300919,,,A*4A
$GPGGA,134752.250,4308.5398,N,07728.1323,W,1,08,1.03,159.2,M,-34.4,M,,*55
$GPRMC,134752.500,A,4308.5398,N,07728.1354,W,32.67,271.86,300919,,,A*46
$GPGGA,134752.750,4308.5398,N,07728.1385,W,1,08,1.04,159.1,M,-34.4,M,,*58
$GPRMC,134753.000,A,4308.5399,N,07728.1416,W,32.46,271.91,300919,,,A*47
$GPGGA,134753.250,4308.5400,N,07728.1446,W,1,08,1.04,159.2,M,-34.4,M,,*51
$GPRMC,134753.500,A,4308.5400,N,07728.1476,W,32.03,271.50,300919,,,A*4F
$GPGGA,134753.750,4308.5400,N,07728.1506,W,1,08,1.04,159.2,M,-34.4,M,,*51
$GPRMC,134754.000,A,4308.5400,N,07728.1536,W,31.77,271.70,300919,,,A*4A
$GPGGA,134754.250,4308.5400,N,07728.1566,W,1,08,1.04,159.3,M,-34.4,M,,*54
$GPRMC,134754.500,A,4308.5399,N,07728.1597,W,31.80,271.37,300919,,,A*48
$GPGGA,134754.750,4308.5398,N,07728.1627,W,1,08,1.04,159.4,M,-34.4,M,,*56
$GPRMC,134755.000,A,4308.5398,N,07728.1657,W,31.86,271.02,300919,,,A*42
$GPGGA,134755.250,4308.5398,N,07728.1687,W,1,08,1.03,159.5,M,-34.4,M,,*5E
$GPRMC,134755.500,A,4308.5398,N,07728.1717,W,31.91,271.46,300919,,,A*44
$GPGGA,134755.750,4308.5397,N,07728.1747,W,1,08,1.04,159.6,M,-34.4,M,,*5D
$GPRMC,134756.000,A,4308.5397,N,07728.1778,W,31.88,271.25,300919,,,A*49
$GPGGA,134756.250,4308.5395,N,07728.1808,W,1,08,1.04,159.7,M,-34.4,M,,*5C
$GPRMC,134756.500,A,4308.5394,N,07728.1838,W,31.64,270.27,300919,,,A*45
$GPGGA,134756.750,4308.5393,N,07728.1868,W,1,08,1.04,159.9,M,-34.4,M,,*57
$GPRMC,134757.000,A,4308.5392,N,07728.1898,W,31.38,269.47,300919,,,A*4A
$GPGGA,134757.250,4308.5392,N,07728.1927,W,1,08,1.04,159.9,M,-34.4,M,,*58
$GPRMC,134757.500,A,4308.5391,N,07728.1957,W,30.96,269.75,300919,,,A*4A
$GPGGA,134757.750,4308.5391,N,07728.1986,W,1,08,1.04,160.0,M,-34.4,M,,*56
$GPRMC,134758.000,A,4308.5391,N,07728.2015,W,30.69,270.36,300919,,,A*43
$GPGGA,134758.250,4308.5391,N,07728.2044,W,1,08,1.04,160.0,M,-34.4,M,,*58
$GPRMC,134758.500,A,4308.5391,N,07728.2073,W,30.30,270.65,300919,,,A*4C
$GPGGA,134758.750,4308.5391,N,07728.2101,W,1,08,1.04,160.0,M,-34.4,M,,*5D
