Vers 57
USE_SERIAL_FEEDBACK=false
DEVELOPMENT_MODE=false
USE_RMC_ONLY=false

$GPGGA,151600.400,4308.3095,N,07726.2797,W,1,05,2.41,152.0,M,-3419,,,A*42
$GPGGA,151603.000,4308.3134,N,07726.3022,W,1,05,2.40,150.3,M,-34.4,M,,*59
lng=-77.437995, lat=43.138492, altitude=152.00, speed=17.63, satellites=5, angle=283.0700, fixquality=1
$GPGGA,151603.400,4308.3142,N,07726.3058,W,1,05,2.41,150.1,M,-34.4,M,,*52
$GPRMC,151603.400,A,4308.3142,N,07726.3058,W,24.09,292.97,220419,,,A*4D
lng=-77.438430, lat=43.138565, altitude=150.10, speed=17.63, satellites=5, angle=283.0700, fixquality=1
$GPGGA,151604.000,4308.3161,N,07726.3112,W,1,05,2.40,150.1,M,-34.4,M,,*5E
$GPRMC,151604.000,A,4308.3161,N,07726.3112,W,24.92,295.16,220419,,,A*4C
lng=-77.438514, lat=43.138599, altitude=150.10, speed=24.09, satellites=5, angle=292.9700, fixquality=1
$GPGGA,151604.400,4308.3178,N,07726.3149,W,1,05,2.40,150.0,M,-34.4,M,,*5D
$GPRMC,151604.400,A,4308.3178,N,07726.3149,W,26.21,298.02,220419,,,A*4C
lng=-77.438583, lat=43.138629, altitude=150.00, speed=24.92, satellites=5, angle=295.1600, fixquality=1
$GPGGA,151604.800,4308.3198,N,07726.3191,W,1,05,2.36,150.0,M,-34.4,M,,*5B
$GPRMC,151604.800,A,4308.3198,N,07726.3191,W,28.75,298.94,220419,,,A*4B
lng=-77.438652, lat=43.138664, altitude=150.00, speed=26.21, satellites=5, angle=298.0200, fixquality=1
$GPGGA,151605.200,4308.3216,N,07726.3232,W,1,05,2.36,149.9,M,-34.4,M,,*5E
$GPRMC,151605.200,A,4308.3216,N,07726.3232,W,29.70,299.67,220419,,,A*46
lng=-77.438720, lat=43.138694, altitude=149.90, speed=28.75, satellites=5, angle=298.9400, fixquality=1
$GPGGA,151605.400,4308.3227,N,07726.3252,W,1,05,2.36,149.8,M,-
$GPRMC,151605.600,A,4308.3236,N,07726.3272,W,30.47,301.59,220419,,,A*45
lng=-77.438751, lat=43.138713, altitude=149.80, speed=29.70, satellites=5, angle=299.6700, fixquality=1
$GPGGA,151606.000,4308.3254,N,07726.3312,W,1,05,2.36,149.7,M,-34.4,M,,*54
$GPRMC,151606.000,A,4308.3254,N,07726.3312,W,30.45,301.86,220419,,,A*43
lng=-77.438850, lat=43.138751, altitude=149.70, speed=30.47, satellites=5, angle=301.5900, fixquality=1
$GPGGA,151606.400,4308.3272,N,07726.3352,W,1,05,2.35,149.4,M,-34.4,M,,*50
$GPRMC,151606.400,A,4308.3272,N,07726.3352,W,30.62,302.36,220419,,,A*4A
lng=-77.438919, lat=43.138786, altitude=149.40, speed=30.45, satellites=5, angle=301.8600, fixquality=1
$GPGGA,151606.800,4308.3289,N,07726.3392,W,1,05,2.36,149.1,M,-34.4,M,,*52
$GPRMC,151606.800,A,4308.3289,N,07726.3392,W,30.33,302.34,220419,,,A*48
lng=-77.438987, lat=43.138816, altitude=149.10, speed=30.62, satellites=5, angle=302.3600, fixquality=1
$GPRMC,151607.200,A,4308.3307,N,07726.3432,W,30.52,302.23,220419,,,A*48
$GPGGA,151607.400,4308.3315,N,07726.3452,W,1,05,2.35,148.9,M,-34.4,M,,*5A
lng=-77.439056, lat=43.138843, altitude=149.10, speed=30.52, satellites=5, angle=302.2300, fixquality=1
$GPGGA,151607.800,4308.3332,N,07726.3491,W,1,05,2.35,148.8,M,-34.4,M,,*5D
$GPRMC,151607.800,A,4308.3332,N,07726.3491,W,30.13,301.95,220419,,,A*46
lng=-77.439155, lat=43.138881, altitude=148.80, speed=30.52, satellites=5, angle=302.2300, fixquality=1
$GPGGA,151608.200,4308.3350,N,07726.3529,W,1,05,2.36,148.7,M,-34.4,M,,*52
$GPRMC,151608.200,A,4308.3350,N,07726.3529,W,29.46,303.11,22041$GPGGA,151608.400,4308.3359,N,07726.3547,W,1,05,2.35,148.6,M,-34.4,M,,*57
lng=-77.439216, lat=43.138916, altitude=148.70, speed=30.13, satellites=5, angle=301.9500, fixquality=1
$GPRMC,151608.600,A,4308.3368,N,07726.3565,W,28.24,305.98,220419,,,A*46
$GPGGA,151608.800,4308.3377,N,07726.3583,W,1,05,2.36,148.6,M,-34.4,M,,*5C
lng=-77.439277, lat=43.138950, altitude=148.70, speed=28.24, satellites=5, angle=305.9800, fixquality=1
$GPRMC,151609.000,A,4308.3389,N,07726.3600,W,27.81,308.00,220419,,,A*42
$GPGGA,151609.200,4308.3400,N,07726.3617,W,1,05,2.40,148.6,M,-34.4,M,,*5F
lng=-77.439331, lat=43.138980, altitude=148.60, speed=27.81, satellites=5, angle=308.0000, fixquality=1
$GPRMC,151609.400,A,4308.3412,N,07726.3633,W,27.60,311.69,220419,,,A*4B
$GPGGA,151609.600,4308.3424,N,07726.3648,W,1,05,2.40,148.6,M,-34.4,M,,*57
lng=-77.439384, lat=43.139022, altitude=148.60, speed=27.60, satellites=5, angle=311.6900, fixquality=1
$GPRMC,151609.800,A,4308.3435,N,07726.3663,W,27.37,313.69,220419,,,A*47
$GPGGA,151610.000,4308.3448,N,07726.3677,W,1,05,2.36,148.7,M,-34.4,M,,*5F
lng=-77.439437, lat=43.139053, altitude=148.60, speed=27.37, satellites=5, angle=313.6900, fixquality=1
$GPRMC,151610.200,A,4308.3461,N,07726.3690,W,26.91,318.67,220419,,,A*40
$GPGGA,151610.400,4308.3474,N,07726.3703,W,1,05,2.40,148.8,M,-34.4,M,,*58
lng=-77.439483, lat=43.139102, altitude=148.70, speed=26.91, satellites=5, angle=318.6700, fixquality=1
$GPRMC,151610.600,A,4308.3487,N,07726.3715,W,26.40,322.55,220419,,,A*44
$GPGGA,151610.800,4308.3499,N,07726.3726,W,1,05,2.35,149.0,M,-34.4,M,,*5B
lng=-77.439529, lat=43.139144, altitude=148.80, speed=26.40, satellites=5, angle=322.5500, fixquality=1
$GPRMC,151611.000,A,4308.3512,N,07726.3737,W,25.80,326.67,220419,,,A*44
$GPGGA,151611.200,4308.3526,N,07726.3747,W,1,05,2.35,149.2,M,-34.4,M,,*50
lng=-77.439559, lat=43.139183, altitude=149.00, speed=25.80, satellites=5, angle=326.6700, fixquality=1
$GPRMC,151611.400,A,4308.3541,N,07726.3756,W,26.28,332.49,220419,,,A*49
$GPGGA,151611.600,4308.3558,N,07726.3764,W,1,05,2.40,149.4,M,-34.4,M,,*58
lng=-77.439590, lat=43.139232, altitude=149.20, speed=26.28, satellites=5, angle=332.4900, fixquality=1
$GPRMC,151611.800,A,4308.3573,N,07726.3771,W,26.86,336.71,220419,,,A*4A
$GPGGA,151612.000,4308.3589,N,07726.3778,W,1,05,2.35,149.6,M,-34.4,M,,*5C
lng=-77.439613, lat=43.139289, altitude=149.40, speed=26.86, satellites=5, angle=336.7100, fixquality=1
$GPRMC,151612.200,A,4308.3605,N,07726.3783,W,27.21,342.08,220419,,,A*4D
$GPGGA,151612.400,4308.3622,N,07726.3789,W,1,05,2.35,149.9,M,-34.4,M,,*5B
lng=-77.439643, lat=43.139339, altitude=149.60, speed=27.21, satellites=5, angle=342.0800, fixquality=1
$GPRMC,151612.600,A,4308.3638,N,07726.3793,W,27.83,346.20,220419,,,A*40
$GPGGA,151612.800,4308.3655,N,07726.3798,W,1,05,2.35,150.1,M,-34.4,M,,*57
lng=-77.439659, lat=43.139396, altitude=149.90, speed=27.83, satellites=5, angle=346.2000, fixquality=1
$GPRMC,151613.000,A,4308.3672,N,07726.3801,W,28.20,349.78,220419,,,A*49
$GPGGA,151613.200,4308.3689,N,07726.3803,W,1,05,2.35,150.4,M,-34.4,M,,*55
lng=-77.439666, lat=43.139453, altitude=150.10, speed=28.20, satellites=5, angle=349.7800, fixquality=1
$GPRMC,151613.400,A,4308.3705,N,07726.3805,W,28.12,353.41,220419,,,A*48
$GPGGA,151613.600,4308.3722,N,07726.3807,W,1,05,2.35,150.4,M,-34.4,M,,*55
lng=-77.439674, lat=43.139511, altitude=150.40, speed=28.12, satellites=5, angle=353.4100, fixquality=1
$GPRMC,151613.800,A,4308.3739,N,07726.3808,W,28.42,355.34,220419,,,A*47
$GPGGA,151614.000,4308.3758,N,07726.3808,W,1,05,2.35,150.6,M,-34.4,M,,*54
lng=-77.439682, lat=43.139568, altitude=150.40, speed=28.42, satellites=5, angle=355.3400, fixquality=1
$GPRMC,151614.200,A,4308.3776,N,07726.3807,W,29.84,359.73,220419,,,A*4A
$GPGGA,151614.400,4308.3795,N,07726.3805,W,1,05,2.35,150.9,M,-34.4,M,,*53
lng=-77.439682, lat=43.139625, altitude=150.60, speed=29.84, satellites=5, angle=359.7300, fixquality=1
$GPRMC,151614.600,A,4308.3814,N,07726.3803,W,31.16,3.07,220419,,,A*4C
$GPGGA,151614.800,4308.3832,N,07726.3801,W,1,05,2.35,151.2,M,-34.4,M,,*53
lng=-77.439674, lat=43.139690, altitude=150.90, speed=31.16, satellites=5, angle=3.0700, fixquality=1
$GPRMC,151615.000,A,4308.3851,N,07726.3799,W,31.82,4.92,220419,,,A*40
$GPGGA,151615.200,4308.3870,N,07726.3796,W,1,05,2.35,151.6,M,-34.4,M,,*5B
lng=-77.439666, lat=43.139755, altitude=151.20, speed=31.82, satellites=5, angle=4.9200, fixquality=1
$GPRMC,151615.400,A,4308.3888,N,07726.3792,W,32.35,7.26,220419,,,A*48
$GPGGA,151615.600,4308.3907,N,07726.3789,W,1,05,2.40,151.9,M,-34.4,M,,*5D
lng=-77.439659, lat=43.139812, altitude=151.60, speed=32.35, satellites=5, angle=7.2600, fixquality=1
$GPRMC,151615.800,A,4308.3925,N,07726.3785,W,32.58,8.17,220419,,,A*42
$GPGGA,151616.000,4308.3944,N,07726.3780,W,1,05,2.35,152.1,M,-34.4,M,,*5F
lng=-77.439643, lat=43.139877, altitude=151.90, speed=32.58, satellites=5, angle=8.1700, fixquality=1
$GPRMC,151616.200,A,4308.3962,N,07726.3776,W,32.77,8.85,220419,,,A*42
$GPGGA,151616.400,4308.3981,N,07726.3772,W,1,05,2.35,152.3,M,-34.4,M,,*5D
lng=-77.439620, lat=43.139934, altitude=152.10, speed=32.77, satellites=5, angle=8.8500, fixquality=1
$GPRMC,151616.600,A,4308.3999,N,07726.3768,W,32.83,9.13,220419,,,A*48
$GPGGA,151616.800,4308.4017,N,07726.3764,W,1,05,2.35,152.5,M,-34.4,M,,*51
lng=-77.439613, lat=43.139999, altitude=152.30, speed=32.83, satellites=5, angle=9.1300, fixquality=1
$GPRMC,151617.000,A,4308.4035,N,07726.3760,W,32.57,9.24,220419,,,A*42
$GPGGA,151617.200,4308.4051,N,07726.3755,W,1,05,2.35,152.7,M,-34.4,M,,*58
lng=-77.439598, lat=43.140056, altitude=152.50, speed=32.57, satellites=5, angle=9.2400, fixquality=1
$GPRMC,151617.400,A,4308.4068,N,07726.3751,W,31.54,9.69,220419,,,A*45
$GPGGA,151617.600,4308.4085,N,07726.3746,W,1,05,2.40,152.8,M,-34.4,M,,*5A
lng=-77.439582, lat=43.140113, altitude=152.70, speed=31.54, satellites=5, angle=9.6900, fixquality=1
$GPRMC,151617.800,A,4308.4101,N,07726.3742,W,30.97,9.98,220419,,,A*45
$GPGGA,151618.000,4308.4118,N,07726.3738,W,1,05,2.35,152.9,M,-34.4,M,,*5C
lng=-77.439567, lat=43.140171, altitude=152.80, speed=30.97, satellites=5, angle=9.9800, fixquality=1
$GPRMC,151618.200,A,4308.4134,N,07726.3734,W,30.35,10.20,220419,,,A*74
$GPGGA,151618.400,4308.4150,N,07726.3729,W,1,05,2.35,153.0,M,-34.4,M,,*5C
lng=-77.439559, lat=43.140224, altitude=152.90, speed=30.35, satellites=5, angle=10.2000, fixquality=1
$GPRMC,151618.600,A,4308.4165,N,07726.3725,W,29.41,10.78,220419,,,A*72
$GPGGA,151618.800,4308.4181,N,07726.3721,W,1,05,2.35,153.0,M,-34.4,M,,*54
lng=-77.439544, lat=43.140274, altitude=153.00, speed=29.41, satellites=5, angle=10.7800, fixquality=1
$GPRMC,151619.000,A,4308.4196,N,07726.3717,W,29.08,10.34,220419,,,A*7D
$GPGGA,151619.200,4308.4212,N,07726.3713,W,1,05,2.35,153.1,M,-34.4,M,,*56
lng=-77.439529, lat=43.140323, altitude=153.00, speed=29.08, satellites=5, angle=10.3400, fixquality=1
$GPRMC,151619.400,A,4308.4227,N,07726.3709,W,28.58,9.59,220419,,,A*48
$GPGGA,151619.600,4308.4243,N,07726.3705,W,1,05,2.40,153.2,M,-34.4,M,,*50
lng=-77.439521, lat=43.140380, altitude=153.10, speed=28.58, satellites=5, angle=9.5900, fixquality=1
$GPRMC,151619.800,A,4308.4258,N,07726.3701,W,28.35,9.44,220419,,,A*43
$GPGGA,151620.000,4308.4274,N,07726.3698,W,1,05,2.35,153.4,M,-34.4,M,,*59
lng=-77.439498, lat=43.140430, altitude=153.20, speed=28.35, satellites=5, angle=9.4400, fixquality=1
$GPRMC,151620.200,A,4308.4289,N,07726.3695,W,28.08,8.87,220419,,,A*43
$GPGGA,151620.400,4308.4305,N,07726.3692,W,1,05,2.35,153.5,M,-34.4,M,,*51
lng=-77.439491, lat=43.140480, altitude=153.40, speed=28.08, satellites=5, angle=8.8700, fixquality=1
$GPRMC,151620.600,A,4308.4320,N,07726.3689,W,27.92,8.22,220419,,,A*4B
$GPGGA,151620.800,4308.4335,N,07726.3686,W,1,05,2.35,153.6,M,-34.4,M,,*58
lng=-77.439483, lat=43.140537, altitude=153.50, speed=27.92, satellites=5, angle=8.2200, fixquality=1
$GPRMC,151621.000,A,4308.4349,N,07726.3683,W,27.17,7.76,220419,,,A*4A
$GPGGA,151621.200,4308.4363,N,07726.3679,W,1,05,2.35,153.8,M,-34.4,M,,*5E
lng=-77.439468, lat=43.140583, altitude=153.60, speed=27.17, satellites=5, angle=7.7600, fixquality=1
$GPRMC,151621.400,A,4308.4375,N,07726.3676,W,25.62,8.16,220419,,,A*42
$GPGGA,151621.600,4308.4388,N,07726.3673,W,1,05,2.40,153.8,M,-34.4,M,,*57
lng=-77.439460, lat=43.140625, altitude=153.80, speed=25.62, satellites=5, angle=8.1600, fixquality=1
$GPRMC,151621.800,A,4308.4401,N,07726.3670,W,24.52,8.20,220419,,,A*4B
$GPGGA,151622.000,4308.4413,N,07726.3667,W,1,05,2.40,153.9,M,-34.4,M,,*53
lng=-77.439453, lat=43.140666, altitude=153.80, speed=24.52, satellites=5, angle=8.2000, fixquality=1
$GPRMC,151622.200,A,4308.4425,N,07726.3665,W,23.28,7.19,220419,,,A*4F
$GPGGA,151622.400,4308.4436,N,07726.3663,W,1,05,2.39,154.0,M,-34.4,M,,*54
lng=-77.439445, lat=43.140705, altitude=153.90, speed=23.28, satellites=5, angle=7.1900, fixquality=1
$GPRMC,151622.600,A,4308.4447,N,07726.3661,W,21.68,6.16,220419,,,A*43
$GPGGA,151622.800,4308.4456,N,07726.3658,W,1,05,2.40,154.1,M,-34.4,M,,*59
lng=-77.439437, lat=43.140747, altitude=154.00, speed=21.68, satellites=5, angle=6.1600, fixquality=1
$GPRMC,151623.000,A,4308.4462,N,07726.3654,W,19.10,7.69,220419,,,A*48
$GPGGA,151623.200,4308.4469,N,07726.3652,W,1,05,2.40,154.2,M,-34.4,M,,*57
lng=-77.439422, lat=43.140769, altitude=154.10, speed=19.10, satellites=5, angle=7.6900, fixquality=1
$GPRMC,151623.400,A,4308.4475,N,07726.3650,W,16.48,4.97,220419,,,A*4E
$GPGGA,151623.600,4308.4481,N,07726.3649,W,1,05,2.40,154.4,M,-34.4,M,,*59
lng=-77.439422, lat=43.140789, altitude=154.20, speed=16.48, satellites=5, angle=4.9700, fixquality=1
$GPRMC,151623.800,A,4308.4486,N,07726.3648,W,14.75,2.90,220419,,,A*4A
$GPGGA,151624.000,4308.4492,N,07726.3648,W,1,05,2.39,154.5,M,-34.4,M,,*54
lng=-77.439414, lat=43.140811, altitude=154.40, speed=14.75, satellites=5, angle=2.9000, fixquality=1
$GPRMC,151624.200,A,4308.4496,N,07726.3647,W,12.74,357.14,220419,,,A*41
$GPGGA,151624.400,4308.4499,N,07726.3648,W,1,05,2.39,154.6,M,-34.4,M,,*58
lng=-77.439414, lat=43.140827, altitude=154.50, speed=12.74, satellites=5, angle=357.1400, fixquality=1
$GPRMC,151624.600,A,4308.4503,N,07726.3648,W,10.83,350.60,220419,,,A*49
$GPGGA,151624.800,4308.4507,N,07726.3649,W,1,05,2.40,154.8,M,-34.4,M,,*53
lng=-77.439414, lat=43.140834, altitude=154.60, speed=10.83, satellites=5, angle=350.6000, fixquality=1
$GPRMC,151625.000,A,4308.4511,N,07726.3650,W,10.03,346.06,220419,,,A*4B
$GPGGA,151625.200,4308.4515,N,07726.3652,W,1,05,2.39,155.0,M,-34.4,M,,*56
lng=-77.439422, lat=43.140853, altitude=154.80, speed=10.03, satellites=5, angle=346.0600, fixquality=1
$GPRMC,151625.400,A,4308.4518,N,07726.3653,W,9.21,340.08,220419,,,A*75
$GPGGA,151625.600,4308.4516,N,07726.3652,W,1,05,2.35,155.1,M,-34.4,M,,*5C
lng=-77.439422, lat=43.140861, altitude=155.00, speed=9.21, satellites=5, angle=340.0800, fixquality=1
$GPRMC,151625.800,A,4308.4516,N,07726.3651,W,6.47,352.77,220419,,,A*71
$GPGGA,151626.000,4308.4516,N,07726.3650,W,1,05,2.39,155.3,M,-34.4,M,,*55
lng=-77.439422, lat=43.140861, altitude=155.10, speed=6.47, satellites=5, angle=352.7700, fixquality=1
$GPRMC,151626.200,A,4308.4518,N,07726.3650,W,5.73,359.03,220419,,,A*7B
$GPGGA,151626.400,4308.4521,N,07726.3650,W,1,05,2.39,155.4,M,-34.4,M,,*52
lng=-77.439422, lat=43.140861, altitude=155.30, speed=5.73, satellites=5, angle=359.0300, fixquality=1
$GPRMC,151626.600,A,4308.4522,N,07726.3648,W,5.90,357.84,220419,,,A*73
$GPGGA,151626.800,4308.4523,N,07726.3646,W,1,05,2.39,155.2,M,-34.4,M,,*5D
lng=-77.439414, lat=43.140869, altitude=155.40, speed=5.90, satellites=5, angle=357.8400, fixquality=1
$GPRMC,151627.000,A,4308.4526,N,07726.3645,W,6.52,348.74,220419,,,A*71
$GPGGA,151627.200,4308.4529,N,07726.3644,W,1,05,2.39,155.1,M,-34.4,M,,*5D
lng=-77.439407, lat=43.140876, altitude=155.20, speed=6.52, satellites=5, angle=348.7400, fixquality=1
$GPRMC,151627.400,A,4308.4531,N,07726.3644,W,7.66,341.44,220419,,,A*7E
$GPGGA,151627.600,4308.4534,N,07726.3645,W,1,05,2.39,154.9,M,-34.4,M,,*5D
lng=-77.439407, lat=43.140884, altitude=155.10, speed=7.66, satellites=5, angle=341.4400, fixquality=1
$GPRMC,151627.800,A,4308.4538,N,07726.3647,W,8.09,337.00,220419,,,A*7F
$GPGGA,151628.000,4308.4542,N,07726.3651,W,1,05,2.35,154.6,M,-34.4,M,,*53
lng=-77.439414, lat=43.140892, altitude=154.90, speed=8.09, satellites=5, angle=337.0000, fixquality=1
$GPRMC,151628.200,A,4308.4547,N,07726.3654,W,9.15,332.34,220419,,,A*7E
$GPGGA,151628.400,4308.4551,N,07726.3658,W,1,05,2.35,154.7,M,-34.4,M,,*5D
lng=-77.439422, lat=43.140911, altitude=154.60, speed=9.15, satellites=5, angle=332.3400, fixquality=1
$GPRMC,151628.600,A,4308.4555,N,07726.3662,W,9.72,327.52,220419,,,A*79
$GPGGA,151628.800,4308.4558,N,07726.3668,W,1,05,2.35,154.8,M,-34.4,M,,*54
lng=-77.439437, lat=43.140926, altitude=154.70, speed=9.72, satellites=5, angle=327.5200, fixquality=1
$GPRMC,151629.000,A,4308.4561,N,07726.3675,W,10.69,315.75,220419,,,A*49
$GPGGA,151629.200,4308.4563,N,07726.3682,W,1,05,2.35,154.9,M,-34.4,M,,*52
lng=-77.439460, lat=43.140933, altitude=154.80, speed=10.69, satellites=5, angle=315.7500, fixquality=1
$GPRMC,151629.400,A,4308.4565,N,07726.3690,W,11.69,307.25,220419,,,A*45
$GPGGA,151629.600,4308.4567,N,07726.3698,W,1,05,2.39,155.0,M,-34.4,M,,*5D
lng=-77.439483, lat=43.140941, altitude=154.90, speed=11.69, satellites=5, angle=307.2500, fixquality=1
$GPRMC,151629.800,A,4308.4568,N,07726.3707,W,12.43,300.32,220419,,,A*41
$GPGGA,151630.000,4308.4567,N,07726.3717,W,1,05,2.35,155.1,M,-34.4,M,,*58
lng=-77.439506, lat=43.140949, altitude=155.00, speed=12.43, satellites=5, angle=300.3200, fixquality=1
$GPRMC,151630.200,A,4308.4567,N,07726.3727,W,13.35,295.51,220419,,,A*46
$GPGGA,151630.400,4308.4566,N,07726.3738,W,1,05,2.35,155.2,M,-34.4,M,,*53
lng=-77.439544, lat=43.140941, altitude=155.10, speed=13.35, satellites=5, angle=295.5100, fixquality=1
$GPRMC,151630.600,A,4308.4565,N,07726.3748,W,14.11,290.71,220419,,,A*4F
$GPGGA,151630.800,4308.4566,N,07726.3759,W,1,05,2.35,155.2,M,-34.4,M,,*58
lng=-77.439582, lat=43.140941, altitude=155.20, speed=14.11, satellites=5, angle=290.7100, fixquality=1
$GPRMC,151631.000,A,4308.4567,N,07726.3771,W,14.70,287.22,220419,,,A*47
$GPGGA,151631.200,4308.4567,N,07726.3782,W,1,05,2.34,155.3,M,-34.4,M,,*54
lng=-77.439613, lat=43.140941, altitude=155.20, speed=14.70, satellites=5, angle=287.2200, fixquality=1
$GPRMC,151631.400,A,4308.4568,N,07726.3795,W,15.60,284.21,220419,,,A*46
$GPGGA,151631.600,4308.4569,N,07726.3808,W,1,05,2.35,155.3,M,-34.4,M,,*52
lng=-77.439659, lat=43.140949, altitude=155.30, speed=15.60, satellites=5, angle=284.2100, fixquality=1
$GPRMC,151631.800,A,4308.4570,N,07726.3821,W,16.69,281.65,220419,,,A*4C
$GPGGA,151632.000,4308.4569,N,07726.3835,W,1,05,2.35,155.3,M,-34.4,M,,*59
lng=-77.439704, lat=43.140949, altitude=155.30, speed=16.69, satellites=5, angle=281.6500, fixquality=1
$GPRMC,151632.200,A,4308.4569,N,07726.3849,W,17.80,278.97,220419,,,A*4E
$GPGGA,151632.400,4308.4568,N,07726.3864,W,1,05,2.34,155.3,M,-34.4,M,,*59
lng=-77.439743, lat=43.140949, altitude=155.30, speed=17.80, satellites=5, angle=278.9700, fixquality=1
$GPRMC,151632.600,A,4308.4566,N,07726.3878,W,18.45,276.57,220419,,,A*43
$GPGGA,151632.800,4308.4564,N,07726.3893,W,1,05,2.35,155.3,M,-34.4,M,,*50
lng=-77.439796, lat=43.140941, altitude=155.30, speed=18.45, satellites=5, angle=276.5700, fixquality=1
$GPRMC,151633.000,A,4308.4563,N,07726.3908,W,19.19,275.06,220419,,,A*48
$GPGGA,151633.200,4308.4562,N,07726.3924,W,1,05,2.39,155.2,M,-34.4,M,,*5D
lng=-77.439842, lat=43.140933, altitude=155.30, speed=19.19, satellites=5, angle=275.0600, fixquality=1
$GPRMC,151633.400,A,4308.4560,N,07726.3939,W,19.68,273.97,220419,,,A*45
$GPGGA,151633.600,4308.4558,N,07726.3955,W,1,05,2.39,155.2,M,-34.4,M,,*56
lng=-77.439903, lat=43.140933, altitude=155.20, speed=19.68, satellites=5, angle=273.9700, fixquality=1
$GPRMC,151633.800,A,4308.4558,N,07726.3971,W,20.32,272.88,220419,,,A*44
$GPGGA,151634.000,4308.4557,N,07726.3987,W,1,05,2.34,155.2,M,-34.4,M,,*5A
lng=-77.439949, lat=43.140926, altitude=155.20, speed=20.32, satellites=5, angle=272.8800, fixquality=1
$GPRMC,151634.200,A,4308.4556,N,07726.4003,W,20.62,272.06,220419,,,A*4F
$GPGGA,151634.400,4308.4555,N,07726.4019,W,1,05,2.34,155.1,M,-34.4,M,,*56
lng=-77.440010, lat=43.140926, altitude=155.20, speed=20.62, satellites=5, angle=272.0600, fixquality=1
$GPRMC,151634.600,A,4308.4554,N,07726.4034,W,20.62,271.90,220419,,,A*41
$GPGGA,151634.800,4308.4554,N,07726.4050,W,1,05,2.34,155.1,M,-34.4,M,,*56
lng=-77.440055, lat=43.140926, altitude=155.10, speed=20.62, satellites=5, angle=271.9000, fixquality=1
$GPRMC,151635.000,A,4308.4553,N,07726.4066,W,20.69,271.95,220419,,,A*48
$GPGGA,151635.200,4308.4553,N,07726.4082,W,1,05,2.34,155.0,M,-34.4,M,,*54
lng=-77.440109, lat=43.140918, altitude=155.10, speed=20.69, satellites=5, angle=271.9500, fixquality=1
$GPRMC,151635.400,A,4308.4553,N,07726.4098,W,20.73,272.24,220419,,,A*4F
$GPGGA,151635.600,4308.4552,N,07726.4115,W,1,05,2.35,155.0,M,-34.4,M,,*5F
lng=-77.440162, lat=43.140918, altitude=155.00, speed=20.73, satellites=5, angle=272.2400, fixquality=1
$GPRMC,151635.800,A,4308.4550,N,07726.4130,W,20.37,272.34,220419,,,A*42
$GPGGA,151636.000,4308.4549,N,07726.4146,W,1,05,2.34,155.0,M,-34.4,M,,*57
lng=-77.440216, lat=43.140918, altitude=155.00, speed=20.37, satellites=5, angle=272.3400, fixquality=1
$GPRMC,151636.200,A,4308.4549,N,07726.4162,W,19.97,272.85,220419,,,A*4E
$GPGGA,151636.400,4308.4548,N,07726.4178,W,1,05,2.34,155.0,M,-34.4,M,,*5F
lng=-77.440269, lat=43.140918, altitude=155.00, speed=19.97, satellites=5, angle=272.8500, fixquality=1
$GPRMC,151636.600,A,4308.4547,N,07726.4194,W,19.48,272.68,220419,,,A*4C
$GPGGA,151636.800,4308.4547,N,07726.4209,W,1,05,2.34,155.0,M,-34.4,M,,*59
lng=-77.440322, lat=43.140911, altitude=155.00, speed=19.48, satellites=5, angle=272.6800, fixquality=1
$GPRMC,151637.000,A,4308.4546,N,07726.4223,W,18.97,272.70,220419,,,A*4F
$GPGGA,151637.200,4308.4545,N,07726.4236,W,1,05,2.34,155.0,M,-34.4,M,,*5C
lng=-77.440376, lat=43.140911, altitude=155.00, speed=18.97, satellites=5, angle=272.7000, fixquality=1
$GPRMC,151637.400,A,4308.4544,N,07726.4249,W,17.98,272.53,220419,,,A*44
$GPGGA,151637.600,4308.4544,N,07726.4262,W,1,05,2.34,155.0,M,-34.4,M,,*58
lng=-77.440414, lat=43.140911, altitude=155.00, speed=17.98, satellites=5, angle=272.5300, fixquality=1
$GPRMC,151637.800,A,4308.4544,N,07726.4274,W,17.10,273.23,220419,,,A*40
$GPGGA,151638.000,4308.4545,N,07726.4286,W,1,05,2.34,155.0,M,-34.4,M,,*5A
lng=-77.440452, lat=43.140911, altitude=155.00, speed=17.10, satellites=5, angle=273.2300, fixquality=1
$GPRMC,151638.200,A,4308.4545,N,07726.4298,W,15.86,275.59,220419,,,A*40
$GPGGA,151638.400,4308.4543,N,07726.4309,W,1,05,2.34,155.0,M,-34.4,M,,*5E
lng=-77.440498, lat=43.140911, altitude=155.00, speed=15.86, satellites=5, angle=275.5900, fixquality=1
$GPRMC,151638.600,A,4308.4542,N,07726.4320,W,14.54,277.25,220419,,,A*46
$GPGGA,151638.800,4308.4543,N,07726.4331,W,1,05,2.34,155.0,M,-34.4,M,,*59
lng=-77.440536, lat=43.140903, altitude=155.00, speed=14.54, satellites=5, angle=277.2500, fixquality=1
$GPRMC,151639.000,A,4308.4544,N,07726.4341,W,13.65,279.13,220419,,,A*4E
$GPGGA,151639.200,4308.4544,N,07726.4351,W,1,05,2.34,155.0,M,-34.4,M,,*53
lng=-77.440567, lat=43.140911, altitude=155.00, speed=13.65, satellites=5, angle=279.1300, fixquality=1
$GPRMC,151639.400,A,4308.4545,N,07726.4359,W,12.51,280.59,220419,,,A*4C
$GPGGA,151639.600,4308.4548,N,07726.4368,W,1,05,2.34,155.0,M,-34.4,M,,*51
lng=-77.440597, lat=43.140911, altitude=155.00, speed=12.51, satellites=5, angle=280.5900, fixquality=1
$GPRMC,151639.800,A,4308.4549,N,07726.4377,W,11.56,281.70,220419,,,A*4E
$GPGGA,151640.000,4308.4550,N,07726.4384,W,1,05,2.34,155.0,M,-34.4,M,,*52
lng=-77.440628, lat=43.140918, altitude=155.00, speed=11.56, satellites=5, angle=281.7000, fixquality=1
$GPRMC,151640.200,A,4308.4552,N,07726.4392,W,10.38,283.86,220419,,,A*49
$GPGGA,151640.400,4308.4554,N,07726.4399,W,1,05,2.34,155.0,M,-34.4,M,,*5E
lng=-77.440650, lat=43.140918, altitude=155.00, speed=10.38, satellites=5, angle=283.8600, fixquality=1
$GPRMC,151640.600,A,4308.4555,N,07726.4405,W,8.90,283.97,220419,,,A*78
$GPGGA,151640.800,4308.4556,N,07726.4411,W,1,05,2.34,155.0,M,-34.4,M,,*57
lng=-77.440673, lat=43.140926, altitude=155.00, speed=8.90, satellites=5, angle=283.9700, fixquality=1
$GPRMC,151641.000,A,4308.4558,N,07726.4415,W,7.75,284.68,220419,,,A*70
$GPGGA,151641.200,4308.4560,N,07726.4420,W,1,05,2.34,155.0,M,-34.4,M,,*5B
lng=-77.440689, lat=43.140926, altitude=155.00, speed=7.75, satellites=5, angle=284.6800, fixquality=1
$GPRMC,151641.400,A,4308.4561,N,07726.4423,W,6.59,286.49,220419,,,A*75
$GPGGA,151641.600,4308.4563,N,07726.4427,W,1,05,2.34,155.0,M,-34.4,M,,*5B
lng=-77.440704, lat=43.140933, altitude=155.00, speed=6.59, satellites=5, angle=286.4900, fixquality=1
$GPRMC,151641.800,A,4308.4565,N,07726.4430,W,5.81,288.75,220419,,,A*78
$GPGGA,151642.000,4308.4567,N,07726.4433,W,1,05,2.34,155.0,M,-34.4,M,,*5F
lng=-77.440711, lat=43.140941, altitude=155.00, speed=5.81, satellites=5, angle=288.7500, fixquality=1
$GPRMC,151642.200,A,4308.4569,N,07726.4434,W,4.67,292.39,220419,,,A*73
$GPGGA,151642.400,4308.4571,N,07726.4435,W,1,05,2.34,155.0,M,-34.4,M,,*5A
lng=-77.440719, lat=43.140949, altitude=155.00, speed=4.67, satellites=5, angle=292.3900, fixquality=1
$GPRMC,151642.600,A,4308.4573,N,07726.4437,W,3.75,299.77,220419,,,A*7A
$GPGGA,151642.800,4308.4576,N,07726.4438,W,1,05,2.34,155.1,M,-34.4,M,,*5D
lng=-77.440727, lat=43.140956, altitude=155.00, speed=3.75, satellites=5, angle=299.7700, fixquality=1
$GPRMC,151643.000,A,4308.4579,N,07726.4439,W,3.43,306.87,220419,,,A*74
$GPGGA,151643.200,4308.4582,N,07726.4438,W,1,05,2.34,155.1,M,-34.4,M,,*5D
lng=-77.440727, lat=43.140968, altitude=155.10, speed=3.43, satellites=5, angle=306.8700, fixquality=1
$GPRMC,151643.400,A,4308.4583,N,07726.4437,W,2.46,313.07,220419,,,A*73
$GPGGA,151643.600,4308.4584,N,07726.4435,W,1,05,2.34,155.2,M,-34.4,M,,*51
lng=-77.440727, lat=43.140975, altitude=155.10, speed=2.46, satellites=5, angle=313.0700, fixquality=1
$GPRMC,151643.800,A,4308.4586,N,07726.4434,W,1.89,313.07,220419,,,A*79
$GPGGA,151644.000,4308.4586,N,07726.4433,W,1,05,2.34,155.4,M,-34.4,M,,*52
lng=-77.440719, lat=43.140975, altitude=155.20, speed=1.89, satellites=5, angle=313.0700, fixquality=1
$GPRMC,151644.200,A,4308.4586,N,07726.4431,W,1.57,313.07,220419,,,A*72
$GPGGA,151644.400,4308.4586,N,07726.4430,W,1,05,2.38,155.5,M,-34.4,M,,*58
lng=-77.440711, lat=43.140975, altitude=155.40, speed=1.57, satellites=5, angle=313.0700, fixquality=1
$GPRMC,151644.600,A,4308.4587,N,07726.4429,W,1.36,313.07,220419,,,A*79
$GPGGA,151644.800,4308.4588,N,07726.4428,W,1,05,2.38,155.6,M,-34.4,M,,*50
lng=-77.440711, lat=43.140975, altitude=155.50, speed=1.36, satellites=5, angle=313.0700, fixquality=1
$GPRMC,151645.000,A,4308.4590,N,07726.4428,W,1.35,313.07,220419,,,A*7A
$GPGGA,151645.200,4308.4591,N,07726.4429,W,1,05,2.39,155.7,M,-34.4,M,,*52
lng=-77.440711, lat=43.140983, altitude=155.60, speed=1.35, satellites=5, angle=313.0700, fixquality=1
$GPRMC,151645.400,A,4308.4591,N,07726.4430,W,1.31,313.07,220419,,,A*72
$GPGGA,151645.600,4308.4592,N,07726.4432,W,1,05,2.34,155.8,M,-34.4,M,,*5D
lng=-77.440711, lat=43.140983, altitude=155.70, speed=1.31, satellites=5, angle=313.0700, fixquality=1
$GPRMC,151645.800,A,4308.4590,N,07726.4434,W,1.33,313.07,220419,,,A*79
$GPGGA,151646.000,4308.4588,N,07726.4436,W,1,05,2.34,155.9,M,-34.4,M,,*56
lng=-77.440719, lat=43.140983, altitude=155.80, speed=1.33, satellites=5, angle=313.0700, fixquality=1
$GPRMC,151646.200,A,4308.4586,N,07726.4439,W,1.51,313.07,220419,,,A*7E
$GPGGA,151646.400,4308.4583,N,07726.4442,W,1,05,2.34,155.9,M,-34.4,M,,*5A
lng=-77.440727, lat=43.140975, altitude=155.90, speed=1.51, satellites=5, angle=313.0700, fixquality=1
$GPRMC,151646.600,A,4308.4582,N,07726.4446,W,2.74,313.07,220419,,,A*72
$GPGGA,151646.800,4308.4578,N,07726.4453,W,1,05,2.34,156.0,M,-34.4,M,,*58
lng=-77.440750, lat=43.140968, altitude=155.90, speed=2.74, satellites=5, angle=313.0700, fixquality=1
$GPRMC,151647.000,A,4308.4572,N,07726.4459,W,5.39,267.92,220419,,,A*74
$GPGGA,151647.200,4308.4566,N,07726.4468,W,1,05,2.34,156.1,M,-34.4,M,,*55
lng=-77.440765, lat=43.140949, altitude=156.00, speed=5.39, satellites=5, angle=267.9200, fixquality=1
$GPRMC,151647.400,A,4308.4563,N,07726.4479,W,9.14,266.68,220419,,,A*75
$GPGGA,151647.600,4308.4560,N,07726.4490,W,1,05,2.38,156.2,M,-34.4,M,,*5F
lng=-77.440795, lat=43.140933, altitude=156.10, speed=9.14, satellites=5, angle=266.6800, fixquality=1
$GPRMC,151647.800,A,4308.4559,N,07726.4500,W,11.54,267.03,220419,,,A*4E
$GPGGA,151648.000,4308.4559,N,07726.4511,W,1,05,2.34,156.3,M,-34.4,M,,*59
lng=-77.440834, lat=43.140933, altitude=156.20, speed=11.54, satellites=5, angle=267.0300, fixquality=1
$GPRMC,151648.200,A,4308.4559,N,07726.4523,W,12.87,266.96,220419,,,A*4A
$GPGGA,151648.400,4308.4561,N,07726.4534,W,1,05,2.34,156.3,M,-34.4,M,,*51
lng=-77.440872, lat=43.140933, altitude=156.30, speed=12.87, satellites=5, angle=266.9600, fixquality=1
$GPRMC,151648.600,A,4308.4562,N,07726.4547,W,14.47,269.39,220419,,,A*44
$GPGGA,151648.800,4308.4561,N,07726.4558,W,1,05,2.34,156.4,M,-34.4,M,,*50
lng=-77.440910, lat=43.140933, altitude=156.30, speed=14.47, satellites=5, angle=269.3900, fixquality=1
$GPRMC,151649.000,A,4308.4559,N,07726.4573,W,15.51,267.57,220419,,,A*4C
$GPGGA,151649.200,4308.4556,N,07726.4587,W,1,05,2.34,156.5,M,-34.4,M,,*5C
lng=-77.440956, lat=43.140933, altitude=156.40, speed=15.51, satellites=5, angle=267.5700, fixquality=1
$GPRMC,151649.400,A,4308.4553,N,07726.4602,W,17.09,263.68,220419,,,A*40
$GPGGA,151649.600,4308.4550,N,07726.4618,W,1,05,2.34,156.6,M,-34.4,M,,*58
lng=-77.441001, lat=43.140918, altitude=156.50, speed=17.09, satellites=5, angle=263.6800, fixquality=1
$GPRMC,151649.800,A,4308.4549,N,07726.4634,W,18.38,263.03,220419,,,A*42
$GPGGA,151650.000,4308.4550,N,07726.4651,W,1,05,2.34,156.7,M,-34.4,M,,*5A
lng=-77.441055, lat=43.140918, altitude=156.60, speed=18.38, satellites=5, angle=263.0300, fixquality=1
$GPRMC,151650.200,A,4308.4550,N,07726.4668,W,19.97,264.89,220419,,,A*40
$GPGGA,151650.400,4308.4549,N,07726.4686,W,1,05,2.34,156.8,M,-34.4,M,,*53
lng=-77.441116, lat=43.140918, altitude=156.70, speed=19.97, satellites=5, angle=264.8900, fixquality=1
$GPRMC,151650.600,A,4308.4549,N,07726.4703,W,20.96,265.13,220419,,,A*49
$GPGGA,151650.800,4308.4549,N,07726.4721,W,1,05,2.34,156.9,M,-34.4,M,,*52
lng=-77.441169, lat=43.140918, altitude=156.80, speed=20.96, satellites=5, angle=265.1300, fixquality=1
$GPRMC,151651.000,A,4308.4549,N,07726.4741,W,22.09,265.37,220419,,,A*4A
$GPGGA,151651.200,4308.4553,N,07726.4764,W,1,05,2.34,157.1,M,-34.4,M,,*5A
lng=-77.441238, lat=43.140918, altitude=156.90, speed=22.09, satellites=5, angle=265.3700, fixquality=1
$GPRMC,151651.400,A,4308.4558,N,07726.4789,W,25.40,270.62,220419,,,A*44
$GPGGA,151651.600,4308.4560,N,07726.4811,W,1,05,2.34,157.2,M,-34.4,M,,*50
lng=-77.441314, lat=43.140926, altitude=157.10, speed=25.40, satellites=5, angle=270.6200, fixquality=1
$GPRMC,151651.800,A,4308.4563,N,07726.4834,W,27.25,272.19,220419,,,A*46
$GPGGA,151652.000,4308.4566,N,07726.4857,W,1,05,2.34,157.3,M,-34.4,M,,*50
lng=-77.441390, lat=43.140933, altitude=157.20, speed=27.25, satellites=5, angle=272.1900, fixquality=1
$GPRMC,151652.200,A,4308.4570,N,07726.4883,W,29.32,273.55,220419,,,A*40
$GPGGA,151652.400,4308.4574,N,07726.4908,W,1,05,2.34,157.3,M,-34.4,M,,*5C
lng=-77.441474, lat=43.140949, altitude=157.30, speed=29.32, satellites=5, angle=273.5500, fixquality=1
$GPRMC,151652.600,A,4308.4576,N,07726.4934,W,30.90,273.89,220419,,,A*4E
$GPGGA,151652.800,4308.4578,N,07726.4959,W,1,05,2.34,157.4,M,-34.4,M,,*5F
lng=-77.441551, lat=43.140956, altitude=157.30, speed=30.90, satellites=5, angle=273.8900, fixquality=1
$GPRMC,151653.000,A,4308.4581,N,07726.4984,W,32.06,274.07,220419,,,A*46
$GPGGA,151653.200,4308.4584,N,07726.5010,W,1,05,2.34,157.6,M,-34.4,M,,*50
lng=-77.441642, lat=43.140968, altitude=157.40, speed=32.06, satellites=5, angle=274.0700, fixquality=1
$GPRMC,151653.400,A,4308.4587,N,07726.5037,W,33.49,274.38,220419,,,A*42
$GPGGA,151653.600,4308.4589,N,07726.5063,W,1,05,2.34,157.7,M,-34.4,M,,*5C
lng=-77.441734, lat=43.140975, altitude=157.60, speed=33.49, satellites=5, angle=274.3800, fixquality=1
$GPRMC,151653.800,A,4308.4592,N,07726.5090,W,34.58,274.55,220419,,,A*4B
$GPGGA,151654.000,4308.4596,N,07726.5118,W,1,05,2.34,157.9,M,-34.4,M,,*50
lng=-77.441810, lat=43.140983, altitude=157.70, speed=34.58, satellites=5, angle=274.5500, fixquality=1
$GPRMC,151654.200,A,4308.4600,N,07726.5145,W,35.66,275.36,220419,,,A*4F
$GPGGA,151654.400,4308.4604,N,07726.5173,W,1,05,2.34,158.0,M,-34.4,M,,*57
lng=-77.441909, lat=43.140998, altitude=157.90, speed=35.66, satellites=5, angle=275.3600, fixquality=1
$GPRMC,151654.600,A,4308.4608,N,07726.5202,W,36.59,275.84,220419,,,A*45
$GPGGA,151654.800,4308.4612,N,07726.5230,W,1,05,2.34,158.2,M,-34.4,M,,*5A
lng=-77.442001, lat=43.141014, altitude=158.00, speed=36.59, satellites=5, angle=275.8400, fixquality=1
$GPRMC,151655.000,A,4308.4616,N,07726.5258,W,37.45,276.14,220419,,,A*44
$GPGGA,151655.200,4308.4621,N,07726.5288,W,1,05,2.33,158.4,M,-34.4,M,,*53
lng=-77.442100, lat=43.141025, altitude=158.20, speed=37.45, satellites=5, angle=276.1400, fixquality=1
$GPRMC,151655.400,A,4308.4625,N,07726.5317,W,38.35,276.23,220419,,,A*46
$GPGGA,151655.600,4308.4629,N,07726.5347,W,1,05,2.34,158.5,M,-34.4,M,,*5B
lng=-77.442192, lat=43.141040, altitude=158.40, speed=38.35, satellites=5, angle=276.2300, fixquality=1
$GPRMC,151655.800,A,4308.4633,N,07726.5377,W,38.75,276.10,220419,,,A*4F
$GPGGA,151656.000,4308.4638,N,07726.5408,W,1,05,2.34,158.7,M,-34.4,M,,*50
lng=-77.442291, lat=43.141056, altitude=158.50, speed=38.75, satellites=5, angle=276.1000, fixquality=1
$GPRMC,151656.200,A,4308.4642,N,07726.5438,W,39.77,276.00,220419,,,A*4E
$GPGGA,151656.400,4308.4645,N,07726.5469,W,1,05,2.34,158.8,M,-34.4,M,,*56
lng=-77.442398, lat=43.141071, altitude=158.70, speed=39.77, satellites=5, angle=276.0000, fixquality=1
$GPRMC,151656.600,A,4308.4648,N,07726.5501,W,40.13,275.52,220419,,,A*43
$GPGGA,151656.800,4308.4651,N,07726.5532,W,1,05,2.34,158.9,M,-34.4,M,,*51
lng=-77.442504, lat=43.141078, altitude=158.80, speed=40.13, satellites=5, angle=275.5200, fixquality=1
$GPRMC,151657.000,A,4308.4654,N,07726.5564,W,40.57,275.16,220419,,,A*4A
$GPGGA,151657.200,4308.4656,N,07726.5596,W,1,05,2.33,159.0,M,-34.4,M,,*5C
lng=-77.442611, lat=43.141090, altitude=158.90, speed=40.57, satellites=5, angle=275.1600, fixquality=1
$GPRMC,151657.400,A,4308.4659,N,07726.5629,W,41.68,274.74,220419,,,A*41
$GPGGA,151657.600,4308.4661,N,07726.5662,W,1,05,2.34,159.1,M,-34.4,M,,*52
lng=-77.442718, lat=43.141098, altitude=159.00, speed=41.68, satellites=5, angle=274.7400, fixquality=1
$GPRMC,151657.800,A,4308.4663,N,07726.5694,W,42.06,274.15,220419,,,A*4E
$GPGGA,151658.000,4308.4665,N,07726.5727,W,1,05,2.34,159.1,M,-34.4,M,,*5F
lng=-77.442825, lat=43.141105, altitude=159.10, speed=42.06, satellites=5, angle=274.1500, fixquality=1
$GPRMC,151658.200,A,4308.4667,N,07726.5760,W,42.55,273.88,220419,,,A*40
$GPGGA,151658.400,4308.4670,N,07726.5793,W,1,05,2.34,159.2,M,-34.4,M,,*53
lng=-77.442939, lat=43.141113, altitude=159.10, speed=42.55, satellites=5, angle=273.8800, fixquality=1
$GPRMC,151658.600,A,4308.4672,N,07726.5826,W,42.85,273.85,220419,,,A*4D
$GPGGA,151658.800,4308.4674,N,07726.5859,W,1,05,2.34,159.3,M,-34.4,M,,*53
lng=-77.443038, lat=43.141120, altitude=159.20, speed=42.85, satellites=5, angle=273.8500, fixquality=1
$GPRMC,151659.000,A,4308.4677,N,07726.5893,W,43.86,273.84,220419,,,A*42
$GPGGA,151659.200,4308.4679,N,07726.5927,W,1,05,2.34,159.4,M,-34.4,M,,*5A
lng=-77.443153, lat=43.141128, altitude=159.30, speed=43.86, satellites=5, angle=273.8400, fixquality=1
$GPRMC,151659.400,A,4308.4681,N,07726.5962,W,44.36,273.85,220419,,,A*4D
$GPGGA,151659.600,4308.4683,N,07726.5996,W,1,05,2.33,159.5,M,-34.4,M,,*57
lng=-77.443267, lat=43.141136, altitude=159.40, speed=44.36, satellites=5, angle=273.8500, fixquality=1
$GPRMC,151659.800,A,4308.4684,N,07726.6030,W,44.43,273.86,220419,,,A*48
$GPGGA,151700.000,4308.4686,N,07726.6064,W,1,05,2.34,159.6,M,-34.4,M,,*5A
lng=-77.443382, lat=43.141136, altitude=159.50, speed=44.43, satellites=5, angle=273.8600, fixquality=1
$GPRMC,151700.200,A,4308.4687,N,07726.6099,W,44.04,273.70,220419,,,A*45
$GPGGA,151700.400,4308.4688,N,07726.6133,W,1,05,2.34,159.7,M,-34.4,M,,*52
lng=-77.443496, lat=43.141147, altitude=159.60, speed=44.04, satellites=5, angle=273.7000, fixquality=1
$GPRMC,151700.600,A,4308.4689,N,07726.6168,W,43.54,273.06,220419,,,A*43
$GPGGA,151700.800,4308.4690,N,07726.6201,W,1,05,2.33,159.9,M,-34.4,M,,*5C
lng=-77.443611, lat=43.141147, altitude=159.70, speed=43.54, satellites=5, angle=273.0600, fixquality=1
$GPRMC,151701.000,A,4308.4692,N,07726.6235,W,42.91,272.71,220419,,,A*4C
$GPGGA,151701.200,4308.4693,N,07726.6268,W,1,05,2.33,159.9,M,-34.4,M,,*5B
lng=-77.443725, lat=43.141155, altitude=159.90, speed=42.91, satellites=5, angle=272.7100, fixquality=1
$GPRMC,151701.400,A,4308.4695,N,07726.6301,W,42.77,272.70,220419,,,A*40
$GPGGA,151701.600,4308.4697,N,07726.6334,W,1,05,2.33,160.0,M,-34.4,M,,*50
lng=-77.443832, lat=43.141162, altitude=159.90, speed=42.77, satellites=5, angle=272.7000, fixquality=1
$GPRMC,151701.800,A,4308.4699,N,07726.6366,W,42.49,272.46,220419,,,A*49
$GPGGA,151702.000,4308.4701,N,07726.6398,W,1,05,2.33,160.0,M,-34.4,M,,*5D
lng=-77.443946, lat=43.141162, altitude=160.00, speed=42.49, satellites=5, angle=272.4600, fixquality=1
$GPRMC,151702.200,A,4308.4702,N,07726.6430,W,42.27,272.04,220419,,,A*49
$GPGGA,151702.400,4308.4703,N,07726.6462,W,1,05,2.33,160.0,M,-34.4,M,,*59
lng=-77.444053, lat=43.141170, altitude=160.00, speed=42.27, satellites=5, angle=272.0400, fixquality=1
$GPRMC,151702.600,A,4308.4703,N,07726.6494,W,40.91,271.53,220419,,,A*4C
$GPGGA,151702.800,4308.4704,N,07726.6526,W,1,05,2.33,160.0,M,-34.4,M,,*53
lng=-77.444160, lat=43.141170, altitude=160.00, speed=40.91, satellites=5, angle=271.5300, fixquality=1
$GPRMC,151703.000,A,4308.4704,N,07726.6558,W,40.79,270.98,220419,,,A*4D
$GPGGA,151703.200,4308.4703,N,07726.6590,W,1,05,2.33,160.0,M,-34.4,M,,*52
lng=-77.444259, lat=43.141170, altitude=160.00, speed=40.79, satellites=5, angle=270.9800, fixquality=1
$GPRMC,151703.400,A,4308.4703,N,07726.6622,W,40.46,270.21,220419,,,A*4E
$GPGGA,151703.600,4308.4702,N,07726.6654,W,1,05,2.33,160.0,M,-34.4,M,,*5C
lng=-77.444366, lat=43.141170, altitude=160.00, speed=40.46, satellites=5, angle=270.2100, fixquality=1
$GPRMC,151703.800,A,4308.4701,N,07726.6686,W,41.16,269.50,220419,,,A*44
$GPGGA,151704.000,4308.4700,N,07726.6718,W,1,05,2.33,160.1,M,-34.4,M,,*57
lng=-77.444473, lat=43.141170, altitude=160.00, speed=41.16, satellites=5, angle=269.5000, fixquality=1
$GPRMC,151704.200,A,4308.4699,N,07726.6750,W,41.41,268.52,220419,,,A*42
$GPGGA,151704.400,4308.4696,N,07726.6783,W,1,05,2.33,160.0,M,-34.4,M,,*5E
lng=-77.444580, lat=43.141162, altitude=160.10, speed=41.41, satellites=5, angle=268.5200, fixquality=1
$GPRMC,151704.600,A,4308.4693,N,07726.6816,W,41.68,267.46,220419,,,A*40
$GPGGA,151704.800,4308.4691,N,07726.6848,W,1,05,2.33,160.0,M,-34.4,M,,*5D
lng=-77.444694, lat=43.141155, altitude=160.00, speed=41.68, satellites=5, angle=267.4600, fixquality=1
$GPRMC,151705.000,A,4308.4689,N,07726.6881,W,41.94,267.09,220419,,,A*4A
$GPGGA,151705.200,4308.4683,N,07726.6916,W,1,05,2.33,160.0,M,-34.4,M,,*5F
lng=-77.444801, lat=43.141147, altitude=160.00, speed=41.94, satellites=5, angle=267.0900, fixquality=1
$GPRMC,151705.400,A,4308.4681,N,07726.6949,W,42.77,265.98,220419,,,A*47
$GPGGA,151705.600,4308.4680,N,07726.6981,W,1,05,2.33,160.0,M,-34.4,M,,*56
lng=-77.444915, lat=43.141136, altitude=160.00, speed=42.77, satellites=5, angle=265.9800, fixquality=1
$GPRMC,151705.800,A,4308.4679,N,07726.7014,W,42.81,266.26,220419,,,A*43
$GPGGA,151706.000,4308.4677,N,07726.7046,W,1,05,2.33,160.1,M,-34.4,M,,*59
lng=-77.445022, lat=43.141128, altitude=160.00, speed=42.81, satellites=5, angle=266.2600, fixquality=1
$GPRMC,151706.200,A,4308.4675,N,07726.7079,W,43.02,266.26,220419,,,A*47
$GPGGA,151706.400,4308.4674,N,07726.7112,W,1,05,2.33,160.1,M,-34.4,M,,*5E
lng=-77.445137, lat=43.141120, altitude=160.10, speed=43.02, satellites=5, angle=266.2600, fixquality=1
$GPRMC,151706.600,A,4308.4673,N,07726.7145,W,42.85,267.10,220419,,,A*41
$GPGGA,151706.800,4308.4672,N,07726.7177,W,1,05,2.33,160.2,M,-34.4,M,,*54
lng=-77.445236, lat=43.141120, altitude=160.10, speed=42.85, satellites=5, angle=267.1000, fixquality=1
$GPRMC,151707.000,A,4308.4670,N,07726.7210,W,42.91,267.15,220419,,,A*46
$GPGGA,151707.200,4308.4669,N,07726.7243,W,1,05,2.33,160.3,M,-34.4,M,,*50
lng=-77.445350, lat=43.141113, altitude=160.20, speed=42.91, satellites=5, angle=267.1500, fixquality=1
$GPRMC,151707.400,A,4308.4667,N,07726.7275,W,42.88,266.86,220419,,,A*44
$GPGGA,151707.600,4308.4665,N,07726.7308,W,1,05,2.33,160.4,M,-34.4,M,,*51
lng=-77.445457, lat=43.141113, altitude=160.30, speed=42.88, satellites=5, angle=266.8600, fixquality=1
$GPRMC,151707.800,A,4308.4664,N,07726.7340,W,42.91,266.69,220419,,,A*45
$GPGGA,151708.000,4308.4663,N,07726.7373,W,1,05,2.33,160.5,M,-34.4,M,,*53
lng=-77.445564, lat=43.141105, altitude=160.40, speed=42.91, satellites=5, angle=266.6900, fixquality=1
$GPRMC,151708.200,A,4308.4662,N,07726.7405,W,42.87,266.70,220419,,,A*4F
$GPGGA,151708.400,4308.4661,N,07726.7437,W,1,05,2.33,160.7,M,-34.4,M,,*50
lng=-77.445678, lat=43.141105, altitude=160.50, speed=42.87, satellites=5, angle=266.7000, fixquality=1
$GPRMC,151708.600,A,4308.4660,N,07726.7469,W,42.62,266.49,220419,,,A*42
$GPGGA,151708.800,4308.4658,N,07726.7501,W,1,05,2.33,160.8,M,-34.4,M,,*5D
lng=-77.445785, lat=43.141098, altitude=160.70, speed=42.62, satellites=5, angle=266.4900, fixquality=1
$GPRMC,151709.000,A,4308.4657,N,07726.7533,W,42.42,266.60,220419,,,A*46
$GPGGA,151709.200,4308.4655,N,07726.7566,W,1,05,2.33,160.9,M,-34.4,M,,*5B
lng=-77.445892, lat=43.141098, altitude=160.80, speed=42.42, satellites=5, angle=266.6000, fixquality=1
$GPRMC,151709.400,A,4308.4654,N,07726.7598,W,42.36,266.71,220419,,,A*43
$GPGGA,151709.600,4308.4653,N,07726.7631,W,1,05,2.33,161.0,M,-34.4,M,,*50
lng=-77.445999, lat=43.141090, altitude=160.90, speed=42.36, satellites=5, angle=266.7100, fixquality=1
$GPRMC,151709.800,A,4308.4652,N,07726.7663,W,42.22,266.80,220419,,,A*45
$GPGGA,151710.000,4308.4651,N,07726.7695,W,1,05,2.33,161.1,M,-34.4,M,,*53
lng=-77.446098, lat=43.141090, altitude=161.00, speed=42.22, satellites=5, angle=266.8000, fixquality=1
$GPRMC,151710.200,A,4308.4650,N,07726.7726,W,41.65,266.82,220419,,,A*47
$GPGGA,151710.400,4308.4649,N,07726.7758,W,1,05,2.33,161.2,M,-34.4,M,,*5D
lng=-77.446205, lat=43.141078, altitude=161.10, speed=41.65, satellites=5, angle=266.8200, fixquality=1
$GPRMC,151710.600,A,4308.4649,N,07726.7789,W,41.20,266.73,220419,,,A*41
$GPGGA,151710.800,4308.4648,N,07726.7819,W,1,05,2.33,161.2,M,-34.4,M,,*5A
lng=-77.446311, lat=43.141078, altitude=161.20, speed=41.20, satellites=5, angle=266.7300, fixquality=1
$GPRMC,151711.000,A,4308.4649,N,07726.7849,W,41.00,266.93,220419,,,A*49
$GPGGA,151711.200,4308.4649,N,07726.7880,W,1,05,2.33,161.2,M,-34.4,M,,*50
lng=-77.446411, lat=43.141078, altitude=161.20, speed=41.00, satellites=5, angle=266.9300, fixquality=1
$GPRMC,151711.400,A,4308.4650,N,07726.7910,W,39.60,267.40,220419,,,A*4E
$GPGGA,151711.600,4308.4650,N,07726.7940,W,1,05,2.33,161.2,M,-34.4,M,,*51
lng=-77.446517, lat=43.141078, altitude=161.20, speed=39.60, satellites=5, angle=267.4000, fixquality=1
$GPRMC,151711.800,A,4308.4649,N,07726.7970,W,39.37,267.28,220419,,,A*40
$GPGGA,151712.000,4308.4648,N,07726.7999,W,1,05,2.33,161.2,M,-34.4,M,,*59
lng=-77.446617, lat=43.141078, altitude=161.20, speed=39.37, satellites=5, angle=267.2800, fixquality=1
$GPRMC,151712.200,A,4308.4647,N,07726.8029,W,39.25,266.90,220419,,,A*4C
$GPGGA,151712.400,4308.4645,N,07726.8059,W,1,05,2.33,161.3,M,-34.4,M,,*5B
lng=-77.446708, lat=43.141078, altitude=161.20, speed=39.25, satellites=5, angle=266.9000, fixquality=1
$GPRMC,151712.600,A,4308.4644,N,07726.8088,W,39.23,266.40,220419,,,A*4B
$GPGGA,151712.800,4308.4643,N,07726.8118,W,1,05,2.33,161.3,M,-34.4,M,,*55
lng=-77.446807, lat=43.141071, altitude=161.30, speed=39.23, satellites=5, angle=266.4000, fixquality=1
$GPRMC,151713.000,A,4308.4641,N,07726.8148,W,39.23,266.03,220419,,,A*43
$GPGGA,151713.200,4308.4640,N,07726.8177,W,1,05,2.33,161.3,M,-34.4,M,,*54
lng=-77.446914, lat=43.141063, altitude=161.30, speed=39.23, satellites=5, angle=266.0300, fixquality=1
$GPRMC,151713.400,A,4308.4638,N,07726.8207,W,39.25,266.11,220419,,,A*44
$GPGGA,151713.600,4308.4636,N,07726.8237,W,1,05,2.33,161.3,M,-34.4,M,,*56
lng=-77.447013, lat=43.141063, altitude=161.30, speed=39.25, satellites=5, angle=266.1100, fixquality=1
$GPRMC,151713.800,A,4308.4634,N,07726.8267,W,39.41,266.38,220419,,,A*4B
$GPGGA,151714.000,4308.4632,N,07726.8298,W,1,05,2.33,161.3,M,-34.4,M,,*56
lng=-77.447113, lat=43.141056, altitude=161.30, speed=39.41, satellites=5, angle=266.3800, fixquality=1
$GPRMC,151714.200,A,4308.4630,N,07726.8328,W,39.83,266.22,220419,,,A*4D
$GPGGA,151714.400,4308.4627,N,07726.8359,W,1,05,2.33,161.3,M,-34.4,M,,*5A
lng=-77.447219, lat=43.141048, altitude=161.30, speed=39.83, satellites=5, angle=266.2200, fixquality=1
$GPRMC,151714.600,A,4308.4625,N,07726.8390,W,39.95,266.18,220419,,,A*40
$GPGGA,151714.800,4308.4624,N,07726.8420,W,1,05,2.33,161.4,M,-34.4,M,,*5B
lng=-77.447311, lat=43.141040, altitude=161.30, speed=39.95, satellites=5, angle=266.1800, fixquality=1
$GPRMC,151715.000,A,4308.4622,N,07726.8451,W,40.15,266.20,220419,,,A*47
$GPGGA,151715.200,4308.4620,N,07726.8481,W,1,05,2.33,161.5,M,-34.4,M,,*5E
lng=-77.447418, lat=43.141040, altitude=161.40, speed=40.15, satellites=5, angle=266.2000, fixquality=1
$GPRMC,151715.400,A,4308.4618,N,07726.8513,W,40.77,266.12,220419,,,A*48
$GPGGA,151715.600,4308.4615,N,07726.8544,W,1,05,2.33,161.5,M,-34.4,M,,*54
lng=-77.447517, lat=43.141033, altitude=161.50, speed=40.77, satellites=5, angle=266.1200, fixquality=1
$GPRMC,151715.800,A,4308.4613,N,07726.8575,W,40.89,265.81,220419,,,A*47
$GPGGA,151716.000,4308.4611,N,07726.8606,W,1,05,2.33,161.6,M,-34.4,M,,*53
lng=-77.447624, lat=43.141025, altitude=161.50, speed=40.89, satellites=5, angle=265.8100, fixquality=1
$GPRMC,151716.200,A,4308.4609,N,07726.8638,W,41.00,265.96,220419,,,A*49
$GPGGA,151716.400,4308.4608,N,07726.8669,W,1,05,2.33,161.7,M,-34.4,M,,*57
lng=-77.447731, lat=43.141014, altitude=161.60, speed=41.00, satellites=5, angle=265.9600, fixquality=1
$GPRMC,151716.600,A,4308.4606,N,07726.8699,W,40.49,266.11,220419,,,A*49
$GPGGA,151716.800,4308.4605,N,07726.8730,W,1,05,2.33,161.8,M,-34.4,M,,*54
lng=-77.447837, lat=43.141006, altitude=161.70, speed=40.49, satellites=5, angle=266.1100, fixquality=1
$GPRMC,151717.000,A,4308.4603,N,07726.8761,W,40.49,265.84,220419,,,A*42
$GPGGA,151717.200,4308.4601,N,07726.8791,W,1,05,2.33,161.9,M,-34.4,M,,*51
lng=-77.447929, lat=43.141006, altitude=161.80, speed=40.49, satellites=5, angle=265.8400, fixquality=1
$GPRMC,151717.400,A,4308.4599,N,07726.8821,W,39.95,265.54,220419,,,A*4F
$GPGGA,151717.600,4308.4596,N,07726.8852,W,1,05,2.33,162.0,M,-34.4,M,,*52
lng=-77.448036, lat=43.140998, altitude=161.90, speed=39.95, satellites=5, angle=265.5400, fixquality=1
$GPRMC,151717.800,A,4308.4593,N,07726.8882,W,39.96,265.24,220419,,,A*44
$GPGGA,151718.000,4308.4591,N,07726.8913,W,1,05,2.33,162.1,M,-34.4,M,,*59
lng=-77.448135, lat=43.140991, altitude=162.00, speed=39.96, satellites=5, angle=265.2400, fixquality=1
$GPRMC,151718.200,A,4308.4595,N,07726.8941,W,40.00,264.96,220419,,,A*40
$GPGGA,151718.400,4308.4600,N,07726.8970,W,1,06,1.44,162.2,M,-34.4,M,,*50
lng=-77.448234, lat=43.140991, altitude=162.10, speed=40.00, satellites=5, angle=264.9600, fixquality=1
$GPRMC,151718.600,A,4308.4603,N,07726.8998,W,39.97,264.91,220419,,,A*4B
$GPGGA,151718.800,4308.4607,N,07726.9026,W,1,06,1.40,162.4,M,-34.4,M,,*52
lng=-77.448333, lat=43.141006, altitude=162.20, speed=39.97, satellites=6, angle=264.9100, fixquality=1
$GPRMC,151719.000,A,4308.4611,N,07726.9054,W,39.85,264.76,220419,,,A*4D
$GPGGA,151719.200,4308.4613,N,07726.9082,W,1,06,1.39,162.5,M,-34.4,M,,*5D
lng=-77.448417, lat=43.141014, altitude=162.40, speed=39.85, satellites=6, angle=264.7600, fixquality=1
$GPRMC,151719.400,A,4308.4615,N,07726.9109,W,37.62,265.10,220419,,,A*42
$GPGGA,151719.600,4308.4614,N,07726.9137,W,1,06,1.39,162.6,M,-34.4,M,,*52
lng=-77.448516, lat=43.141025, altitude=162.50, speed=37.62, satellites=6, angle=265.1000, fixquality=1
$GPRMC,151719.800,A,4308.4612,N,07726.9165,W,36.77,265.01,220419,,,A*46
$GPGGA,151720.000,4308.4614,N,07726.9191,W,1,06,1.39,162.7,M,-34.4,M,,*53
lng=-77.448608, lat=43.141025, altitude=162.60, speed=36.77, satellites=6, angle=265.0100, fixquality=1
$GPRMC,151720.200,A,4308.4615,N,07726.9217,W,35.28,264.96,220419,,,A*41
$GPGGA,151720.400,4308.4616,N,07726.9243,W,1,06,1.44,162.8,M,-34.4,M,,*5C
lng=-77.448699, lat=43.141025, altitude=162.70, speed=35.28, satellites=6, angle=264.9600, fixquality=1
$GPRMC,151720.600,A,4308.4616,N,07726.9267,W,33.60,265.02,220419,,,A*47
$GPGGA,151720.800,4308.4616,N,07726.9292,W,1,06,1.39,162.9,M,-34.4,M,,*57
lng=-77.448776, lat=43.141025, altitude=162.80, speed=33.60, satellites=6, angle=265.0200, fixquality=1
$GPRMC,151721.000,A,4308.4616,N,07726.9316,W,32.25,264.98,220419,,,A*45
$GPGGA,151721.200,4308.4616,N,07726.9339,W,1,06,1.39,162.9,M,-34.4,M,,*5C
lng=-77.448860, lat=43.141025, altitude=162.90, speed=32.25, satellites=6, angle=264.9800, fixquality=1
$GPRMC,151721.400,A,4308.4617,N,07726.9362,W,30.70,265.34,220419,,,A*46
$GPGGA,151721.600,4308.4617,N,07726.9384,W,1,06,1.39,163.0,M,-34.4,M,,*57
lng=-77.448936, lat=43.141033, altitude=162.90, speed=30.70, satellites=6, angle=265.3400, fixquality=1
$GPRMC,151721.800,A,4308.4617,N,07726.9406,W,29.80,265.07,220419,,,A*48
$GPGGA,151722.000,4308.4617,N,07726.9428,W,1,06,1.39,163.0,M,-34.4,M,,*53
lng=-77.449005, lat=43.141033, altitude=163.00, speed=29.80, satellites=6, angle=265.0700, fixquality=1
$GPRMC,151722.200,A,4308.4617,N,07726.9449,W,28.61,264.76,220419,,,A*43
$GPGGA,151722.400,4308.4616,N,07726.9470,W,1,06,1.39,163.1,M,-34.4,M,,*5A
lng=-77.449081, lat=43.141033, altitude=163.00, speed=28.61, satellites=6, angle=264.7600, fixquality=1
$GPRMC,151722.600,A,4308.4616,N,07726.9491,W,27.37,264.41,220419,,,A*4B
$GPGGA,151722.800,4308.4616,N,07726.9511,W,1,06,1.39,163.2,M,-34.4,M,,*53
lng=-77.449150, lat=43.141025, altitude=163.10, speed=27.37, satellites=6, angle=264.4100, fixquality=1
$GPRMC,151723.000,A,4308.4615,N,07726.9530,W,26.53,264.63,220419,,,A*46
$GPGGA,151723.200,4308.4615,N,07726.9550,W,1,06,1.39,163.2,M,-34.4,M,,*5E
lng=-77.449218, lat=43.141025, altitude=163.20, speed=26.53, satellites=6, angle=264.6300, fixquality=1
$GPRMC,151723.400,A,4308.4615,N,07726.9569,W,25.70,265.24,220419,,,A*4E
$GPGGA,151723.600,4308.4614,N,07726.9588,W,1,06,1.44,163.2,M,-34.4,M,,*54
lng=-77.449287, lat=43.141025, altitude=163.20, speed=25.70, satellites=6, angle=265.2400, fixquality=1
$GPRMC,151723.800,A,4308.4614,N,07726.9607,W,26.01,265.33,220419,,,A*4B
$GPGGA,151724.000,4308.4613,N,07726.9627,W,1,06,1.40,163.3,M,-34.4,M,,*51
lng=-77.449348, lat=43.141025, altitude=163.20, speed=26.01, satellites=6, angle=265.3300, fixquality=1
$GPRMC,151724.200,A,4308.4613,N,07726.9647,W,26.99,265.02,220419,,,A*46
$GPGGA,151724.400,4308.4613,N,07726.9667,W,1,06,1.39,163.3,M,-34.4,M,,*5F
lng=-77.449417, lat=43.141025, altitude=163.30, speed=26.99, satellites=6, angle=265.0200, fixquality=1
$GPRMC,151724.600,A,4308.4612,N,07726.9688,W,27.20,265.01,220419,,,A*40
$GPGGA,151724.800,4308.4612,N,07726.9708,W,1,06,1.39,163.3,M,-34.4,M,,*5A
lng=-77.449478, lat=43.141025, altitude=163.30, speed=27.20, satellites=6, angle=265.0100, fixquality=1
$GPRMC,151725.000,A,4308.4611,N,07726.9729,W,27.55,265.05,220419,,,A*48
$GPGGA,151725.200,4308.4611,N,07726.9750,W,1,06,1.39,163.4,M,-34.4,M,,*58
lng=-77.449546, lat=43.141014, altitude=163.30, speed=27.55, satellites=6, angle=265.0500, fixquality=1
$GPRMC,151725.400,A,4308.4610,N,07726.9771,W,28.14,265.39,220419,,,A*45
$GPGGA,151725.600,4308.4609,N,07726.9793,W,1,06,1.44,163.3,M,-34.4,M,,*57
lng=-77.449615, lat=43.141014, altitude=163.40, speed=28.14, satellites=6, angle=265.3900, fixquality=1
$GPRMC,151725.800,A,4308.4609,N,07726.9814,W,28.25,265.85,220419,,,A*48
$GPGGA,151726.000,4308.4608,N,07726.9836,W,1,06,1.39,163.3,M,-34.4,M,,*59
lng=-77.449691, lat=43.141014, altitude=163.30, speed=28.25, satellites=6, angle=265.8500, fixquality=1
$GPRMC,151726.200,A,4308.4608,N,07726.9857,W,28.64,266.25,220419,,,A*4B
$GPGGA,151726.400,4308.4608,N,07726.9879,W,1,06,1.39,163.2,M,-34.4,M,,*57
lng=-77.449760, lat=43.141014, altitude=163.30, speed=28.64, satellites=6, angle=266.2500, fixquality=1
$GPRMC,151726.600,A,4308.4608,N,07726.9901,W,29.11,266.29,220419,,,A*42
$GPGGA,151726.800,4308.4608,N,07726.9923,W,1,06,1.39,163.2,M,-34.4,M,,*55
lng=-77.449836, lat=43.141014, altitude=163.20, speed=29.11, satellites=6, angle=266.2900, fixquality=1
$GPRMC,151727.000,A,4308.4607,N,07726.9945,W,29.50,266.48,220419,,,A*48
$GPGGA,151727.200,4308.4607,N,07726.9967,W,1,06,1.39,163.1,M,-34.4,M,,*52
lng=-77.449913, lat=43.141014, altitude=163.20, speed=29.50, satellites=6, angle=266.4800, fixquality=1
$GPRMC,151727.400,A,4308.4607,N,07726.9990,W,29.98,266.72,220419,,,A*49
$GPGGA,151727.600,4308.4607,N,07727.0013,W,1,06,1.44,163.1,M,-34.4,M,,*5E
lng=-77.449981, lat=43.141014, altitude=163.10, speed=29.98, satellites=6, angle=266.7200, fixquality=1
$GPRMC,151727.800,A,4308.4608,N,07727.0036,W,30.55,267.28,220419,,,A*40
$GPGGA,151728.000,4308.4608,N,07727.0059,W,1,06,1.39,163.1,M,-34.4,M,,*5C
lng=-77.450057, lat=43.141014, altitude=163.10, speed=30.55, satellites=6, angle=267.2800, fixquality=1
$GPRMC,151728.200,A,4308.4607,N,07727.0083,W,30.87,267.26,220419,,,A*45
$GPGGA,151728.400,4308.4607,N,07727.0107,W,1,06,1.39,163.1,M,-34.4,M,,*5D
lng=-77.450141, lat=43.141014, altitude=163.10, speed=30.87, satellites=6, angle=267.2600, fixquality=1
$GPRMC,151728.600,A,4308.4607,N,07727.0131,W,31.36,267.53,220419,,,A*40
$GPGGA,151728.800,4308.4607,N,07727.0155,W,1,06,1.39,163.1,M,-34.4,M,,*56
lng=-77.450218, lat=43.141014, altitude=163.10, speed=31.36, satellites=6, angle=267.5300, fixquality=1
$GPRMC,151729.000,A,4308.4607,N,07727.0179,W,32.29,267.24,220419,,,A*46
$GPGGA,151729.200,4308.4606,N,07727.0203,W,1,06,1.39,163.2,M,-34.4,M,,*5F
lng=-77.450302, lat=43.141014, altitude=163.10, speed=32.29, satellites=6, angle=267.2400, fixquality=1
$GPRMC,151729.400,A,4308.4605,N,07727.0228,W,32.29,267.40,220419,,,A*45
$GPGGA,151729.600,4308.4604,N,07727.0254,W,1,06,1.44,163.2,M,-34.4,M,,*51
lng=-77.450386, lat=43.141006, altitude=163.20, speed=32.29, satellites=6, angle=267.4000, fixquality=1
$GPRMC,151729.800,A,4308.4604,N,07727.0279,W,32.61,267.81,220419,,,A*4D
$GPGGA,151730.000,4308.4604,N,07727.0304,W,1,06,1.39,163.2,M,-34.4,M,,*51
lng=-77.450462, lat=43.141006, altitude=163.20, speed=32.61, satellites=6, angle=267.8100, fixquality=1
$GPRMC,151730.200,A,4308.4604,N,07727.0330,W,33.74,267.30,220419,,,A*4C
$GPGGA,151730.400,4308.4604,N,07727.0355,W,1,06,1.44,163.3,M,-34.4,M,,*5A
lng=-77.450553, lat=43.141006, altitude=163.20, speed=33.74, satellites=6, angle=267.3000, fixquality=1
$GPRMC,151730.600,A,4308.4604,N,07727.0380,W,34.09,267.66,220419,,,A*4D
$GPGGA,151730.800,4308.4604,N,07727.0406,W,1,06,1.39,163.3,M,-34.4,M,,*5D
lng=-77.450637, lat=43.141006, altitude=163.30, speed=34.09, satellites=6, angle=267.6600, fixquality=1
$GPRMC,151731.000,A,4308.4604,N,07727.0432,W,34.30,268.38,220419,,,A*4A
$GPGGA,151731.200,4308.4605,N,07727.0457,W,1,06,1.44,163.4,M,-34.4,M,,*5E
lng=-77.450714, lat=43.141006, altitude=163.30, speed=34.30, satellites=6, angle=268.3800, fixquality=1
$GPRMC,151731.400,A,4308.4605,N,07727.0483,W,34.64,269.22,220419,,,A*4E
$GPGGA,151731.600,4308.4605,N,07727.0510,W,1,06,1.44,163.4,M,-34.4,M,,*58
lng=-77.450805, lat=43.141006, altitude=163.40, speed=34.64, satellites=6, angle=269.2200, fixquality=1
$GPRMC,151731.800,A,4308.4605,N,07727.0536,W,34.88,269.37,220419,,,A*4B
$GPGGA,151732.000,4308.4606,N,07727.0562,W,1,06,1.39,163.4,M,-34.4,M,,*51
lng=-77.450897, lat=43.141006, altitude=163.40, speed=34.88, satellites=6, angle=269.3700, fixquality=1
$GPRMC,151732.200,A,4308.4606,N,07727.0589,W,35.18,270.12,220419,,,A*42
$GPGGA,151732.400,4308.4607,N,07727.0616,W,1,06,1.44,163.3,M,-34.4,M,,*59
lng=-77.450981, lat=43.141006, altitude=163.40, speed=35.18, satellites=6, angle=270.1200, fixquality=1
$GPRMC,151732.600,A,4308.4608,N,07727.0643,W,35.47,271.40,220419,,,A*41
$GPGGA,151732.800,4308.4608,N,07727.0670,W,1,06,1.40,163.3,M,-34.4,M,,*5E
lng=-77.451072, lat=43.141014, altitude=163.30, speed=35.47, satellites=6, angle=271.4000, fixquality=1
$GPRMC,151733.000,A,4308.4609,N,07727.0697,W,35.60,272.36,220419,,,A*49
$GPGGA,151733.200,4308.4609,N,07727.0724,W,1,06,1.44,163.1,M,-34.4,M,,*52
lng=-77.451164, lat=43.141014, altitude=163.30, speed=35.60, satellites=6, angle=272.3600, fixquality=1
$GPRMC,151733.400,A,4308.4611,N,07727.0751,W,35.50,273.59,220419,,,A*44
$GPGGA,151733.600,4308.4612,N,07727.0779,W,1,06,1.44,162.9,M,-34.4,M,,*5D
lng=-77.451255, lat=43.141014, altitude=163.10, speed=35.50, satellites=6, angle=273.5900, fixquality=1
$GPRMC,151733.800,A,4308.4613,N,07727.0807,W,35.82,273.90,220419,,,A*4C
$GPGGA,151734.000,4308.4615,N,07727.0834,W,1,06,1.44,162.8,M,-34.4,M,,*5C
lng=-77.451339, lat=43.141025, altitude=162.90, speed=35.82, satellites=6, angle=273.9000, fixquality=1
$GPRMC,151734.200,A,4308.4617,N,07727.0862,W,36.18,274.42,220419,,,A*4E
$GPGGA,151734.400,4308.4619,N,07727.0890,W,1,06,1.44,162.7,M,-34.4,M,,*55
lng=-77.451438, lat=43.141033, altitude=162.80, speed=36.18, satellites=6, angle=274.4200, fixquality=1
$GPRMC,151734.600,A,4308.4620,N,07727.0918,W,36.24,274.81,220419,,,A*42
$GPGGA,151734.800,4308.4622,N,07727.0946,W,1,06,1.40,162.8,M,-34.4,M,,*50
lng=-77.451530, lat=43.141033, altitude=162.70, speed=36.24, satellites=6, angle=274.8100, fixquality=1
$GPRMC,151735.000,A,4308.4623,N,07727.0974,W,36.56,275.18,220419,,,A*48
$GPGGA,151735.200,4308.4625,N,07727.1003,W,1,06,1.39,162.8,M,-34.4,M,,*5B
lng=-77.451622, lat=43.141040, altitude=162.80, speed=36.56, satellites=6, angle=275.1800, fixquality=1
$GPRMC,151735.400,A,4308.4627,N,07727.1031,W,36.90,275.52,220419,,,A*45
$GPGGA,151735.600,4308.4629,N,07727.1060,W,1,06,1.44,162.8,M,-34.4,M,,*5C
lng=-77.451713, lat=43.141048, altitude=162.80, speed=36.90, satellites=6, angle=275.5200, fixquality=1
$GPRMC,151735.800,A,4308.4631,N,07727.1088,W,36.82,276.28,220419,,,A*41
$GPGGA,151736.000,4308.4634,N,07727.1116,W,1,06,1.44,162.8,M,-34.4,M,,*55
lng=-77.451812, lat=43.141048, altitude=162.80, speed=36.82, satellites=6, angle=276.2800, fixquality=1
$GPRMC,151736.200,A,4308.4637,N,07727.1145,W,36.56,277.41,220419,,,A*49
$GPGGA,151736.400,4308.4639,N,07727.1173,W,1,06,1.44,162.9,M,-34.4,M,,*5E
lng=-77.451904, lat=43.141063, altitude=162.80, speed=36.56, satellites=6, angle=277.4100, fixquality=1
$GPRMC,151736.600,A,4308.4642,N,07727.1201,W,36.56,278.53,220419,,,A*40
$GPGGA,151736.800,4308.4646,N,07727.1230,W,1,06,1.39,162.9,M,-34.4,M,,*54
lng=-77.452003, lat=43.141071, altitude=162.90, speed=36.56, satellites=6, angle=278.5300, fixquality=1
$GPRMC,151737.000,A,4308.4649,N,07727.1258,W,36.77,279.36,220419,,,A*41
$GPGGA,151737.200,4308.4652,N,07727.1287,W,1,06,1.44,163.0,M,-34.4,M,,*54
lng=-77.452102, lat=43.141078, altitude=162.90, speed=36.77, satellites=6, angle=279.3600, fixquality=1
$GPRMC,151737.400,A,4308.4656,N,07727.1316,W,37.04,279.98,220419,,,A*41
$GPGGA,151737.600,4308.4660,N,07727.1344,W,1,06,1.44,163.0,M,-34.4,M,,*5F
lng=-77.452194, lat=43.141098, altitude=163.00, speed=37.04, satellites=6, angle=279.9800, fixquality=1
$GPRMC,151737.800,A,4308.4663,N,07727.1373,W,37.05,280.48,220419,,,A*42
$GPGGA,151738.000,4308.4667,N,07727.1402,W,1,06,1.44,163.1,M,-34.4,M,,*55
lng=-77.452285, lat=43.141105, altitude=163.00, speed=37.05, satellites=6, angle=280.4800, fixquality=1
$GPRMC,151738.200,A,4308.4671,N,07727.1430,W,37.14,281.02,220419,,,A*4B
$GPGGA,151738.400,4308.4675,N,07727.1459,W,1,06,1.44,163.1,M,-34.4,M,,*5C
lng=-77.452384, lat=43.141120, altitude=163.10, speed=37.14, satellites=6, angle=281.0200, fixquality=1
$GPRMC,151738.600,A,4308.4679,N,07727.1487,W,37.21,281.06,220419,,,A*49
$GPGGA,151738.800,4308.4683,N,07727.1516,W,1,06,1.40,163.2,M,-34.4,M,,*54
lng=-77.452484, lat=43.141128, altitude=163.10, speed=37.21, satellites=6, angle=281.0600, fixquality=1
$GPRMC,151739.000,A,4308.4687,N,07727.1544,W,37.31,281.10,220419,,,A*47
$GPGGA,151739.200,4308.4691,N,07727.1573,W,1,06,1.44,163.2,M,-34.4,M,,*5B
lng=-77.452568, lat=43.141147, altitude=163.20, speed=37.31, satellites=6, angle=281.1000, fixquality=1
