Vers 81
USE_SERIAL_FEEDBACK=true
DEVELOPMENT_MODE=false
USE_RMC_ONLY=false

$GPRMC,141503.500,A,4308.2853,N,07726.2727,W,0.08,2.38,210919,,,A*7F
$GPGGA,141503.750,4308.2853,N,07726.2727,W,1,03,67.01,184.4,M,-34.4,M,,*6D
$GPRMC,141504.000,A,4308.2852,N,07726.2728,W,0.06,41.96,210919,,,A*4E
$GPGGA,141504.250,4308.2851,N,07726.2728,W,1,03,3.50,184.4,M,-34.4,M,,*54
$GPRMC,141504.500,A,4308.2850,N,07726.2729,W,0.08,28.38,210919,,,A*4D
$GPGGA,141504.750,4308.2849,N,07726.2730,W,1,03,3.49,184.4,M,-34.4,M,,*59
$GPRMC,141505.000,A,4308.2848,N,07726.2731,W,0.01,106.03,210919,,,A*75
$GPGGA,141505.250,4308.2849,N,07726.2731,W,1,03,3.50,184.4,M,-34.4,M,,*54
$GPRMC,141505.500,A,4308.2849,N,07726.2731,W,0.05,39.95,210919,,,A*47
$GPGGA,141505.750,4308.2850,N,07726.2730,W,1,03,3.49,184.4,M,-34.4,M,,*50
$GPRMC,141506.000,A,4308.2850,N,07726.2731,W,0.01,15.19,210919,,,A*47
$GPGGA,141506.250,4308.2850,N,07726.2731,W,1,03,3.49,184.4,M,-34.4,M,,*57
$GPRMC,141506.500,A,4308.2850,N,07726.2730,W,0.08,11.68,210919,,,A*48
$GPGGA,141506.750,4308.2851,N,07726.2730,W,1,03,66.93,184.3,M,-34.4,M,,*61
$GPRMC,141507.000,A,4308.2851,N,07726.2730,W,0.07,51.10,210919,,,A*49
$GPGGA,141507.250,4308.2852,N,07726.2729,W,1,03,3.49,184.3,M,-34.4,M,,*5A
$GPRMC,141507.500,A,4308.2851,N,07726.2729,W,0.07,30.71,210919,,,A*44
$GPGGA,141507.750,4308.2851,N,07726.2730,W,1,03,3.49,184.3,M,-34.4,M,,*54
$GPRMC,141508.000,A,4308.2851,N,07726.2730,W,0.02,283.18,210919,,,A*76
$GPGGA,141508.090,4308.2851,N,07726.2730,W,1,03,3.49,184.3,M,-3.4,M,,*50
$GPGGA,141508.500,4308.2849,N,07726.2729,W,1,03,66.88,184.3,M,-34.4,M,,*63
$GPRMC,141508.500,A,4308.2849,N,07726.2729,W,0.69,149.35,210919$GPGGA,141508.750,4308.2850,N,07726.2729,W,1,03,3.49,184.3,M,-34.4,M,,*52
$GPRMC,141509.000,A,4308.2850,N,07726.2729,W,0.16,176.53,210919,,,A*7D
$GPGGA,141509.250,4308.2850,N,07726.2730,W,1,03,3.49,184.3,M,-34.4,M,,*5E
$GPRMC,141509.500,A,4308.2850,N,07726.2730,W,0.05,247.17,210919,,,A*73
$GPGGA,141509.750,4308.2850,N,07726.2729,W,1,03,3.49,184.3,M,-34.4,M,,*53
$GPRMC,141510.000,A,4308.2850,N,07726.2729,W,0.07,129.63,210919,,,A*7C
$GPGGA,141510.250,4308.2850,N,07726.2729,W,1,03,3.49,184.3,M,-34.4,M,,*5E
$GPRMC,141510.500,A,4308.2851,N,07726.2729,W,0.02,124.41,210919,,,A*70
$GPGGA,141510.750,4308.2850,N,07726.2729,W,1,03,3.48,184.3,M,-34.4,M,,*5A
$GPRMC,141511.000,A,4308.2850,N,07726.2729,W,0.05,358.97,210919,,,A*70
$GPGGA,141511.250,4308.2850,N,07726.2729,W,1,03,66.81,184.3,M,-34.4,M,,*68
$GPRMC,141511.500,A,4308.2851,N,07726.2728,W,0.01,314.11,210919,,,A*77
$GPGGA,141511.750,4308.2851,N,07726.2728,W,1,03,3.48,184.3,M,-34.4,M,,*5B
$GPRMC,141512.000,A,4308.2851,N,07726.2728,W,0.06,8.36,210919,,,A*7D
$GPGGA,141512.250,4308.2851,N,07726.2727,W,1,03,66.78,184.3,M,-34.4,M,,*62
$GPRMC,141512.500,A,4308.2851,N,07726.2727,W,0.02,353.47,210919,,,A*78
$GPGGA,141512.750,4308.2851,N,07726.2727,W,1,03,66.77,184.3,M,-34.4,M,,*68
$GPRMC,141513.000,A,4308.2852,N,07726.2726,W,0.05,51.54,210919,,,A*4A
$GPGGA,141513.250,4308.2852,N,07726.2726,W,1,03,3.48,184.3,M,-34.4,M,,*51
$GPRMC,141513.500,A,4308.2852,N,07726.2726,W,0.05,37.46,210919,,,A*4C
$GPGGA,141513.750,4308.2852,N,07726.2726,W,1,03,3.48,184.3,M,-34.4,M,,*54
$GPRMC,141514.000,A,4308.2851,N,07726.2725,W,0.03,300.42,210919,,,A*7B
$GPGGA,141514.090,4308.2851,N,07726.2725,W,1,03,3.48,184.3,M,-3.4,M,,*58
$GPGGA,141514.500,4308.2851,N,07726.2724,W,1,03,3.48,184.3,M,-34.4,M,,*55
$GPRMC,141514.500,A,4308.2851,N,07726.2724,W,0.76,129.70,210919,,,A*75
$GPGGA,141514.750,4308.2851,N,07726.2724,W,1,03,3.48,184.3,M,-34.4,M,,*52
$GPRMC,141514.750,A,4308.2851,N,07726.2724,W,0.28,314.48,210919,,A*7E
$GPGGA,141515.000,4308.2851,N,07726.2724,W,1,03,3.48,184.3,M,-34.4,M,,*51
$GPRMC,141515.000,A,4308.2851,N,07726.2724,W,0.13,329.13,210919,,,A*75
$GPGGA,141515.250,4308.2851,N,07726.2723,W,1,03,3.48,184.3,M,-34.4,M,,*51
$GPRMC,141515.250,A,4308.2851,N,07726.2723,W,0.07,358.51,210919,,A*70
$GPGGA,141515.500,4308.2851,N,07726.2723,W,1,03,66.70,184.3,M,-34.4,M,,*6B
$GPRMC,141515.500,A,4308.2851,N,07726.2723,W,0.07,344.26,210919,,A*7F
$GPGGA,141515.750,4308.2851,N,07726.2723,W,1,03,3.48,184.3,M,-34.4,M,,*54
$GPRMC,141515.750,A,4308.2851,N,07726.2723,W,0.07,39.04,210919,$GPGGA,141516.000,4308.2852,N,07726.2723,W,1,03,3.48,184.3,M,-34.4,M,,*56
$GPRMC,141516.250,A,4308.2852,N,07726.2722,W,0.09,60.04,210919,,,A*47
$GPGGA,141516.500,4308.2853,N,07726.2722,W,1,03,3.48,184.4,M,-34.4,M,,*54
$GPRMC,141516.750,A,4308.2853,N,07726.2722,W,0.06,20.04,210919,,,A*48
$GPGGA,141517.000,4308.2854,N,07726.2722,W,1,03,3.47,184.4,M,-34.4,M,,*58
$GPRMC,141517.250,A,4308.2854,N,07726.2721,W,0.04,59.33,210919,,,A*40
$GPGGA,141517.500,4308.2854,N,07726.2721,W,1,03,3.47,184.4,M,-34.4,M,,*5E
$GPRMC,141517.750,A,4308.2855,N,07726.2720,W,0.09,29.81,210919,,,A*46
$GPGGA,141518.000,4308.2855,N,07726.2720,W,1,03,3.47,184.4,M,-34.4,M,,*54
$GPRMC,141518.250,A,4308.2855,N,07726.2720,W,0.02,54.09,210919,,,A*4D
$GPGGA,141518.500,4308.2855,N,07726.2720,W,1,03,3.48,184.4,M,-34.4,M,,*5E
$GPRMC,141518.750,A,4308.2856,N,07726.2719,W,0.06,350.84,210919,,,A*77
$GPGGA,141519.000,4308.2856,N,07726.2719,W,1,03,66.61,184.4,M,-34.4,M,,*6B
$GPRMC,141519.250,A,4308.2856,N,07726.2719,W,0.06,357.77,210919,,,A*78
$GPGGA,141519.500,4308.2856,N,07726.2719,W,1,03,66.59,184.4,M,-34.4,M,,*65
$GPRMC,141519.750,A,4308.2856,N,07726.2719,W,0.07,13.73,210919,,,A*4B
$GPGGA,141520.000,4308.2856,N,07726.2719,W,1,03,66.58,184.4,M,-34.4,M,,*6B
$GPGGA,141520.500,4308.2878,N,07726.2709,W,1,05,1.90,180.3,M,-34.4,M,,*53
$GPRMC,141520.500,A,4308.2878,N,07726.2709,W,0.08,27.55,210919,,A*47
$GPGGA,141520.750,4308.2894,N,07726.2702,W,1,05,1.90,177.4,M,-34.4,M,,*52
$GPRMC,141520.750,A,4308.2894,N,07726.2702,W,0.08,26.58,210919,,A*45
$GPGGA,141521.000,4308.2907,N,07726.2696,W,1,05,1.90,175.0,M,-34.4,M,,*50
$GPRMC,141521.000,A,4308.2907,N,07726.2696,W,0.06,83.22,210919,,,A*4D
$GPGGA,141521.250,4308.2918,N,07726.2691,W,1,05,1.90,173.0,M,-34.4,M,,*58
$GPRMC,141521.250,A,4308.2918,N,07726.2691,W,0.02,331.29,210919,,A*76
$GPGGA,141521.500,4308.2927,N,07726.2687,W,1,05,1.90,171.2,M,-34.4,M,,*51
$GPRMC,141521.500,A,4308.2927,N,07726.2687,W,0.02,195.02,210919,,A*7A
$GPGGA,141521.750,4308.2930,N,07726.2686,W,1,05,1.90,170.6,M,-34.4,M,,*54
$GPRMC,141521.750,A,4308.2930,N,07726.2686,W,0.07,45.38,210919,$GPGGA,141522.000,4308.2933,N,07726.2684,W,1,05,1.90,170.0,M,-34.4,M,,*52
$GPRMC,141522.250,A,4308.2941,N,07726.2681,W,0.03,328.98,210919,,,A*7B
$GPGGA,141522.500,4308.2947,N,07726.2678,W,1,05,1.90,167.2,M,-34.4,M,,*53
$GPRMC,141522.750,A,4308.2950,N,07726.2677,W,0.02,358.17,210919,,,A*76
$GPGGA,141523.000,4308.2955,N,07726.2675,W,1,05,2.19,165.5,M,-34.4,M,,*5E
$GPRMC,141523.250,A,4308.2959,N,07726.2673,W,0.07,300.02,210919,,,A*73
$GPGGA,141523.500,4308.2963,N,07726.2671,W,1,05,1.90,163.6,M,-34.4,M,,*5D
$GPRMC,141523.750,A,4308.2967,N,07726.2669,W,0.09,77.06,210919,,,A*49
$GPGGA,141524.000,4308.2970,N,07726.2668,W,1,05,1.90,162.1,M,-34.4,M,,*53
$GPRMC,141524.250,A,4308.2972,N,07726.2667,W,0.03,161.45,210919,,,A*7A
$GPGGA,141524.500,4308.2975,N,07726.2666,W,1,05,1.90,160.6,M,-34.4,M,,*58
$GPRMC,141524.750,A,4308.2978,N,07726.2665,W,0.04,342.11,210919,,,A*72
$GPGGA,141525.000,4308.2980,N,07726.2664,W,1,05,1.90,159.3,M,-34.4,M,,*5B
$GPRMC,141525.250,A,4308.2982,N,07726.2663,W,0.01,342.98,210919,,,A*71
$GPGGA,141525.500,4308.2984,N,07726.2662,W,1,05,1.90,158.1,M,-34.4,M,,*5F
$GPRMC,141525.750,A,4308.2986,N,07726.2661,W,0.02,125.25,210919,,,A*74
$GPGGA,141526.000,4308.2987,N,07726.2661,W,1,05,1.90,157.1,M,-34.4,M,,*56
$GPRMC,141526.250,A,4308.2988,N,07726.2660,W,0.01,90.40,210919,,,A*42
$GPGGA,141526.500,4308.2989,N,07726.2660,W,1,05,1.90,156.4,M,-34.4,M,,*58
$GPRMC,141526.750,A,4308.2990,N,07726.2659,W,0.03,29.77,210919,,,A*40
$GPGGA,141527.000,4308.2991,N,07726.2658,W,1,05,1.90,155.6,M,-34.4,M,,*5F
$GPRMC,141527.250,A,4308.2991,N,07726.2658,W,0.05,0.06,210919,,,A*7F
$GPGGA,141527.500,4308.2992,N,07726.2657,W,1,05,2.19,154.9,M,-34.4,M,,*5A
$GPRMC,141527.750,A,4308.2993,N,07726.2657,W,0.04,243.46,210919,,,A*77
$GPGGA,141528.000,4308.2993,N,07726.2656,W,1,05,1.90,154.2,M,-34.4,M,,*59
$GPRMC,141528.250,A,4308.2994,N,07726.2656,W,0.03,11.44,210919,,,A*4B
$GPGGA,141528.500,4308.2994,N,07726.2655,W,1,05,2.19,153.7,M,-34.4,M,,*58
$GPRMC,141528.750,A,4308.2995,N,07726.2655,W,0.02,250.86,210919,,,A*74
$GPGGA,141529.000,4308.2996,N,07726.2654,W,1,05,1.90,153.0,M,-34.4,M,,*5A
$GPRMC,141529.250,A,4308.2996,N,07726.2654,W,0.06,178.04,210919,,,A*75
$GPGGA,141529.500,4308.2997,N,07726.2653,W,1,05,1.90,152.4,M,-34.4,M,,*5C
$GPRMC,141529.750,A,4308.2997,N,07726.2653,W,0.04,142.82,210919,,,A*73
$GPGGA,141530.000,4308.2998,N,07726.2652,W,1,05,1.90,151.8,M,-34.4,M,,*50
$GPRMC,141530.250,A,4308.2998,N,07726.2652,W,0.03,165.42,210919,,,A*7E
$GPGGA,141530.500,4308.2998,N,07726.2651,W,1,05,1.90,151.1,M,-34.4,M,,*5F
$GPRMC,141530.750,A,4308.2999,N,07726.2651,W,0.05,343.36,210919,,,A*7A
$GPGGA,141531.000,4308.2999,N,07726.2650,W,1,05,1.90,150.5,M,-34.4,M,,*5E
$GPRMC,141531.250,A,4308.2999,N,07726.2650,W,0.01,16.43,210919,,,A*4A
$GPGGA,141531.500,4308.2999,N,07726.2650,W,1,05,1.90,150.1,M,-34.4,M,,*5F
$GPRMC,141531.750,A,4308.2999,N,07726.2649,W,0.02,53.62,210919,,,A*46
$GPGGA,141532.000,4308.2999,N,07726.2649,W,1,05,1.90,149.7,M,-34.4,M,,*5F
$GPRMC,141532.250,A,4308.2999,N,07726.2649,W,0.02,270.05,210919,,,A*72
$GPGGA,141532.500,4308.2999,N,07726.2649,W,1,06,1.84,149.3,M,-34.4,M,,*58
$GPRMC,141532.750,A,4308.3000,N,07726.2649,W,0.02,45.55,210919,,,A*4E
$GPGGA,141533.000,4308.3000,N,07726.2648,W,1,06,1.84,148.8,M,-34.4,M,,*5F
$GPRMC,141533.250,A,4308.3000,N,07726.2648,W,0.03,41.98,210919,,,A*4F
$GPGGA,141533.500,4308.3000,N,07726.2648,W,1,06,1.84,148.5,M,-34.4,M,,*57
$GPRMC,141533.750,A,4308.3000,N,07726.2648,W,0.00,41.12,210919,,,A*4B
$GPGGA,141534.000,4308.3000,N,07726.2648,W,1,06,1.84,148.1,M,-34.4,M,,*51
$GPRMC,141534.250,A,4308.3000,N,07726.2648,W,0.04,51.00,210919,,,A*4F
$GPGGA,141534.500,4308.3000,N,07726.2648,W,1,06,1.84,147.8,M,-34.4,M,,*52
$GPRMC,141534.750,A,4308.3000,N,07726.2648,W,0.03,22.30,210919,,,A*4A
$GPGGA,141535.000,4308.3000,N,07726.2647,W,1,06,1.84,147.5,M,-34.4,M,,*54
$GPRMC,141535.250,A,4308.3000,N,07726.2647,W,0.04,152.53,210919,,,A*75
$GPGGA,141535.500,4308.3000,N,07726.2647,W,1,06,1.84,147.4,M,-34.4,M,,*50
$GPRMC,141535.750,A,4308.3000,N,07726.2647,W,0.06,347.36,210919,,,A*77
$GPGGA,141536.000,4308.3000,N,07726.2647,W,1,06,2.04,147.3,M,-34.4,M,,*5A
$GPRMC,141536.250,A,4308.3000,N,07726.2647,W,0.02,211.96,210919,,,A*7D
$GPGGA,141536.500,4308.3000,N,07726.2647,W,1,06,1.84,147.3,M,-34.4,M,,*54
$GPRMC,141536.750,A,4308.3000,N,07726.2647,W,0.01,56.20,210919,,,A*47
$GPGGA,141537.000,4308.3000,N,07726.2647,W,1,06,1.84,147.3,M,-34.4,M,,*50
$GPRMC,141537.250,A,4308.3000,N,07726.2647,W,0.04,64.89,210919,,,A*44
$GPGGA,141537.500,4308.3000,N,07726.2647,W,1,06,1.84,147.3,M,-34.4,M,,*55
$GPRMC,141537.750,A,4308.3000,N,07726.2647,W,0.03,339.96,210919,,,A*73
$GPGGA,141538.000,4308.3000,N,07726.2647,W,1,06,1.84,147.3,M,-34.4,M,,*5F
$GPRMC,141538.250,A,4308.3000,N,07726.2647,W,0.04,88.73,210919,,,A*4C
$GPGGA,141538.500,4308.3000,N,07726.2647,W,1,06,1.83,147.3,M,-34.4,M,,*5D
$GPRMC,141538.750,A,4308.3000,N,07726.2647,W,0.02,30.79,210919,,,A*46
$GPGGA,141539.000,4308.3000,N,07726.2647,W,1,06,1.83,147.3,M,-34.4,M,,*59
$GPRMC,141539.250,A,4308.3000,N,07726.2647,W,0.02,277.60,210919,,,A*7B
$GPGGA,141539.500,4308.3000,N,07726.2647,W,1,06,1.84,147.3,M,-34.4,M,,*5B
$GPRMC,141539.750,A,4308.3000,N,07726.2647,W,0.02,4.92,210919,,,A*75
$GPGGA,141540.000,4308.3000,N,07726.2647,W,1,06,2.04,147.3,M,-34.4,M,,*5B
$GPRMC,141540.250,A,4308.3000,N,07726.2647,W,0.03,211.43,210919,,,A*75
$GPGGA,141540.500,4308.3000,N,07726.2647,W,1,06,1.83,147.3,M,-34.4,M,,*52
$GPRMC,141540.750,A,4308.3000,N,07726.2647,W,0.03,157.23,210919,,,A*77
$GPGGA,141541.000,4308.3000,N,07726.2647,W,1,06,1.83,147.3,M,-34.4,M,,*56
$GPRMC,141541.250,A,4308.3000,N,07726.2647,W,0.06,337.96,210919,,,A*7C
$GPGGA,141541.500,4308.3000,N,07726.2647,W,1,06,1.83,147.3,M,-34.4,M,,*53
$GPRMC,141541.750,A,4308.3000,N,07726.2647,W,0.02,21.49,210919,,,A*4B
$GPGGA,141542.000,4308.3000,N,07726.2647,W,1,06,1.83,147.3,M,-34.4,M,,*55
$GPRMC,141542.250,A,4308.3001,N,07726.2647,W,0.03,129.89,210919,,,A*78
$GPGGA,141542.500,4308.3001,N,07726.2647,W,1,06,1.83,147.3,M,-34.4,M,,*51
$GPRMC,141542.750,A,4308.3000,N,07726.2647,W,0.06,180.34,210919,,,A*7C
$GPGGA,141543.000,4308.3000,N,07726.2647,W,1,06,1.83,147.3,M,-34.4,M,,*54
$GPRMC,141543.250,A,4308.3000,N,07726.2647,W,0.03,126.47,210919,,,A*75
$GPGGA,141543.500,4308.3000,N,07726.2647,W,1,06,1.83,147.3,M,-34.4,M,,*51
$GPRMC,141543.750,A,4308.3000,N,07726.2647,W,0.03,208.08,210919,,,A*74
$GPGGA,141544.000,4308.3000,N,07726.2647,W,1,06,1.83,147.2,M,-34.4,M,,*52
$GPRMC,141544.250,A,4308.3000,N,07726.2647,W,0.06,23.69,210919,,,A*4F
$GPGGA,141544.500,4308.3000,N,07726.2647,W,1,06,1.83,147.2,M,-34.4,M,,*57
$GPRMC,141544.750,A,4308.3000,N,07726.2647,W,0.04,218.79,210919,,,A*73
$GPGGA,141545.000,4308.3000,N,07726.2647,W,1,06,1.83,147.2,M,-34.4,M,,*53
$GPRMC,141545.250,A,4308.3000,N,07726.2647,W,0.02,190.26,210919,,,A*78
$GPGGA,141545.500,4308.3000,N,07726.2647,W,1,06,1.83,147.2,M,-34.4,M,,*56
$GPRMC,141545.750,A,4308.3000,N,07726.2647,W,0.04,39.43,210919,,,A*4A
$GPGGA,141546.000,4308.3000,N,07726.2647,W,1,06,1.83,147.2,M,-34.4,M,,*50
$GPRMC,141546.250,A,4308.3000,N,07726.2647,W,0.03,358.42,210919,,,A*7E
$GPGGA,141546.500,4308.3000,N,07726.2647,W,1,06,2.03,147.2,M,-34.4,M,,*5E
$GPRMC,141546.750,A,4308.3000,N,07726.2647,W,0.01,205.40,210919,,,A*72
$GPGGA,141547.000,4308.3000,N,07726.2647,W,1,06,1.83,147.2,M,-34.4,M,,*51
$GPRMC,141547.250,A,4308.3000,N,07726.2647,W,0.02,355.51,210919,,,A*71
$GPGGA,141547.500,4308.3000,N,07726.2647,W,1,06,2.03,147.2,M,-34.4,M,,*5F
$GPRMC,141547.750,A,4308.3000,N,07726.2647,W,0.04,359.52,210919,,,A*7D
$GPGGA,141548.000,4308.3001,N,07726.2647,W,1,06,2.03,147.2,M,-34.4,M,,*54
$GPRMC,141548.250,A,4308.3001,N,07726.2647,W,0.02,83.30,210919,,,A*40
$GPGGA,141548.500,4308.3001,N,07726.2647,W,1,06,1.83,147.2,M,-34.4,M,,*5A
$GPRMC,141548.750,A,4308.3001,N,07726.2647,W,0.04,344.98,210919,,,A*79
$GPGGA,141549.000,4308.3001,N,07726.2647,W,1,06,1.83,147.2,M,-34.4,M,,*5E
$GPRMC,141549.250,A,4308.3001,N,07726.2648,W,0.05,57.14,210919,,,A*46
$GPGGA,141549.500,4308.3001,N,07726.2647,W,1,06,1.83,147.2,M,-34.4,M,,*5B
$GPRMC,141549.750,A,4308.3001,N,07726.2647,W,0.05,313.58,210919,,,A*77
$GPGGA,141550.000,4308.3001,N,07726.2648,W,1,06,1.83,147.2,M,-34.4,M,,*59
$GPRMC,141550.250,A,4308.3001,N,07726.2648,W,0.04,239.78,210919,,,A*7F
$GPGGA,141550.500,4308.3001,N,07726.2648,W,1,06,1.83,147.2,M,-34.4,M,,*5C
$GPRMC,141550.750,A,4308.3001,N,07726.2648,W,0.01,65.29,210919,,,A*40
$GPGGA,141551.000,4308.3001,N,07726.2648,W,1,06,1.83,147.2,M,-34.4,M,,*58
$GPRMC,141551.250,A,4308.3001,N,07726.2648,W,0.01,154.01,210919,,,A*7D
$GPGGA,141551.500,4308.3001,N,07726.2648,W,1,06,1.83,147.2,M,-34.4,M,,*5D
$GPRMC,141551.750,A,4308.3001,N,07726.2648,W,0.04,6.24,210919,,,A*7C
$GPGGA,141552.000,4308.3001,N,07726.2648,W,1,06,2.03,147.2,M,-34.4,M,,*50
$GPRMC,141552.250,A,4308.3001,N,07726.2648,W,0.03,221.81,210919,,,A*75
$GPGGA,141552.500,4308.3001,N,07726.2648,W,1,06,1.83,147.2,M,-34.4,M,,*5E
$GPRMC,141552.750,A,4308.3001,N,07726.2648,W,0.04,103.75,210919,,,A*7F
$GPGGA,141553.000,4308.3001,N,07726.2648,W,1,06,1.83,147.2,M,-34.4,M,,*5A
$GPRMC,141553.250,A,4308.3001,N,07726.2648,W,0.03,66.97,210919,,,A*42
$GPGGA,141553.500,4308.3001,N,07726.2648,W,1,06,1.83,147.2,M,-34.4,M,,*5F
$GPRMC,141553.750,A,4308.3001,N,07726.2648,W,0.05,298.76,210919,,,A*7D
$GPGGA,141554.000,4308.3001,N,07726.2648,W,1,06,1.83,147.2,M,-34.4,M,,*5D
$GPRMC,141554.250,A,4308.3001,N,07726.2648,W,0.05,355.98,210919,,,A*7F
$GPGGA,141554.500,4308.3001,N,07726.2648,W,1,06,2.03,147.2,M,-34.4,M,,*53
$GPRMC,141554.750,A,4308.3001,N,07726.2648,W,0.02,72.75,210919,,,A*48
$GPGGA,141555.000,4308.3001,N,07726.2648,W,1,06,1.83,147.2,M,-34.4,M,,*5C
$GPRMC,141555.250,A,4308.3001,N,07726.2648,W,0.01,127.73,210919,,,A*78
$GPGGA,141555.500,4308.3001,N,07726.2648,W,1,06,1.83,147.2,M,-34.4,M,,*59
$GPRMC,141555.750,A,4308.3001,N,07726.2648,W,0.05,69.88,210919,,,A*46
$GPGGA,141556.000,4308.3001,N,07726.2648,W,1,06,1.83,147.2,M,-34.4,M,,*5F
$GPRMC,141556.250,A,4308.3001,N,07726.2648,W,0.05,268.06,210919,,,A*75
$GPGGA,141556.500,4308.3001,N,07726.2648,W,1,06,1.83,147.2,M,-34.4,M,,*5A
$GPRMC,141556.750,A,4308.3001,N,07726.2648,W,0.01,106.64,210919,,,A*7B
$GPGGA,141557.000,4308.3001,N,07726.2648,W,1,06,1.83,147.2,M,-34.4,M,,*5E
$GPRMC,141557.250,A,4308.3001,N,07726.2648,W,0.03,144.37,210919,,,A*7D
$GPGGA,141557.500,4308.3001,N,07726.2648,W,1,06,1.83,147.1,M,-34.4,M,,*58
$GPRMC,141557.750,A,4308.3001,N,07726.2648,W,0.01,203.00,210919,,,A*7E
$GPGGA,141558.000,4308.3001,N,07726.2648,W,1,06,1.83,147.1,M,-34.4,M,,*52
$GPRMC,141558.250,A,4308.3001,N,07726.2648,W,0.02,125.62,210919,,,A*74
$GPGGA,141558.500,4308.3001,N,07726.2648,W,1,06,1.83,147.1,M,-34.4,M,,*57
$GPRMC,141558.750,A,4308.3001,N,07726.2648,W,0.01,284.74,210919,,,A*7D
$GPGGA,141559.000,4308.3001,N,07726.2648,W,1,06,1.83,147.1,M,-34.4,M,,*53
$GPRMC,141559.250,A,4308.3001,N,07726.2648,W,0.04,330.90,210919,,,A*78
$GPGGA,141559.500,4308.3001,N,07726.2648,W,1,06,1.83,147.1,M,-34.4,M,,*56
$GPRMC,141559.750,A,4308.3001,N,07726.2648,W,0.01,217.61,210919,,,A*72
$GPGGA,141600.000,4308.3001,N,07726.2648,W,1,06,1.83,147.1,M,-34.4,M,,*5C
$GPRMC,141600.250,A,4308.3001,N,07726.2648,W,0.02,138.39,210919,,,A*78
$GPGGA,141600.500,4308.3001,N,07726.2648,W,1,06,1.83,147.1,M,-34.4,M,,*59
$GPRMC,141600.750,A,4308.3001,N,07726.2648,W,0.01,89.10,210919,,,A*4E
$GPGGA,141601.000,4308.3001,N,07726.2648,W,1,06,1.83,147.1,M,-34.4,M,,*5D
$GPRMC,141601.250,A,4308.3001,N,07726.2648,W,0.02,67.40,210919,,,A*4C
$GPGGA,141601.500,4308.3001,N,07726.2648,W,1,06,1.83,147.1,M,-34.4,M,,*58
$GPRMC,141601.750,A,4308.3001,N,07726.2648,W,0.04,247.86,210919,,,A*75
$GPGGA,141602.000,4308.3001,N,07726.2648,W,1,06,1.83,147.1,M,-34.4,M,,*5E
$GPRMC,141602.250,A,4308.3001,N,07726.2648,W,0.03,240.98,210919,,,A*7C
$GPGGA,141602.500,4308.3001,N,07726.2648,W,1,06,1.83,147.1,M,-34.4,M,,*5B
$GPRMC,141602.750,A,4308.3001,N,07726.2648,W,0.05,26.75,210919,,,A*4E
$GPGGA,141603.000,4308.3001,N,07726.2648,W,1,06,1.83,147.1,M,-34.4,M,,*5F
$GPRMC,141603.250,A,4308.3001,N,07726.2648,W,0.02,343.40,210919,,,A*7B
$GPGGA,141603.500,4308.3001,N,07726.2648,W,1,06,1.83,147.1,M,-34.4,M,,*5A
$GPRMC,141603.750,A,4308.3001,N,07726.2648,W,0.02,52.99,210919,,,A*49
$GPGGA,141604.000,4308.3001,N,07726.2648,W,1,06,1.83,147.1,M,-34.4,M,,*58
$GPRMC,141604.250,A,4308.3001,N,07726.2648,W,0.05,239.87,210919,,,A*7C
$GPGGA,141604.500,4308.3001,N,07726.2648,W,1,06,1.83,147.1,M,-34.4,M,,*5D
$GPRMC,141604.750,A,4308.3001,N,07726.2648,W,0.01,99.91,210919,,,A*42
$GPGGA,141605.000,4308.3001,N,07726.2648,W,1,06,1.83,147.1,M,-34.4,M,,*59
$GPRMC,141605.250,A,4308.3001,N,07726.2648,W,0.05,174.89,210919,,,A*79
$GPGGA,141605.500,4308.3001,N,07726.2648,W,1,06,1.82,147.1,M,-34.4,M,,*5D
$GPRMC,141605.750,A,4308.3001,N,07726.2648,W,0.02,307.89,210919,,,A*7D
$GPGGA,141606.000,4308.3001,N,07726.2648,W,1,06,1.82,147.1,M,-34.4,M,,*5B
$GPRMC,141606.250,A,4308.3001,N,07726.2648,W,0.05,128.32,210919,,,A*73
$GPGGA,141606.500,4308.3001,N,07726.2648,W,1,06,1.82,147.1,M,-34.4,M,,*5E
$GPRMC,141606.750,A,4308.3001,N,07726.2648,W,0.03,117.18,210919,,,A*74
$GPGGA,141607.000,4308.3001,N,07726.2647,W,1,06,1.82,147.1,M,-34.4,M,,*55
$GPRMC,141607.250,A,4308.3001,N,07726.2648,W,0.03,129.18,210919,,,A*7D
$GPGGA,141607.500,4308.3001,N,07726.2647,W,1,06,1.82,147.1,M,-34.4,M,,*50
$GPRMC,141607.750,A,4308.3001,N,07726.2647,W,0.02,300.97,210919,,,A*78
$GPGGA,141608.000,4308.3001,N,07726.2648,W,1,06,1.82,147.1,M,-34.4,M,,*55
$GPRMC,141606.250,A,4308.3001,N,07726.2647,W,0.03,41.85,210919,,,A*48
$GPGGA,141606.500,4308.3000,N,07726.2648,W,1,06,1.82,147.2,M,-34.4,M,,*5C
$GPRMC,141606.750,A,4308.3000,N,07726.2648,W,0.02,277.05,210919,,,A*7D
$GPGGA,141607.000,4308.3000,N,07726.2648,W,1,06,1.82,147.2,M,-34.4,M,,*58
$GPRMC,141607.250,A,4308.3000,N,07726.2648,W,0.05,10.38,210919,,,A*43
$GPGGA,141607.500,4308.2999,N,07726.2648,W,1,06,2.03,147.2,M,-34.4,M,,*5F
$GPRMC,141607.750,A,4308.2999,N,07726.2648,W,0.03,259.78,210919,,,A*73
$GPGGA,141608.000,4308.2999,N,07726.2648,W,1,06,1.82,147.3,M,-34.4,M,,*5E
$GPRMC,141608.250,A,4308.2999,N,07726.2648,W,0.05,321.61,210919,,,A*79
$GPGGA,141608.500,4308.2999,N,07726.2647,W,1,06,1.82,147.2,M,-34.4,M,,*55
$GPRMC,141608.750,A,4308.2999,N,07726.2647,W,0.01,285.74,210919,,,A*7C
$GPGGA,141609.000,4308.2999,N,07726.2647,W,1,06,1.82,147.1,M,-34.4,M,,*52
$GPRMC,141609.250,A,4308.2999,N,07726.2647,W,0.02,61.96,210919,,,A*4F
$GPGGA,141609.500,4308.2999,N,07726.2647,W,1,06,1.82,147.0,M,-34.4,M,,*56
$GPRMC,141609.750,A,4308.2999,N,07726.2647,W,0.02,164.47,210919,,,A*72
$GPGGA,141610.000,4308.2999,N,07726.2647,W,1,06,1.82,147.0,M,-34.4,M,,*5B
$GPRMC,141610.250,A,4308.3000,N,07726.2647,W,0.03,279.66,210919,,,A*7A
$GPGGA,141610.500,4308.3000,N,07726.2647,W,1,06,1.82,146.9,M,-34.4,M,,*5E
$GPRMC,141610.750,A,4308.3000,N,07726.2647,W,0.02,99.87,210919,,,A*4D
$GPGGA,141611.000,4308.3000,N,07726.2647,W,1,06,1.82,146.8,M,-34.4,M,,*5B
$GPRMC,141611.250,A,4308.3000,N,07726.2647,W,0.02,185.95,210919,,,A*76
$GPGGA,141611.500,4308.3000,N,07726.2647,W,1,06,1.82,146.8,M,-34.4,M,,*5E
$GPRMC,141611.750,A,4308.3000,N,07726.2647,W,0.01,170.99,210919,,,A*76
$GPGGA,141612.000,4308.3000,N,07726.2647,W,1,06,1.82,146.7,M,-34.4,M,,*57
$GPRMC,141612.250,A,4308.3000,N,07726.2647,W,0.03,137.41,210919,,,A*74
$GPGGA,141612.500,4308.3000,N,07726.2647,W,1,06,1.82,146.6,M,-34.4,M,,*53
$GPRMC,141612.750,A,4308.3000,N,07726.2647,W,0.03,10.10,210919,,,A*41
$GPGGA,141613.000,4308.3000,N,07726.2647,W,1,06,2.02,146.5,M,-34.4,M,,*5F
$GPRMC,141613.250,A,4308.3000,N,07726.2647,W,0.02,65.07,210919,,,A*40
$GPGGA,141613.500,4308.3000,N,07726.2647,W,1,06,1.82,146.4,M,-34.4,M,,*50
$GPRMC,141613.750,A,4308.3000,N,07726.2647,W,0.01,194.73,210919,,,A*7A
$GPGGA,141614.000,4308.2999,N,07726.2647,W,1,06,1.82,146.3,M,-34.4,M,,*5D
$GPRMC,141614.250,A,4308.2999,N,07726.2647,W,0.03,342.20,210919,,,A*7D
$GPGGA,141614.500,4308.2999,N,07726.2647,W,1,06,1.82,146.3,M,-34.4,M,,*58
$GPRMC,141614.750,A,4308.2999,N,07726.2647,W,0.03,176.80,210919,,,A*77
$GPGGA,141615.000,4308.2999,N,07726.2647,W,1,06,1.82,146.2,M,-34.4,M,,*5D
$GPRMC,141615.250,A,4308.2999,N,07726.2648,W,0.03,272.49,210919,,,A*7E
$GPGGA,141615.500,4308.2999,N,07726.2648,W,1,06,1.82,146.0,M,-34.4,M,,*55
$GPRMC,141615.750,A,4308.2999,N,07726.2648,W,0.06,81.99,210919,,,A*4D
$GPGGA,141616.000,4308.2999,N,07726.2648,W,1,06,1.82,145.9,M,-34.4,M,,*59
$GPRMC,141616.250,A,4308.2999,N,07726.2648,W,0.05,205.88,210919,,,A*76
$GPGGA,141616.500,4308.2999,N,07726.2648,W,1,06,1.82,145.8,M,-34.4,M,,*5D
$GPRMC,141616.750,A,4308.2999,N,07726.2648,W,0.03,276.10,210919,,,A*70
$GPGGA,141617.000,4308.2999,N,07726.2648,W,1,06,1.82,145.7,M,-34.4,M,,*56
$GPRMC,141617.250,A,4308.2999,N,07726.2648,W,0.02,8.33,210919,,,A*7F
$GPGGA,141617.500,4308.2999,N,07726.2648,W,1,06,2.02,145.5,M,-34.4,M,,*5A
$GPRMC,141617.750,A,4308.2999,N,07726.2648,W,0.03,153.41,210919,,,A*71
$GPGGA,141618.000,4308.2999,N,07726.2648,W,1,06,1.82,145.3,M,-34.4,M,,*5D
$GPRMC,141618.250,A,4308.2999,N,07726.2649,W,0.02,196.91,210919,,,A*7F
$GPGGA,141618.500,4308.2999,N,07726.2649,W,1,06,2.02,145.2,M,-34.4,M,,*53
$GPRMC,141618.750,A,4308.2999,N,07726.2649,W,0.00,87.23,210919,,,A*40
$GPGGA,141619.000,4308.2999,N,07726.2649,W,1,06,2.02,145.0,M,-34.4,M,,*55
$GPRMC,141619.250,A,4308.2999,N,07726.2649,W,0.01,239.13,210919,,,A*71
$GPGGA,141619.500,4308.2999,N,07726.2649,W,1,06,2.02,144.9,M,-34.4,M,,*58
$GPRMC,141619.750,A,4308.2999,N,07726.2649,W,0.01,210.63,210919,,,A*78
$GPGGA,141620.000,4308.2999,N,07726.2649,W,1,06,2.02,144.9,M,-34.4,M,,*57
$GPRMC,141620.250,A,4308.2999,N,07726.2649,W,0.01,148.85,210919,,,A*71
$GPGGA,141620.500,4308.2999,N,07726.2649,W,1,06,2.02,144.9,M,-34.4,M,,*52
$GPRMC,141620.750,A,4308.2999,N,07726.2649,W,0.00,156.41,210919,,,A*72
$GPGGA,141621.000,4308.2999,N,07726.2649,W,1,06,2.02,144.9,M,-34.4,M,,*56
$GPRMC,141621.250,A,4308.2999,N,07726.2649,W,0.00,15.98,210919,,,A*44
$GPGGA,141621.500,4308.2999,N,07726.2649,W,1,06,2.02,144.9,M,-34.4,M,,*53
$GPRMC,141621.750,A,4308.2999,N,07726.2649,W,0.01,234.83,210919,,,A*7B
$GPGGA,141622.000,4308.2999,N,07726.2649,W,1,06,2.02,144.9,M,-34.4,M,,*55
$GPRMC,141622.250,A,4308.2999,N,07726.2649,W,0.02,90.41,210919,,,A*4C
$GPGGA,141622.500,4308.2999,N,07726.2649,W,1,06,2.02,144.9,M,-34.4,M,,*50
$GPRMC,141622.750,A,4308.2999,N,07726.2649,W,0.02,227.28,210919,,,A*78
$GPGGA,141623.000,4308.2999,N,07726.2649,W,1,06,2.02,144.9,M,-34.4,M,,*54
$GPRMC,141623.250,A,4308.2999,N,07726.2649,W,0.01,60.96,210919,,,A*4B
$GPGGA,141623.500,4308.2999,N,07726.2649,W,1,06,2.02,144.9,M,-34.4,M,,*51
$GPRMC,141623.750,A,4308.2999,N,07726.2649,W,0.01,33.83,210919,,,A*4C
$GPGGA,141624.000,4308.2999,N,07726.2649,W,1,06,2.02,144.9,M,-34.4,M,,*53
$GPRMC,141624.250,A,4308.2999,N,07726.2649,W,0.00,187.72,210919,,,A*7F
$GPGGA,141624.500,4308.2999,N,07726.2649,W,1,06,2.02,144.9,M,-34.4,M,,*56
$GPRMC,141624.750,A,4308.2999,N,07726.2649,W,0.01,262.50,210919,,,A*73
$GPGGA,141625.000,4308.2999,N,07726.2649,W,1,06,2.02,144.9,M,-34.4,M,,*52
$GPRMC,141625.250,A,4308.2999,N,07726.2649,W,0.01,127.90,210919,,,A*79
$GPGGA,141625.500,4308.2999,N,07726.2649,W,1,06,2.02,144.9,M,-34.4,M,,*57
$GPRMC,141625.750,A,4308.2999,N,07726.2649,W,0.01,280.36,210919,,,A*7E
$GPGGA,141626.000,4308.2999,N,07726.2649,W,1,06,2.02,144.9,M,-34.4,M,,*51
$GPRMC,141626.250,A,4308.2999,N,07726.2649,W,0.02,355.49,210919,,,A*7A
$GPGGA,141626.500,4308.2999,N,07726.2649,W,1,06,2.02,144.9,M,-34.4,M,,*54
$GPRMC,141626.750,A,4308.2999,N,07726.2649,W,0.01,336.80,210919,,,A*7C
$GPGGA,141627.000,4308.2999,N,07726.2649,W,1,06,2.02,144.9,M,-34.4,M,,*50
$GPRMC,141627.250,A,4308.2999,N,07726.2649,W,0.01,282.38,210919,,,A*75
$GPGGA,141627.500,4308.2999,N,07726.2649,W,1,06,2.02,144.9,M,-34.4,M,,*55
$GPRMC,141627.750,A,4308.2999,N,07726.2649,W,0.00,66.74,210919,,,A*41
$GPGGA,141628.000,4308.2999,N,07726.2649,W,1,06,2.02,144.9,M,-34.4,M,,*5F
$GPRMC,141628.250,A,4308.2999,N,07726.2649,W,0.01,267.55,210919,,,A*7A
$GPGGA,141628.500,4308.2999,N,07726.2649,W,1,06,2.02,144.9,M,-34.4,M,,*5A
$GPRMC,141628.750,A,4308.2999,N,07726.2649,W,0.01,125.03,210919,,,A*79
$GPGGA,141629.000,4308.2999,N,07726.2649,W,1,06,2.02,144.9,M,-34.4,M,,*5E
$GPRMC,141629.250,A,4308.2999,N,07726.2649,W,0.01,21.04,210919,,,A*4F
$GPGGA,141629.500,4308.2999,N,07726.2649,W,1,06,2.02,144.9,M,-34.4,M,,*5B
$GPRMC,141629.750,A,4308.2999,N,07726.2649,W,0.01,137.37,210919,,,A*7C
$GPGGA,141630.000,4308.2999,N,07726.2649,W,1,06,2.02,144.9,M,-34.4,M,,*56
$GPRMC,141630.250,A,4308.2999,N,07726.2649,W,0.01,101.50,210919,,,A*75
$GPGGA,141630.500,4308.2999,N,07726.2649,W,1,06,2.02,144.9,M,-34.4,M,,*53
$GPRMC,141630.750,A,4308.2999,N,07726.2649,W,0.01,288.02,210919,,,A*75
$GPGGA,141631.000,4308.2999,N,07726.2649,W,1,06,2.02,144.9,M,-34.4,M,,*57
$GPRMC,141631.250,A,4308.2999,N,07726.2649,W,0.01,236.40,210919,,,A*72
$GPGGA,141631.500,4308.2999,N,07726.2649,W,1,06,2.02,144.9,M,-34.4,M,,*52
$GPRMC,141631.750,A,4308.2999,N,07726.2649,W,0.01,349.63,210919,,,A*7F
$GPGGA,141632.000,4308.2999,N,07726.2649,W,1,06,2.02,144.9,M,-34.4,M,,*54
$GPRMC,141632.250,A,4308.2999,N,07726.2649,W,0.01,58.62,210919,,,A*4B
$GPGGA,141632.500,4308.2999,N,07726.2649,W,1,06,2.02,144.9,M,-34.4,M,,*51
$GPRMC,141632.750,A,4308.2999,N,07726.2649,W,0.01,65.71,210919,,,A*42
$GPGGA,141633.000,4308.2999,N,07726.2649,W,1,06,2.01,144.9,M,-34.4,M,,*56
$GPRMC,141633.250,A,4308.2999,N,07726.2649,W,0.01,124.76,210919,,,A*75
$GPGGA,141633.500,4308.2999,N,07726.2649,W,1,06,2.02,144.9,M,-34.4,M,,*50
$GPRMC,141633.750,A,4308.2999,N,07726.2649,W,0.01,66.63,210919,,,A*43
$GPGGA,141634.000,4308.2999,N,07726.2649,W,1,06,2.01,144.9,M,-34.4,M,,*51
$GPRMC,141634.250,A,4308.2999,N,07726.2649,W,0.01,255.16,210919,,,A*71
$GPGGA,141634.500,4308.2999,N,07726.2649,W,1,06,2.01,144.9,M,-34.4,M,,*54
$GPRMC,141634.750,A,4308.2999,N,07726.2649,W,0.01,237.83,210919,,,A*7C
$GPGGA,141635.000,4308.2999,N,07726.2649,W,1,06,2.01,144.9,M,-34.4,M,,*50
$GPRMC,141635.250,A,4308.2999,N,07726.2649,W,0.02,86.20,210919,,,A*4A
$GPGGA,141635.500,4308.2999,N,07726.2649,W,1,06,2.01,144.9,M,-34.4,M,,*55
$GPRMC,141635.750,A,4308.2999,N,07726.2649,W,0.02,326.15,210919,,,A*70
$GPGGA,141636.000,4308.2999,N,07726.2649,W,1,06,2.01,144.9,M,-34.4,M,,*53
$GPRMC,141636.250,A,4308.2999,N,07726.2649,W,0.01,287.80,210919,,,A*73
$GPGGA,141636.500,4308.2999,N,07726.2649,W,1,06,2.01,144.9,M,-34.4,M,,*56
$GPRMC,141636.750,A,4308.2999,N,07726.2649,W,0.01,99.47,210919,,,A*40
$GPGGA,141637.000,4308.2999,N,07726.2649,W,1,06,2.01,144.9,M,-34.4,M,,*52
$GPRMC,141637.250,A,4308.2999,N,07726.2649,W,0.01,285.48,210919,,,A*74
$GPGGA,141637.500,4308.2999,N,07726.2649,W,1,06,2.01,144.9,M,-34.4,M,,*57
$GPRMC,141637.750,A,4308.2999,N,07726.2649,W,0.02,308.95,210919,,,A*76
$GPGGA,141638.000,4308.2999,N,07726.2649,W,1,06,2.01,144.9,M,-34.4,M,,*5D
$GPRMC,141638.250,A,4308.2999,N,07726.2649,W,0.01,133.20,210919,,,A*7B
$GPGGA,141638.500,4308.2999,N,07726.2649,W,1,06,2.01,144.9,M,-34.4,M,,*58
$GPRMC,141638.750,A,4308.2999,N,07726.2649,W,0.01,123.93,210919,,,A*77
$GPGGA,141639.000,4308.2999,N,07726.2649,W,1,06,2.01,144.9,M,-34.4,M,,*5C
$GPRMC,141639.250,A,4308.2999,N,07726.2649,W,0.02,34.47,210919,,,A*4E
$GPGGA,141639.500,4308.2999,N,07726.2649,W,1,06,2.01,144.9,M,-34.4,M,,*59
$GPRMC,141639.750,A,4308.2999,N,07726.2649,W,0.01,284.27,210919,,,A*77
$GPGGA,141640.000,4308.2999,N,07726.2649,W,1,06,2.01,144.9,M,-34.4,M,,*52
$GPRMC,141640.250,A,4308.2999,N,07726.2649,W,0.01,301.30,210919,,,A*76
$GPGGA,141640.500,4308.2999,N,07726.2649,W,1,06,2.01,144.9,M,-34.4,M,,*57
$GPRMC,141640.750,A,4308.2999,N,07726.2649,W,0.01,198.18,210919,,,A*7B
$GPGGA,141641.000,4308.2999,N,07726.2649,W,1,06,2.01,144.9,M,-34.4,M,,*53
$GPRMC,141641.250,A,4308.2999,N,07726.2649,W,0.01,234.97,210919,,,A*7D
$GPGGA,141641.500,4308.2999,N,07726.2649,W,1,06,2.01,144.9,M,-34.4,M,,*56
$GPRMC,141641.750,A,4308.2999,N,07726.2649,W,0.01,27.10,210919,,,A*47
$GPGGA,141642.000,4308.2999,N,07726.2649,W,1,06,2.01,144.9,M,-34.4,M,,*50
$GPRMC,141642.250,A,4308.2999,N,07726.2649,W,0.01,68.23,210919,,,A*4A
$GPGGA,141642.500,4308.2999,N,07726.2649,W,1,06,2.01,144.9,M,-34.4,M,,*55
$GPRMC,141642.750,A,4308.2999,N,07726.2649,W,0.01,321.20,210919,,,A*72
$GPGGA,141643.000,4308.2999,N,07726.2649,W,1,06,2.01,144.9,M,-34.4,M,,*51
$GPRMC,141643.250,A,4308.2999,N,07726.2649,W,0.01,6.58,210919,,,A*7F
$GPGGA,141643.500,4308.2999,N,07726.2649,W,1,06,2.01,144.9,M,-34.4,M,,*54
$GPRMC,141643.750,A,4308.2999,N,07726.2649,W,0.01,128.28,210919,,,A*70
$GPGGA,141644.000,4308.2999,N,07726.2649,W,1,06,2.01,144.9,M,-34.4,M,,*56
$GPRMC,141644.250,A,4308.2999,N,07726.2649,W,0.01,325.64,210919,,,A*75
$GPGGA,141644.500,4308.2999,N,07726.2649,W,1,06,2.01,144.9,M,-34.4,M,,*53
$GPRMC,141644.750,A,4308.2999,N,07726.2649,W,0.01,116.24,210919,,,A*76
$GPGGA,141645.000,4308.2999,N,07726.2649,W,1,06,2.01,144.9,M,-34.4,M,,*57
$GPRMC,141645.250,A,4308.2999,N,07726.2649,W,0.00,234.65,210919,,,A*75
$GPGGA,141645.500,4308.2999,N,07726.2649,W,1,06,2.01,144.9,M,-34.4,M,,*52
$GPRMC,141645.750,A,4308.2999,N,07726.2649,W,0.01,81.58,210919,,,A*43
$GPGGA,141646.000,4308.2999,N,07726.2649,W,1,06,2.01,144.9,M,-34.4,M,,*54
$GPRMC,141646.250,A,4308.2999,N,07726.2649,W,0.01,34.71,210919,,,A*40
$GPGGA,141646.500,4308.2999,N,07726.2649,W,1,06,2.01,144.9,M,-34.4,M,,*51
$GPRMC,141646.750,A,4308.2999,N,07726.2649,W,0.01,52.61,210919,,,A*44
$GPGGA,141647.000,4308.2999,N,07726.2649,W,1,06,2.01,144.9,M,-34.4,M,,*55
$GPRMC,141647.250,A,4308.2999,N,07726.2649,W,0.01,347.79,210919,,,A*7E
$GPGGA,141647.500,4308.2999,N,07726.2649,W,1,06,2.01,144.9,M,-34.4,M,,*50
$GPRMC,141647.750,A,4308.2999,N,07726.2649,W,0.00,5.79,210919,,,A*7F
$GPGGA,141648.000,4308.2999,N,07726.2649,W,1,06,2.01,144.9,M,-34.4,M,,*5A
$GPRMC,141648.250,A,4308.2999,N,07726.2649,W,0.01,261.04,210919,,,A*7E
$GPGGA,141648.500,4308.2999,N,07726.2649,W,1,06,2.01,144.9,M,-34.4,M,,*5F
$GPRMC,141648.750,A,4308.2999,N,07726.2649,W,0.01,151.48,210919,,,A*73
$GPGGA,141649.000,4308.2999,N,07726.2649,W,1,06,2.01,144.9,M,-34.4,M,,*5B
$GPRMC,141649.250,A,4308.2999,N,07726.2649,W,0.00,349.41,210919,,,A*74
$GPGGA,141649.500,4308.2999,N,07726.2649,W,1,06,2.01,144.9,M,-34.4,M,,*5E
$GPRMC,141649.750,A,4308.2999,N,07726.2649,W,0.01,67.97,210919,,,A*44
$GPGGA,141650.000,4308.2999,N,07726.2649,W,1,06,2.01,144.9,M,-34.4,M,,*53
$GPRMC,141650.250,A,4308.2999,N,07726.2649,W,0.01,249.00,210919,,,A*79
$GPGGA,141650.500,4308.2999,N,07726.2649,W,1,06,2.01,144.9,M,-34.4,M,,*56
$GPRMC,141650.750,A,4308.2999,N,07726.2649,W,0.01,99.20,210919,,,A*41
$GPGGA,141651.000,4308.2999,N,07726.2649,W,1,06,2.01,144.9,M,-34.4,M,,*52
$GPRMC,141651.250,A,4308.2999,N,07726.2649,W,0.01,332.37,210919,,,A*71
$GPGGA,141651.500,4308.2999,N,07726.2649,W,1,06,2.01,144.9,M,-34.4,M,,*57
$GPRMC,141651.750,A,4308.2999,N,07726.2649,W,0.02,37.90,210919,,,A*4C
$GPGGA,141652.000,4308.2999,N,07726.2649,W,1,06,2.01,144.9,M,-34.4,M,,*51
$GPRMC,141652.250,A,4308.2999,N,07726.2649,W,0.00,312.11,210919,,,A*75
$GPGGA,141652.500,4308.2999,N,07726.2649,W,1,06,2.01,144.9,M,-34.4,M,,*54
$GPRMC,141652.750,A,4308.2999,N,07726.2649,W,0.01,221.00,210919,,,A*70
$GPGGA,141653.000,4308.2999,N,07726.2649,W,1,06,2.01,144.9,M,-34.4,M,,*50
$GPRMC,141653.250,A,4308.2999,N,07726.2649,W,0.01,70.20,210919,,,A*40
$GPGGA,141653.500,4308.2999,N,07726.2649,W,1,06,2.01,144.9,M,-34.4,M,,*55
$GPRMC,141653.750,A,4308.2999,N,07726.2649,W,0.00,131.43,210919,,,A*75
$GPGGA,141654.000,4308.2999,N,07726.2649,W,1,06,2.01,144.9,M,-34.4,M,,*57
$GPRMC,141654.250,A,4308.2999,N,07726.2649,W,0.01,136.90,210919,,,A*7F
$GPGGA,141654.500,4308.2999,N,07726.2649,W,1,06,2.01,144.9,M,-34.4,M,,*52
$GPRMC,141654.750,A,4308.2999,N,07726.2649,W,0.01,37.92,210919,,,A*48
$GPGGA,141655.000,4308.2999,N,07726.2649,W,1,06,2.01,144.9,M,-34.4,M,,*56
$GPRMC,141655.250,A,4308.2999,N,07726.2649,W,0.01,224.59,210919,,,A*7B
$GPGGA,141655.500,4308.2999,N,07726.2649,W,1,06,2.01,144.9,M,-34.4,M,,*53
$GPRMC,141655.750,A,4308.2999,N,07726.2649,W,0.01,243.38,210919,,,A*78
$GPGGA,141656.000,4308.2999,N,07726.2649,W,1,06,2.01,144.9,M,-34.4,M,,*55
$GPRMC,141656.250,A,4308.2999,N,07726.2649,W,0.00,269.33,210919,,,A*7C
$GPGGA,141656.500,4308.2999,N,07726.2649,W,1,06,2.01,144.9,M,-34.4,M,,*50
$GPRMC,141656.750,A,4308.2999,N,07726.2649,W,0.01,131.82,210919,,,A*7C
$GPGGA,141657.000,4308.2999,N,07726.2649,W,1,06,2.01,144.9,M,-34.4,M,,*54
$GPRMC,141657.250,A,4308.2999,N,07726.2649,W,0.02,161.89,210919,,,A*75
$GPGGA,141657.500,4308.2999,N,07726.2649,W,1,06,2.01,144.9,M,-34.4,M,,*51
$GPRMC,141657.750,A,4308.2999,N,07726.2649,W,0.01,216.28,210919,,,A*7B
$GPGGA,141658.000,4308.2999,N,07726.2649,W,1,06,2.01,144.9,M,-34.4,M,,*5B
$GPRMC,141658.250,A,4308.2999,N,07726.2649,W,0.02,276.63,210919,,,A*7B
$GPGGA,141658.500,4308.2999,N,07726.2649,W,1,06,2.01,144.9,M,-34.4,M,,*5E
$GPRMC,141658.750,A,4308.2999,N,07726.2649,W,0.01,170.75,210919,,,A*7F
$GPGGA,141659.000,4308.2999,N,07726.2649,W,1,06,2.00,144.9,M,-34.4,M,,*5B
$GPRMC,141659.250,A,4308.2999,N,07726.2649,W,0.01,191.49,210919,,,A*7B
$GPGGA,141659.500,4308.2999,N,07726.2649,W,1,06,2.00,144.9,M,-34.4,M,,*5E
$GPRMC,141659.750,A,4308.2999,N,07726.2649,W,0.00,174.39,210919,,,A*73
$GPGGA,141700.000,4308.2999,N,07726.2649,W,1,06,2.00,144.9,M,-34.4,M,,*56
$GPRMC,141700.250,A,4308.2999,N,07726.2649,W,0.01,142.10,210919,,,A*74
$GPGGA,141700.500,4308.2999,N,07726.2649,W,1,07,1.88,144.9,M,-34.4,M,,*51
$GPRMC,141700.750,A,4308.2999,N,07726.2649,W,0.00,297.77,210919,,,A*7A
$GPGGA,141701.000,4308.2999,N,07726.2649,W,1,07,1.88,144.9,M,-34.4,M,,*55
$GPRMC,141701.250,A,4308.2999,N,07726.2649,W,0.01,174.96,210919,,,A*7E
$GPGGA,141701.500,4308.2999,N,07726.2649,W,1,07,1.88,144.9,M,-34.4,M,,*50
$GPRMC,141701.750,A,4308.2999,N,07726.2649,W,0.00,213.87,210919,,,A*78
$GPGGA,141702.000,4308.2999,N,07726.2649,W,1,07,1.88,144.9,M,-34.4,M,,*56
$GPRMC,141702.250,A,4308.2999,N,07726.2649,W,0.01,351.06,210919,,,A*71
$GPGGA,141702.500,4308.2999,N,07726.2649,W,1,07,1.88,144.9,M,-34.4,M,,*53
$GPRMC,141702.750,A,4308.2999,N,07726.2649,W,0.02,18.50,210919,,,A*4A
$GPGGA,141703.000,4308.2999,N,07726.2649,W,1,07,1.88,144.9,M,-34.4,M,,*57
$GPRMC,141703.250,A,4308.2999,N,07726.2649,W,0.01,45.20,210919,,,A*42
$GPGGA,141703.500,4308.2999,N,07726.2649,W,1,07,1.88,144.9,M,-34.4,M,,*52
$GPRMC,141703.750,A,4308.2999,N,07726.2649,W,0.01,229.23,210919,,,A*7C
$GPGGA,141704.000,4308.2999,N,07726.2649,W,1,07,1.88,144.9,M,-34.4,M,,*50
$GPRMC,141704.250,A,4308.2999,N,07726.2649,W,0.00,102.86,210919,,,A*7A
$GPGGA,141704.500,4308.2999,N,07726.2649,W,1,07,1.88,144.9,M,-34.4,M,,*55
$GPRMC,141704.750,A,4308.2999,N,07726.2649,W,0.00,238.05,210919,,,A*7E
$GPGGA,141705.000,4308.2999,N,07726.2649,W,1,07,1.88,144.9,M,-34.4,M,,*51
$GPRMC,141705.250,A,4308.2999,N,07726.2649,W,0.01,261.67,210919,,,A*73
$GPGGA,141705.500,4308.2999,N,07726.2649,W,1,07,1.88,144.9,M,-34.4,M,,*54
$GPRMC,141705.750,A,4308.2999,N,07726.2649,W,0.01,275.07,210919,,,A*75
$GPGGA,141706.000,4308.2999,N,07726.2649,W,1,07,1.88,144.9,M,-34.4,M,,*52
$GPRMC,141706.250,A,4308.2999,N,07726.2649,W,0.01,359.78,210919,,,A*74
$GPGGA,141706.500,4308.2999,N,07726.2649,W,1,07,1.88,144.9,M,-34.4,M,,*57
$GPRMC,141706.750,A,4308.3000,N,07726.2649,W,0.01,64.18,210919,,,A*42
$GPGGA,141707.000,4308.3000,N,07726.2649,W,1,07,1.88,144.9,M,-34.4,M,,*5B
$GPRMC,141707.250,A,4308.3000,N,07726.2649,W,0.01,91.14,210919,,,A*40
$GPGGA,141707.500,4308.3000,N,07726.2649,W,1,07,1.88,144.9,M,-34.4,M,,*5E
$GPRMC,141707.750,A,4308.3000,N,07726.2649,W,0.01,319.79,210919,,,A*7D
$GPGGA,141708.000,4308.3000,N,07726.2649,W,1,07,1.88,144.9,M,-34.4,M,,*54
$GPRMC,141708.250,A,4308.3000,N,07726.2649,W,0.01,124.19,210919,,,A*7D
$GPGGA,141708.500,4308.3000,N,07726.2649,W,1,07,1.88,144.9,M,-34.4,M,,*51
$GPRMC,141708.750,A,4308.3000,N,07726.2649,W,0.01,11.94,210919,,,A*4A
$GPGGA,141709.000,4308.3000,N,07726.2649,W,1,07,1.88,144.9,M,-34.4,M,,*55
$GPRMC,141709.250,A,4308.3000,N,07726.2649,W,0.01,32.86,210919,,,A*4C
$GPGGA,141709.500,4308.3000,N,07726.2649,W,1,07,1.88,144.9,M,-34.4,M,,*50
$GPRMC,141709.750,A,4308.3000,N,07726.2649,W,0.00,303.39,210919,,,A*7D
$GPGGA,141710.000,4308.3000,N,07726.2649,W,1,07,1.88,144.9,M,-34.4,M,,*5D
$GPRMC,141710.250,A,4308.3000,N,07726.2649,W,0.01,73.84,210919,,,A*43
$GPGGA,141710.500,4308.3000,N,07726.2649,W,1,07,1.88,144.9,M,-34.4,M,,*58
$GPRMC,141710.750,A,4308.3000,N,07726.2649,W,0.01,259.97,210919,,,A*7E
$GPGGA,141711.000,4308.3000,N,07726.2649,W,1,07,1.88,144.9,M,-34.4,M,,*5C
$GPRMC,141711.250,A,4308.3000,N,07726.2649,W,0.00,171.30,210919,,,A*7F
$GPGGA,141711.500,4308.3000,N,07726.2649,W,1,07,1.88,144.9,M,-34.4,M,,*59
$GPRMC,141711.750,A,4308.3000,N,07726.2649,W,0.01,42.21,210919,,,A*4A
$GPGGA,141712.000,4308.3000,N,07726.2649,W,1,07,1.88,144.9,M,-34.4,M,,*5F
$GPRMC,141712.250,A,4308.3000,N,07726.2649,W,0.01,212.56,210919,,,A*7B
$GPGGA,141712.500,4308.3000,N,07726.2649,W,1,07,1.88,144.9,M,-34.4,M,,*5A
$GPRMC,141712.750,A,4308.3000,N,07726.2649,W,0.01,303.18,210919,,,A*75
$GPGGA,141713.000,4308.3000,N,07726.2649,W,1,07,1.88,144.9,M,-34.4,M,,*5E
$GPRMC,141713.250,A,4308.3000,N,07726.2649,W,0.00,64.45,210919,,,A*4A
$GPGGA,141713.500,4308.3000,N,07726.2649,W,1,07,1.88,144.9,M,-34.4,M,,*5B
$GPRMC,141713.750,A,4308.3000,N,07726.2649,W,0.00,223.67,210919,,,A*7E
$GPGGA,141714.000,4308.3000,N,07726.2649,W,1,07,1.88,144.9,M,-34.4,M,,*59
$GPRMC,141714.250,A,4308.3000,N,07726.2649,W,0.00,232.68,210919,,,A*73
$GPGGA,141714.500,4308.3000,N,07726.2649,W,1,07,1.88,144.9,M,-34.4,M,,*5C
$GPRMC,141714.750,A,4308.3000,N,07726.2649,W,0.01,270.84,210919,,,A*73
$GPGGA,141715.000,4308.3000,N,07726.2649,W,1,07,1.88,144.9,M,-34.4,M,,*58
$GPRMC,141715.250,A,4308.3000,N,07726.2649,W,0.00,77.90,210919,,,A*46
$GPGGA,141715.500,4308.3000,N,07726.2649,W,1,07,1.88,144.9,M,-34.4,M,,*5D
$GPRMC,141715.750,A,4308.3000,N,07726.2649,W,0.01,25.00,210919,,,A*4C
$GPGGA,141716.000,4308.3000,N,07726.2649,W,1,07,1.88,144.9,M,-34.4,M,,*5B
$GPRMC,141716.250,A,4308.3000,N,07726.2649,W,0.01,302.65,210919,,,A*7F
$GPGGA,141716.500,4308.3000,N,07726.2649,W,1,07,1.88,144.9,M,-34.4,M,,*5E
$GPRMC,141716.750,A,4308.3000,N,07726.2649,W,0.01,226.50,210919,,,A*7B
$GPGGA,141717.000,4308.3000,N,07726.2649,W,1,07,1.88,144.9,M,-34.4,M,,*5A
$GPRMC,141717.250,A,4308.3000,N,07726.2649,W,0.01,146.19,210919,,,A*77
$GPGGA,141717.500,4308.3000,N,07726.2649,W,1,07,1.87,144.9,M,-34.4,M,,*50
$GPRMC,141717.750,A,4308.3000,N,07726.2649,W,0.00,20.44,210919,,,A*4A
$GPGGA,141718.000,4308.3000,N,07726.2649,W,1,07,1.87,144.9,M,-34.4,M,,*5A
$GPRMC,141718.250,A,4308.3000,N,07726.2649,W,0.01,288.05,210919,,,A*74
$GPGGA,141718.500,4308.3000,N,07726.2649,W,1,07,1.87,144.9,M,-34.4,M,,*5F
$GPRMC,141718.750,A,4308.3000,N,07726.2649,W,0.00,0.00,210919,,,A*77
$GPGGA,141719.000,4308.3000,N,07726.2649,W,1,07,1.87,144.9,M,-34.4,M,,*5B
$GPRMC,141719.250,A,4308.3000,N,07726.2649,W,0.00,68.42,210919,,,A*4B
$GPGGA,141719.500,4308.3000,N,07726.2649,W,1,07,1.88,144.9,M,-34.4,M,,*51
$GPRMC,141719.750,A,4308.3000,N,07726.2649,W,0.01,210.83,210919,,,A*7F
$GPGGA,141720.000,4308.3000,N,07726.2649,W,1,07,1.87,144.9,M,-34.4,M,,*51
$GPRMC,141720.250,A,4308.3000,N,07726.2649,W,0.01,274.59,210919,,,A*75
$GPGGA,141720.500,4308.3000,N,07726.2649,W,1,07,1.87,144.9,M,-34.4,M,,*54
$GPRMC,141720.750,A,4308.3000,N,07726.2649,W,0.01,181.16,210919,,,A*72
$GPGGA,141721.000,4308.3000,N,07726.2649,W,1,07,1.87,144.9,M,-34.4,M,,*50
$GPRMC,141721.250,A,4308.3000,N,07726.2649,W,0.01,10.38,210919,,,A*43
$GPGGA,141721.500,4308.3000,N,07726.2649,W,1,07,1.87,144.9,M,-34.4,M,,*55
$GPRMC,141721.750,A,4308.3000,N,07726.2649,W,0.00,150.76,210919,,,A*78
$GPGGA,141722.000,4308.3000,N,07726.2649,W,1,07,1.87,144.9,M,-34.4,M,,*53
$GPRMC,141722.250,A,4308.3000,N,07726.2649,W,0.01,345.47,210919,,,A*7B
$GPGGA,141722.500,4308.3000,N,07726.2649,W,1,07,1.87,144.9,M,-34.4,M,,*56
$GPRMC,141722.750,A,4308.3000,N,07726.2649,W,0.01,322.35,210919,,,A*7A
$GPGGA,141723.000,4308.3000,N,07726.2649,W,1,07,1.87,144.9,M,-34.4,M,,*52
$GPRMC,141723.250,A,4308.3000,N,07726.2649,W,0.00,341.10,210919,,,A*7D
$GPGGA,141723.500,4308.3000,N,07726.2649,W,1,07,1.87,144.9,M,-34.4,M,,*57
$GPRMC,141723.750,A,4308.3000,N,07726.2649,W,0.00,265.96,210919,,,A*71
$GPGGA,141724.000,4308.3000,N,07726.2649,W,1,07,1.87,144.9,M,-34.4,M,,*55
$GPRMC,141724.250,A,4308.3000,N,07726.2649,W,0.01,235.51,210919,,,A*7C
$GPGGA,141724.500,4308.3000,N,07726.2649,W,1,07,1.87,144.9,M,-34.4,M,,*50
$GPRMC,141724.750,A,4308.3000,N,07726.2649,W,0.02,101.73,210919,,,A*7E
$GPGGA,141725.000,4308.3000,N,07726.2649,W,1,07,1.87,144.9,M,-34.4,M,,*54
$GPRMC,141725.250,A,4308.3000,N,07726.2649,W,0.01,248.64,210919,,,A*71
$GPGGA,141725.500,4308.3000,N,07726.2649,W,1,07,1.87,144.9,M,-34.4,M,,*51
$GPRMC,141725.750,A,4308.3000,N,07726.2649,W,0.01,282.85,210919,,,A*7D
$GPGGA,141726.000,4308.3000,N,07726.2649,W,1,07,1.87,144.9,M,-34.4,M,,*57
$GPRMC,141726.250,A,4308.3000,N,07726.2649,W,0.01,44.68,210919,,,A*40
$GPGGA,141726.500,4308.3000,N,07726.2649,W,1,07,1.87,144.9,M,-34.4,M,,*52
$GPRMC,141726.750,A,4308.3000,N,07726.2649,W,0.01,348.44,210919,,,A*74
$GPGGA,141727.000,4308.3000,N,07726.2649,W,1,07,1.87,144.9,M,-34.4,M,,*56
$GPRMC,141727.250,A,4308.3000,N,07726.2649,W,0.01,117.71,210919,,,A*7E
$GPGGA,141727.500,4308.3000,N,07726.2649,W,1,07,1.87,144.9,M,-34.4,M,,*53
$GPRMC,141727.750,A,4308.3000,N,07726.2649,W,0.01,267.98,210919,,,A*78
$GPGGA,141728.000,4308.3000,N,07726.2649,W,1,07,1.87,144.9,M,-34.4,M,,*59
$GPRMC,141728.250,A,4308.3000,N,07726.2649,W,0.01,106.95,210919,,,A*7B
$GPGGA,141728.500,4308.3000,N,07726.2649,W,1,07,1.87,144.9,M,-34.4,M,,*5C
$GPRMC,141728.750,A,4308.3000,N,07726.2649,W,0.01,268.74,210919,,,A*7A
$GPGGA,141729.000,4308.3000,N,07726.2649,W,1,07,1.87,144.8,M,-34.4,M,,*59
$GPRMC,141729.250,A,4308.3000,N,07726.2649,W,0.01,169.09,210919,,,A*76
$GPGGA,141729.500,4308.3000,N,07726.2649,W,1,07,1.87,144.8,M,-34.4,M,,*5C
$GPRMC,141729.750,A,4308.3000,N,07726.2649,W,0.01,80.78,210919,,,A*43
$GPGGA,141730.000,4308.3000,N,07726.2649,W,1,07,1.87,144.8,M,-34.4,M,,*51
$GPRMC,141730.250,A,4308.3000,N,07726.2649,W,0.01,38.73,210919,,,A*46
$GPGGA,141730.500,4308.3000,N,07726.2649,W,1,07,1.87,144.8,M,-34.4,M,,*54
$GPRMC,141730.750,A,4308.3000,N,07726.2649,W,0.00,9.44,210919,,,A*74
$GPGGA,141731.000,4308.3000,N,07726.2649,W,1,07,1.87,144.8,M,-34.4,M,,*50
$GPRMC,141731.250,A,4308.3000,N,07726.2649,W,0.01,91.28,210919,,,A*4A
$GPGGA,141731.500,4308.3000,N,07726.2649,W,1,07,1.87,144.8,M,-34.4,M,,*55
$GPRMC,141731.750,A,4308.3000,N,07726.2649,W,0.01,142.70,210919,,,A*7D
$GPGGA,141732.000,4308.3000,N,07726.2649,W,1,07,1.87,144.8,M,-34.4,M,,*53
$GPRMC,141732.250,A,4308.3000,N,07726.2649,W,0.01,88.76,210919,,,A*4A
$GPGGA,141732.500,4308.3000,N,07726.2649,W,1,06,1.99,144.8,M,-34.4,M,,*58
$GPRMC,141732.750,A,4308.3000,N,07726.2649,W,0.01,316.14,210919,,,A*7F
$GPGGA,141733.000,4308.3000,N,07726.2649,W,1,06,1.99,144.8,M,-34.4,M,,*5C
$GPRMC,141733.250,A,4308.3000,N,07726.2649,W,0.00,254.77,210919,,,A*78
$GPGGA,141733.500,4308.3000,N,07726.2649,W,1,06,1.99,144.8,M,-34.4,M,,*59
$GPRMC,141733.750,A,4308.3000,N,07726.2649,W,0.00,1.49,210919,,,A*72
$GPGGA,141734.000,4308.3000,N,07726.2649,W,1,06,1.99,144.8,M,-34.4,M,,*5B
$GPRMC,141734.250,A,4308.3000,N,07726.2649,W,0.01,5.39,210919,,,A*72
$GPGGA,141734.500,4308.3000,N,07726.2649,W,1,06,1.99,144.8,M,-34.4,M,,*5E
$GPRMC,141734.750,A,4308.3000,N,07726.2649,W,0.01,99.95,210919,,,A*44
$GPGGA,141735.000,4308.3000,N,07726.2649,W,1,06,1.99,144.8,M,-34.4,M,,*5A
$GPRMC,141735.250,A,4308.3000,N,07726.2649,W,0.01,261.34,210919,,,A*7E
$GPGGA,141735.500,4308.3000,N,07726.2649,W,1,06,1.99,144.8,M,-34.4,M,,*5F
$GPRMC,141735.750,A,4308.3000,N,07726.2649,W,0.01,274.13,210919,,,A*7A
$GPGGA,141736.000,4308.3000,N,07726.2649,W,1,06,1.99,144.8,M,-34.4,M,,*59
$GPRMC,141736.250,A,4308.3000,N,07726.2649,W,0.02,313.75,210919,,,A*7F
$GPGGA,141736.500,4308.3000,N,07726.2649,W,1,06,1.99,144.8,M,-34.4,M,,*5C
$GPRMC,141736.750,A,4308.3000,N,07726.2649,W,0.01,309.49,210919,,,A*7D
$GPGGA,141737.000,4308.3000,N,07726.2649,W,1,06,1.99,144.8,M,-34.4,M,,*58
$GPRMC,141737.250,A,4308.3000,N,07726.2649,W,0.01,239.18,210919,,,A*7F
$GPGGA,141737.500,4308.3000,N,07726.2649,W,1,06,1.99,144.8,M,-34.4,M,,*5D
$GPRMC,141737.750,A,4308.3000,N,07726.2649,W,0.01,119.01,210919,,,A*73
$GPGGA,141738.000,4308.3000,N,07726.2649,W,1,06,1.99,144.8,M,-34.4,M,,*57
$GPRMC,141738.250,A,4308.3000,N,07726.2649,W,0.00,131.60,210919,,,A*75
$GPGGA,141738.500,4308.3000,N,07726.2649,W,1,06,1.99,144.8,M,-34.4,M,,*52
$GPRMC,141738.750,A,4308.3000,N,07726.2649,W,0.00,312.22,210919,,,A*75
$GPGGA,141739.000,4308.3000,N,07726.2649,W,1,06,1.99,144.8,M,-34.4,M,,*56
$GPRMC,141739.250,A,4308.3000,N,07726.2649,W,0.01,267.81,210919,,,A*7A
$GPGGA,141739.500,4308.3000,N,07726.2649,W,1,06,1.99,144.8,M,-34.4,M,,*53
$GPRMC,141739.750,A,4308.3000,N,07726.2649,W,0.00,300.85,210919,,,A*7A
$GPGGA,141740.000,4308.3000,N,07726.2649,W,1,06,1.99,144.8,M,-34.4,M,,*58
$GPRMC,141740.250,A,4308.3000,N,07726.2649,W,0.01,148.85,210919,,,A*7E
$GPGGA,141740.500,4308.3000,N,07726.2649,W,1,06,1.99,144.8,M,-34.4,M,,*5D
$GPRMC,141740.750,A,4308.3000,N,07726.2649,W,0.01,161.60,210919,,,A*7B
$GPGGA,141741.000,4308.3000,N,07726.2649,W,1,07,1.87,144.8,M,-34.4,M,,*57
$GPRMC,141741.250,A,4308.3000,N,07726.2649,W,0.00,54.34,210919,,,A*48
$GPGGA,141741.500,4308.3000,N,07726.2649,W,1,07,1.87,144.8,M,-34.4,M,,*52
$GPRMC,141741.750,A,4308.3000,N,07726.2649,W,0.01,98.50,210919,,,A*4E
$GPGGA,141742.000,4308.3000,N,07726.2649,W,1,06,1.99,144.8,M,-34.4,M,,*5A
$GPRMC,141742.250,A,4308.3000,N,07726.2649,W,0.01,112.86,210919,,,A*70
$GPGGA,141742.500,4308.3000,N,07726.2649,W,1,06,1.99,144.8,M,-34.4,M,,*5F
$GPRMC,141742.750,A,4308.3000,N,07726.2649,W,0.01,261.56,210919,,,A*7F
$GPGGA,141743.000,4308.3000,N,07726.2649,W,1,06,1.99,144.8,M,-34.4,M,,*5B
$GPRMC,141743.250,A,4308.3000,N,07726.2649,W,0.00,4.30,210919,,,A*7B
$GPGGA,141743.500,4308.3000,N,07726.2649,W,1,06,1.99,144.8,M,-34.4,M,,*5E
$GPRMC,141743.750,A,4308.3000,N,07726.2649,W,0.01,258.28,210919,,,A*7D
$GPGGA,141744.000,4308.3000,N,07726.2649,W,1,06,1.99,144.8,M,-34.4,M,,*5C
$GPRMC,141744.250,A,4308.3000,N,07726.2649,W,0.00,63.98,210919,,,A*4F
$GPGGA,141744.500,4308.3000,N,07726.2649,W,1,06,1.99,144.8,M,-34.4,M,,*59
$GPRMC,141744.750,A,4308.3000,N,07726.2649,W,0.00,334.37,210919,,,A*7E
$GPGGA,141745.000,4308.3000,N,07726.2649,W,1,07,1.87,144.8,M,-34.4,M,,*53
$GPRMC,141745.250,A,4308.3000,N,07726.2649,W,0.00,71.96,210919,,,A*43
$GPGGA,141745.500,4308.3000,N,07726.2649,W,1,06,1.99,144.8,M,-34.4,M,,*58
$GPRMC,141745.750,A,4308.3000,N,07726.2649,W,0.01,354.39,210919,,,A*76
$GPGGA,141746.000,4308.3000,N,07726.2649,W,1,06,1.99,144.8,M,-34.4,M,,*5E
$GPRMC,141746.250,A,4308.3000,N,07726.2649,W,0.01,146.07,210919,,,A*7C
$GPGGA,141746.500,4308.3000,N,07726.2649,W,1,06,1.99,144.8,M,-34.4,M,,*5B
$GPRMC,141746.750,A,4308.3000,N,07726.2649,W,0.01,178.92,210919,,,A*78
$GPGGA,141747.000,4308.3000,N,07726.2649,W,1,06,1.99,144.8,M,-34.4,M,,*5F
$GPRMC,141747.250,A,4308.3000,N,07726.2649,W,0.01,85.17,210919,,,A*42
$GPGGA,141747.500,4308.3000,N,07726.2649,W,1,06,1.99,144.8,M,-34.4,M,,*5A
$GPRMC,141747.750,A,4308.3000,N,07726.2649,W,0.01,107.36,210919,,,A*7F
$GPGGA,141748.000,4308.3000,N,07726.2649,W,1,07,1.87,144.8,M,-34.4,M,,*5E
$GPRMC,141748.250,A,4308.3000,N,07726.2649,W,0.00,258.46,210919,,,A*7A
$GPGGA,141748.500,4308.3000,N,07726.2649,W,1,06,1.99,144.8,M,-34.4,M,,*55
$GPRMC,141748.750,A,4308.3000,N,07726.2649,W,0.02,185.04,210919,,,A*78
$GPGGA,141749.000,4308.3000,N,07726.2649,W,1,06,1.99,144.8,M,-34.4,M,,*51
$GPRMC,141749.250,A,4308.3000,N,07726.2649,W,0.00,198.66,210919,,,A*76
$GPGGA,141749.500,4308.3000,N,07726.2649,W,1,07,1.87,144.8,M,-34.4,M,,*5A
$GPRMC,141749.750,A,4308.3000,N,07726.2649,W,0.01,106.05,210919,,,A*70
$GPGGA,141750.000,4308.3000,N,07726.2649,W,1,07,1.87,144.8,M,-34.4,M,,*57
$GPRMC,141750.250,A,4308.3000,N,07726.2649,W,0.01,350.17,210919,,,A*7F
$GPGGA,141750.500,4308.3000,N,07726.2649,W,1,07,1.87,144.8,M,-34.4,M,,*52
$GPRMC,141750.750,A,4308.3000,N,07726.2649,W,0.00,270.40,210919,,,A*7A
$GPGGA,141751.000,4308.3000,N,07726.2649,W,1,07,1.87,144.8,M,-34.4,M,,*56
$GPRMC,141751.250,A,4308.3000,N,07726.2649,W,0.01,262.86,210919,,,A*76
$GPGGA,141751.500,4308.3000,N,07726.2649,W,1,07,1.87,144.8,M,-34.4,M,,*53
$GPRMC,141751.750,A,4308.3000,N,07726.2649,W,0.01,331.81,210919,,,A*73
$GPGGA,141752.000,4308.3000,N,07726.2649,W,1,06,1.98,144.8,M,-34.4,M,,*5A
$GPRMC,141752.250,A,4308.3000,N,07726.2649,W,0.01,21.44,210919,,,A*4E
$GPGGA,141752.500,4308.3000,N,07726.2649,W,1,06,1.98,144.8,M,-34.4,M,,*5F
$GPRMC,141752.750,A,4308.3000,N,07726.2649,W,0.00,263.69,210919,,,A*71
$GPGGA,141753.000,4308.3000,N,07726.2649,W,1,06,1.98,144.8,M,-34.4,M,,*5B
$GPRMC,141753.250,A,4308.3000,N,07726.2649,W,0.01,43.64,210919,,,A*49
$GPGGA,141753.500,4308.3000,N,07726.2649,W,1,06,1.98,144.8,M,-34.4,M,,*5E
$GPRMC,141753.750,A,4308.3000,N,07726.2649,W,0.00,103.51,210919,,,A*7E
$GPGGA,141754.000,4308.3000,N,07726.2649,W,1,06,1.98,144.8,M,-34.4,M,,*5C
$GPRMC,141754.250,A,4308.3000,N,07726.2649,W,0.02,92.17,210919,,,A*45
$GPGGA,141754.500,4308.3000,N,07726.2649,W,1,06,1.98,144.8,M,-34.4,M,,*59
$GPRMC,141754.750,A,4308.3000,N,07726.2649,W,0.01,14.01,210919,,,A*4A
$GPGGA,141755.000,4308.3000,N,07726.2649,W,1,06,1.98,144.8,M,-34.4,M,,*5D
$GPRMC,141755.250,A,4308.3000,N,07726.2649,W,0.01,230.83,210919,,,A*70
$GPGGA,141755.500,4308.3000,N,07726.2649,W,1,06,1.98,144.8,M,-34.4,M,,*58
$GPRMC,141755.750,A,4308.3000,N,07726.2649,W,0.00,80.30,210919,,,A*45
$GPGGA,141756.000,4308.3000,N,07726.2649,W,1,06,1.98,144.8,M,-34.4,M,,*5E
$GPRMC,141756.250,A,4308.3000,N,07726.2649,W,0.01,119.74,210919,,,A*73
$GPGGA,141756.500,4308.3000,N,07726.2649,W,1,06,1.98,144.8,M,-34.4,M,,*5B
$GPRMC,141756.750,A,4308.3000,N,07726.2649,W,0.00,306.25,210919,,,A*7F
$GPGGA,141757.000,4308.3000,N,07726.2649,W,1,06,1.98,144.8,M,-34.4,M,,*5F
$GPRMC,141757.250,A,4308.3000,N,07726.2649,W,0.01,42.24,210919,,,A*48
$GPGGA,141757.500,4308.3000,N,07726.2649,W,1,06,1.98,144.8,M,-34.4,M,,*5A
$GPRMC,141757.750,A,4308.3000,N,07726.2649,W,0.00,162.55,210919,,,A*79
$GPGGA,141758.000,4308.3000,N,07726.2649,W,1,06,1.98,144.8,M,-34.4,M,,*50
$GPRMC,141758.250,A,4308.3000,N,07726.2649,W,0.00,22.83,210919,,,A*4D
$GPGGA,141758.500,4308.3000,N,07726.2649,W,1,06,1.98,144.8,M,-34.4,M,,*55
$GPRMC,141758.750,A,4308.3000,N,07726.2649,W,0.01,48.52,210919,,,A*49
$GPGGA,141759.000,4308.3000,N,07726.2649,W,1,06,1.98,144.8,M,-34.4,M,,*51
$GPRMC,141759.250,A,4308.3000,N,07726.2649,W,0.00,138.04,210919,,,A*79
$GPGGA,141759.500,4308.3000,N,07726.2649,W,1,06,1.98,144.8,M,-34.4,M,,*54
$GPRMC,141759.750,A,4308.3000,N,07726.2649,W,0.01,115.82,210919,,,A*7C
$GPGGA,141800.000,4308.3000,N,07726.2649,W,1,06,1.98,144.8,M,-34.4,M,,*52
$GPRMC,141800.250,A,4308.3000,N,07726.2649,W,0.01,180.68,210919,,,A*72
$GPGGA,141800.500,4308.3000,N,07726.2649,W,1,06,1.98,144.8,M,-34.4,M,,*57
$GPRMC,141800.750,A,4308.3000,N,07726.2649,W,0.01,5.67,210919,,,A*74
$GPGGA,141801.000,4308.3000,N,07726.2649,W,1,06,1.98,144.8,M,-34.4,M,,*53
$GPRMC,141801.250,A,4308.3000,N,07726.2649,W,0.01,87.10,210919,,,A*4A
$GPGGA,141801.500,4308.3000,N,07726.2649,W,1,06,1.98,144.8,M,-34.4,M,,*56
$GPRMC,141801.750,A,4308.3000,N,07726.2649,W,0.00,57.45,210919,,,A*43
$GPGGA,141802.000,4308.3000,N,07726.2649,W,1,06,1.98,144.8,M,-34.4,M,,*50
$GPRMC,141802.250,A,4308.3000,N,07726.2649,W,0.01,241.05,210919,,,A*75
$GPGGA,141802.500,4308.3000,N,07726.2649,W,1,06,1.98,144.8,M,-34.4,M,,*55
$GPRMC,141802.750,A,4308.3000,N,07726.2649,W,0.01,42.19,210919,,,A*4C
$GPGGA,141803.000,4308.3000,N,07726.2649,W,1,06,1.98,144.8,M,-34.4,M,,*51
$GPRMC,141803.250,A,4308.3000,N,07726.2649,W,0.01,179.02,210919,,,A*7B
$GPGGA,141803.500,4308.3000,N,07726.2649,W,1,06,1.98,144.8,M,-34.4,M,,*54
$GPRMC,141803.750,A,4308.3000,N,07726.2649,W,0.02,333.63,210919,,,A*76
$GPGGA,141804.000,4308.3000,N,07726.2649,W,1,06,1.98,144.8,M,-34.4,M,,*56
$GPRMC,141804.250,A,4308.3000,N,07726.2649,W,0.01,124.76,210919,,,A*77
$GPGGA,141804.500,4308.3000,N,07726.2649,W,1,06,1.98,144.8,M,-34.4,M,,*53
$GPRMC,141804.750,A,4308.3000,N,07726.2649,W,0.00,296.44,210919,,,A*78
$GPGGA,141805.000,4308.3000,N,07726.2649,W,1,06,1.98,144.8,M,-34.4,M,,*57
$GPRMC,141805.250,A,4308.3000,N,07726.2649,W,0.01,118.78,210919,,,A*77
$GPGGA,141805.500,4308.3000,N,07726.2649,W,1,06,1.98,144.8,M,-34.4,M,,*52
$GPRMC,141805.750,A,4308.3000,N,07726.2649,W,0.01,292.65,210919,,,A*7F
$GPGGA,141806.000,4308.3000,N,07726.2649,W,1,06,1.98,144.8,M,-34.4,M,,*54
$GPRMC,141806.250,A,4308.3000,N,07726.2649,W,0.01,273.55,210919,,,A*75
$GPGGA,141806.500,4308.3000,N,07726.2649,W,1,06,1.98,144.8,M,-34.4,M,,*51
$GPRMC,141806.750,A,4308.3000,N,07726.2649,W,0.01,167.12,210919,,,A*75
$GPGGA,141807.000,4308.3000,N,07726.2649,W,1,06,1.98,144.8,M,-34.4,M,,*55
$GPRMC,141807.250,A,4308.3000,N,07726.2649,W,0.00,300.26,210919,,,A*74
$GPGGA,141807.500,4308.3000,N,07726.2649,W,1,06,1.98,144.8,M,-34.4,M,,*50
$GPRMC,141807.750,A,4308.3000,N,07726.2649,W,0.01,71.76,210919,,,A*40
$GPGGA,141808.000,4308.3000,N,07726.2649,W,1,06,1.98,144.8,M,-34.4,M,,*5A
$GPRMC,141808.250,A,4308.3000,N,07726.2649,W,0.01,62.61,210919,,,A*4E
$GPGGA,141808.500,4308.3000,N,07726.2649,W,1,07,1.86,144.8,M,-34.4,M,,*51
$GPRMC,141808.750,A,4308.3000,N,07726.2649,W,0.01,102.63,210919,,,A*7E
$GPGGA,141809.000,4308.3000,N,07726.2649,W,1,07,1.86,144.8,M,-34.4,M,,*55
$GPRMC,141809.250,A,4308.3000,N,07726.2649,W,0.01,72.23,210919,,,A*48
$GPGGA,141809.500,4308.3000,N,07726.2649,W,1,07,1.86,144.8,M,-34.4,M,,*50
$GPRMC,141809.750,A,4308.3000,N,07726.2649,W,0.01,239.10,210919,,,A*70
$GPGGA,141810.000,4308.3000,N,07726.2649,W,1,07,1.86,144.7,M,-34.4,M,,*52
$GPRMC,141810.250,A,4308.3000,N,07726.2649,W,0.01,294.12,210919,,,A*78
$GPGGA,141810.500,4308.3000,N,07726.2649,W,1,07,1.86,144.7,M,-34.4,M,,*57
$GPRMC,141810.750,A,4308.3000,N,07726.2649,W,0.01,59.04,210919,,,A*49
$GPGGA,141811.000,4308.3001,N,07726.2649,W,1,07,1.86,144.7,M,-34.4,M,,*52
$GPRMC,141811.250,A,4308.3001,N,07726.2649,W,0.00,301.94,210919,,,A*7A
$GPGGA,141811.500,4308.3001,N,07726.2649,W,1,07,1.86,144.7,M,-34.4,M,,*57
$GPRMC,141811.750,A,4308.3001,N,07726.2649,W,0.00,48.31,210919,,,A*4E
$GPGGA,141812.000,4308.3001,N,07726.2649,W,1,07,1.86,144.7,M,-34.4,M,,*51
$GPRMC,141812.250,A,4308.3001,N,07726.2649,W,0.00,39.97,210919,,,A*42
$GPGGA,141812.500,4308.3001,N,07726.2649,W,1,07,1.86,144.7,M,-34.4,M,,*54
$GPRMC,141812.750,A,4308.3001,N,07726.2649,W,0.01,290.43,210919,,,A*7E
$GPGGA,141813.000,4308.3001,N,07726.2649,W,1,07,1.86,144.7,M,-34.4,M,,*50
$GPRMC,141813.250,A,4308.3001,N,07726.2649,W,0.02,149.78,210919,,,A*76
$GPGGA,141813.500,4308.3001,N,07726.2649,W,1,07,1.86,144.7,M,-34.4,M,,*55
$GPRMC,141813.750,A,4308.3001,N,07726.2649,W,0.00,39.68,210919,,,A*46
$GPGGA,141814.000,4308.3001,N,07726.2649,W,1,07,1.86,144.7,M,-34.4,M,,*57
$GPRMC,141814.250,A,4308.3001,N,07726.2649,W,0.01,22.74,210919,,,A*42
$GPGGA,141814.500,4308.3001,N,07726.2649,W,1,07,1.86,144.7,M,-34.4,M,,*52
$GPRMC,141814.750,A,4308.3001,N,07726.2649,W,0.01,192.64,210919,,,A*7C
$GPGGA,141815.000,4308.3001,N,07726.2649,W,1,07,1.86,144.7,M,-34.4,M,,*56
$GPRMC,141815.250,A,4308.3001,N,07726.2649,W,0.00,292.44,210919,,,A*78
$GPGGA,141815.500,4308.3001,N,07726.2649,W,1,07,1.86,144.7,M,-34.4,M,,*53
$GPRMC,141815.750,A,4308.3001,N,07726.2649,W,0.01,306.02,210919,,,A*72
$GPGGA,141816.000,4308.3001,N,07726.2649,W,1,07,1.86,144.7,M,-34.4,M,,*55
$GPRMC,141816.250,A,4308.3001,N,07726.2649,W,0.01,23.47,210919,,,A*41
$GPGGA,141816.500,4308.3001,N,07726.2649,W,1,07,1.86,144.7,M,-34.4,M,,*50
$GPRMC,141816.750,A,4308.3001,N,07726.2649,W,0.01,207.99,210919,,,A*73
$GPGGA,141817.000,4308.3001,N,07726.2649,W,1,07,1.86,144.7,M,-34.4,M,,*54
$GPRMC,141817.250,A,4308.3001,N,07726.2649,W,0.00,16.36,210919,,,A*41
$GPGGA,141817.500,4308.3001,N,07726.2649,W,1,07,1.86,144.7,M,-34.4,M,,*51
$GPRMC,141817.750,A,4308.3001,N,07726.2649,W,0.01,124.12,210919,,,A*73
$GPGGA,141818.000,4308.3001,N,07726.2649,W,1,07,1.86,144.7,M,-34.4,M,,*5B
$GPRMC,141818.250,A,4308.3001,N,07726.2649,W,0.01,350.17,210919,,,A*7D
$GPGGA,141818.500,4308.3001,N,07726.2649,W,1,07,1.86,144.7,M,-34.4,M,,*5E
$GPRMC,141818.750,A,4308.3001,N,07726.2649,W,0.01,331.75,210919,,,A*7B
$GPGGA,141819.000,4308.3001,N,07726.2649,W,1,07,1.86,144.7,M,-34.4,M,,*5A
$GPRMC,141819.250,A,4308.3001,N,07726.2649,W,0.01,91.94,210919,,,A*49
$GPGGA,141819.500,4308.3001,N,07726.2649,W,1,07,1.86,144.7,M,-34.4,M,,*5F
$GPRMC,141819.750,A,4308.3001,N,07726.2649,W,0.01,333.04,210919,,,A*7E
$GPGGA,141820.000,4308.3001,N,07726.2649,W,1,07,1.86,144.7,M,-34.4,M,,*50
$GPRMC,141820.250,A,4308.3001,N,07726.2649,W,0.00,111.62,210919,,,A*72
$GPGGA,141820.500,4308.3001,N,07726.2649,W,1,07,1.86,144.7,M,-34.4,M,,*55
$GPRMC,141820.750,A,4308.3001,N,07726.2649,W,0.00,51.46,210919,,,A*44
$GPGGA,141821.000,4308.3001,N,07726.2649,W,1,07,1.86,144.7,M,-34.4,M,,*51
$GPRMC,141821.250,A,4308.3001,N,07726.2649,W,0.00,92.38,210919,,,A*46
$GPGGA,141821.500,4308.3001,N,07726.2649,W,1,07,1.86,144.7,M,-34.4,M,,*54
$GPRMC,141821.750,A,4308.3001,N,07726.2649,W,0.02,72.37,210919,,,A*40
$GPGGA,141822.000,4308.3001,N,07726.2649,W,1,07,1.86,144.7,M,-34.4,M,,*52
$GPRMC,141822.250,A,4308.3001,N,07726.2649,W,0.01,330.15,210919,,,A*70
$GPGGA,141822.500,4308.3001,N,07726.2649,W,1,07,1.86,144.7,M,-34.4,M,,*57
$GPRMC,141822.750,A,4308.3001,N,07726.2649,W,0.01,61.50,210919,,,A*43
$GPGGA,141823.000,4308.3001,N,07726.2649,W,1,07,1.86,144.7,M,-34.4,M,,*53
$GPRMC,141823.250,A,4308.3001,N,07726.2649,W,0.02,151.62,210919,,,A*77
$GPGGA,141823.500,4308.3001,N,07726.2649,W,1,07,1.86,144.7,M,-34.4,M,,*56
$GPRMC,141823.750,A,4308.3001,N,07726.2649,W,0.01,92.30,210919,,,A*48
$GPGGA,141824.000,4308.3001,N,07726.2649,W,1,07,1.86,144.7,M,-34.4,M,,*54
$GPRMC,141824.250,A,4308.3001,N,07726.2649,W,0.02,99.42,210919,,,A*47
$GPGGA,141824.500,4308.3001,N,07726.2649,W,1,07,1.86,144.7,M,-34.4,M,,*51
$GPRMC,141824.750,A,4308.3001,N,07726.2649,W,0.00,153.42,210919,,,A*77
$GPGGA,141825.000,4308.3001,N,07726.2649,W,1,07,1.86,144.7,M,-34.4,M,,*55
$GPRMC,141825.250,A,4308.3001,N,07726.2649,W,0.01,240.28,210919,,,A*7F
