Vers 81
USE_SERIAL_FEEDBACK=true
DEVELOPMENT_MODE=false
USE_RMC_ONLY=false

$GPRMC,154455.500,A,4308.3089,N,07726.2621,W,0.05,230.05,040919,,,A*77
$GPGGA,154455.750,4308.3090,N,07726.2620,W,1,04,2.58,160.4,M,-34.4,M,,*59
$GPRMC,154456.000,A,4308.3090,N,07726.2619,W,0.02,253.01,040919,,,A*74
$GPGGA,154456.250,4308.3089,N,07726.2613,W,1,05,1.85,162.9,M,-34.4,M,,*5A
$GPRMC,154456.500,A,4308.3089,N,07726.2609,W,0.02,42.28,040919,,,A*41
$GPGGA,154456.750,4308.3088,N,07726.2607,W,1,05,1.85,165.1,M,-34.4,M,,*54
$GPRMC,154457.000,A,4308.3086,N,07726.2605,W,0.04,173.04,040919,,,A*7D
$GPGGA,154457.250,4308.3085,N,07726.2603,W,1,05,1.85,166.3,M,-34.4,M,,*58
$GPRMC,154457.500,A,4308.3084,N,07726.2601,W,0.02,199.46,040919,,,A*7A
$GPGGA,154457.750,4308.3083,N,07726.2600,W,1,05,1.85,166.9,M,-34.4,M,,*52
$GPRMC,154458.000,A,4308.3081,N,07726.2600,W,0.03,243.45,040919,,,A*72
$GPGGA,154458.250,4308.3081,N,07726.2599,W,1,05,1.85,166.9,M,-34.4,M,,*59
$GPRMC,154458.500,A,4308.3082,N,07726.2598,W,0.18,7.35,040919,,,A*79
$GPGGA,154458.750,4308.3082,N,07726.2598,W,1,05,3.58,167.2,M,-34.4,M,,*56
$GPRMC,154459.000,A,4308.3082,N,07726.2598,W,2.02,1.99,040919,,,A*74
$GPGGA,154459.250,4308.3084,N,07726.2598,W,1,05,3.57,167.3,M,-34.4,M,,*5A
$GPRMC,154459.500,A,4308.3086,N,07726.2598,W,3.40,2.82,040919,,,A*7B
$GPGGA,154459.750,4308.3087,N,07726.2598,W,1,05,3.57,167.4,M,-34.4,M,,*5B
$GPRMC,154500.000,A,4308.3091,N,07726.2598,W,4.82,0.12,040919,,,A*77
$GPGGA,154500.250,4308.3094,N,07726.2598,W,1,05,3.57,167.6,M,-34.4,M,,*53
$GPRMC,154500.500,A,4308.3098,N,07726.2598,W,5.93,358.02,040919,,,A*75
$GPGGA,154500.750,4308.3103,N,07726.2599,W,1,05,3.57,167.5,M,-34.4,M,,*5B
$GPRMC,154501.000,A,4308.3108,N,07726.2599,W,6.51,355.04,040919,,,A*7E
$GPGGA,154501.250,4308.3112,N,07726.2600,W,1,05,3.57,167.7,M,-34.4,M,,*5E
$GPRMC,154501.500,A,4308.3117,N,07726.2601,W,6.50,353.15,040919,,,A*70
$GPGGA,154501.750,4308.3121,N,07726.2602,W,1,05,3.57,167.6,M,-34.4,M,,*58
$GPRMC,154502.000,A,4308.3125,N,07726.2603,W,6.49,351.48,040919,,,A*77
$GPGGA,154502.250,4308.3130,N,07726.2604,W,1,05,3.57,167.5,M,-34.4,M,,*5B
$GPRMC,154502.500,A,4308.3134,N,07726.2605,W,6.70,352.20,040919,,,A*73
$GPGGA,154502.750,4308.3140,N,07726.2606,W,1,05,3.57,167.5,M,-34.4,M,,*5B
$GPRMC,154503.000,A,4308.3145,N,07726.2607,W,7.10,356.41,040919,,,A*77
$GPGGA,154503.250,4308.3150,N,07726.2607,W,1,05,3.57,167.6,M,-34.4,M,,*5C
$GPRMC,154503.500,A,4308.3155,N,07726.2608,W,6.67,0.25,040919,,,A*7F
$GPGGA,154503.750,4308.3159,N,07726.2607,W,1,05,3.57,167.8,M,-34.4,M,,*5E
$GPRMC,154504.000,A,4308.3163,N,07726.2607,W,6.38,6.65,040919,,,A*7F
$GPGGA,154504.250,4308.3166,N,07726.2607,W,1,05,3.57,167.7,M,-34.4,M,,*5F
$GPRMC,154504.500,A,4308.3169,N,07726.2606,W,5.65,11.48,040919,,,A*43
$GPGGA,154504.750,4308.3172,N,07726.2605,W,1,05,3.57,167.5,M,-34.4,M,,*5F
$GPRMC,154505.000,A,4308.3174,N,07726.2604,W,4.81,13.24,040919,,,A*4A
$GPGGA,154505.250,4308.3176,N,07726.2603,W,1,05,3.57,167.6,M,-34.4,M,,*5A
$GPRMC,154505.500,A,4308.3178,N,07726.2602,W,4.02,14.95,040919,,,A*43
$GPGGA,154505.750,4308.3179,N,07726.2602,W,1,05,3.57,167.4,M,-34.4,M,,*53
$GPRMC,154506.000,A,4308.3181,N,07726.2601,W,3.49,22.12,040919,,,A*42
$GPGGA,154506.250,4308.3183,N,07726.2600,W,1,05,1.85,167.2,M,-34.4,M,,*59
$GPRMC,154506.500,A,4308.3185,N,07726.2598,W,3.63,28.21,040919,,,A*42
$GPGGA,154506.750,4308.3187,N,07726.2597,W,1,05,1.84,167.1,M,-34.4,M,,*57
$GPRMC,154507.000,A,4308.3188,N,07726.2595,W,3.60,31.85,040919,,,A*43
$GPGGA,154507.250,4308.3190,N,07726.2593,W,1,05,1.84,167.1,M,-34.4,M,,*51
$GPRMC,154507.500,A,4308.3192,N,07726.2591,W,3.36,38.03,040919,,,A*4D
$GPGGA,154507.750,4308.3193,N,07726.2589,W,1,05,1.84,167.2,M,-34.4,M,,*5F
$GPRMC,154508.000,A,4308.3195,N,07726.2586,W,3.64,49.22,040919,,,A*44
$GPGGA,154508.250,4308.3195,N,07726.2584,W,1,05,1.84,167.1,M,-34.4,M,,*5D
$GPRMC,154508.500,A,4308.3196,N,07726.2581,W,3.51,56.92,040919,,,A*46
$GPGGA,154508.750,4308.3196,N,07726.2578,W,1,05,1.84,167.0,M,-34.4,M,,*59
$GPRMC,154509.000,A,4308.3197,N,07726.2575,W,3.32,63.09,040919,,,A*49
$GPGGA,154509.250,4308.3197,N,07726.2573,W,1,05,1.84,166.8,M,-34.4,M,,*5E
$GPRMC,154509.500,A,4308.3197,N,07726.2571,W,2.69,63.92,040919,,,A*45
$GPGGA,154509.750,4308.3198,N,07726.2570,W,1,05,1.84,166.5,M,-34.4,M,,*5A
$GPRMC,154510.000,A,4308.3199,N,07726.2570,W,1.87,28.94,040919,,,A*4D
$GPGGA,154510.250,4308.3200,N,07726.2571,W,1,05,1.84,166.2,M,-34.4,M,,*53
$GPRMC,154510.500,A,4308.3202,N,07726.2572,W,1.93,343.26,040919,,,A*79
$GPGGA,154510.750,4308.3203,N,07726.2574,W,1,05,1.84,166.1,M,-34.4,M,,*53
$GPRMC,154511.000,A,4308.3204,N,07726.2576,W,2.79,312.12,040919,,,A*7B
$GPGGA,154511.250,4308.3205,N,07726.2580,W,1,05,1.84,165.8,M,-34.4,M,,*50
$GPRMC,154511.500,A,4308.3206,N,07726.2584,W,3.96,299.51,040919,,,A*74
$GPGGA,154511.750,4308.3209,N,07726.2589,W,1,05,3.56,165.6,M,-34.4,M,,*53
$GPRMC,154512.000,A,4308.3213,N,07726.2595,W,6.25,299.53,040919,,,A*79
$GPGGA,154512.250,4308.3215,N,07726.2602,W,1,05,3.56,165.2,M,-34.4,M,,*5C
$GPRMC,154512.500,A,4308.3217,N,07726.2609,W,7.83,296.01,040919,,,A*7B
$GPGGA,154512.750,4308.3217,N,07726.2618,W,1,05,3.56,164.9,M,-34.4,M,,*5A
$GPRMC,154513.000,A,4308.3218,N,07726.2627,W,9.31,288.56,040919,,,A*76
$GPGGA,154513.250,4308.3218,N,07726.2637,W,1,05,3.56,164.8,M,-34.4,M,,*5D
$GPRMC,154513.500,A,4308.3216,N,07726.2649,W,10.84,279.31,040919,,,A*4C
$GPGGA,154513.750,4308.3216,N,07726.2660,W,1,05,1.84,164.6,M,-34.4,M,,*57
$GPRMC,154514.000,A,4308.3216,N,07726.2672,W,12.13,274.35,040919,,,A*43
$GPGGA,154514.250,4308.3215,N,07726.2686,W,1,05,1.84,164.6,M,-34.4,M,,*5E
$GPRMC,154514.500,A,4308.3215,N,07726.2699,W,13.11,270.92,040919,,,A*4A
$GPGGA,154514.750,4308.3215,N,07726.2712,W,1,05,1.84,164.6,M,-34.4,M,,*57
$GPRMC,154515.000,A,4308.3217,N,07726.2726,W,14.03,271.85,040919,,,A*4A
$GPGGA,154515.250,4308.3219,N,07726.2741,W,1,05,1.84,164.7,M,-34.4,M,,*58
$GPRMC,154515.500,A,4308.3221,N,07726.2755,W,14.84,274.86,040919,,,A*47
$GPGGA,154515.750,4308.3224,N,07726.2771,W,1,05,1.84,164.8,M,-34.4,M,,*5F
$GPRMC,154516.000,A,4308.3227,N,07726.2786,W,15.71,279.92,040919,,,A*4A
$GPGGA,154516.250,4308.3229,N,07726.2801,W,1,05,3.56,164.8,M,-34.4,M,,*51
$GPRMC,154516.500,A,4308.3232,N,07726.2816,W,15.86,281.33,040919,,,A*49
$GPGGA,154516.750,4308.3235,N,07726.2831,W,1,05,1.84,164.7,M,-34.4,M,,*58
$GPRMC,154517.000,A,4308.3237,N,07726.2846,W,16.18,281.87,040919,,,A*46
$GPGGA,154517.250,4308.3240,N,07726.2862,W,1,04,4.08,164.7,M,-34.4,M,,*58
$GPRMC,154517.500,A,4308.3242,N,07726.2878,W,16.61,281.81,040919,,,A*44
$GPGGA,154517.750,4308.3245,N,07726.2894,W,1,04,4.07,164.6,M,-34.4,M,,*5F
$GPRMC,154518.000,A,4308.3247,N,07726.2912,W,17.22,281.95,040919,,,A*45
$GPGGA,154518.250,4308.3250,N,07726.2929,W,1,04,4.07,164.4,M,-34.4,M,,*54
$GPRMC,154518.500,A,4308.3255,N,07726.2947,W,18.03,283.83,040919,,,A*4A
$GPGGA,154518.750,4308.3263,N,07726.2965,W,1,05,1.84,164.1,M,-34.4,M,,*53
$GPRMC,154519.000,A,4308.3271,N,07726.2983,W,18.97,290.35,040919,,,A*42
$GPGGA,154519.250,4308.3277,N,07726.3002,W,1,04,4.07,163.9,M,-34.4,M,,*5B
$GPRMC,154519.500,A,4308.3283,N,07726.3021,W,19.90,291.01,040919,,,A*4A
$GPGGA,154519.750,4308.3289,N,07726.3041,W,1,04,4.07,163.8,M,-34.4,M,,*59
$GPRMC,154520.000,A,4308.3295,N,07726.3060,W,20.85,291.42,040919,,,A*4E
$GPGGA,154520.250,4308.3302,N,07726.3080,W,1,04,4.06,163.6,M,-34.4,M,,*56
$GPRMC,154520.500,A,4308.3308,N,07726.3100,W,21.51,291.81,040919,,,A*4E
$GPGGA,154520.750,4308.3316,N,07726.3120,W,1,05,1.84,163.5,M,-34.4,M,,*50
$GPRMC,154521.000,A,4308.3327,N,07726.3139,W,22.06,294.66,040919,,,A*40
$GPGGA,154521.250,4308.3337,N,07726.3158,W,1,05,1.84,163.5,M,-34.4,M,,*58
$GPRMC,154521.500,A,4308.3346,N,07726.3178,W,22.60,296.28,040919,,,A*4F
$GPGGA,154521.750,4308.3355,N,07726.3199,W,1,05,1.84,163.5,M,-34.4,M,,*54
$GPRMC,154522.000,A,4308.3364,N,07726.3219,W,23.20,297.45,040919,,,A*42
$GPGGA,154522.250,4308.3374,N,07726.3239,W,1,05,1.84,163.5,M,-34.4,M,,*58
$GPRMC,154522.500,A,4308.3384,N,07726.3259,W,23.79,298.64,040919,,,A*4D
$GPGGA,154522.750,4308.3394,N,07726.3280,W,1,04,4.06,163.4,M,-34.4,M,,*5E
$GPRMC,154523.000,A,4308.3404,N,07726.3300,W,24.19,299.49,040919,,,A*44
$GPGGA,154523.250,4308.3414,N,07726.3320,W,1,05,1.84,163.4,M,-34.4,M,,*50
$GPRMC,154523.500,A,4308.3424,N,07726.3341,W,24.26,300.44,040919,,,A*46
$GPGGA,154523.750,4308.3434,N,07726.3360,W,1,04,4.05,163.3,M,-34.4,M,,*59
$GPRMC,154524.000,A,4308.3444,N,07726.3379,W,24.13,301.43,040919,,,A*49
$GPGGA,154524.250,4308.3454,N,07726.3398,W,1,04,4.05,163.4,M,-34.4,M,,*5D
$GPRMC,154524.500,A,4308.3464,N,07726.3418,W,24.05,302.09,040919,,,A*44
$GPGGA,154524.750,4308.3474,N,07726.3437,W,1,05,1.84,163.5,M,-34.4,M,,*54
$GPRMC,154525.000,A,4308.3485,N,07726.3455,W,23.79,302.88,040919,,,A*43
$GPGGA,154525.250,4308.3496,N,07726.3474,W,1,05,1.84,163.7,M,-34.4,M,,*59
$GPRMC,154525.500,A,4308.3506,N,07726.3491,W,23.43,304.37,040919,,,A*4F
$GPGGA,154525.750,4308.3516,N,07726.3509,W,1,04,4.05,163.8,M,-34.4,M,,*5C
$GPRMC,154526.000,A,4308.3526,N,07726.3526,W,22.94,305.40,040919,,,A*4C
$GPGGA,154526.250,4308.3532,N,07726.3546,W,1,06,1.73,162.7,M,-34.4,M,,*5F
$GPRMC,154526.500,A,4308.3538,N,07726.3565,W,22.77,307.62,040919,,,A*4E
$GPGGA,154526.750,4308.3545,N,07726.3583,W,1,06,1.73,161.1,M,-34.4,M,,*56
$GPRMC,154527.000,A,4308.3559,N,07726.3600,W,23.07,312.08,040919,,,A*43
$GPGGA,154527.250,4308.3573,N,07726.3618,W,1,06,1.96,159.5,M,-34.4,M,,*52
$GPRMC,154527.500,A,4308.3587,N,07726.3632,W,23.37,320.10,040919,,,A*4F
$GPGGA,154527.750,4308.3597,N,07726.3647,W,1,06,1.73,158.4,M,-34.4,M,,*5C
$GPRMC,154528.000,A,4308.3608,N,07726.3662,W,23.24,324.19,040919,,,A*4B
$GPGGA,154528.250,4308.3620,N,07726.3675,W,1,06,1.96,157.5,M,-34.4,M,,*5D
$GPRMC,154528.500,A,4308.3634,N,07726.3688,W,22.86,325.39,040919,,,A*4F
$GPGGA,154528.750,4308.3647,N,07726.3700,W,1,06,1.73,157.5,M,-34.4,M,,*51
$GPRMC,154529.000,A,4308.3660,N,07726.3712,W,22.20,327.24,040919,,,A*4A
$GPGGA,154529.250,4308.3672,N,07726.3724,W,1,06,1.73,157.2,M,-34.4,M,,*52
$GPRMC,154529.500,A,4308.3685,N,07726.3735,W,21.64,329.12,040919,,,A*49
$GPGGA,154529.750,4308.3698,N,07726.3745,W,1,06,1.73,157.1,M,-34.4,M,,*57
$GPRMC,154530.000,A,4308.3711,N,07726.3754,W,20.69,333.27,040919,,,A*4E
$GPGGA,154530.250,4308.3724,N,07726.3762,W,1,06,1.73,157.1,M,-34.4,M,,*59
$GPRMC,154530.500,A,4308.3738,N,07726.3770,W,20.08,336.85,040919,,,A*4C
$GPGGA,154530.750,4308.3751,N,07726.3777,W,1,06,1.73,157.2,M,-34.4,M,,*59
$GPRMC,154531.000,A,4308.3765,N,07726.3784,W,20.03,339.30,040919,,,A*41
$GPGGA,154531.250,4308.3778,N,07726.3790,W,1,06,1.73,157.1,M,-34.4,M,,*5C
$GPRMC,154531.500,A,4308.3791,N,07726.3796,W,19.97,343.30,040919,,,A*46
$GPGGA,154531.750,4308.3804,N,07726.3800,W,1,06,1.73,156.9,M,-34.4,M,,*52
$GPRMC,154532.000,A,4308.3818,N,07726.3804,W,19.60,347.68,040919,,,A*4B
$GPGGA,154532.250,4308.3833,N,07726.3806,W,1,06,1.96,156.7,M,-34.4,M,,*53
$GPRMC,154532.500,A,4308.3848,N,07726.3808,W,20.21,352.73,040919,,,A*46
$GPGGA,154532.750,4308.3863,N,07726.3810,W,1,06,1.96,156.4,M,-34.4,M,,*57
$GPRMC,154533.000,A,4308.3879,N,07726.3810,W,20.97,357.05,040919,,,A*40
$GPGGA,154533.250,4308.3893,N,07726.3811,W,1,06,1.96,156.3,M,-34.4,M,,*5A
$GPRMC,154533.500,A,4308.3906,N,07726.3810,W,20.88,0.13,040919,,,A*44
$GPGGA,154533.750,4308.3921,N,07726.3809,W,1,06,1.96,156.3,M,-34.4,M,,*5E
$GPRMC,154534.000,A,4308.3935,N,07726.3807,W,20.84,4.36,040919,,,A*4F
$GPGGA,154534.250,4308.3949,N,07726.3804,W,1,06,1.96,156.5,M,-34.4,M,,*59
$GPRMC,154534.500,A,4308.3965,N,07726.3802,W,21.04,6.77,040919,,,A*44
$GPGGA,154534.750,4308.3981,N,07726.3798,W,1,06,1.96,156.7,M,-34.4,M,,*50
$GPRMC,154535.000,A,4308.3997,N,07726.3793,W,21.73,9.81,040919,,,A*4C
$GPGGA,154535.250,4308.4016,N,07726.3788,W,1,06,1.96,156.9,M,-34.4,M,,*5B
$GPRMC,154535.500,A,4308.4035,N,07726.3783,W,22.94,10.84,040919,,,A*79
$GPGGA,154535.750,4308.4053,N,07726.3778,W,1,06,1.96,156.9,M,-34.4,M,,*50
$GPRMC,154536.000,A,4308.4067,N,07726.3773,W,23.32,11.29,040919,,,A*7C
$GPGGA,154536.250,4308.4083,N,07726.3767,W,1,06,1.96,157.0,M,-34.4,M,,*5D
$GPRMC,154536.500,A,4308.4098,N,07726.3762,W,23.36,11.20,040919,,,A*74
$GPGGA,154536.750,4308.4114,N,07726.3757,W,1,06,1.96,157.0,M,-34.4,M,,*54
$GPRMC,154537.000,A,4308.4130,N,07726.3753,W,23.43,10.17,040919,,,A*76
$GPGGA,154537.250,4308.4146,N,07726.3748,W,1,06,1.96,157.2,M,-34.4,M,,*5B
$GPRMC,154537.500,A,4308.4162,N,07726.3743,W,23.49,9.84,040919,,,A*4D
$GPGGA,154537.750,4308.4178,N,07726.3739,W,1,06,1.96,157.4,M,-34.4,M,,*53
$GPRMC,154538.000,A,4308.4194,N,07726.3734,W,23.53,9.99,040919,,,A*49
$GPGGA,154538.250,4308.4210,N,07726.3730,W,1,06,1.96,157.7,M,-34.4,M,,*5E
$GPRMC,154538.500,A,4308.4227,N,07726.3725,W,23.50,10.12,040919,,,A*7F
$GPGGA,154538.750,4308.4243,N,07726.3721,W,1,06,1.96,158.0,M,-34.4,M,,*55
$GPRMC,154539.000,A,4308.4259,N,07726.3716,W,23.42,9.63,040919,,,A*4F
$GPGGA,154539.250,4308.4275,N,07726.3712,W,1,06,1.96,158.3,M,-34.4,M,,*57
$GPRMC,154539.500,A,4308.4290,N,07726.3707,W,23.20,9.98,040919,,,A*4F
$GPGGA,154539.750,4308.4306,N,07726.3703,W,1,06,1.96,158.6,M,-34.4,M,,*52
$GPRMC,154540.000,A,4308.4320,N,07726.3698,W,22.75,10.01,040919,,,A*70
$GPGGA,154540.250,4308.4335,N,07726.3694,W,1,06,1.96,158.8,M,-34.4,M,,*58
$GPRMC,154540.500,A,4308.4350,N,07726.3690,W,22.26,10.22,040919,,,A*7D
$GPGGA,154540.750,4308.4364,N,07726.3686,W,1,06,1.96,159.1,M,-34.4,M,,*52
$GPRMC,154541.000,A,4308.4378,N,07726.3683,W,21.49,9.92,040919,,,A*48
$GPGGA,154541.250,4308.4391,N,07726.3679,W,1,06,1.96,159.2,M,-34.4,M,,*5F
$GPRMC,154541.500,A,4308.4405,N,07726.3675,W,20.82,9.67,040919,,,A*45
$GPGGA,154541.750,4308.4419,N,07726.3672,W,1,06,1.96,159.5,M,-34.4,M,,*51
$GPRMC,154542.000,A,4308.4432,N,07726.3668,W,20.22,9.04,040919,,,A*44
$GPGGA,154542.250,4308.4444,N,07726.3665,W,1,06,1.96,159.6,M,-34.4,M,,*5A
$GPRMC,154542.500,A,4308.4457,N,07726.3662,W,19.46,9.05,040919,,,A*41
$GPGGA,154542.750,4308.4467,N,07726.3660,W,1,06,1.96,159.9,M,-34.4,M,,*54
$GPRMC,154543.000,A,4308.4478,N,07726.3658,W,17.91,7.95,040919,,,A*42
$GPGGA,154543.250,4308.4486,N,07726.3655,W,1,06,1.96,160.2,M,-34.4,M,,*58
$GPRMC,154543.500,A,4308.4496,N,07726.3653,W,16.35,7.30,040919,,,A*4C
$GPGGA,154543.750,4308.4506,N,07726.3651,W,1,06,1.96,160.4,M,-34.4,M,,*56
$GPRMC,154544.000,A,4308.4512,N,07726.3649,W,14.45,6.23,040919,,,A*4E
$GPGGA,154544.250,4308.4518,N,07726.3647,W,1,06,1.96,160.5,M,-34.4,M,,*5D
$GPRMC,154544.500,A,4308.4526,N,07726.3646,W,12.61,4.75,040919,,,A*42
$GPGGA,154544.750,4308.4530,N,07726.3644,W,1,06,1.96,160.8,M,-34.4,M,,*5C
$GPRMC,154545.000,A,4308.4536,N,07726.3642,W,10.25,3.90,040919,,,A*4D
$GPGGA,154545.250,4308.4540,N,07726.3641,W,1,06,1.96,160.8,M,-34.4,M,,*5A
$GPRMC,154545.500,A,4308.4545,N,07726.3639,W,8.77,3.56,040919,,,A*74
$GPGGA,154545.750,4308.4550,N,07726.3638,W,1,06,1.96,160.8,M,-34.4,M,,*50
$GPRMC,154546.000,A,4308.4554,N,07726.3636,W,8.01,5.69,040919,,,A*76
$GPGGA,154546.250,4308.4559,N,07726.3635,W,1,06,1.96,161.0,M,-34.4,M,,*5B
$GPRMC,154546.500,A,4308.4564,N,07726.3634,W,7.94,4.05,040919,,,A*7A
$GPGGA,154546.750,4308.4569,N,07726.3635,W,1,06,1.96,161.0,M,-34.4,M,,*5D
$GPRMC,154547.000,A,4308.4574,N,07726.3635,W,7.92,354.84,040919,,,A*77
$GPGGA,154547.250,4308.4580,N,07726.3637,W,1,06,1.96,161.1,M,-34.4,M,,*5D
$GPRMC,154547.750,A,4308.4593,N,07726.3644,W,8.95,339.51,040919,,,A*71
$GPGGA,154548.000,4308.4599,N,07726.3648,W,1,06,1.73,161.5,M,-34.4,M,,*5A
$GPRMC,154548.500,A,4308.4612,N,07726.3659,W,10.61,328.67,040919,,,A*48
$GPGGA,154548.750,4308.4618,N,07726.3668,W,1,05,2.53,161.4,M,-3N,07726.3668,W,11.48,322.13,040919,,,A*44
$GPGGA,154549.000,4308.4624,N,07726.3678,W,1,06,1.72,161.5,M,-34.4,M,,*5C
$GPRMC,154549.000,A,4308.4624,N,07726.3678,W,12.57,315.50,040919,,,A*47
$GPGGA,154549.250,4308.4631,N,07726.3691,W,1,06,1.72,161.6,M,-34.4,M,,*5B
$GPRMC,154549.250,A,4308.4631,N,07726.3691,W,13.95,309.90,04091,,,A*4D
$GPGGA,154549.500,4308.4637,N,07726.3703,W,1,06,1.72,161.7,M,-34.4,M,,*54
$GPRMC,154549.500,A,4308.4637,N,07726.3703,W,14.46,308.20,040919,,,A*40
$GPGGA,154549.750,4308.4643,N,07726.3715,W,1,06,1.72,161.7,M,-34.4,M,,*57
$GPRMC,154549.750,A,4308.4643,N,07726.3715,W,14.94,307.05,040919,,,A*44
$GPGGA,154550.000,4308.4649,N,07726.3731,W,1,06,1.72,161.6,M,-34.4,M,,*50
$GPRMC,154550.000,A,4308.4649,N,07726.3731,W,15.96,303.65,04091,,,A*43
$GPGGA,154550.250,4308.4652,N,07726.3748,W,1,05,2.53,161.6,M,-34.4,M,,*50
$GPRMC,154550.250,A,4308.4652,N,07726.3748,W,16.85,299.25,04091,,,A*47
$GPGGA,154550.500,4308.4653,N,07726.3766,W,1,05,2.53,161.6,M,-34.4,M,,*5F
$GPRMC,154550.500,A,4308.4653,N,07726.3766,W,17.70,294.05,04091$GPGGA,154550.750,4308.4650,N,07726.3787,W,1,05,2.53,161.6,M,-34.4,M,,*54
$GPRMC,154551.000,A,4308.4652,N,07726.3808,W,19.78,285.16,040919,,,A*4A
$GPGGA,154551.250,4308.4652,N,07726.3830,W,1,06,1.72,161.6,M,-34.4,M,,*52
$GPRMC,154551.500,A,4308.4654,N,07726.3851,W,21.12,281.67,040919,,,A*40
$GPGGA,154551.750,4308.4657,N,07726.3874,W,1,06,1.72,161.6,M,-34.4,M,,*52
$GPRMC,154552.000,A,4308.4661,N,07726.3896,W,22.28,280.63,040919,,,A*44
$GPGGA,154552.250,4308.4662,N,07726.3920,W,1,05,2.53,161.5,M,-34.4,M,,*52
$GPRMC,154552.500,A,4308.4663,N,07726.3943,W,23.17,278.27,040919,,,A*40
$GPGGA,154552.750,4308.4664,N,07726.3967,W,1,06,1.72,161.4,M,-34.4,M,,*50
$GPRMC,154553.000,A,4308.4665,N,07726.3991,W,23.75,276.70,040919,,,A*45
$GPGGA,154553.250,4308.4667,N,07726.4015,W,1,06,1.72,161.2,M,-34.4,M,,*5A
$GPRMC,154553.500,A,4308.4669,N,07726.4038,W,24.04,276.41,040919,,,A*42
$GPGGA,154553.750,4308.4671,N,07726.4063,W,1,06,1.72,161.0,M,-34.4,M,,*5B
$GPRMC,154554.000,A,4308.4673,N,07726.4086,W,24.27,276.15,040919,,,A*4E
$GPGGA,154554.250,4308.4675,N,07726.4110,W,1,06,1.72,160.8,M,-34.4,M,,*51
$GPRMC,154554.500,A,4308.4679,N,07726.4134,W,24.19,277.08,040919,,,A*49
$GPGGA,154554.750,4308.4683,N,07726.4157,W,1,06,1.72,160.7,M,-34.4,M,,*51
$GPRMC,154555.000,A,4308.4685,N,07726.4180,W,23.89,277.94,040919,,,A*4A
$GPGGA,154555.250,4308.4688,N,07726.4202,W,1,06,1.72,160.6,M,-34.4,M,,*5C
$GPRMC,154555.500,A,4308.4691,N,07726.4224,W,23.13,278.45,040919,,,A*47
$GPGGA,154555.750,4308.4695,N,07726.4245,W,1,06,1.72,160.5,M,-34.4,M,,*55
$GPRMC,154556.000,A,4308.4698,N,07726.4264,W,21.54,279.50,040919,,,A*48
$GPGGA,154556.250,4308.4702,N,07726.4283,W,1,06,1.72,160.5,M,-34.4,M,,*56
$GPRMC,154556.500,A,4308.4704,N,07726.4301,W,19.86,280.23,040919,,,A*4D
$GPGGA,154556.750,4308.4706,N,07726.4317,W,1,06,1.72,160.4,M,-34.4,M,,*5A
$GPRMC,154557.000,A,4308.4706,N,07726.4333,W,17.58,279.56,040919,,,A*43
$GPGGA,154557.250,4308.4707,N,07726.4347,W,1,06,1.72,160.5,M,-34.4,M,,*5B
$GPRMC,154557.500,A,4308.4710,N,07726.4359,W,14.79,279.96,040919,,,A*41
$GPGGA,154557.750,4308.4709,N,07726.4369,W,1,06,1.72,160.6,M,-34.4,M,,*5F
$GPRMC,154558.000,A,4308.4710,N,07726.4380,W,12.15,278.39,040919,,,A*47
$GPGGA,154558.250,4308.4711,N,07726.4389,W,1,06,1.72,160.5,M,-34.4,M,,*51
$GPRMC,154558.500,A,4308.4711,N,07726.4399,W,10.49,276.69,040919,,,A*4B
$GPGGA,154558.750,4308.4711,N,07726.4406,W,1,06,1.72,160.6,M,-34.4,M,,*57
$GPRMC,154559.000,A,4308.4711,N,07726.4412,W,8.26,274.91,040919,,,A*7E
$GPGGA,154559.250,4308.4711,N,07726.4418,W,1,06,1.72,160.6,M,-34.4,M,,*5C
$GPRMC,154559.500,A,4308.4710,N,07726.4423,W,6.29,270.25,040919,,,A*72
$GPGGA,154559.750,4308.4709,N,07726.4427,W,1,06,1.72,160.7,M,-34.4,M,,*5D
$GPRMC,154600.000,A,4308.4708,N,07726.4431,W,5.06,264.43,040919,,,A*79
$GPGGA,154600.250,4308.4706,N,07726.4435,W,1,06,1.72,160.7,M,-34.4,M,,*5B
$GPRMC,154600.500,A,4308.4706,N,07726.4438,W,4.15,261.60,040919,,,A*7C
$GPGGA,154600.750,4308.4705,N,07726.4440,W,1,06,1.72,160.8,M,-34.4,M,,*50
$GPRMC,154601.000,A,4308.4704,N,07726.4440,W,2.26,259.36,040919,,,A*7B
$GPGGA,154601.250,4308.4702,N,07726.4439,W,1,06,1.72,160.9,M,-34.4,M,,*5C
$GPRMC,154601.500,A,4308.4700,N,07726.4439,W,1.43,259.36,040919,,,A*74
$GPGGA,154601.750,4308.4698,N,07726.4438,W,1,06,1.72,161.0,M,-34.4,M,,*52
$GPRMC,154602.000,A,4308.4697,N,07726.4438,W,1.43,259.36,040919,,,A*7C
$GPGGA,154602.250,4308.4690,N,07726.4437,W,1,07,1.40,161.1,M,-34.4,M,,*52
$GPRMC,154602.500,A,4308.4686,N,07726.4437,W,1.82,259.36,040919,,,A*7B
$GPGGA,154602.750,4308.4683,N,07726.4437,W,1,07,1.40,161.1,M,-34.4,M,,*55
$GPRMC,154603.000,A,4308.4679,N,07726.4437,W,1.37,259.36,040919,,,A*71
$GPGGA,154603.250,4308.4677,N,07726.4436,W,1,07,1.40,161.1,M,-34.4,M,,*5B
$GPRMC,154603.500,A,4308.4676,N,07726.4436,W,1.03,259.36,040919,,,A*7D
$GPGGA,154603.750,4308.4674,N,07726.4436,W,1,07,1.40,161.2,M,-34.4,M,,*5E
$GPRMC,154604.000,A,4308.4672,N,07726.4436,W,0.81,259.36,040919,,,A*70
$GPGGA,154604.250,4308.4671,N,07726.4436,W,1,07,1.40,161.3,M,-34.4,M,,*58
$GPRMC,154604.500,A,4308.4669,N,07726.4436,W,0.70,259.36,040919,,,A*71
$GPGGA,154604.750,4308.4669,N,07726.4435,W,1,07,1.40,161.4,M,-34.4,M,,*50
$GPRMC,154605.000,A,4308.4668,N,07726.4435,W,0.54,259.36,040919,,,A*71
$GPGGA,154605.250,4308.4668,N,07726.4435,W,1,07,1.40,161.4,M,-34.4,M,,*55
$GPRMC,154605.500,A,4308.4668,N,07726.4434,W,0.46,259.36,040919,,,A*76
$GPGGA,154605.750,4308.4667,N,07726.4434,W,1,07,1.40,161.4,M,-34.4,M,,*5E
$GPRMC,154606.000,A,4308.4667,N,07726.4434,W,0.40,259.36,040919,,,A*79
$GPGGA,154606.250,4308.4667,N,07726.4434,W,1,07,1.40,161.4,M,-34.4,M,,*58
$GPRMC,154606.500,A,4308.4667,N,07726.4434,W,0.39,259.36,040919,,,A*72
$GPGGA,154606.750,4308.4666,N,07726.4434,W,1,07,1.40,161.4,M,-34.4,M,,*5C
$GPRMC,154607.000,A,4308.4666,N,07726.4434,W,0.32,259.36,040919,,,A*7C
$GPGGA,154607.250,4308.4666,N,07726.4434,W,1,07,1.40,161.4,M,-34.4,M,,*58
$GPRMC,154607.500,A,4308.4666,N,07726.4434,W,0.26,259.36,040919,,,A*7C
$GPGGA,154607.750,4308.4665,N,07726.4434,W,1,07,1.40,161.4,M,-34.4,M,,*5E
$GPRMC,154608.000,A,4308.4665,N,07726.4434,W,0.17,259.36,040919,,,A*77
$GPGGA,154608.250,4308.4665,N,07726.4434,W,1,07,1.40,161.4,M,-34.4,M,,*54
$GPRMC,154608.500,A,4308.4665,N,07726.4434,W,0.07,259.36,040919,,,A*73
$GPGGA,154608.750,4308.4665,N,07726.4434,W,1,07,1.40,161.4,M,-34.4,M,,*51
$GPRMC,154609.000,A,4308.4665,N,07726.4434,W,0.07,259.36,040919,,,A*77
$GPGGA,154609.250,4308.4665,N,07726.4434,W,1,07,1.40,161.4,M,-34.4,M,,*55
$GPRMC,154609.500,A,4308.4665,N,07726.4434,W,0.09,259.36,040919,,,A*7C
$GPGGA,154609.750,4308.4665,N,07726.4434,W,1,07,1.40,161.4,M,-34.4,M,,*50
$GPRMC,154610.000,A,4308.4665,N,07726.4434,W,0.08,259.36,040919,,,A*70
$GPGGA,154610.250,4308.4665,N,07726.4434,W,1,07,1.40,161.4,M,-34.4,M,,*5D
$GPRMC,154610.500,A,4308.4664,N,07726.4434,W,0.10,259.36,040919,,,A*7D
$GPGGA,154610.750,4308.4664,N,07726.4434,W,1,07,1.40,161.4,M,-34.4,M,,*59
$GPRMC,154611.000,A,4308.4664,N,07726.4434,W,0.16,259.36,040919,,,A*7F
$GPGGA,154611.250,4308.4664,N,07726.4434,W,1,07,1.40,161.4,M,-34.4,M,,*5D
$GPRMC,154611.500,A,4308.4664,N,07726.4434,W,0.19,259.36,040919,,,A*75
$GPGGA,154611.750,4308.4664,N,07726.4434,W,1,07,1.40,161.4,M,-34.4,M,,*58
$GPRMC,154612.000,A,4308.4664,N,07726.4434,W,0.20,259.36,040919,,,A*79
$GPGGA,154612.250,4308.4663,N,07726.4434,W,1,06,1.97,161.4,M,-34.4,M,,*52
$GPRMC,154612.500,A,4308.4663,N,07726.4434,W,0.26,259.36,040919,,,A*7D
$GPGGA,154612.750,4308.4663,N,07726.4434,W,1,07,1.40,161.4,M,-34.4,M,,*5C
$GPRMC,154613.000,A,4308.4663,N,07726.4435,W,0.28,259.36,040919,,,A*76
$GPGGA,154613.250,4308.4663,N,07726.4435,W,1,07,1.40,161.4,M,-34.4,M,,*59
$GPRMC,154613.500,A,4308.4663,N,07726.4435,W,0.28,259.36,040919,,,A*73
$GPGGA,154613.750,4308.4662,N,07726.4435,W,1,07,1.40,161.4,M,-34.4,M,,*5D
$GPRMC,154614.000,A,4308.4662,N,07726.4435,W,0.25,259.36,040919,,,A*7D
$GPGGA,154614.250,4308.4662,N,07726.4436,W,1,07,1.40,161.4,M,-34.4,M,,*5C
$GPRMC,154614.500,A,4308.4662,N,07726.4436,W,0.24,259.36,040919,,,A*7A
$GPGGA,154614.750,4308.4662,N,07726.4436,W,1,07,1.40,161.4,M,-34.4,M,,*59
$GPRMC,154615.000,A,4308.4662,N,07726.4436,W,0.23,259.36,040919,,,A*79
$GPGGA,154615.250,4308.4662,N,07726.4436,W,1,07,1.40,161.4,M,-34.4,M,,*5D
$GPRMC,154615.500,A,4308.4662,N,07726.4437,W,0.19,259.36,040919,,,A*74
$GPGGA,154615.750,4308.4662,N,07726.4437,W,1,07,1.40,161.4,M,-34.4,M,,*59
$GPRMC,154616.000,A,4308.4662,N,07726.4437,W,0.22,259.36,040919,,,A*7A
$GPGGA,154616.250,4308.4661,N,07726.4437,W,1,07,1.40,161.4,M,-34.4,M,,*5C
$GPRMC,154616.500,A,4308.4661,N,07726.4437,W,0.30,259.36,040919,,,A*7F
$GPGGA,154616.750,4308.4661,N,07726.4437,W,1,07,1.40,161.4,M,-34.4,M,,*59
$GPRMC,154617.000,A,4308.4661,N,07726.4437,W,0.38,259.36,040919,,,A*73
$GPGGA,154617.250,4308.4660,N,07726.4437,W,1,07,1.40,161.4,M,-34.4,M,,*5C
$GPRMC,154617.500,A,4308.4660,N,07726.4438,W,0.44,259.36,040919,,,A*73
$GPGGA,154617.750,4308.4660,N,07726.4438,W,1,06,1.97,161.4,M,-34.4,M,,*5D
$GPRMC,154618.000,A,4308.4659,N,07726.4438,W,0.49,259.36,040919,,,A*7E
$GPGGA,154618.250,4308.4659,N,07726.4438,W,1,07,1.40,161.4,M,-34.4,M,,*56
$GPRMC,154618.500,A,4308.4659,N,07726.4438,W,0.52,259.36,040919,,,A*71
$GPGGA,154618.750,4308.4658,N,07726.4438,W,1,07,1.40,161.4,M,-34.4,M,,*52
$GPRMC,154619.000,A,4308.4658,N,07726.4438,W,0.00,259.36,040919,,,A*73
$GPGGA,154619.250,4308.4658,N,07726.4438,W,1,07,1.59,161.4,M,-34.4,M,,*5E
$GPRMC,154619.500,A,4308.4658,N,07726.4438,W,0.03,259.36,040919,,,A*75
$GPGGA,154619.750,4308.4658,N,07726.4438,W,1,07,1.40,161.4,M,-34.4,M,,*53
$GPRMC,154620.000,A,4308.4658,N,07726.4438,W,0.03,259.36,040919,,,A*7A
$GPGGA,154620.250,4308.4658,N,07726.4438,W,1,07,1.40,161.4,M,-34.4,M,,*5C
$GPRMC,154620.500,A,4308.4658,N,07726.4438,W,0.05,259.36,040919,,,A*79
$GPGGA,154620.750,4308.4658,N,07726.4438,W,1,07,1.40,161.4,M,-34.4,M,,*59
$GPRMC,154621.000,A,4308.4658,N,07726.4438,W,0.03,259.36,040919,,,A*7B
$GPGGA,154621.250,4308.4658,N,07726.4438,W,1,07,1.40,161.4,M,-34.4,M,,*5D
$GPRMC,154621.500,A,4308.4658,N,07726.4438,W,0.04,259.36,040919,,,A*79
$GPGGA,154621.750,4308.4658,N,07726.4438,W,1,07,1.59,161.4,M,-34.4,M,,*50
$GPRMC,154622.000,A,4308.4658,N,07726.4438,W,0.01,259.36,040919,,,A*7A
$GPGGA,154622.250,4308.4658,N,07726.4438,W,1,07,1.59,161.4,M,-34.4,M,,*56
$GPRMC,154622.500,A,4308.4658,N,07726.4438,W,0.09,259.36,040919,,,A*77
$GPGGA,154622.750,4308.4658,N,07726.4438,W,1,07,1.40,161.4,M,-34.4,M,,*5B
$GPRMC,154623.000,A,4308.4658,N,07726.4438,W,0.19,259.36,040919,,,A*72
$GPGGA,154623.250,4308.4658,N,07726.4438,W,1,07,1.40,161.4,M,-34.4,M,,*5F
$GPRMC,154623.500,A,4308.4658,N,07726.4438,W,0.24,259.36,040919,,,A*79
$GPGGA,154623.750,4308.4658,N,07726.4437,W,1,07,1.40,161.4,M,-34.4,M,,*55
$GPRMC,154624.000,A,4308.4658,N,07726.4437,W,0.26,259.36,040919,,,A*76
$GPGGA,154624.250,4308.4658,N,07726.4437,W,1,07,1.40,161.4,M,-34.4,M,,*57
$GPRMC,154624.500,A,4308.4658,N,07726.4437,W,0.28,259.36,040919,,,A*7D
$GPGGA,154624.750,4308.4658,N,07726.4436,W,1,07,1.40,161.4,M,-34.4,M,,*53
$GPRMC,154625.000,A,4308.4658,N,07726.4436,W,0.31,259.36,040919,,,A*70
$GPGGA,154625.250,4308.4658,N,07726.4436,W,1,07,1.40,161.4,M,-34.4,M,,*57
$GPRMC,154625.500,A,4308.4658,N,07726.4435,W,0.33,259.36,040919,,,A*74
$GPGGA,154625.750,4308.4658,N,07726.4435,W,1,07,1.40,161.4,M,-34.4,M,,*51
$GPRMC,154626.000,A,4308.4658,N,07726.4435,W,0.39,259.36,040919,,,A*78
$GPGGA,154626.250,4308.4658,N,07726.4434,W,1,08,1.04,161.4,M,-34.4,M,,*59
$GPRMC,154626.500,A,4308.4658,N,07726.4434,W,0.50,259.36,040919,,,A*73
$GPGGA,154626.750,4308.4658,N,07726.4434,W,1,08,1.04,161.4,M,-34.4,M,,*5C
$GPRMC,154627.000,A,4308.4657,N,07726.4434,W,0.67,259.36,040919,,,A*7C
$GPGGA,154627.250,4308.4657,N,07726.4434,W,1,09,0.92,161.4,M,-34.4,M,,*58
$GPRMC,154627.500,A,4308.4656,N,07726.4433,W,0.78,259.36,040919,,,A*71
$GPGGA,154627.750,4308.4656,N,07726.4433,W,1,09,0.92,161.4,M,-34.4,M,,*5B
$GPRMC,154628.000,A,4308.4655,N,07726.4433,W,0.82,259.36,040919,,,A*7D
$GPGGA,154628.250,4308.4655,N,07726.4433,W,1,09,0.92,161.4,M,-34.4,M,,*52
$GPRMC,154628.500,A,4308.4654,N,07726.4433,W,0.79,259.36,040919,,,A*7D
$GPGGA,154628.750,4308.4653,N,07726.4432,W,1,09,0.92,161.4,M,-34.4,M,,*50
$GPRMC,154629.000,A,4308.4653,N,07726.4432,W,0.62,259.36,040919,,,A*75
$GPGGA,154629.250,4308.4653,N,07726.4432,W,1,09,0.92,161.4,M,-34.4,M,,*54
$GPRMC,154629.500,A,4308.4652,N,07726.4432,W,0.50,259.36,040919,,,A*70
$GPGGA,154629.750,4308.4652,N,07726.4432,W,1,09,0.92,161.4,M,-34.4,M,,*50
$GPRMC,154630.000,A,4308.4652,N,07726.4432,W,0.00,259.36,040919,,,A*78
$GPGGA,154630.250,4308.4652,N,07726.4432,W,1,09,0.92,161.4,M,-34.4,M,,*5D
$GPRMC,154630.500,A,4308.4652,N,07726.4432,W,0.00,259.36,040919,,,A*7D
$GPGGA,154630.750,4308.4652,N,07726.4432,W,1,09,0.92,161.5,M,-34.4,M,,*59
$GPRMC,154631.000,A,4308.4652,N,07726.4432,W,0.02,259.36,040919,,,A*7B
$GPGGA,154631.250,4308.4652,N,07726.4432,W,1,08,1.04,161.5,M,-34.4,M,,*52
$GPRMC,154631.500,A,4308.4652,N,07726.4432,W,0.12,259.36,040919,,,A*7F
$GPGGA,154631.750,4308.4652,N,07726.4432,W,1,09,0.92,161.5,M,-34.4,M,,*58
$GPRMC,154632.000,A,4308.4652,N,07726.4432,W,0.31,338.87,040919,,,A*74
$GPGGA,154632.250,4308.4652,N,07726.4432,W,1,09,0.92,161.5,M,-34.4,M,,*5E
$GPRMC,154632.500,A,4308.4653,N,07726.4432,W,0.47,339.35,040919,,,A*79
$GPGGA,154632.750,4308.4653,N,07726.4432,W,1,09,0.92,161.5,M,-34.4,M,,*5A
$GPRMC,154633.000,A,4308.4653,N,07726.4433,W,0.55,339.35,040919,,,A*7F
$GPGGA,154633.250,4308.4654,N,07726.4433,W,1,09,0.92,161.4,M,-34.4,M,,*59
$GPRMC,154633.500,A,4308.4654,N,07726.4433,W,0.52,339.35,040919,,,A*7A
$GPGGA,154633.750,4308.4654,N,07726.4433,W,1,09,0.92,161.4,M,-34.4,M,,*5C
$GPRMC,154634.000,A,4308.4655,N,07726.4433,W,0.43,340.69,040919,,,A*7E
$GPGGA,154634.250,4308.4655,N,07726.4433,W,1,09,0.92,161.4,M,-34.4,M,,*5F
$GPRMC,154634.500,A,4308.4655,N,07726.4433,W,0.32,345.26,040919,,,A*73
$GPGGA,154634.750,4308.4655,N,07726.4433,W,1,09,0.94,161.4,M,-34.4,M,,*5C
$GPRMC,154635.000,A,4308.4655,N,07726.4434,W,0.22,349.72,040919,,,A*7C
$GPGGA,154635.250,4308.4655,N,07726.4434,W,1,09,0.94,161.4,M,-34.4,M,,*5F
$GPRMC,154635.500,A,4308.4656,N,07726.4433,W,0.13,352.69,040919,,,A*7F
$GPGGA,154635.750,4308.4656,N,07726.4433,W,1,09,0.92,161.4,M,-34.4,M,,*58
$GPRMC,154636.000,A,4308.4656,N,07726.4433,W,0.04,353.44,040919,,,A*71
$GPGGA,154636.250,4308.4656,N,07726.4433,W,1,09,0.94,161.4,M,-34.4,M,,*58
$GPRMC,154636.500,A,4308.4656,N,07726.4433,W,0.03,353.76,040919,,,A*72
$GPGGA,154636.750,4308.4656,N,07726.4433,W,1,09,0.94,161.4,M,-34.4,M,,*5D
$GPRMC,154637.000,A,4308.4656,N,07726.4433,W,0.01,353.91,040919,,,A*7D
$GPGGA,154637.250,4308.4656,N,07726.4433,W,1,09,0.92,161.4,M,-34.4,M,,*5F
$GPRMC,154637.500,A,4308.4656,N,07726.4433,W,0.01,353.91,040919,,,A*78
$GPGGA,154637.750,4308.4656,N,07726.4433,W,1,09,0.92,161.4,M,-34.4,M,,*5A
$GPRMC,154638.000,A,4308.4656,N,07726.4433,W,0.03,353.91,040919,,,A*70
$GPGGA,154638.250,4308.4656,N,07726.4433,W,1,09,0.92,161.4,M,-34.4,M,,*50
$GPRMC,154638.500,A,4308.4656,N,07726.4433,W,0.05,353.91,040919,,,A*73
$GPGGA,154638.750,4308.4656,N,07726.4433,W,1,09,0.92,161.4,M,-34.4,M,,*55
$GPRMC,154639.000,A,4308.4656,N,07726.4433,W,0.15,353.91,040919,,,A*76
$GPGGA,154639.250,4308.4656,N,07726.4433,W,1,09,0.92,161.4,M,-34.4,M,,*51
$GPRMC,154639.500,A,4308.4655,N,07726.4433,W,0.25,353.91,040919,,,A*73
$GPGGA,154639.750,4308.4655,N,07726.4433,W,1,09,0.92,161.4,M,-34.4,M,,*57
$GPRMC,154640.000,A,4308.4655,N,07726.4433,W,0.39,353.91,040919,,,A*75
$GPGGA,154640.250,4308.4655,N,07726.4432,W,1,09,0.92,161.4,M,-34.4,M,,*5D
$GPRMC,154640.500,A,4308.4655,N,07726.4432,W,0.48,353.91,040919,,,A*77
$GPGGA,154640.750,4308.4654,N,07726.4432,W,1,09,0.92,161.4,M,-34.4,M,,*59
$GPRMC,154641.000,A,4308.4654,N,07726.4431,W,0.53,353.91,040919,,,A*7B
$GPGGA,154641.250,4308.4654,N,07726.4431,W,1,09,0.92,161.4,M,-34.4,M,,*5E
$GPRMC,154641.500,A,4308.4654,N,07726.4431,W,0.49,132.97,040919,,,A*76
$GPGGA,154641.750,4308.4653,N,07726.4430,W,1,09,0.92,161.4,M,-34.4,M,,*5D
$GPRMC,154642.000,A,4308.4653,N,07726.4430,W,0.48,135.71,040919,,,A*78
$GPGGA,154642.250,4308.4653,N,07726.4430,W,1,09,0.92,161.4,M,-34.4,M,,*5B
$GPRMC,154642.500,A,4308.4652,N,07726.4430,W,0.45,137.68,040919,,,A*7B
$GPGGA,154642.750,4308.4652,N,07726.4429,W,1,09,0.92,161.4,M,-34.4,M,,*57
$GPRMC,154643.000,A,4308.4652,N,07726.4429,W,0.35,139.64,040919,,,A*72
$GPGGA,154643.250,4308.4652,N,07726.4429,W,1,09,0.92,161.4,M,-34.4,M,,*53
$GPRMC,154643.500,A,4308.4652,N,07726.4429,W,0.27,140.34,040919,,,A*7F
$GPGGA,154643.750,4308.4651,N,07726.4429,W,1,09,0.92,161.4,M,-34.4,M,,*55
$GPRMC,154644.000,A,4308.4651,N,07726.4429,W,0.22,139.22,040919,,,A*72
$GPGGA,154644.250,4308.4651,N,07726.4428,W,1,09,0.92,161.4,M,-34.4,M,,*56
$GPRMC,154644.500,A,4308.4651,N,07726.4428,W,0.18,137.48,040919,,,A*7D
$GPGGA,154644.750,4308.4651,N,07726.4428,W,1,09,0.92,161.5,M,-34.4,M,,*52
$GPRMC,154645.000,A,4308.4651,N,07726.4428,W,0.04,136.58,040919,,,A*74
$GPGGA,154645.250,4308.4651,N,07726.4428,W,1,09,0.92,161.5,M,-34.4,M,,*56
$GPRMC,154645.500,A,4308.4651,N,07726.4428,W,0.26,137.57,040919,,,A*7F
$GPGGA,154645.750,4308.4651,N,07726.4428,W,1,09,0.92,161.5,M,-34.4,M,,*53
$GPRMC,154646.000,A,4308.4651,N,07726.4429,W,1.01,137.57,040919,,,A*7C
$GPGGA,154646.250,4308.4652,N,07726.4430,W,1,09,0.92,161.4,M,-34.4,M,,*5E
$GPRMC,154646.500,A,4308.4652,N,07726.4431,W,1.64,137.57,040919,,,A*70
$GPGGA,154646.750,4308.4652,N,07726.4432,W,1,09,0.92,161.4,M,-34.4,M,,*59
$GPRMC,154647.000,A,4308.4654,N,07726.4437,W,4.93,283.87,040919,,,A*78
$GPGGA,154647.250,4308.4658,N,07726.4443,W,1,09,0.94,161.5,M,-34.4,M,,*56
$GPRMC,154647.500,A,4308.4660,N,07726.4450,W,6.82,280.93,040919,,,A*7F
$GPGGA,154647.750,4308.4664,N,07726.4460,W,1,09,0.94,161.5,M,-34.4,M,,*5D
$GPRMC,154648.000,A,4308.4666,N,07726.4471,W,9.95,280.14,040919,,,A*76
$GPGGA,154648.250,4308.4669,N,07726.4483,W,1,09,0.94,161.5,M,-34.4,M,,*57
$GPRMC,154648.500,A,4308.4672,N,07726.4497,W,13.15,280.33,040919,,,A*48
$GPGGA,154648.750,4308.4674,N,07726.4511,W,1,09,0.94,161.5,M,-34.4,M,,*54
$GPRMC,154649.000,A,4308.4677,N,07726.4527,W,15.87,279.26,040919,,,A*4C
$GPGGA,154649.250,4308.4680,N,07726.4544,W,1,09,0.94,161.6,M,-34.4,M,,*58
$GPRMC,154649.500,A,4308.4683,N,07726.4561,W,18.15,279.19,040919,,,A*4A
$GPGGA,154649.750,4308.4685,N,07726.4581,W,1,09,0.94,161.6,M,-34.4,M,,*51
$GPRMC,154650.000,A,4308.4688,N,07726.4601,W,20.54,278.89,040919,,,A*4F
$GPGGA,154650.250,4308.4690,N,07726.4622,W,1,09,0.94,161.6,M,-34.4,M,,*52
$GPRMC,154650.500,A,4308.4693,N,07726.4645,W,22.96,278.51,040919,,,A*49
$GPGGA,154650.750,4308.4696,N,07726.4669,W,1,09,0.94,161.6,M,-34.4,M,,*5E
$GPRMC,154651.000,A,4308.4700,N,07726.4693,W,25.45,278.81,040919,,,A*49
$GPGGA,154651.250,4308.4703,N,07726.4720,W,1,09,0.94,161.6,M,-34.4,M,,*5B
$GPRMC,154651.500,A,4308.4707,N,07726.4748,W,28.38,278.87,040919,,,A*4D
$GPGGA,154651.750,4308.4710,N,07726.4776,W,1,09,0.94,161.6,M,-34.4,M,,*5F
$GPRMC,154652.000,A,4308.4714,N,07726.4806,W,30.59,278.79,040919,,,A*43
$GPGGA,154652.250,4308.4718,N,07726.4837,W,1,09,0.94,161.8,M,-34.4,M,,*55
$GPRMC,154652.500,A,4308.4722,N,07726.4868,W,32.75,278.38,040919,,,A*42
$GPGGA,154652.750,4308.4724,N,07726.4901,W,1,09,0.94,162.0,M,-34.4,M,,*50
$GPRMC,154653.000,A,4308.4727,N,07726.4934,W,34.62,276.73,040919,,,A*4A
$GPGGA,154653.250,4308.4729,N,07726.4969,W,1,09,0.94,162.1,M,-34.4,M,,*56
$GPRMC,154653.500,A,4308.4732,N,07726.5004,W,36.30,276.77,040919,,,A*41
$GPGGA,154653.750,4308.4734,N,07726.5040,W,1,09,0.94,162.3,M,-34.4,M,,*5E
$GPRMC,154654.000,A,4308.4736,N,07726.5076,W,37.80,275.62,040919,,,A*4F
$GPGGA,154654.250,4308.4739,N,07726.5113,W,1,09,0.94,162.3,M,-34.4,M,,*56
$GPRMC,154654.500,A,4308.4741,N,07726.5150,W,38.85,275.44,040919,,,A*41
$GPGGA,154654.750,4308.4743,N,07726.5188,W,1,09,0.94,162.4,M,-34.4,M,,*5B
$GPRMC,154655.000,A,4308.4745,N,07726.5227,W,40.17,274.66,040919,,,A*47
$GPGGA,154655.250,4308.4746,N,07726.5266,W,1,09,0.94,162.5,M,-34.4,M,,*58
$GPRMC,154655.500,A,4308.4748,N,07726.5306,W,40.96,274.30,040919,,,A*47
$GPGGA,154655.750,4308.4750,N,07726.5346,W,1,09,0.94,162.7,M,-34.4,M,,*5B
$GPRMC,154656.000,A,4308.4751,N,07726.5387,W,41.95,273.79,040919,,,A*48
$GPGGA,154656.250,4308.4753,N,07726.5428,W,1,09,0.94,162.7,M,-34.4,M,,*51
$GPRMC,154656.500,A,4308.4754,N,07726.5469,W,42.73,273.03,040919,,,A*49
$GPGGA,154656.750,4308.4755,N,07726.5510,W,1,09,0.94,163.0,M,-34.4,M,,*5E
$GPRMC,154657.000,A,4308.4757,N,07726.5552,W,43.15,272.58,040919,,,A*49
$GPGGA,154657.250,4308.4758,N,07726.5594,W,1,09,0.94,163.0,M,-34.4,M,,*5B
$GPRMC,154657.500,A,4308.4759,N,07726.5635,W,43.36,272.47,040919,,,A*4F
$GPGGA,154657.750,4308.4760,N,07726.5677,W,1,09,0.94,163.1,M,-34.4,M,,*5A
$GPRMC,154658.000,A,4308.4761,N,07726.5719,W,43.91,272.89,040919,,,A*4E
$GPGGA,154658.250,4308.4763,N,07726.5761,W,1,09,0.94,163.2,M,-34.4,M,,*56
$GPRMC,154658.500,A,4308.4764,N,07726.5804,W,44.09,272.99,040919,,,A*4A
$GPGGA,154658.750,4308.4766,N,07726.5846,W,1,09,0.94,163.2,M,-34.4,M,,*5C
$GPRMC,154659.000,A,4308.4767,N,07726.5889,W,44.32,272.98,040919,,,A*41
$GPGGA,154659.250,4308.4769,N,07726.5932,W,1,09,0.94,163.3,M,-34.4,M,,*54
$GPRMC,154659.500,A,4308.4770,N,07726.5975,W,45.01,272.72,040919,,,A*45
$GPGGA,154659.750,4308.4771,N,07726.6018,W,1,09,0.94,163.4,M,-34.4,M,,*5D
$GPRMC,154700.000,A,4308.4773,N,07726.6062,W,45.47,272.53,040919,,,A*43
$GPGGA,154700.250,4308.4774,N,07726.6105,W,1,09,0.94,163.6,M,-34.4,M,,*5F
$GPRMC,154700.500,A,4308.4776,N,07726.6148,W,45.75,272.11,040919,,,A*4D
$GPGGA,154700.750,4308.4776,N,07726.6192,W,1,09,0.94,163.8,M,-34.4,M,,*58
$GPRMC,154701.000,A,4308.4777,N,07726.6236,W,45.88,271.87,040919,,,A*4C
$GPGGA,154701.250,4308.4778,N,07726.6280,W,1,09,0.94,163.9,M,-34.4,M,,*53
$GPRMC,154701.500,A,4308.4779,N,07726.6324,W,46.20,270.45,040919,,,A*4B
$GPGGA,154701.750,4308.4779,N,07726.6368,W,1,09,0.94,163.9,M,-34.4,M,,*50
$GPRMC,154702.000,A,4308.4778,N,07726.6412,W,46.59,269.67,040919,,,A*48
$GPGGA,154702.250,4308.4778,N,07726.6457,W,1,09,0.94,164.1,M,-34.4,M,,*53
$GPRMC,154702.500,A,4308.4777,N,07726.6501,W,46.72,268.24,040919,,,A*4E
$GPGGA,154702.750,4308.4776,N,07726.6546,W,1,09,0.94,164.1,M,-34.4,M,,*59
$GPRMC,154703.000,A,4308.4774,N,07726.6591,W,47.01,267.33,040919,,,A*4C
$GPGGA,154703.250,4308.4773,N,07726.6636,W,1,09,0.94,164.0,M,-34.4,M,,*5D
$GPRMC,154703.500,A,4308.4771,N,07726.6681,W,47.53,267.21,040919,,,A*4A
$GPGGA,154703.750,4308.4770,N,07726.6727,W,1,09,0.94,163.9,M,-34.4,M,,*54
$GPRMC,154704.000,A,4308.4768,N,07726.6772,W,47.87,267.30,040919,,,A*44
$GPGGA,154704.250,4308.4767,N,07726.6818,W,1,09,0.94,163.8,M,-34.4,M,,*52
$GPRMC,154704.500,A,4308.4765,N,07726.6864,W,47.93,267.27,040919,,,A*47
$GPGGA,154704.750,4308.4764,N,07726.6909,W,1,09,0.94,163.9,M,-34.4,M,,*54
$GPRMC,154705.000,A,4308.4762,N,07726.6955,W,48.04,266.93,040919,,,A*48
$GPGGA,154705.250,4308.4760,N,07726.7001,W,1,09,0.94,163.8,M,-34.4,M,,*55
$GPRMC,154705.500,A,4308.4759,N,07726.7047,W,48.41,266.97,040919,,,A*4B
$GPGGA,154705.750,4308.4757,N,07726.7093,W,1,09,0.94,163.6,M,-34.4,M,,*51
$GPRMC,154706.000,A,4308.4756,N,07726.7140,W,48.97,266.24,040919,,,A*47
$GPGGA,154706.250,4308.4754,N,07726.7186,W,1,09,0.94,163.2,M,-34.4,M,,*55
$GPRMC,154706.500,A,4308.4752,N,07726.7233,W,49.17,265.83,040919,,,A*46
$GPGGA,154706.750,4308.4749,N,07726.7280,W,1,09,0.94,163.1,M,-34.4,M,,*5A
$GPRMC,154707.000,A,4308.4747,N,07726.7327,W,49.50,265.87,040919,,,A*45
$GPGGA,154707.250,4308.4744,N,07726.7374,W,1,09,0.94,163.1,M,-34.4,M,,*59
$GPRMC,154707.500,A,4308.4742,N,07726.7421,W,49.43,265.90,040919,,,A*40
$GPGGA,154707.750,4308.4739,N,07726.7467,W,1,09,0.94,163.1,M,-34.4,M,,*53
$GPRMC,154708.000,A,4308.4737,N,07726.7514,W,49.46,266.07,040919,,,A*47
$GPGGA,154708.250,4308.4734,N,07726.7560,W,1,09,0.94,163.1,M,-34.4,M,,*52
$GPRMC,154708.500,A,4308.4731,N,07726.7606,W,48.48,266.01,040919,,,A*4D
$GPGGA,154708.750,4308.4729,N,07726.7651,W,1,09,0.94,163.1,M,-34.4,M,,*5A
$GPRMC,154709.000,A,4308.4726,N,07726.7696,W,47.47,265.62,040919,,,A*40
$GPGGA,154709.250,4308.4723,N,07726.7741,W,1,09,0.94,163.1,M,-34.4,M,,*54
$GPRMC,154709.500,A,4308.4721,N,07726.7785,W,46.52,265.65,040919,,,A*43
$GPGGA,154709.750,4308.4719,N,07726.7829,W,1,09,0.94,163.0,M,-34.4,M,,*58
$GPRMC,154710.000,A,4308.4716,N,07726.7872,W,45.62,265.73,040919,,,A*4A
$GPGGA,154710.250,4308.4714,N,07726.7915,W,1,09,0.94,162.8,M,-34.4,M,,*5F
$GPRMC,154710.500,A,4308.4712,N,07726.7958,W,45.19,265.51,040919,,,A*4E
$GPGGA,154710.750,4308.4710,N,07726.8001,W,1,09,0.94,162.7,M,-34.4,M,,*52
$GPRMC,154711.000,A,4308.4707,N,07726.8044,W,44.96,265.46,040919,,,A*45
$GPGGA,154711.250,4308.4705,N,07726.8087,W,1,09,0.94,162.5,M,-34.4,M,,*5E
$GPRMC,154711.500,A,4308.4701,N,07726.8130,W,45.22,264.88,040919,,,A*49
$GPGGA,154711.750,4308.4698,N,07726.8173,W,1,09,0.94,162.3,M,-34.4,M,,*52
$GPRMC,154712.000,A,4308.4696,N,07726.8217,W,45.78,264.87,040919,,,A*46
$GPGGA,154712.250,4308.4693,N,07726.8260,W,1,09,0.94,162.0,M,-34.4,M,,*5D
$GPRMC,154712.500,A,4308.4691,N,07726.8303,W,46.01,265.42,040919,,,A*45
$GPGGA,154712.750,4308.4689,N,07726.8347,W,1,09,0.94,161.5,M,-34.4,M,,*51
$GPRMC,154713.000,A,4308.4686,N,07726.8390,W,46.27,266.02,040919,,,A*4E
$GPGGA,154713.250,4308.4683,N,07726.8432,W,1,09,0.94,161.4,M,-34.4,M,,*5B
$GPRMC,154713.500,A,4308.4680,N,07726.8476,W,46.30,266.15,040919,,,A*42
$GPGGA,154713.750,4308.4679,N,07726.8519,W,1,09,0.94,161.0,M,-34.4,M,,*57
$GPRMC,154714.000,A,4308.4678,N,07726.8563,W,46.28,266.30,040919,,,A*4C
$GPGGA,154714.250,4308.4676,N,07726.8606,W,1,09,0.94,160.4,M,-34.4,M,,*52
$GPRMC,154714.500,A,4308.4674,N,07726.8649,W,45.88,265.97,040919,,,A*49
$GPGGA,154714.750,4308.4673,N,07726.8691,W,1,09,0.94,159.9,M,-34.4,M,,*5B
$GPRMC,154715.000,A,4308.4671,N,07726.8734,W,45.47,265.23,040919,,,A*4F
$GPGGA,154715.250,4308.4669,N,07726.8777,W,1,09,0.94,159.3,M,-34.4,M,,*57
$GPRMC,154715.500,A,4308.4667,N,07726.8819,W,45.17,265.02,040919,,,A*4B
$GPGGA,154715.750,4308.4664,N,07726.8862,W,1,09,0.94,158.7,M,-34.4,M,,*51
$GPRMC,154716.000,A,4308.4662,N,07726.8904,W,44.94,264.98,040919,,,A*4D
$GPGGA,154716.250,4308.4660,N,07726.8945,W,1,09,0.94,158.3,M,-34.4,M,,*53
$GPRMC,154716.500,A,4308.4657,N,07726.8987,W,44.31,264.45,040919,,,A*4A
$GPGGA,154716.750,4308.4654,N,07726.9029,W,1,09,0.94,158.0,M,-34.4,M,,*50
$GPRMC,154717.000,A,4308.4650,N,07726.9070,W,43.86,264.41,040919,,,A*46
$GPGGA,154717.250,4308.4647,N,07726.9111,W,1,09,0.94,157.8,M,-34.4,M,,*5B
$GPRMC,154717.500,A,4308.4643,N,07726.9152,W,43.64,264.06,040919,,,A*4F
$GPGGA,154717.750,4308.4639,N,07726.9193,W,1,09,0.94,157.6,M,-34.4,M,,*53
$GPRMC,154718.000,A,4308.4636,N,07726.9234,W,43.47,263.76,040919,,,A*45
$GPGGA,154718.250,4308.4633,N,07726.9275,W,1,09,0.94,157.1,M,-34.4,M,,*5F
$GPRMC,154718.500,A,4308.4630,N,07726.9315,W,43.18,264.18,040919,,,A*41
$GPGGA,154718.750,4308.4628,N,07726.9356,W,1,09,0.94,156.6,M,-34.4,M,,*56
$GPRMC,154719.000,A,4308.4625,N,07726.9397,W,43.24,264.66,040919,,,A*4D
$GPGGA,154719.250,4308.4622,N,07726.9438,W,1,09,0.94,156.0,M,-34.4,M,,*51
$GPRMC,154719.500,A,4308.4619,N,07726.9480,W,43.93,264.50,040919,,,A*4F
$GPGGA,154719.750,4308.4616,N,07726.9521,W,1,09,0.94,155.4,M,-34.4,M,,*5D
$GPRMC,154720.000,A,4308.4612,N,07726.9563,W,44.04,264.69,040919,,,A*44
$GPGGA,154720.250,4308.4609,N,07726.9604,W,1,09,0.94,154.7,M,-34.4,M,,*5A
$GPRMC,154720.500,A,4308.4607,N,07726.9646,W,44.44,265.06,040919,,,A*4D
$GPGGA,154720.750,4308.4604,N,07726.9688,W,1,09,0.94,153.9,M,-34.4,M,,*5F
$GPRMC,154721.000,A,4308.4602,N,07726.9731,W,44.85,265.83,040919,,,A*4D
$GPGGA,154721.250,4308.4599,N,07726.9773,W,1,09,0.94,153.3,M,-34.4,M,,*53
$GPRMC,154721.500,A,4308.4596,N,07726.9816,W,45.14,265.89,040919,,,A*4F
$GPGGA,154721.750,4308.4594,N,07726.9858,W,1,09,0.94,152.7,M,-34.4,M,,*58
$GPRMC,154722.000,A,4308.4591,N,07726.9901,W,45.23,266.48,040919,,,A*43
$GPGGA,154722.250,4308.4588,N,07726.9943,W,1,09,0.94,152.4,M,-34.4,M,,*5B
$GPRMC,154722.500,A,4308.4586,N,07726.9985,W,44.96,266.40,040919,,,A*4B
$GPGGA,154722.750,4308.4584,N,07727.0027,W,1,09,0.94,151.9,M,-34.4,M,,*5F
$GPRMC,154723.000,A,4308.4582,N,07727.0069,W,44.74,266.10,040919,,,A*41
$GPGGA,154723.250,4308.4580,N,07727.0111,W,1,09,0.94,151.5,M,-34.4,M,,*57
$GPRMC,154723.500,A,4308.4578,N,07727.0153,W,44.53,266.29,040919,,,A*46
$GPGGA,154723.750,4308.4575,N,07727.0195,W,1,09,0.94,151.1,M,-34.4,M,,*50
$GPRMC,154724.000,A,4308.4573,N,07727.0237,W,44.24,266.05,040919,,,A*40
$GPGGA,154724.250,4308.4571,N,07727.0278,W,1,09,0.94,150.8,M,-34.4,M,,*5E
$GPRMC,154724.500,A,4308.4569,N,07727.0320,W,43.90,266.55,040919,,,A*44
$GPGGA,154724.750,4308.4567,N,07727.0362,W,1,09,0.94,150.5,M,-34.4,M,,*5B
$GPRMC,154725.000,A,4308.4565,N,07727.0403,W,43.88,266.80,040919,,,A*4B
$GPGGA,154725.250,4308.4564,N,07727.0444,W,1,09,0.94,150.3,M,-34.4,M,,*59
$GPRMC,154725.500,A,4308.4562,N,07727.0486,W,43.84,267.05,040919,,,A*44
$GPGGA,154725.750,4308.4561,N,07727.0527,W,1,09,0.94,150.1,M,-34.4,M,,*5F
$GPRMC,154726.000,A,4308.4561,N,07727.0568,W,43.62,268.79,040919,,,A*4C
$GPGGA,154726.250,4308.4561,N,07727.0610,W,1,09,0.94,149.9,M,-34.4,M,,*5E
$GPRMC,154726.500,A,4308.4561,N,07727.0652,W,43.97,269.83,040919,,,A*4D
$GPGGA,154726.750,4308.4562,N,07727.0694,W,1,09,0.94,149.7,M,-34.4,M,,*5A
$GPRMC,154727.000,A,4308.4564,N,07727.0735,W,44.10,272.15,040919,,,A*41
$GPGGA,154727.250,4308.4565,N,07727.0778,W,1,09,0.94,149.6,M,-34.4,M,,*5B
$GPRMC,154727.500,A,4308.4568,N,07727.0820,W,44.62,273.48,040919,,,A*4F
$GPGGA,154727.750,4308.4570,N,07727.0862,W,1,09,0.94,149.4,M,-34.4,M,,*5C
$GPRMC,154728.000,A,4308.4573,N,07727.0904,W,44.68,274.71,040919,,,A*4F
$GPGGA,154728.250,4308.4576,N,07727.0947,W,1,09,0.94,149.2,M,-34.4,M,,*50
$GPRMC,154728.500,A,4308.4579,N,07727.0990,W,45.07,275.52,040919,,,A*45
$GPGGA,154728.750,4308.4583,N,07727.1033,W,1,09,0.94,149.2,M,-34.4,M,,*54
$GPRMC,154729.000,A,4308.4587,N,07727.1076,W,44.69,276.30,040919,,,A*4E
$GPGGA,154729.250,4308.4592,N,07727.1118,W,1,09,0.94,149.1,M,-34.4,M,,*5B
$GPRMC,154729.500,A,4308.4596,N,07727.1160,W,44.78,276.74,040919,,,A*4D
$GPGGA,154729.750,4308.4601,N,07727.1201,W,1,09,0.94,149.0,M,-34.4,M,,*5D
$GPRMC,154730.000,A,4308.4605,N,07727.1243,W,44.55,277.27,040919,,,A*43
$GPGGA,154730.250,4308.4610,N,07727.1284,W,1,09,0.94,149.0,M,-34.4,M,,*5D
$GPRMC,154730.500,A,4308.4615,N,07727.1324,W,43.03,277.74,040919,,,A*45
$GPGGA,154730.750,4308.4619,N,07727.1365,W,1,09,0.94,149.0,M,-34.4,M,,*5F
$GPRMC,154731.000,A,4308.4624,N,07727.1405,W,42.37,278.01,040919,,,A*4C
$GPGGA,154731.250,4308.4629,N,07727.1445,W,1,09,0.94,149.0,M,-34.4,M,,*5D
$GPRMC,154731.500,A,4308.4634,N,07727.1485,W,42.05,278.59,040919,,,A*4C
$GPGGA,154731.750,4308.4640,N,07727.1524,W,1,09,0.94,149.0,M,-34.4,M,,*51
$GPRMC,154732.000,A,4308.4645,N,07727.1563,W,41.81,280.23,040919,,,A*40
$GPGGA,154732.250,4308.4651,N,07727.1603,W,1,09,0.94,149.1,M,-34.4,M,,*50
$GPRMC,154732.500,A,4308.4656,N,07727.1642,W,41.88,279.96,040919,,,A*46
$GPGGA,154732.750,4308.4661,N,07727.1682,W,1,09,0.94,149.0,M,-34.4,M,,*5E
$GPRMC,154733.000,A,4308.4666,N,07727.1721,W,41.86,279.72,040919,,,A*41
$GPGGA,154733.250,4308.4671,N,07727.1760,W,1,09,0.94,148.9,M,-34.4,M,,*5E
$GPRMC,154733.500,A,4308.4676,N,07727.1800,W,41.67,279.15,040919,,,A*47
$GPGGA,154733.750,4308.4681,N,07727.1839,W,1,09,0.94,149.0,M,-34.4,M,,*5F
$GPRMC,154734.000,A,4308.4686,N,07727.1878,W,41.79,279.76,040919,,,A*4F
$GPGGA,154734.250,4308.4693,N,07727.1916,W,1,09,0.94,149.1,M,-34.4,M,,*53
$GPRMC,154734.500,A,4308.4698,N,07727.1955,W,41.53,280.99,040919,,,A*44
$GPGGA,154734.750,4308.4704,N,07727.1993,W,1,09,0.94,149.2,M,-34.4,M,,*57
$GPRMC,154735.000,A,4308.4709,N,07727.2032,W,41.61,280.53,040919,,,A*45
$GPGGA,154735.250,4308.4714,N,07727.2071,W,1,09,0.94,149.2,M,-34.4,M,,*54
$GPRMC,154735.500,A,4308.4720,N,07727.2110,W,41.85,280.56,040919,,,A*45
$GPGGA,154735.750,4308.4725,N,07727.2150,W,1,09,0.94,149.1,M,-34.4,M,,*52
$GPRMC,154736.000,A,4308.4730,N,07727.2189,W,42.31,279.89,040919,,,A*4A
$GPGGA,154736.250,4308.4736,N,07727.2229,W,1,09,0.94,149.1,M,-34.4,M,,*5B
$GPRMC,154736.500,A,4308.4741,N,07727.2268,W,42.28,280.00,040919,,,A*4A
$GPGGA,154736.750,4308.4747,N,07727.2308,W,1,09,0.94,149.1,M,-34.4,M,,*5A
$GPRMC,154737.000,A,4308.4752,N,07727.2347,W,42.21,279.67,040919,,,A*4E
$GPGGA,154737.250,4308.4757,N,07727.2386,W,1,09,0.94,149.2,M,-34.4,M,,*5A
$GPRMC,154737.500,A,4308.4762,N,07727.2426,W,41.98,280.19,040919,,,A*46
$GPGGA,154737.750,4308.4768,N,07727.2465,W,1,09,0.94,149.2,M,-34.4,M,,*59
$GPRMC,154738.000,A,4308.4773,N,07727.2504,W,41.97,280.08,040919,,,A*42
$GPGGA,154738.250,4308.4778,N,07727.2543,W,1,09,0.94,149.2,M,-34.4,M,,*57
$GPRMC,154738.500,A,4308.4783,N,07727.2583,W,42.09,279.69,040919,,,A*42
$GPGGA,154738.750,4308.4788,N,07727.2622,W,1,09,0.94,149.2,M,-34.4,M,,*59
$GPRMC,154739.000,A,4308.4793,N,07727.2661,W,41.52,279.72,040919,,,A*4F
$GPGGA,154739.250,4308.4798,N,07727.2700,W,1,09,0.94,149.3,M,-34.4,M,,*5C
$GPRMC,154739.500,A,4308.4803,N,07727.2738,W,41.15,279.27,040919,,,A*42
$GPGGA,154739.750,4308.4808,N,07727.2777,W,1,09,0.94,149.3,M,-34.4,M,,*5F
$GPRMC,154740.000,A,4308.4812,N,07727.2815,W,40.56,279.09,040919,,,A*43
$GPGGA,154740.250,4308.4816,N,07727.2853,W,1,09,0.94,149.4,M,-34.4,M,,*55
$GPRMC,154740.500,A,4308.4821,N,07727.2891,W,40.38,278.65,040919,,,A*49
$GPGGA,154740.750,4308.4825,N,07727.2928,W,1,09,0.94,149.4,M,-34.4,M,,*5D
$GPRMC,154741.000,A,4308.4829,N,07727.2965,W,39.35,279.02,040919,,,A*4C
$GPGGA,154741.250,4308.4834,N,07727.3002,W,1,09,0.94,149.5,M,-34.4,M,,*58
$GPRMC,154741.500,A,4308.4839,N,07727.3038,W,39.04,280.08,040919,,,A*46
$GPGGA,154741.750,4308.4844,N,07727.3074,W,1,09,0.94,149.7,M,-34.4,M,,*59
$GPRMC,154742.000,A,4308.4848,N,07727.3110,W,38.78,280.49,040919,,,A*42
$GPGGA,154742.250,4308.4853,N,07727.3147,W,1,09,0.94,150.1,M,-34.4,M,,*56
$GPRMC,154742.500,A,4308.4858,N,07727.3182,W,38.63,280.17,040919,,,A*4C
$GPGGA,154742.750,4308.4862,N,07727.3218,W,1,09,0.94,150.2,M,-34.4,M,,*5B
$GPRMC,154743.000,A,4308.4867,N,07727.3254,W,38.49,280.39,040919,,,A*48
$GPGGA,154743.250,4308.4871,N,07727.3289,W,1,09,0.94,150.3,M,-34.4,M,,*54
$GPRMC,154743.500,A,4308.4875,N,07727.3325,W,38.00,279.06,040919,,,A*4E
$GPGGA,154743.750,4308.4880,N,07727.3361,W,1,09,0.94,150.1,M,-34.4,M,,*5A
$GPRMC,154744.000,A,4308.4884,N,07727.3396,W,37.78,278.72,040919,,,A*48
$GPGGA,154744.250,4308.4888,N,07727.3431,W,1,09,0.94,149.6,M,-34.4,M,,*5D
$GPRMC,154744.500,A,4308.4892,N,07727.3466,W,37.20,278.64,040919,,,A*48
$GPGGA,154744.750,4308.4897,N,07727.3501,W,1,09,0.94,149.2,M,-34.4,M,,*50
$GPRMC,154745.000,A,4308.4901,N,07727.3536,W,37.09,279.03,040919,,,A*48
$GPGGA,154745.250,4308.4905,N,07727.3570,W,1,09,0.94,148.9,M,-34.4,M,,*52
$GPRMC,154745.500,A,4308.4909,N,07727.3605,W,36.82,279.62,040919,,,A*43
$GPGGA,154745.750,4308.4914,N,07727.3639,W,1,09,0.94,148.7,M,-34.4,M,,*57
$GPRMC,154746.000,A,4308.4918,N,07727.3673,W,36.78,280.39,040919,,,A*49
$GPGGA,154746.250,4308.4923,N,07727.3708,W,1,09,0.94,148.5,M,-34.4,M,,*54
$GPRMC,154746.500,A,4308.4927,N,07727.3741,W,36.45,280.66,040919,,,A*44
$GPGGA,154746.750,4308.4932,N,07727.3775,W,1,09,0.94,148.3,M,-34.4,M,,*5D
$GPRMC,154747.000,A,4308.4937,N,07727.3809,W,36.01,280.96,040919,,,A*4D
$GPGGA,154747.250,4308.4941,N,07727.3842,W,1,09,0.94,148.1,M,-34.4,M,,*54
$GPRMC,154747.500,A,4308.4946,N,07727.3875,W,35.86,281.23,040919,,,A*46
$GPGGA,154747.750,4308.4951,N,07727.3908,W,1,09,0.94,147.9,M,-34.4,M,,*58
$GPRMC,154748.000,A,4308.4956,N,07727.3942,W,35.64,281.05,040919,,,A*40
$GPGGA,154748.250,4308.4960,N,07727.3975,W,1,09,0.94,147.7,M,-34.4,M,,*54
$GPRMC,154748.500,A,4308.4965,N,07727.4008,W,35.55,280.46,040919,,,A*41
$GPGGA,154748.750,4308.4969,N,07727.4041,W,1,09,0.94,147.6,M,-34.4,M,,*50
$GPRMC,154749.000,A,4308.4974,N,07727.4074,W,35.43,279.95,040919,,,A*41
$GPGGA,154749.250,4308.4978,N,07727.4106,W,1,09,0.94,147.6,M,-34.4,M,,*56
$GPRMC,154749.500,A,4308.4983,N,07727.4139,W,35.36,280.69,040919,,,A*43
$GPGGA,154749.750,4308.4987,N,07727.4172,W,1,09,0.94,147.7,M,-34.4,M,,*51
$GPRMC,154750.000,A,4308.4992,N,07727.4205,W,35.35,279.86,040919,,,A*46
$GPGGA,154750.250,4308.4996,N,07727.4238,W,1,09,0.94,147.7,M,-34.4,M,,*51
$GPRMC,154750.500,A,4308.5000,N,07727.4271,W,35.26,279.60,040919,,,A*49
$GPGGA,154750.750,4308.5005,N,07727.4303,W,1,09,0.94,147.8,M,-34.4,M,,*50
$GPRMC,154751.000,A,4308.5009,N,07727.4336,W,35.01,279.34,040919,,,A*42
$GPGGA,154751.250,4308.5013,N,07727.4369,W,1,09,0.94,148.0,M,-34.4,M,,*58
$GPRMC,154751.500,A,4308.5017,N,07727.4402,W,34.92,279.22,040919,,,A*44
$GPGGA,154751.750,4308.5021,N,07727.4434,W,1,09,0.94,147.9,M,-34.4,M,,*55
$GPRMC,154752.000,A,4308.5025,N,07727.4467,W,34.66,279.10,040919,,,A*4A
$GPGGA,154752.250,4308.5028,N,07727.4500,W,1,09,0.94,147.9,M,-34.4,M,,*5C
$GPRMC,154752.500,A,4308.5032,N,07727.4532,W,34.63,279.33,040919,,,A*4C
$GPGGA,154752.750,4308.5036,N,07727.4564,W,1,09,0.94,148.2,M,-34.4,M,,*50
$GPRMC,154753.000,A,4308.5040,N,07727.4597,W,34.62,279.58,040919,,,A*4E
$GPGGA,154753.250,4308.5044,N,07727.4629,W,1,09,0.94,148.2,M,-34.4,M,,*5B
$GPRMC,154753.500,A,4308.5048,N,07727.4661,W,34.35,279.13,040919,,,A*44
$GPGGA,154753.750,4308.5051,N,07727.4693,W,1,09,0.94,148.2,M,-34.4,M,,*5B
$GPRMC,154754.000,A,4308.5055,N,07727.4724,W,34.05,279.17,040919,,,A*4D
$GPGGA,154754.250,4308.5059,N,07727.4756,W,1,09,0.94,148.1,M,-34.4,M,,*5A
$GPRMC,154754.500,A,4308.5063,N,07727.4788,W,34.07,278.77,040919,,,A*4E
$GPGGA,154754.750,4308.5068,N,07727.4820,W,1,09,0.94,147.6,M,-34.4,M,,*5B
$GPRMC,154755.000,A,4308.5072,N,07727.4852,W,34.11,279.54,040919,,,A*45
$GPGGA,154755.250,4308.5076,N,07727.4884,W,1,09,0.94,147.3,M,-34.4,M,,*5B
$GPRMC,154755.500,A,4308.5080,N,07727.4916,W,34.15,279.90,040919,,,A*40
$GPGGA,154755.750,4308.5084,N,07727.4948,W,1,09,0.94,147.2,M,-34.4,M,,*53
$GPRMC,154756.000,A,4308.5089,N,07727.4980,W,34.11,281.05,040919,,,A*4F
$GPGGA,154756.250,4308.5094,N,07727.5011,W,1,09,0.94,147.3,M,-34.4,M,,*51
$GPRMC,154756.500,A,4308.5098,N,07727.5043,W,33.84,281.36,040919,,,A*46
$GPGGA,154756.750,4308.5103,N,07727.5074,W,1,09,0.94,147.2,M,-34.4,M,,*59
$GPRMC,154757.000,A,4308.5107,N,07727.5106,W,33.84,281.05,040919,,,A*45
$GPGGA,154757.250,4308.5111,N,07727.5138,W,1,09,0.94,147.2,M,-34.4,M,,*57
$GPRMC,154757.500,A,4308.5115,N,07727.5170,W,34.09,280.14,040919,,,A*41
$GPGGA,154757.750,4308.5120,N,07727.5202,W,1,09,0.94,147.1,M,-34.4,M,,*59
$GPRMC,154758.000,A,4308.5124,N,07727.5234,W,34.18,280.15,040919,,,A*4B
$GPGGA,154758.250,4308.5129,N,07727.5266,W,1,09,0.94,146.8,M,-34.4,M,,*50
$GPRMC,154758.500,A,4308.5133,N,07727.5298,W,34.23,279.47,040919,,,A*47
$GPGGA,154758.750,4308.5137,N,07727.5331,W,1,09,0.94,146.6,M,-34.4,M,,*57
$GPRMC,154759.000,A,4308.5141,N,07727.5363,W,34.23,279.36,040919,,,A*45
$GPGGA,154759.250,4308.5145,N,07727.5395,W,1,09,0.94,146.7,M,-34.4,M,,*59
$GPRMC,154759.500,A,4308.5149,N,07727.5428,W,34.18,278.87,040919,,,A*43
$GPGGA,154759.750,4308.5152,N,07727.5460,W,1,09,0.94,146.8,M,-34.4,M,,*58
$GPRMC,154800.000,A,4308.5155,N,07727.5492,W,34.36,278.45,040919,,,A*4B
$GPGGA,154800.250,4308.5159,N,07727.5525,W,1,09,0.94,147.2,M,-34.4,M,,*5E
$GPRMC,154800.500,A,4308.5162,N,07727.5557,W,34.67,278.85,040919,,,A*4A
$GPGGA,154800.750,4308.5167,N,07727.5590,W,1,09,0.94,147.6,M,-34.4,M,,*5C
$GPRMC,154801.000,A,4308.5171,N,07727.5622,W,34.74,280.42,040919,,,A*43
$GPGGA,154801.250,4308.5177,N,07727.5654,W,1,09,0.94,147.9,M,-34.4,M,,*5D
$GPRMC,154801.500,A,4308.5182,N,07727.5687,W,34.94,281.47,040919,,,A*4F
$GPGGA,154801.750,4308.5186,N,07727.5720,W,1,09,0.94,148.0,M,-34.4,M,,*52
$GPRMC,154802.000,A,4308.5190,N,07727.5753,W,35.37,280.61,040919,,,A*4F
$GPGGA,154802.250,4308.5194,N,07727.5787,W,1,09,0.94,147.9,M,-34.4,M,,*5C
$GPRMC,154802.500,A,4308.5198,N,07727.5820,W,35.62,279.89,040919,,,A*49
$GPGGA,154802.750,4308.5203,N,07727.5854,W,1,09,0.94,147.7,M,-34.4,M,,*5B
$GPRMC,154803.000,A,4308.5207,N,07727.5887,W,35.68,280.43,040919,,,A*4F
$GPGGA,154803.250,4308.5212,N,07727.5921,W,1,09,0.94,147.3,M,-34.4,M,,*58
$GPRMC,154803.500,A,4308.5217,N,07727.5954,W,35.74,281.38,040919,,,A*44
$GPGGA,154803.750,4308.5221,N,07727.5988,W,1,09,0.94,146.8,M,-34.4,M,,*54
$GPRMC,154804.000,A,4308.5226,N,07727.6022,W,35.80,280.95,040919,,,A*42
$GPGGA,154804.250,4308.5230,N,07727.6056,W,1,09,0.94,146.2,M,-34.4,M,,*55
$GPRMC,154804.500,A,4308.5234,N,07727.6089,W,35.78,280.17,040919,,,A*48
$GPGGA,154804.750,4308.5238,N,07727.6123,W,1,09,0.94,145.7,M,-34.4,M,,*5D
$GPRMC,154805.000,A,4308.5243,N,07727.6156,W,35.44,280.71,040919,,,A*40
$GPGGA,154805.250,4308.5247,N,07727.6189,W,1,09,0.94,145.0,M,-34.4,M,,*56
$GPRMC,154805.500,A,4308.5252,N,07727.6222,W,35.32,280.94,040919,,,A*4F
$GPGGA,154805.750,4308.5256,N,07727.6255,W,1,09,0.94,144.5,M,-34.4,M,,*55
$GPRMC,154806.000,A,4308.5260,N,07727.6288,W,34.99,279.99,040919,,,A*43
$GPGGA,154806.250,4308.5264,N,07727.6321,W,1,09,0.94,144.0,M,-34.4,M,,*55
$GPRMC,154806.500,A,4308.5268,N,07727.6353,W,34.92,279.20,040919,,,A*40
$GPGGA,154806.750,4308.5272,N,07727.6386,W,1,09,0.94,143.4,M,-34.4,M,,*59
$GPRMC,154807.000,A,4308.5275,N,07727.6419,W,34.98,279.27,040919,,,A*4C
$GPGGA,154807.250,4308.5279,N,07727.6452,W,1,09,0.94,142.8,M,-34.4,M,,*55
$GPRMC,154807.500,A,4308.5283,N,07727.6485,W,35.24,278.94,040919,,,A*4A
$GPGGA,154807.750,4308.5287,N,07727.6518,W,1,09,0.94,142.0,M,-34.4,M,,*56
$GPRMC,154808.000,A,4308.5291,N,07727.6551,W,35.27,279.37,040919,,,A*40
$GPGGA,154808.250,4308.5295,N,07727.6585,W,1,09,0.94,141.4,M,-34.4,M,,*5C
$GPRMC,154808.500,A,4308.5299,N,07727.6618,W,35.49,279.14,040919,,,A*4A
$GPGGA,154808.750,4308.5301,N,07727.6652,W,1,09,0.94,141.2,M,-34.4,M,,*5A
$GPRMC,154809.000,A,4308.5304,N,07727.6687,W,35.68,277.61,040919,,,A*42
$GPGGA,154809.250,4308.5307,N,07727.6722,W,1,09,0.94,140.9,M,-34.4,M,,*54
$GPRMC,154809.500,A,4308.5309,N,07727.6757,W,37.12,276.53,040919,,,A*49
$GPGGA,154809.750,4308.5312,N,07727.6792,W,1,09,0.94,140.7,M,-34.4,M,,*50
$GPRMC,154810.000,A,4308.5314,N,07727.6827,W,37.43,276.26,040919,,,A*46
$GPGGA,154810.250,4308.5316,N,07727.6863,W,1,09,0.94,140.7,M,-34.4,M,,*58
$GPRMC,154810.500,A,4308.5318,N,07727.6899,W,37.63,275.89,040919,,,A*4E
$GPGGA,154810.750,4308.5319,N,07727.6935,W,1,09,0.94,140.7,M,-34.4,M,,*50
$GPRMC,154811.000,A,4308.5321,N,07727.6971,W,37.75,275.18,040919,,,A*48
$GPGGA,154811.250,4308.5322,N,07727.7007,W,1,09,0.94,140.7,M,-34.4,M,,*55
$GPRMC,154811.500,A,4308.5324,N,07727.7043,W,37.71,274.85,040919,,,A*40
$GPGGA,154811.750,4308.5326,N,07727.7078,W,1,09,0.94,140.7,M,-34.4,M,,*5C
$GPRMC,154812.000,A,4308.5327,N,07727.7113,W,37.67,275.27,040919,,,A*4F
$GPGGA,154812.250,4308.5329,N,07727.7147,W,1,09,0.94,141.0,M,-34.4,M,,*5E
$GPRMC,154812.500,A,4308.5331,N,07727.7182,W,36.59,275.81,040919,,,A*45
$GPGGA,154812.750,4308.5332,N,07727.7217,W,1,09,0.94,141.2,M,-34.4,M,,*55
$GPRMC,154813.000,A,4308.5334,N,07727.7252,W,36.29,274.97,040919,,,A*4B
$GPGGA,154813.250,4308.5335,N,07727.7286,W,1,09,0.94,141.4,M,-34.4,M,,*58
$GPRMC,154813.500,A,4308.5337,N,07727.7320,W,36.07,274.99,040919,,,A*4B
$GPGGA,154813.750,4308.5338,N,07727.7354,W,1,09,0.94,141.5,M,-34.4,M,,*5F
$GPRMC,154814.000,A,4308.5339,N,07727.7387,W,35.45,274.07,040919,,,A*48
$GPGGA,154814.250,4308.5340,N,07727.7421,W,1,09,0.94,141.6,M,-34.4,M,,*54
$GPRMC,154814.500,A,4308.5341,N,07727.7454,W,35.12,273.51,040919,,,A*4D
$GPGGA,154814.750,4308.5343,N,07727.7487,W,1,09,0.94,141.7,M,-34.4,M,,*5F
$GPRMC,154815.000,A,4308.5345,N,07727.7520,W,34.85,274.69,040919,,,A*4C
$GPGGA,154815.250,4308.5346,N,07727.7552,W,1,09,0.94,141.7,M,-34.4,M,,*57
$GPRMC,154815.500,A,4308.5348,N,07727.7583,W,33.17,274.58,040919,,,A*43
$GPGGA,154815.750,4308.5349,N,07727.7614,W,1,09,0.94,141.9,M,-34.4,M,,*52
$GPRMC,154816.000,A,4308.5351,N,07727.7644,W,31.65,274.79,040919,,,A*41
$GPGGA,154816.250,4308.5352,N,07727.7673,W,1,09,0.94,142.1,M,-34.4,M,,*54
$GPRMC,154816.500,A,4308.5353,N,07727.7702,W,30.28,275.24,040919,,,A*44
$GPGGA,154816.750,4308.5355,N,07727.7730,W,1,09,0.94,142.3,M,-34.4,M,,*52
$GPRMC,154817.000,A,4308.5356,N,07727.7757,W,28.46,274.73,040919,,,A*47
$GPGGA,154817.250,4308.5357,N,07727.7784,W,1,09,0.94,142.6,M,-34.4,M,,*5E
$GPRMC,154817.500,A,4308.5357,N,07727.7809,W,26.58,274.58,040919,,,A*4F
$GPGGA,154817.750,4308.5358,N,07727.7833,W,1,09,0.94,142.8,M,-34.4,M,,*59
$GPRMC,154818.000,A,4308.5359,N,07727.7857,W,24.61,274.71,040919,,,A*43
$GPGGA,154818.250,4308.5360,N,07727.7879,W,1,09,0.94,143.2,M,-34.4,M,,*5D
$GPRMC,154818.500,A,4308.5361,N,07727.7901,W,23.24,274.74,040919,,,A*4C
$GPGGA,154818.750,4308.5362,N,07727.7922,W,1,09,0.94,143.3,M,-34.4,M,,*54
$GPRMC,154819.000,A,4308.5363,N,07727.7942,W,21.19,274.42,040919,,,A*44
$GPGGA,154819.250,4308.5363,N,07727.7961,W,1,09,0.94,143.2,M,-34.4,M,,*57
$GPRMC,154819.500,A,4308.5364,N,07727.7979,W,19.40,275.04,040919,,,A*4A
$GPGGA,154819.750,4308.5365,N,07727.7997,W,1,09,0.94,143.3,M,-34.4,M,,*5C
