Vers 57
USE_SERIAL_FEEDBACK=false
DEVELOPMENT_MODE=false
USE_RMC_ONLY=false

$GPRMC,134905.400,A,4308.3023,N,07726.2645,W,0.26,5.03,090419,,,A*79
$GPGGA,134905.600,4308.3023,N,07726.2644,W,1,09,0.93,154.1,M,-34.4,M,,*53
lng=-77.437744, lat=43.138370, altitude=154.10, speed=0.26, satellites=9, angle=5.0300, fixquality=1
$GPRMC,134905.800,A,4308.3023,N,07726.2644,W,0.21,13.40,090419,,,A*43
$GPGGA,134906.000,4308.3024,N,07726.2643,W,1,09,0.93,154.1,M,-34.4,M,,*56
lng=-77.437736, lat=43.138370, altitude=154.10, speed=0.21, satellites=9, angle=13.4000, fixquality=1
$GPRMC,134906.200,A,4308.3024,N,07726.2643,W,0.20,14.85,090419,,,A*45
$GPGGA,134906.400,4308.3024,N,07726.2643,W,1,09,0.93,154.1,M,-34.4,M,,*52
lng=-77.437736, lat=43.138370, altitude=154.10, speed=0.20, satellites=9, angle=14.8500, fixquality=1
$GPRMC,134906.600,A,4308.3025,N,07726.2642,W,0.18,23.34,090419,,,A*44
$GPGGA,134906.800,4308.3025,N,07726.2642,W,1,09,0.91,154.1,M,-34.4,M,,*5C
lng=-77.437736, lat=43.138378, altitude=154.10, speed=0.18, satellites=9, angle=23.3400, fixquality=1
$GPRMC,134907.000,A,4308.3025,N,07726.2642,W,0.16,35.06,090419,,,A*4B
$GPGGA,134907.200,4308.3025,N,07726.2642,W,1,09,0.91,154.0,M,-34.4,M,,*56
lng=-77.437736, lat=43.138378, altitude=154.10, speed=0.16, satellites=9, angle=35.0600, fixquality=1
$GPRMC,134907.400,A,4308.3025,N,07726.2642,W,0.10,20.01,090419,,,A*4A
$GPGGA,134907.600,4308.3025,N,07726.2642,W,1,09,0.91,154.0,M,-34.4,M,,*52
lng=-77.437736, lat=43.138378, altitude=154.00, speed=0.10, satellites=9, angle=20.0100, fixquality=1
$GPRMC,134907.800,A,4308.3025,N,07726.2642,W,0.07,345.09,090419,,,A*78
$GPGGA,134908.000,4308.3025,N,07726.2642,W,1,09,0.93,154.0,M,-34.4,M,,*59
lng=-77.437736, lat=43.138378, altitude=154.00, speed=0.07, satellites=9, angle=345.0900, fixquality=1
$GPRMC,134908.200,A,4308.3025,N,07726.2641,W,0.06,283.11,090419,,,A*7D
$GPGGA,134908.400,4308.3025,N,07726.2641,W,1,09,0.91,154.0,M,-34.4,M,,*5C
lng=-77.437736, lat=43.138378, altitude=154.00, speed=0.06, satellites=9, angle=283.1100, fixquality=1
$GPRMC,134908.600,A,4308.3025,N,07726.2641,W,0.03,148.62,090419,,,A*7C
$GPGGA,134908.800,4308.3024,N,07726.2640,W,1,09,0.91,154.0,M,-34.4,M,,*50
lng=-77.437736, lat=43.138378, altitude=154.00, speed=0.03, satellites=9, angle=148.6200, fixquality=1
$GPRMC,134909.000,A,4308.3024,N,07726.2640,W,0.05,107.52,090419,,,A*75
$GPGGA,134909.200,4308.3024,N,07726.2640,W,1,09,0.91,154.0,M,-34.4,M,,*5B
lng=-77.437736, lat=43.138370, altitude=154.00, speed=0.05, satellites=9, angle=107.5200, fixquality=1
$GPRMC,134909.400,A,4308.3024,N,07726.2640,W,0.05,142.34,090419,,,A*70
$GPGGA,134909.600,4308.3024,N,07726.2640,W,1,08,0.97,154.0,M,-34.4,M,,*58
lng=-77.437736, lat=43.138370, altitude=154.00, speed=0.05, satellites=9, angle=142.3400, fixquality=1
$GPRMC,134909.800,A,4308.3024,N,07726.2640,W,0.08,141.91,090419,,,A*7D
$GPGGA,134910.000,4308.3024,N,07726.2640,W,1,09,0.91,154.0,M,-34.4,M,,*51
lng=-77.437736, lat=43.138370, altitude=154.00, speed=0.08, satellites=8, angle=141.9100, fixquality=1
$GPRMC,134910.200,A,4308.3024,N,07726.2640,W,0.08,143.58,090419,,,A*78
$GPGGA,134910.400,4308.3024,N,07726.2640,W,1,09,0.91,154.0,M,-34.4,M,,*55
lng=-77.437736, lat=43.138370, altitude=154.00, speed=0.08, satellites=9, angle=143.5800, fixquality=1
$GPRMC,134910.600,A,4308.3024,N,07726.2640,W,0.08,348.66,090419,,,A*78
$GPGGA,134910.800,4308.3024,N,07726.2640,W,1,08,1.00,154.0,M,-34.4,M,,*51
lng=-77.437736, lat=43.138370, altitude=154.00, speed=0.08, satellites=9, angle=348.6600, fixquality=1
$GPRMC,134911.000,A,4308.3024,N,07726.2640,W,0.12,332.76,090419,,,A*78
$GPGGA,134911.200,4308.3024,N,07726.2640,W,1,08,0.97,154.0,M,-34.4,M,,*55
lng=-77.437736, lat=43.138370, altitude=154.00, speed=0.12, satellites=8, angle=332.7600, fixquality=1
$GPRMC,134911.400,A,4308.3025,N,07726.2640,W,0.16,327.71,090419,,,A*7A
$GPGGA,134911.600,4308.3025,N,07726.2640,W,1,08,0.97,154.0,M,-34.4,M,,*50
lng=-77.437736, lat=43.138378, altitude=154.00, speed=0.16, satellites=8, angle=327.7100, fixquality=1
$GPRMC,134911.800,A,4308.3025,N,07726.2640,W,0.15,341.61,090419,,,A*74
$GPGGA,134912.000,4308.3025,N,07726.2640,W,1,08,0.97,154.0,M,-34.4,M,,*55
lng=-77.437736, lat=43.138378, altitude=154.00, speed=0.15, satellites=8, angle=341.6100, fixquality=1
$GPRMC,134912.200,A,4308.3025,N,07726.2640,W,0.06,15.86,090419,,,A*44
$GPGGA,134912.400,4308.3025,N,07726.2640,W,1,08,0.97,154.0,M,-34.4,M,,*51
lng=-77.437736, lat=43.138378, altitude=154.00, speed=0.06, satellites=8, angle=15.8600, fixquality=1
$GPRMC,134912.600,A,4308.3025,N,07726.2640,W,0.14,348.24,090419,,,A*70
$GPGGA,134912.800,4308.3025,N,07726.2640,W,1,08,1.00,154.0,M,-34.4,M,,*52
lng=-77.437736, lat=43.138378, altitude=154.00, speed=0.14, satellites=8, angle=348.2400, fixquality=1
$GPRMC,134913.000,A,4308.3025,N,07726.2640,W,0.11,8.57,090419,,,A*71
$GPGGA,134913.200,4308.3025,N,07726.2640,W,1,08,1.00,154.0,M,-34.4,M,,*59
lng=-77.437736, lat=43.138378, altitude=154.00, speed=0.11, satellites=8, angle=8.5700, fixquality=1
$GPRMC,134913.400,A,4308.3025,N,07726.2640,W,0.05,102.05,090419,,,A*7C
$GPGGA,134913.600,4308.3025,N,07726.2640,W,1,08,0.97,154.0,M,-34.4,M,,*52
lng=-77.437736, lat=43.138378, altitude=154.00, speed=0.05, satellites=8, angle=102.0500, fixquality=1
$GPRMC,134913.800,A,4308.3025,N,07726.2640,W,0.11,162.18,090419,,,A*7F
$GPGGA,134914.000,4308.3025,N,07726.2640,W,1,08,0.97,154.0,M,-34.4,M,,*53
lng=-77.437736, lat=43.138378, altitude=154.00, speed=0.11, satellites=8, angle=162.1800, fixquality=1
$GPRMC,134914.200,A,4308.3025,N,07726.2640,W,0.08,147.31,090419,,,A*76
$GPGGA,134914.400,4308.3025,N,07726.2640,W,1,08,0.97,154.0,M,-34.4,M,,*57
lng=-77.437736, lat=43.138378, altitude=154.00, speed=0.08, satellites=8, angle=147.3100, fixquality=1
$GPRMC,134914.600,A,4308.3025,N,07726.2640,W,0.04,102.40,090419,,,A*79
$GPGGA,134914.800,4308.3025,N,07726.2640,W,1,08,0.97,154.0,M,-34.4,M,,*5B
lng=-77.437736, lat=43.138378, altitude=154.00, speed=0.04, satellites=8, angle=102.4000, fixquality=1
$GPRMC,134915.000,A,4308.3025,N,07726.2640,W,0.09,121.94,090419,,,A*7B
$GPGGA,134915.200,4308.3025,N,07726.2640,W,1,08,0.97,154.0,M,-34.4,M,,*50
lng=-77.437736, lat=43.138378, altitude=154.00, speed=0.09, satellites=8, angle=121.9400, fixquality=1
$GPRMC,134915.400,A,4308.3025,N,07726.2640,W,0.08,92.86,090419,,,A*44
$GPGGA,134915.600,4308.3025,N,07726.2640,W,1,09,0.91,154.0,M,-34.4,M,,*53
lng=-77.437736, lat=43.138378, altitude=154.00, speed=0.08, satellites=8, angle=92.8600, fixquality=1
$GPRMC,134915.800,A,4308.3025,N,07726.2640,W,0.08,95.30,090419,,,A*42
$GPGGA,134916.000,4308.3025,N,07726.2640,W,1,09,0.91,154.0,M,-34.4,M,,*56
lng=-77.437736, lat=43.138378, altitude=154.00, speed=0.08, satellites=9, angle=95.3000, fixquality=1
$GPRMC,134916.200,A,4308.3025,N,07726.2640,W,0.09,123.05,090419,,,A*70
$GPGGA,134916.400,4308.3025,N,07726.2640,W,1,09,0.91,154.0,M,-34.4,M,,*52
lng=-77.437736, lat=43.138378, altitude=154.00, speed=0.09, satellites=9, angle=123.0500, fixquality=1
$GPRMC,134916.600,A,4308.3025,N,07726.2640,W,0.09,149.23,090419,,,A*7C
$GPGGA,134916.800,4308.3025,N,07726.2640,W,1,09,0.91,154.0,M,-34.4,M,,*5E
lng=-77.437736, lat=43.138378, altitude=154.00, speed=0.09, satellites=9, angle=149.2300, fixquality=1
$GPRMC,134917.000,A,4308.3025,N,07726.2639,W,0.12,141.33,090419,,,A*76
$GPGGA,134917.200,4308.3024,N,07726.2639,W,1,08,1.13,154.0,M,-34.4,M,,*50
lng=-77.437728, lat=43.138378, altitude=154.00, speed=0.12, satellites=9, angle=141.3300, fixquality=1
$GPRMC,134917.400,A,4308.3024,N,07726.2639,W,0.13,141.72,090419,,,A*77
$GPGGA,134917.600,4308.3024,N,07726.2639,W,1,08,1.13,154.0,M,-34.4,M,,*54
lng=-77.437728, lat=43.138370, altitude=154.00, speed=0.13, satellites=8, angle=141.7200, fixquality=1
$GPRMC,134917.800,A,4308.3024,N,07726.2639,W,0.13,158.04,090419,,,A*72
$GPGGA,134918.000,4308.3024,N,07726.2639,W,1,09,0.91,154.0,M,-34.4,M,,*57
lng=-77.437728, lat=43.138370, altitude=154.00, speed=0.13, satellites=8, angle=158.0400, fixquality=1
$GPRMC,134918.200,A,4308.3024,N,07726.2639,W,0.09,196.09,090419,,,A*73
$GPGGA,134918.400,4308.3024,N,07726.2639,W,1,09,0.91,154.0,M,-34.4,M,,*53
lng=-77.437728, lat=43.138370, altitude=154.00, speed=0.09, satellites=9, angle=196.0900, fixquality=1
$GPRMC,134918.600,A,4308.3024,N,07726.2639,W,0.13,205.06,090419,,,A*7A
$GPGGA,134918.800,4308.3024,N,07726.2639,W,1,09,0.93,154.0,M,-34.4,M,,*5D
lng=-77.437728, lat=43.138370, altitude=154.00, speed=0.13, satellites=9, angle=205.0600, fixquality=1
$GPRMC,134919.000,A,4308.3024,N,07726.2639,W,0.01,56.39,090419,,,A*46
$GPGGA,134919.200,4308.3024,N,07726.2639,W,1,08,1.36,154.0,M,-34.4,M,,*59
lng=-77.437728, lat=43.138370, altitude=154.00, speed=0.01, satellites=9, angle=56.3900, fixquality=1
$GPRMC,134919.400,A,4308.3024,N,07726.2639,W,0.06,63.51,090419,,,A*4D
$GPGGA,134919.600,4308.3024,N,07726.2639,W,1,09,0.93,154.0,M,-34.4,M,,*52
lng=-77.437728, lat=43.138370, altitude=154.00, speed=0.06, satellites=8, angle=63.5100, fixquality=1
$GPRMC,134919.800,A,4308.3024,N,07726.2639,W,0.01,101.09,090419,,,A*7E
$GPGGA,134920.000,4308.3024,N,07726.2639,W,1,09,0.93,154.0,M,-34.4,M,,*5E
lng=-77.437728, lat=43.138370, altitude=154.00, speed=0.01, satellites=9, angle=101.0900, fixquality=1
$GPRMC,134920.200,A,4308.3024,N,07726.2639,W,0.02,177.95,090419,,,A*79
$GPGGA,134920.400,4308.3024,N,07726.2639,W,1,09,0.93,154.0,M,-34.4,M,,*5A
lng=-77.437728, lat=43.138370, altitude=154.00, speed=0.02, satellites=9, angle=177.9500, fixquality=1
$GPRMC,134920.600,A,4308.3024,N,07726.2639,W,0.03,219.16,090419,,,A*7C
$GPGGA,134920.800,4308.3024,N,07726.2639,W,1,09,0.93,154.0,M,-34.4,M,,*56
lng=-77.437728, lat=43.138370, altitude=154.00, speed=0.03, satellites=9, angle=219.1600, fixquality=1
$GPRMC,134921.000,A,4308.3024,N,07726.2639,W,0.01,252.18,090419,,,A*78
$GPGGA,134921.200,4308.3024,N,07726.2639,W,1,09,0.93,154.0,M,-34.4,M,,*5D
lng=-77.437728, lat=43.138370, altitude=154.00, speed=0.01, satellites=9, angle=252.1800, fixquality=1
$GPRMC,134921.400,A,4308.3024,N,07726.2639,W,0.01,347.11,090419,,,A*70
$GPGGA,134921.600,4308.3024,N,07726.2639,W,1,09,0.93,154.0,M,-34.4,M,,*59
lng=-77.437728, lat=43.138370, altitude=154.00, speed=0.01, satellites=9, angle=347.1100, fixquality=1
$GPRMC,134921.800,A,4308.3024,N,07726.2639,W,0.01,215.35,090419,,,A*7C
$GPGGA,134922.000,4308.3024,N,07726.2639,W,1,08,1.36,154.0,M,-34.4,M,,*53
lng=-77.437728, lat=43.138370, altitude=154.00, speed=0.01, satellites=9, angle=215.3500, fixquality=1
$GPRMC,134922.200,A,4308.3024,N,07726.2639,W,0.00,329.83,090419,,,A*77
$GPGGA,134922.400,4308.3024,N,07726.2639,W,1,08,1.36,154.0,M,-34.4,M,,*57
lng=-77.437728, lat=43.138370, altitude=154.00, speed=0.00, satellites=8, angle=329.8300, fixquality=1
$GPRMC,134922.600,A,4308.3024,N,07726.2639,W,0.00,169.85,090419,,,A*73
$GPGGA,134922.800,4308.3024,N,07726.2639,W,1,08,1.36,154.0,M,-34.4,M,,*5B
lng=-77.437728, lat=43.138370, altitude=154.00, speed=0.00, satellites=8, angle=169.8500, fixquality=1
$GPRMC,134923.000,A,4308.3024,N,07726.2639,W,0.01,126.83,090419,,,A*78
$GPGGA,134923.200,4308.3024,N,07726.2639,W,1,09,0.93,154.0,M,-34.4,M,,*5F
lng=-77.437728, lat=43.138370, altitude=154.00, speed=0.01, satellites=8, angle=126.8300, fixquality=1
$GPRMC,134923.400,A,4308.3024,N,07726.2639,W,0.03,48.82,090419,,,A*46
$GPGGA,134923.600,4308.3024,N,07726.2639,W,1,09,0.93,154.0,M,-34.4,M,,*5B
lng=-77.437728, lat=43.138370, altitude=154.00, speed=0.03, satellites=9, angle=48.8200, fixquality=1
$GPRMC,134923.800,A,4308.3024,N,07726.2639,W,0.02,33.62,090419,,,A*49
$GPGGA,134924.000,4308.3024,N,07726.2639,W,1,09,0.93,154.0,M,-34.4,M,,*5A
lng=-77.437728, lat=43.138370, altitude=154.00, speed=0.02, satellites=9, angle=33.6200, fixquality=1
$GPRMC,134924.200,A,4308.3024,N,07726.2639,W,0.04,27.95,090419,,,A*4F
$GPGGA,134924.400,4308.3024,N,07726.2639,W,1,08,1.36,154.0,M,-34.4,M,,*51
lng=-77.437728, lat=43.138370, altitude=154.00, speed=0.04, satellites=9, angle=27.9500, fixquality=1
$GPRMC,134924.600,A,4308.3024,N,07726.2639,W,0.06,9.13,090419,,,A*7B
$GPGGA,134924.800,4308.3024,N,07726.2639,W,1,08,1.36,154.0,M,-34.4,M,,*5D
lng=-77.437728, lat=43.138370, altitude=154.00, speed=0.06, satellites=8, angle=9.1300, fixquality=1
$GPRMC,134925.000,A,4308.3024,N,07726.2639,W,0.04,47.58,090419,,,A*4B
$GPGGA,134925.200,4308.3024,N,07726.2639,W,1,08,1.13,154.0,M,-34.4,M,,*51
lng=-77.437728, lat=43.138370, altitude=154.00, speed=0.04, satellites=8, angle=47.5800, fixquality=1
$GPRMC,134925.400,A,4308.3024,N,07726.2639,W,0.23,35.30,090419,,,A*41
$GPGGA,134925.600,4308.3024,N,07726.2639,W,1,08,1.13,154.0,M,-34.4,M,,*55
lng=-77.437728, lat=43.138370, altitude=154.00, speed=0.23, satellites=8, angle=35.3000, fixquality=1
$GPRMC,134925.800,A,4308.3024,N,07726.2639,W,0.08,32.62,090419,,,A*44
$GPGGA,134926.000,4308.3024,N,07726.2639,W,1,08,1.13,154.0,M,-34.4,M,,*50
lng=-77.437728, lat=43.138370, altitude=154.00, speed=0.08, satellites=8, angle=32.6200, fixquality=1
$GPRMC,134926.200,A,4308.3024,N,07726.2639,W,0.18,27.39,090419,,,A*46
$GPGGA,134926.400,4308.3024,N,07726.2639,W,1,08,1.13,154.0,M,-34.4,M,,*54
lng=-77.437728, lat=43.138370, altitude=154.00, speed=0.18, satellites=8, angle=27.3900, fixquality=1
$GPRMC,134926.600,A,4308.3025,N,07726.2639,W,0.83,8.65,090419,,,A*75
$GPGGA,134926.800,4308.3026,N,07726.2638,W,1,08,1.36,154.0,M,-34.4,M,,*5C
lng=-77.437728, lat=43.138378, altitude=154.00, speed=0.83, satellites=8, angle=8.6500, fixquality=1
$GPRMC,134927.000,A,4308.3027,N,07726.2638,W,1.08,11.18,090419,,,A*41
$GPGGA,134927.200,4308.3029,N,07726.2638,W,1,08,1.36,154.0,M,-34.4,M,,*58
lng=-77.437728, lat=43.138378, altitude=154.00, speed=1.08, satellites=8, angle=11.1800, fixquality=1
$GPRMC,134927.400,A,4308.3031,N,07726.2637,W,2.31,14.23,090419,,,A*49
$GPGGA,134927.600,4308.3032,N,07726.2637,W,1,08,1.36,154.1,M,-34.4,M,,*58
lng=-77.437728, lat=43.138385, altitude=154.00, speed=2.31, satellites=8, angle=14.2300, fixquality=1
$GPRMC,134927.800,A,4308.3034,N,07726.2636,W,2.35,8.33,090419,,,A*79
$GPGGA,134928.000,4308.3035,N,07726.2636,W,1,08,1.36,154.1,M,-34.4,M,,*57
lng=-77.437728, lat=43.138385, altitude=154.10, speed=2.35, satellites=8, angle=8.3300, fixquality=1
$GPRMC,134928.200,A,4308.3036,N,07726.2636,W,1.79,7.41,090419,,,A*7F
$GPGGA,134928.400,4308.3037,N,07726.2635,W,1,08,1.36,154.1,M,-34.4,M,,*52
lng=-77.437728, lat=43.138393, altitude=154.10, speed=1.79, satellites=8, angle=7.4100, fixquality=1
$GPRMC,134928.600,A,4308.3038,N,07726.2635,W,1.63,10.18,090419,,,A*47
$GPGGA,134928.800,4308.3039,N,07726.2635,W,1,08,1.36,154.1,M,-34.4,M,,*50
lng=-77.437728, lat=43.138393, altitude=154.10, speed=1.63, satellites=8, angle=10.1800, fixquality=1
$GPRMC,134929.000,A,4308.3040,N,07726.2635,W,1.34,7.14,090419,,,A*77
$GPGGA,134929.200,4308.3041,N,07726.2635,W,1,08,1.36,154.1,M,-34.4,M,,*54
lng=-77.437728, lat=43.138404, altitude=154.10, speed=1.34, satellites=8, angle=7.1400, fixquality=1
$GPRMC,134929.400,A,4308.3042,N,07726.2635,W,1.20,6.51,090419,,,A*74
$GPGGA,134929.600,4308.3042,N,07726.2635,W,1,08,1.36,154.2,M,-34.4,M,,*50
lng=-77.437728, lat=43.138404, altitude=154.10, speed=1.20, satellites=8, angle=6.5100, fixquality=1
$GPRMC,134929.800,A,4308.3043,N,07726.2635,W,1.21,9.33,090419,,,A*73
$GPGGA,134930.000,4308.3044,N,07726.2634,W,1,08,1.36,154.2,M,-34.4,M,,*59
lng=-77.437728, lat=43.138404, altitude=154.20, speed=1.21, satellites=8, angle=9.3300, fixquality=1
$GPRMC,134930.200,A,4308.3045,N,07726.2634,W,1.35,10.78,090419,,,A*44
$GPGGA,134930.400,4308.3046,N,07726.2634,W,1,08,1.36,154.2,M,-34.4,M,,*5F
lng=-77.437721, lat=43.138412, altitude=154.20, speed=1.35, satellites=8, angle=10.7800, fixquality=1
$GPRMC,134930.600,A,4308.3047,N,07726.2634,W,1.51,10.76,090419,,,A*4E
$GPGGA,134930.800,4308.3048,N,07726.2634,W,1,08,1.36,154.3,M,-34.4,M,,*5C
lng=-77.437721, lat=43.138412, altitude=154.20, speed=1.51, satellites=8, angle=10.7600, fixquality=1
$GPRMC,134931.000,A,4308.3049,N,07726.2634,W,1.88,11.17,090419,,,A*45
$GPGGA,134931.200,4308.3050,N,07726.2633,W,1,08,1.36,154.2,M,-34.4,M,,*58
lng=-77.437721, lat=43.138412, altitude=154.30, speed=1.88, satellites=8, angle=11.1700, fixquality=1
$GPRMC,134931.400,A,4308.3051,N,07726.2633,W,2.03,6.80,090419,,,A*77
$GPGGA,134931.600,4308.3053,N,07726.2633,W,1,08,1.36,154.3,M,-34.4,M,,*5E
lng=-77.437721, lat=43.138420, altitude=154.20, speed=2.03, satellites=8, angle=6.8000, fixquality=1
$GPRMC,134931.800,A,4308.3054,N,07726.2633,W,2.36,8.45,090419,,,A*7F
$GPGGA,134932.000,4308.3055,N,07726.2633,W,1,08,1.36,154.3,M,-34.4,M,,*5D
lng=-77.437721, lat=43.138420, altitude=154.30, speed=2.36, satellites=8, angle=8.4500, fixquality=1
$GPRMC,134932.200,A,4308.3057,N,07726.2633,W,2.48,9.33,090419,,,A*7C
$GPGGA,134932.400,4308.3058,N,07726.2632,W,1,08,1.36,154.3,M,-34.4,M,,*55
lng=-77.437721, lat=43.138427, altitude=154.30, speed=2.48, satellites=8, angle=9.3300, fixquality=1
$GPRMC,134932.600,A,4308.3059,N,07726.2632,W,2.70,10.88,090419,,,A*44
$GPGGA,134932.800,4308.3061,N,07726.2632,W,1,08,1.36,154.3,M,-34.4,M,,*53
lng=-77.437721, lat=43.138427, altitude=154.30, speed=2.70, satellites=8, angle=10.8800, fixquality=1
$GPRMC,134933.000,A,4308.3063,N,07726.2631,W,2.85,11.15,090419,,,A*46
$GPGGA,134933.200,4308.3064,N,07726.2631,W,1,08,1.36,154.3,M,-34.4,M,,*5E
lng=-77.437721, lat=43.138435, altitude=154.30, speed=2.85, satellites=8, angle=11.1500, fixquality=1
$GPRMC,134933.400,A,4308.3066,N,07726.2631,W,3.04,9.93,090419,,,A*78
$GPGGA,134933.600,4308.3068,N,07726.2631,W,1,08,1.36,154.3,M,-34.4,M,,*56
lng=-77.437721, lat=43.138442, altitude=154.30, speed=3.04, satellites=8, angle=9.9300, fixquality=1
$GPRMC,134933.800,A,4308.3069,N,07726.2630,W,3.11,13.59,090419,,,A*43
$GPGGA,134934.000,4308.3071,N,07726.2630,W,1,08,1.36,154.3,M,-34.4,M,,*5E
lng=-77.437721, lat=43.138450, altitude=154.30, speed=3.11, satellites=8, angle=13.5900, fixquality=1
$GPRMC,134934.200,A,4308.3073,N,07726.2630,W,3.15,11.79,090419,,,A*41
$GPGGA,134934.400,4308.3075,N,07726.2629,W,1,08,1.36,154.4,M,-34.4,M,,*51
lng=-77.437721, lat=43.138450, altitude=154.30, speed=3.15, satellites=8, angle=11.7900, fixquality=1
$GPRMC,134934.600,A,4308.3077,N,07726.2629,W,3.34,12.48,090419,,,A*4B
$GPGGA,134934.800,4308.3079,N,07726.2629,W,1,08,1.36,154.4,M,-34.4,M,,*51
lng=-77.437713, lat=43.138462, altitude=154.40, speed=3.34, satellites=8, angle=12.4800, fixquality=1
$GPRMC,134935.000,A,4308.3081,N,07726.2628,W,3.48,14.04,090419,,,A*41
$GPGGA,134935.200,4308.3083,N,07726.2628,W,1,08,1.36,154.4,M,-34.4,M,,*5E
lng=-77.437713, lat=43.138469, altitude=154.40, speed=3.48, satellites=8, angle=14.0400, fixquality=1
$GPRMC,134935.400,A,4308.3085,N,07726.2627,W,3.66,12.52,090419,,,A*47
$GPGGA,134935.600,4308.3087,N,07726.2627,W,1,08,1.36,154.4,M,-34.4,M,,*51
lng=-77.437713, lat=43.138477, altitude=154.40, speed=3.66, satellites=8, angle=12.5200, fixquality=1
$GPRMC,134935.800,A,4308.3089,N,07726.2627,W,3.68,14.45,090419,,,A*49
$GPGGA,134936.000,4308.3091,N,07726.2626,W,1,08,1.36,154.4,M,-34.4,M,,*52
lng=-77.437713, lat=43.138484, altitude=154.40, speed=3.68, satellites=8, angle=14.4500, fixquality=1
$GPRMC,134936.200,A,4308.3093,N,07726.2626,W,3.83,14.92,090419,,,A*45
$GPGGA,134936.400,4308.3095,N,07726.2625,W,1,08,1.36,154.4,M,-34.4,M,,*51
lng=-77.437713, lat=43.138484, altitude=154.40, speed=3.83, satellites=8, angle=14.9200, fixquality=1
$GPRMC,134936.600,A,4308.3097,N,07726.2625,W,3.85,14.61,090419,,,A*4C
$GPGGA,134936.800,4308.3099,N,07726.2624,W,1,08,1.36,154.4,M,-34.4,M,,*50
lng=-77.437713, lat=43.138492, altitude=154.40, speed=3.85, satellites=8, angle=14.6100, fixquality=1
$GPRMC,134937.000,A,4308.3101,N,07726.2624,W,3.97,14.45,090419,,,A*41
$GPGGA,134937.200,4308.3103,N,07726.2623,W,1,08,1.36,154.4,M,-34.4,M,,*5E
lng=-77.437705, lat=43.138500, altitude=154.40, speed=3.97, satellites=8, angle=14.4500, fixquality=1
$GPRMC,134937.400,A,4308.3106,N,07726.2623,W,4.06,14.32,090419,,,A*4A
$GPGGA,134937.600,4308.3108,N,07726.2622,W,1,08,1.36,154.4,M,-34.4,M,,*50
lng=-77.437705, lat=43.138507, altitude=154.40, speed=4.06, satellites=8, angle=14.3200, fixquality=1
$GPRMC,134937.800,A,4308.3110,N,07726.2622,W,4.22,13.24,090419,,,A*46
$GPGGA,134938.000,4308.3113,N,07726.2621,W,1,08,1.36,154.4,M,-34.4,M,,*50
lng=-77.437705, lat=43.138515, altitude=154.40, speed=4.22, satellites=8, angle=13.2400, fixquality=1
$GPRMC,134938.200,A,4308.3115,N,07726.2621,W,4.31,12.90,090419,,,A*49
$GPGGA,134938.400,4308.3117,N,07726.2620,W,1,08,1.37,154.4,M,-34.4,M,,*50
lng=-77.437705, lat=43.138526, altitude=154.40, speed=4.31, satellites=8, angle=12.9000, fixquality=1
$GPRMC,134938.600,A,4308.3120,N,07726.2620,W,4.44,12.75,090419,,,A*43
$GPGGA,134938.800,4308.3122,N,07726.2619,W,1,08,1.36,154.4,M,-34.4,M,,*51
lng=-77.437705, lat=43.138534, altitude=154.40, speed=4.44, satellites=8, angle=12.7500, fixquality=1
$GPRMC,134939.000,A,4308.3125,N,07726.2618,W,4.51,13.98,090419,,,A*4C
$GPGGA,134939.200,4308.3127,N,07726.2618,W,1,08,1.36,154.4,M,-34.4,M,,*5E
lng=-77.437698, lat=43.138542, altitude=154.40, speed=4.51, satellites=8, angle=13.9800, fixquality=1
$GPRMC,134939.400,A,4308.3130,N,07726.2617,W,4.70,13.26,090419,,,A*45
$GPGGA,134939.600,4308.3133,N,07726.2617,W,1,08,1.36,154.4,M,-34.4,M,,*50
lng=-77.437698, lat=43.138549, altitude=154.40, speed=4.70, satellites=8, angle=13.2600, fixquality=1
$GPRMC,134939.800,A,4308.3135,N,07726.2616,W,5.03,13.89,090419,,,A*4D
$GPGGA,134940.000,4308.3138,N,07726.2615,W,1,08,1.36,154.4,M,-34.4,M,,*51
lng=-77.437698, lat=43.138557, altitude=154.40, speed=5.03, satellites=8, angle=13.8900, fixquality=1
$GPRMC,134940.200,A,4308.3141,N,07726.2614,W,4.92,14.20,090419,,,A*45
$GPGGA,134940.400,4308.3143,N,07726.2613,W,1,08,1.36,154.3,M,-34.4,M,,*58
lng=-77.437690, lat=43.138565, altitude=154.40, speed=4.92, satellites=8, angle=14.2000, fixquality=1
$GPRMC,134940.600,A,4308.3146,N,07726.2613,W,4.60,19.49,090419,,,A*4E
$GPGGA,134940.800,4308.3148,N,07726.2612,W,1,08,1.36,154.3,M,-34.4,M,,*5E
lng=-77.437690, lat=43.138572, altitude=154.30, speed=4.60, satellites=8, angle=19.4900, fixquality=1
$GPRMC,134941.000,A,4308.3150,N,07726.2611,W,4.37,24.77,090419,,,A*4D
$GPGGA,134941.200,4308.3152,N,07726.2610,W,1,08,1.36,154.3,M,-34.4,M,,*5C
lng=-77.437690, lat=43.138584, altitude=154.30, speed=4.37, satellites=8, angle=24.7700, fixquality=1
$GPRMC,134941.400,A,4308.3154,N,07726.2609,W,3.29,30.90,090419,,,A*40
$GPGGA,134941.600,4308.3156,N,07726.2608,W,1,08,1.13,154.3,M,-34.4,M,,*52
lng=-77.437675, lat=43.138591, altitude=154.30, speed=3.29, satellites=8, angle=30.9000, fixquality=1
$GPRMC,134941.800,A,4308.3157,N,07726.2607,W,3.50,36.33,090419,,,A*40
$GPGGA,134942.000,4308.3159,N,07726.2605,W,1,09,0.91,154.3,M,-34.4,M,,*5F
lng=-77.437675, lat=43.138599, altitude=154.30, speed=3.50, satellites=8, angle=36.3300, fixquality=1
$GPRMC,134942.200,A,4308.3160,N,07726.2604,W,3.19,36.63,090419,,,A*46
$GPGGA,134942.400,4308.3162,N,07726.2603,W,1,09,0.91,154.3,M,-34.4,M,,*55
lng=-77.437667, lat=43.138599, altitude=154.30, speed=3.19, satellites=9, angle=36.6300, fixquality=1
$GPRMC,134942.600,A,4308.3163,N,07726.2601,W,3.26,44.21,090419,,,A*4B
$GPGGA,134942.800,4308.3164,N,07726.2600,W,1,09,0.91,154.3,M,-34.4,M,,*5C
lng=-77.437667, lat=43.138607, altitude=154.30, speed=3.26, satellites=9, angle=44.2100, fixquality=1
$GPRMC,134943.000,A,4308.3166,N,07726.2598,W,3.62,56.21,090419,,,A*49
$GPGGA,134943.200,4308.3167,N,07726.2595,W,1,09,0.91,154.3,M,-34.4,M,,*5B
lng=-77.437660, lat=43.138607, altitude=154.30, speed=3.62, satellites=9, angle=56.2100, fixquality=1
$GPRMC,134943.400,A,4308.3168,N,07726.2593,W,3.40,57.72,090419,,,A*4F
$GPGGA,134943.600,4308.3168,N,07726.2591,W,1,09,0.91,154.3,M,-34.4,M,,*54
lng=-77.437652, lat=43.138614, altitude=154.30, speed=3.40, satellites=9, angle=57.7200, fixquality=1
$GPRMC,134943.800,A,4308.3169,N,07726.2589,W,3.44,59.46,090419,,,A*44
$GPGGA,134944.000,4308.3170,N,07726.2587,W,1,09,0.91,154.3,M,-34.4,M,,*5B
lng=-77.437644, lat=43.138614, altitude=154.30, speed=3.44, satellites=9, angle=59.4600, fixquality=1
$GPRMC,134944.200,A,4308.3170,N,07726.2585,W,3.12,68.22,090419,,,A*4E
$GPGGA,134944.400,4308.3171,N,07726.2583,W,1,09,0.91,154.3,M,-34.4,M,,*5A
lng=-77.437637, lat=43.138614, altitude=154.30, speed=3.12, satellites=9, angle=68.2200, fixquality=1
$GPRMC,134944.600,A,4308.3172,N,07726.2581,W,3.04,75.42,090419,,,A*41
$GPGGA,134944.800,4308.3172,N,07726.2578,W,1,08,1.08,154.3,M,-34.4,M,,*51
lng=-77.437637, lat=43.138622, altitude=154.30, speed=3.04, satellites=9, angle=75.4200, fixquality=1
$GPRMC,134945.000,A,4308.3172,N,07726.2576,W,2.87,82.90,090419,,,A*43
$GPGGA,134945.200,4308.3172,N,07726.2574,W,1,08,1.08,154.3,M,-34.4,M,,*56
lng=-77.437629, lat=43.138622, altitude=154.30, speed=2.87, satellites=8, angle=82.9000, fixquality=1
$GPRMC,134945.400,A,4308.3173,N,07726.2573,W,1.86,76.15,090419,,,A*47
$GPGGA,134945.600,4308.3173,N,07726.2572,W,1,09,0.91,154.2,M,-34.4,M,,*54
lng=-77.437622, lat=43.138622, altitude=154.30, speed=1.86, satellites=8, angle=76.1500, fixquality=1
$GPRMC,134945.800,A,4308.3172,N,07726.2571,W,1.16,91.25,090419,,,A*4B
$GPGGA,134946.000,4308.3172,N,07726.2571,W,1,08,1.08,154.1,M,-34.4,M,,*50
lng=-77.437622, lat=43.138622, altitude=154.20, speed=1.16, satellites=9, angle=91.2500, fixquality=1
$GPRMC,134946.200,A,4308.3172,N,07726.2570,W,0.67,81.20,090419,,,A*40
$GPGGA,134946.400,4308.3172,N,07726.2572,W,1,08,1.08,154.0,M,-34.4,M,,*56
lng=-77.437614, lat=43.138622, altitude=154.10, speed=0.67, satellites=8, angle=81.2000, fixquality=1
$GPRMC,134946.600,A,4308.3172,N,07726.2573,W,0.58,258.03,090419,,,A*7C
$GPGGA,134946.800,4308.3172,N,07726.2574,W,1,08,1.08,153.9,M,-34.4,M,,*52
lng=-77.437622, lat=43.138622, altitude=154.00, speed=0.58, satellites=8, angle=258.0300, fixquality=1
$GPRMC,134947.000,A,4308.3172,N,07726.2576,W,1.98,266.50,090419,,,A*78
$GPGGA,134947.200,4308.3171,N,07726.2578,W,1,08,1.08,153.8,M,-34.4,M,,*57
lng=-77.437629, lat=43.138622, altitude=153.90, speed=1.98, satellites=8, angle=266.5000, fixquality=1
$GPRMC,134947.400,A,4308.3171,N,07726.2580,W,3.65,268.13,090419,,,A*7F
$GPGGA,134947.600,4308.3171,N,07726.2584,W,1,08,1.08,153.8,M,-34.4,M,,*50
lng=-77.437629, lat=43.138614, altitude=153.80, speed=3.65, satellites=8, angle=268.1300, fixquality=1
$GPRMC,134947.800,A,4308.3171,N,07726.2588,W,5.31,269.96,090419,,,A*70
$GPGGA,134948.000,4308.3171,N,07726.2592,W,1,08,1.09,153.7,M,-34.4,M,,*50
lng=-77.437644, lat=43.138614, altitude=153.80, speed=5.31, satellites=8, angle=269.9600, fixquality=1
$GPRMC,134948.200,A,4308.3171,N,07726.2597,W,6.74,273.14,090419,,,A*78
$GPGGA,134948.400,4308.3172,N,07726.2602,W,1,09,0.93,153.6,M,-34.4,M,,*5F
lng=-77.437660, lat=43.138614, altitude=153.70, speed=6.74, satellites=8, angle=273.1400, fixquality=1
$GPRMC,134948.600,A,4308.3172,N,07726.2608,W,8.34,276.95,090419,,,A*7C
$GPGGA,134948.800,4308.3173,N,07726.2614,W,1,09,0.93,153.6,M,-34.4,M,,*55
lng=-77.437675, lat=43.138622, altitude=153.60, speed=8.34, satellites=9, angle=276.9500, fixquality=1
$GPRMC,134949.000,A,4308.3174,N,07726.2621,W,9.77,279.88,090419,,,A*73
$GPGGA,134949.200,4308.3175,N,07726.2629,W,1,09,0.93,153.5,M,-34.4,M,,*55
lng=-77.437705, lat=43.138622, altitude=153.60, speed=9.77, satellites=9, angle=279.8800, fixquality=1
$GPRMC,134949.400,A,4308.3177,N,07726.2636,W,11.00,281.34,090419,,,A*4B
$GPGGA,134949.600,4308.3178,N,07726.2644,W,1,09,0.93,153.5,M,-34.4,M,,*57
lng=-77.437728, lat=43.138629, altitude=153.50, speed=11.00, satellites=9, angle=281.3400, fixquality=1
$GPRMC,134949.800,A,4308.3180,N,07726.2652,W,12.18,283.40,090419,,,A*46
$GPGGA,134950.000,4308.3182,N,07726.2661,W,1,09,0.93,153.5,M,-34.4,M,,*5B
lng=-77.437751, lat=43.138629, altitude=153.50, speed=12.18, satellites=9, angle=283.4000, fixquality=1
$GPRMC,134950.200,A,4308.3184,N,07726.2671,W,13.37,284.08,090419,,,A*46
$GPGGA,134950.400,4308.3186,N,07726.2681,W,1,09,0.93,153.5,M,-34.4,M,,*55
lng=-77.437782, lat=43.138637, altitude=153.50, speed=13.37, satellites=9, angle=284.0800, fixquality=1
$GPRMC,134950.600,A,4308.3188,N,07726.2691,W,13.99,285.07,090419,,,A*4A
$GPGGA,134950.800,4308.3190,N,07726.2702,W,1,09,0.93,153.5,M,-34.4,M,,*54
lng=-77.437820, lat=43.138648, altitude=153.50, speed=13.99, satellites=9, angle=285.0700, fixquality=1
$GPRMC,134951.000,A,4308.3193,N,07726.2713,W,15.06,285.72,090419,,,A*4E
$GPGGA,134951.200,4308.3195,N,07726.2724,W,1,09,0.93,153.5,M,-34.4,M,,*5E
lng=-77.437858, lat=43.138656, altitude=153.50, speed=15.06, satellites=9, angle=285.7200, fixquality=1
$GPRMC,134951.400,A,4308.3197,N,07726.2736,W,15.77,285.63,090419,,,A*4F
$GPGGA,134951.600,4308.3199,N,07726.2748,W,1,09,0.93,153.6,M,-34.4,M,,*5F
lng=-77.437889, lat=43.138664, altitude=153.50, speed=15.77, satellites=9, angle=285.6300, fixquality=1
$GPRMC,134951.800,A,4308.3202,N,07726.2760,W,16.63,286.68,090419,,,A*41
$GPGGA,134952.000,4308.3204,N,07726.2773,W,1,09,0.93,153.7,M,-34.4,M,,*54
lng=-77.437934, lat=43.138671, altitude=153.60, speed=16.63, satellites=9, angle=286.6800, fixquality=1
$GPRMC,134952.200,A,4308.3207,N,07726.2785,W,16.63,286.05,090419,,,A*4D
$GPGGA,134952.400,4308.3209,N,07726.2798,W,1,09,0.93,153.7,M,-34.4,M,,*58
lng=-77.437973, lat=43.138679, altitude=153.70, speed=16.63, satellites=9, angle=286.0500, fixquality=1
$GPRMC,134952.600,A,4308.3212,N,07726.2810,W,16.62,285.82,090419,,,A*43
$GPGGA,134952.800,4308.3214,N,07726.2823,W,1,09,0.91,153.7,M,-34.4,M,,*55
lng=-77.438011, lat=43.138687, altitude=153.70, speed=16.62, satellites=9, angle=285.8200, fixquality=1
$GPRMC,134953.000,A,4308.3217,N,07726.2835,W,16.60,286.20,090419,,,A*4F
$GPGGA,134953.200,4308.3220,N,07726.2848,W,1,09,0.91,153.7,M,-34.4,M,,*54
lng=-77.438064, lat=43.138694, altitude=153.70, speed=16.60, satellites=9, angle=286.2000, fixquality=1
$GPRMC,134953.400,A,4308.3223,N,07726.2860,W,16.64,286.67,090419,,,A*4B
$GPGGA,134953.600,4308.3226,N,07726.2873,W,1,09,0.91,153.8,M,-34.4,M,,*51
lng=-77.438102, lat=43.138706, altitude=153.70, speed=16.64, satellites=9, angle=286.6700, fixquality=1
$GPRMC,134953.800,A,4308.3229,N,07726.2887,W,17.13,287.89,090419,,,A*44
$GPGGA,134954.000,4308.3233,N,07726.2901,W,1,09,0.91,153.8,M,-34.4,M,,*50
lng=-77.438140, lat=43.138713, altitude=153.80, speed=17.13, satellites=9, angle=287.8900, fixquality=1
$GPRMC,134954.200,A,4308.3238,N,07726.2916,W,18.19,290.51,090419,,,A*46
$GPGGA,134954.400,4308.3243,N,07726.2931,W,1,09,0.91,153.9,M,-34.4,M,,*51
lng=-77.438194, lat=43.138729, altitude=153.80, speed=18.19, satellites=9, angle=290.5100, fixquality=1
$GPRMC,134954.600,A,4308.3248,N,07726.2945,W,19.20,293.22,090419,,,A*4F
$GPGGA,134954.800,4308.3253,N,07726.2959,W,1,09,0.91,153.9,M,-34.4,M,,*52
lng=-77.438240, lat=43.138744, altitude=153.90, speed=19.20, satellites=9, angle=293.2200, fixquality=1
$GPRMC,134955.000,A,4308.3257,N,07726.2974,W,19.80,294.30,090419,,,A*4A
$GPGGA,134955.200,4308.3262,N,07726.2989,W,1,09,0.91,154.0,M,-34.4,M,,*58
lng=-77.438285, lat=43.138759, altitude=153.90, speed=19.80, satellites=9, angle=294.3000, fixquality=1
$GPRMC,134955.400,A,4308.3268,N,07726.3004,W,20.63,296.20,090419,,,A*49
$GPGGA,134955.600,4308.3274,N,07726.3019,W,1,09,0.93,154.0,M,-34.4,M,,*58
lng=-77.438339, lat=43.138778, altitude=154.00, speed=20.63, satellites=9, angle=296.2000, fixquality=1
$GPRMC,134955.800,A,4308.3280,N,07726.3034,W,21.20,298.25,090419,,,A*4D
$GPGGA,134956.000,4308.3286,N,07726.3049,W,1,09,0.93,154.0,M,-34.4,M,,*55
lng=-77.438385, lat=43.138801, altitude=154.00, speed=21.20, satellites=9, angle=298.2500, fixquality=1
$GPRMC,134956.200,A,4308.3293,N,07726.3064,W,21.85,300.21,090419,,,A*48
$GPGGA,134956.400,4308.3299,N,07726.3079,W,1,09,0.93,154.0,M,-34.4,M,,*5C
lng=-77.438446, lat=43.138816, altitude=154.00, speed=21.85, satellites=9, angle=300.2100, fixquality=1
$GPRMC,134956.600,A,4308.3306,N,07726.3093,W,22.14,301.17,090419,,,A*46
$GPGGA,134956.800,4308.3312,N,07726.3108,W,1,09,0.91,154.1,M,-34.4,M,,*56
lng=-77.438484, lat=43.138843, altitude=154.00, speed=22.14, satellites=9, angle=301.1700, fixquality=1
$GPRMC,134957.000,A,4308.3319,N,07726.3123,W,22.60,302.11,090419,,,A*43
$GPGGA,134957.200,4308.3327,N,07726.3138,W,1,09,0.93,154.1,M,-34.4,M,,*5A
lng=-77.438545, lat=43.138866, altitude=154.10, speed=22.60, satellites=9, angle=302.1100, fixquality=1
$GPRMC,134957.400,A,4308.3334,N,07726.3153,W,22.88,302.40,090419,,,A*4D
$GPGGA,134957.600,4308.3341,N,07726.3168,W,1,09,0.93,154.2,M,-34.4,M,,*58
lng=-77.438591, lat=43.138893, altitude=154.10, speed=22.88, satellites=9, angle=302.4000, fixquality=1
$GPRMC,134957.800,A,4308.3348,N,07726.3183,W,22.96,303.09,090419,,,A*44
$GPGGA,134958.000,4308.3355,N,07726.3198,W,1,09,0.93,154.2,M,-34.4,M,,*5B
lng=-77.438636, lat=43.138916, altitude=154.20, speed=22.96, satellites=9, angle=303.0900, fixquality=1
$GPRMC,134958.200,A,4308.3363,N,07726.3213,W,23.33,303.68,090419,,,A*4B
$GPGGA,134958.400,4308.3370,N,07726.3228,W,1,09,0.93,154.3,M,-34.4,M,,*51
lng=-77.438690, lat=43.138938, altitude=154.20, speed=23.33, satellites=9, angle=303.6800, fixquality=1
$GPRMC,134958.600,A,4308.3378,N,07726.3244,W,23.89,303.96,090419,,,A*47
$GPGGA,134958.800,4308.3386,N,07726.3259,W,1,09,0.91,154.4,M,-34.4,M,,*57
lng=-77.438735, lat=43.138965, altitude=154.30, speed=23.89, satellites=9, angle=303.9600, fixquality=1
$GPRMC,134959.000,A,4308.3393,N,07726.3275,W,24.19,303.83,090419,,,A*4D
$GPGGA,134959.200,4308.3401,N,07726.3290,W,1,09,0.91,154.6,M,-34.4,M,,*53
lng=-77.438796, lat=43.138988, altitude=154.40, speed=24.19, satellites=9, angle=303.8300, fixquality=1
$GPRMC,134959.400,A,4308.3409,N,07726.3306,W,24.59,303.98,090419,,,A*46
$GPGGA,134959.600,4308.3416,N,07726.3322,W,1,09,0.91,154.7,M,-34.4,M,,*58
lng=-77.438842, lat=43.139015, altitude=154.60, speed=24.59, satellites=9, angle=303.9800, fixquality=1
$GPRMC,134959.800,A,4308.3424,N,07726.3337,W,25.12,304.00,090419,,,A*4F
$GPGGA,135000.000,4308.3432,N,07726.3354,W,1,09,0.91,154.8,M,-34.4,M,,*52
lng=-77.438888, lat=43.139038, altitude=154.70, speed=25.12, satellites=9, angle=304.0000, fixquality=1
$GPRMC,135000.200,A,4308.3440,N,07726.3370,W,25.42,304.19,090419,,,A*4D
$GPGGA,135000.400,4308.3449,N,07726.3386,W,1,09,0.91,155.0,M,-34.4,M,,*5C
lng=-77.438949, lat=43.139072, altitude=154.80, speed=25.42, satellites=9, angle=304.1900, fixquality=1
$GPRMC,135000.600,A,4308.3456,N,07726.3403,W,25.71,304.03,090419,,,A*46
$GPGGA,135000.800,4308.3464,N,07726.3419,W,1,09,0.93,155.1,M,-34.4,M,,*5D
lng=-77.439002, lat=43.139095, altitude=155.00, speed=25.71, satellites=9, angle=304.0300, fixquality=1
$GPRMC,135001.000,A,4308.3472,N,07726.3436,W,25.95,304.50,090419,,,A*4D
$GPGGA,135001.200,4308.3481,N,07726.3453,W,1,09,0.93,155.2,M,-34.4,M,,*50
lng=-77.439064, lat=43.139118, altitude=155.10, speed=25.95, satellites=9, angle=304.5000, fixquality=1
$GPRMC,135001.400,A,4308.3489,N,07726.3469,W,26.05,304.96,090419,,,A*47
$GPGGA,135001.600,4308.3497,N,07726.3486,W,1,09,0.93,155.4,M,-34.4,M,,*5D
lng=-77.439109, lat=43.139152, altitude=155.20, speed=26.05, satellites=9, angle=304.9600, fixquality=1
$GPRMC,135001.800,A,4308.3506,N,07726.3502,W,26.30,306.46,090419,,,A*48
$GPGGA,135002.000,4308.3514,N,07726.3518,W,1,09,0.93,155.5,M,-34.4,M,,*55
lng=-77.439170, lat=43.139175, altitude=155.40, speed=26.30, satellites=9, angle=306.4600, fixquality=1
$GPRMC,135002.200,A,4308.3524,N,07726.3534,W,26.14,309.15,090419,,,A*4B
$GPGGA,135002.400,4308.3533,N,07726.3548,W,1,09,0.93,155.7,M,-34.4,M,,*53
lng=-77.439224, lat=43.139209, altitude=155.50, speed=26.14, satellites=9, angle=309.1500, fixquality=1
$GPRMC,135002.600,A,4308.3542,N,07726.3563,W,26.16,312.50,090419,,,A*44
$GPGGA,135002.800,4308.3552,N,07726.3577,W,1,09,0.93,155.9,M,-34.4,M,,*5A
lng=-77.439277, lat=43.139232, altitude=155.70, speed=26.16, satellites=9, angle=312.5000, fixquality=1
$GPRMC,135003.000,A,4308.3562,N,07726.3591,W,25.89,315.71,090419,,,A*4D
$GPGGA,135003.200,4308.3573,N,07726.3605,W,1,09,0.93,156.1,M,-34.4,M,,*5F
lng=-77.439315, lat=43.139266, altitude=155.90, speed=25.89, satellites=9, angle=315.7100, fixquality=1
$GPRMC,135003.400,A,4308.3584,N,07726.3617,W,26.08,318.82,090419,,,A*47
$GPGGA,135003.600,4308.3595,N,07726.3630,W,1,09,0.93,156.2,M,-34.4,M,,*56
lng=-77.439361, lat=43.139305, altitude=156.10, speed=26.08, satellites=9, angle=318.8200, fixquality=1
$GPRMC,135003.800,A,4308.3606,N,07726.3642,W,25.81,322.49,090419,,,A*4E
$GPGGA,135004.000,4308.3618,N,07726.3654,W,1,09,0.93,156.4,M,-34.4,M,,*55
lng=-77.439407, lat=43.139347, altitude=156.20, speed=25.81, satellites=9, angle=322.4900, fixquality=1
$GPRMC,135004.200,A,4308.3630,N,07726.3665,W,25.60,326.12,090419,,,A*46
$GPGGA,135004.400,4308.3642,N,07726.3675,W,1,09,0.93,156.4,M,-34.4,M,,*5D
lng=-77.439445, lat=43.139381, altitude=156.40, speed=25.60, satellites=9, angle=326.1200, fixquality=1
$GPRMC,135004.600,A,4308.3654,N,07726.3686,W,25.41,330.16,090419,,,A*4D
$GPGGA,135004.800,4308.3667,N,07726.3695,W,1,09,0.93,156.5,M,-34.4,M,,*59
lng=-77.439476, lat=43.139419, altitude=156.40, speed=25.41, satellites=9, angle=330.1600, fixquality=1
$GPRMC,135005.000,A,4308.3680,N,07726.3704,W,25.54,335.02,090419,,,A*4C
$GPGGA,135005.200,4308.3693,N,07726.3712,W,1,09,0.93,156.6,M,-34.4,M,,*54
lng=-77.439506, lat=43.139469, altitude=156.50, speed=25.54, satellites=9, angle=335.0200, fixquality=1
$GPRMC,135005.400,A,4308.3706,N,07726.3719,W,25.50,340.02,090419,,,A*4D
$GPGGA,135005.600,4308.3720,N,07726.3725,W,1,09,0.93,156.7,M,-34.4,M,,*5C
lng=-77.439537, lat=43.139511, altitude=156.60, speed=25.50, satellites=9, angle=340.0200, fixquality=1
$GPRMC,135005.800,A,4308.3733,N,07726.3731,W,25.49,343.67,090419,,,A*45
$GPGGA,135006.000,4308.3747,N,07726.3736,W,1,09,0.93,156.7,M,-34.4,M,,*5A
lng=-77.439552, lat=43.139560, altitude=156.70, speed=25.49, satellites=9, angle=343.6700, fixquality=1
$GPRMC,135006.200,A,4308.3761,N,07726.3740,W,25.47,347.63,090419,,,A*43
$GPGGA,135006.400,4308.3774,N,07726.3744,W,1,09,0.93,156.7,M,-34.4,M,,*5B
lng=-77.439567, lat=43.139598, altitude=156.70, speed=25.47, satellites=9, angle=347.6300, fixquality=1
$GPRMC,135006.600,A,4308.3788,N,07726.3748,W,25.86,348.19,090419,,,A*47
$GPGGA,135006.800,4308.3802,N,07726.3752,W,1,09,0.91,156.7,M,-34.4,M,,*5C
lng=-77.439582, lat=43.139648, altitude=156.70, speed=25.86, satellites=9, angle=348.1900, fixquality=1
$GPRMC,135007.000,A,4308.3816,N,07726.3754,W,25.73,351.52,090419,,,A*48
$GPGGA,135007.200,4308.3830,N,07726.3756,W,1,09,0.93,156.8,M,-34.4,M,,*5F
lng=-77.439590, lat=43.139698, altitude=156.70, speed=25.73, satellites=9, angle=351.5200, fixquality=1
$GPRMC,135007.400,A,4308.3845,N,07726.3758,W,25.37,353.85,090419,,,A*4E
$GPGGA,135007.600,4308.3859,N,07726.3758,W,1,09,0.93,156.9,M,-34.4,M,,*5B
lng=-77.439598, lat=43.139736, altitude=156.80, speed=25.37, satellites=9, angle=353.8500, fixquality=1
$GPRMC,135007.800,A,4308.3873,N,07726.3759,W,25.59,357.40,090419,,,A*43
$GPGGA,135008.000,4308.3888,N,07726.3759,W,1,09,0.91,156.9,M,-34.4,M,,*5D
lng=-77.439598, lat=43.139785, altitude=156.90, speed=25.59, satellites=9, angle=357.4000, fixquality=1
$GPRMC,135008.200,A,4308.3902,N,07726.3758,W,25.88,0.28,090419,,,A*43
$GPGGA,135008.400,4308.3917,N,07726.3757,W,1,09,0.93,157.0,M,-34.4,M,,*5A
lng=-77.439598, lat=43.139835, altitude=156.90, speed=25.88, satellites=9, angle=0.2800, fixquality=1
$GPRMC,135008.600,A,4308.3932,N,07726.3755,W,26.09,3.14,090419,,,A*4F
$GPGGA,135008.800,4308.3947,N,07726.3753,W,1,09,0.91,157.1,M,-34.4,M,,*54
lng=-77.439590, lat=43.139884, altitude=157.00, speed=26.09, satellites=9, angle=3.1400, fixquality=1
$GPRMC,135009.000,A,4308.3962,N,07726.3750,W,26.31,6.31,090419,,,A*41
$GPGGA,135009.200,4308.3977,N,07726.3748,W,1,09,0.93,157.2,M,-34.4,M,,*57
lng=-77.439582, lat=43.139934, altitude=157.10, speed=26.31, satellites=9, angle=6.3100, fixquality=1
$GPRMC,135009.400,A,4308.3992,N,07726.3745,W,26.49,7.20,090419,,,A*40
$GPGGA,135009.600,4308.4008,N,07726.3743,W,1,09,0.93,157.3,M,-34.4,M,,*5F
lng=-77.439575, lat=43.139991, altitude=157.20, speed=26.49, satellites=9, angle=7.2000, fixquality=1
$GPRMC,135009.800,A,4308.4023,N,07726.3740,W,27.07,7.90,090419,,,A*4D
$GPGGA,135010.000,4308.4038,N,07726.3737,W,1,09,0.91,157.4,M,-34.4,M,,*54
lng=-77.439567, lat=43.140037, altitude=157.30, speed=27.07, satellites=9, angle=7.9000, fixquality=1
$GPRMC,135010.200,A,4308.4054,N,07726.3734,W,27.35,8.26,090419,,,A*4F
$GPGGA,135010.400,4308.4070,N,07726.3731,W,1,09,0.93,157.5,M,-34.4,M,,*59
lng=-77.439559, lat=43.140087, altitude=157.40, speed=27.35, satellites=9, angle=8.2600, fixquality=1
$GPRMC,135010.600,A,4308.4085,N,07726.3728,W,27.62,8.40,090419,,,A*48
$GPGGA,135010.800,4308.4101,N,07726.3724,W,1,09,0.91,157.6,M,-34.4,M,,*57
lng=-77.439544, lat=43.140144, altitude=157.50, speed=27.62, satellites=9, angle=8.4000, fixquality=1
$GPRMC,135011.000,A,4308.4117,N,07726.3721,W,27.77,8.72,090419,,,A*49
$GPGGA,135011.200,4308.4133,N,07726.3718,W,1,09,0.93,157.7,M,-34.4,M,,*51
lng=-77.439537, lat=43.140193, altitude=157.60, speed=27.77, satellites=9, angle=8.7200, fixquality=1
$GPRMC,135011.400,A,4308.4149,N,07726.3714,W,27.92,8.75,090419,,,A*4C
$GPGGA,135011.600,4308.4165,N,07726.3711,W,1,09,0.93,157.7,M,-34.4,M,,*5F
lng=-77.439529, lat=43.140251, altitude=157.70, speed=27.92, satellites=9, angle=8.7500, fixquality=1
$GPRMC,135011.800,A,4308.4181,N,07726.3708,W,28.36,8.61,090419,,,A*4D
$GPGGA,135012.000,4308.4197,N,07726.3705,W,1,09,0.93,157.9,M,-34.4,M,,*5C
lng=-77.439506, lat=43.140300, altitude=157.70, speed=28.36, satellites=9, angle=8.6100, fixquality=1
$GPRMC,135012.200,A,4308.4213,N,07726.3702,W,28.04,8.11,090419,,,A*40
$GPGGA,135012.400,4308.4228,N,07726.3698,W,1,09,0.93,158.0,M,-34.4,M,,*5C
lng=-77.439498, lat=43.140357, altitude=157.90, speed=28.04, satellites=9, angle=8.1100, fixquality=1
$GPRMC,135012.600,A,4308.4243,N,07726.3695,W,27.56,8.66,090419,,,A*46
$GPGGA,135012.800,4308.4259,N,07726.3692,W,1,09,0.91,158.1,M,-34.4,M,,*5F
lng=-77.439491, lat=43.140403, altitude=158.00, speed=27.56, satellites=9, angle=8.6600, fixquality=1
$GPRMC,135013.000,A,4308.4274,N,07726.3688,W,27.42,8.87,090419,,,A*43
$GPGGA,135013.200,4308.4288,N,07726.3685,W,1,09,0.93,158.1,M,-34.4,M,,*5C
lng=-77.439476, lat=43.140453, altitude=158.10, speed=27.42, satellites=9, angle=8.8700, fixquality=1
$GPRMC,135013.400,A,4308.4303,N,07726.3682,W,27.19,8.50,090419,,,A*48
$GPGGA,135013.600,4308.4318,N,07726.3679,W,1,09,0.93,158.2,M,-34.4,M,,*50
lng=-77.439468, lat=43.140502, altitude=158.10, speed=27.19, satellites=9, angle=8.5000, fixquality=1
$GPRMC,135013.800,A,4308.4332,N,07726.3676,W,26.19,8.68,090419,,,A*47
$GPGGA,135014.000,4308.4347,N,07726.3673,W,1,09,0.91,158.2,M,-34.4,M,,*53
lng=-77.439460, lat=43.140552, altitude=158.20, speed=26.19, satellites=9, angle=8.6800, fixquality=1
$GPRMC,135014.200,A,4308.4361,N,07726.3670,W,25.58,8.71,090419,,,A*44
$GPGGA,135014.400,4308.4375,N,07726.3667,W,1,09,0.93,158.4,M,-34.4,M,,*57
lng=-77.439453, lat=43.140602, altitude=158.20, speed=25.58, satellites=9, angle=8.7100, fixquality=1
$GPRMC,135014.600,A,4308.4388,N,07726.3665,W,24.95,8.41,090419,,,A*40
$GPGGA,135014.800,4308.4402,N,07726.3662,W,1,09,0.94,158.5,M,-34.4,M,,*5F
lng=-77.439445, lat=43.140647, altitude=158.40, speed=24.95, satellites=9, angle=8.4100, fixquality=1
$GPRMC,135015.000,A,4308.4416,N,07726.3659,W,24.41,8.76,090419,,,A*45
$GPGGA,135015.200,4308.4429,N,07726.3656,W,1,09,0.94,158.6,M,-34.4,M,,*59
lng=-77.439430, lat=43.140689, altitude=158.50, speed=24.41, satellites=9, angle=8.7600, fixquality=1
$GPRMC,135015.400,A,4308.4442,N,07726.3653,W,23.70,8.74,090419,,,A*4D
$GPGGA,135015.600,4308.4455,N,07726.3650,W,1,09,0.94,158.5,M,-34.4,M,,*53
lng=-77.439422, lat=43.140739, altitude=158.60, speed=23.70, satellites=9, angle=8.7400, fixquality=1
$GPRMC,135015.800,A,4308.4467,N,07726.3648,W,22.47,8.94,090419,,,A*47
$GPGGA,135016.000,4308.4480,N,07726.3646,W,1,09,0.94,158.6,M,-34.4,M,,*5A
lng=-77.439414, lat=43.140781, altitude=158.50, speed=22.47, satellites=9, angle=8.9400, fixquality=1
$GPRMC,135016.200,A,4308.4492,N,07726.3643,W,20.77,9.02,090419,,,A*40
$GPGGA,135016.400,4308.4503,N,07726.3641,W,1,09,0.94,158.8,M,-34.4,M,,*5D
lng=-77.439407, lat=43.140819, altitude=158.60, speed=20.77, satellites=9, angle=9.0200, fixquality=1
$GPRMC,135016.600,A,4308.4514,N,07726.3639,W,18.63,9.60,090419,,,A*4C
$GPGGA,135016.800,4308.4524,N,07726.3637,W,1,09,0.94,158.9,M,-34.4,M,,*54
lng=-77.439399, lat=43.140853, altitude=158.80, speed=18.63, satellites=9, angle=9.6000, fixquality=1
$GPRMC,135017.000,A,4308.4533,N,07726.3635,W,16.03,9.94,090419,,,A*41
$GPGGA,135017.200,4308.4543,N,07726.3634,W,1,09,0.94,159.0,M,-34.4,M,,*55
lng=-77.439384, lat=43.140884, altitude=158.90, speed=16.03, satellites=9, angle=9.9400, fixquality=1
$GPRMC,135017.400,A,4308.4551,N,07726.3634,W,13.11,10.25,090419,,,A*74
$GPGGA,135017.600,4308.4559,N,07726.3632,W,1,09,0.94,159.0,M,-34.4,M,,*5C
lng=-77.439384, lat=43.140918, altitude=159.00, speed=13.11, satellites=9, angle=10.2500, fixquality=1
$GPRMC,135017.800,A,4308.4566,N,07726.3631,W,10.22,11.39,090419,,,A*76
$GPGGA,135018.000,4308.4572,N,07726.3630,W,1,09,0.94,159.0,M,-34.4,M,,*5E
lng=-77.439384, lat=43.140941, altitude=159.00, speed=10.22, satellites=9, angle=11.3900, fixquality=1
$GPRMC,135018.200,A,4308.4577,N,07726.3629,W,7.49,10.90,090419,,,A*43
$GPGGA,135018.400,4308.4581,N,07726.3628,W,1,09,0.94,159.0,M,-34.4,M,,*5F
lng=-77.439376, lat=43.140956, altitude=159.00, speed=7.49, satellites=9, angle=10.9000, fixquality=1
$GPRMC,135018.600,A,4308.4585,N,07726.3627,W,4.99,9.59,090419,,,A*77
$GPGGA,135018.800,4308.4587,N,07726.3627,W,1,09,0.94,158.8,M,-34.4,M,,*53
lng=-77.439376, lat=43.140975, altitude=159.00, speed=4.99, satellites=9, angle=9.5900, fixquality=1
$GPRMC,135019.001,A,4308.4590,N,07726.3626,W,2.70,9.34,090419,,,A*7E
$GPGGA,135019.201,4308.4591,N,07726.3626,W,1,09,0.94,158.8,M,-34.4,M,,*5F
lng=-77.439376, lat=43.140983, altitude=158.80, speed=2.70, satellites=9, angle=9.3400, fixquality=1
$GPRMC,135019.400,A,4308.4593,N,07726.3625,W,1.65,9.34,090419,,,A*7C
$GPGGA,135019.600,4308.4594,N,07726.3625,W,1,09,0.94,158.8,M,-34.4,M,,*5C
lng=-77.439369, lat=43.140991, altitude=158.80, speed=1.65, satellites=9, angle=9.3400, fixquality=1
$GPRMC,135019.800,A,4308.4596,N,07726.3624,W,1.30,9.34,090419,,,A*74
$GPGGA,135020.000,4308.4597,N,07726.3623,W,1,09,0.94,158.4,M,-34.4,M,,*59
lng=-77.439369, lat=43.140991, altitude=158.80, speed=1.30, satellites=9, angle=9.3400, fixquality=1
$GPRMC,135020.200,A,4308.4598,N,07726.3622,W,2.26,9.34,090419,,,A*78
$GPGGA,135020.400,4308.4600,N,07726.3622,W,1,09,0.94,158.6,M,-34.4,M,,*53
lng=-77.439369, lat=43.140998, altitude=158.40, speed=2.26, satellites=9, angle=9.3400, fixquality=1
$GPRMC,135020.600,A,4308.4602,N,07726.3622,W,4.22,3.89,090419,,,A*72
$GPGGA,135020.800,4308.4604,N,07726.3622,W,1,09,0.94,158.6,M,-34.4,M,,*5B
lng=-77.439369, lat=43.140998, altitude=158.60, speed=4.22, satellites=9, angle=3.8900, fixquality=1
$GPRMC,135021.000,A,4308.4607,N,07726.3623,W,6.05,357.93,090419,,,A*7F
$GPGGA,135021.200,4308.4611,N,07726.3624,W,1,09,0.94,158.7,M,-34.4,M,,*53
lng=-77.439369, lat=43.141014, altitude=158.60, speed=6.05, satellites=9, angle=357.9300, fixquality=1
$GPRMC,135021.400,A,4308.4615,N,07726.3625,W,7.40,355.83,090419,,,A*7D
$GPGGA,135021.600,4308.4619,N,07726.3626,W,1,09,0.94,158.9,M,-34.4,M,,*53
lng=-77.439369, lat=43.141025, altitude=158.70, speed=7.40, satellites=9, angle=355.8300, fixquality=1
$GPRMC,135021.800,A,4308.4623,N,07726.3629,W,8.70,340.58,090419,,,A*76
$GPGGA,135022.000,4308.4628,N,07726.3632,W,1,09,0.94,158.9,M,-34.4,M,,*51
lng=-77.439376, lat=43.141040, altitude=158.90, speed=8.70, satellites=9, angle=340.5800, fixquality=1
$GPRMC,135022.200,A,4308.4633,N,07726.3636,W,9.47,332.70,090419,,,A*7A
$GPGGA,135022.400,4308.4638,N,07726.3640,W,1,09,0.94,159.0,M,-34.4,M,,*59
lng=-77.439399, lat=43.141056, altitude=158.90, speed=9.47, satellites=9, angle=332.7000, fixquality=1
$GPRMC,135022.600,A,4308.4643,N,07726.3646,W,11.20,320.94,090419,,,A*4F
$GPGGA,135022.800,4308.4647,N,07726.3652,W,1,09,0.94,159.0,M,-34.4,M,,*5E
lng=-77.439414, lat=43.141071, altitude=159.00, speed=11.20, satellites=9, angle=320.9400, fixquality=1
$GPRMC,135023.000,A,4308.4651,N,07726.3659,W,12.50,310.23,090419,,,A*4E
$GPGGA,135023.200,4308.4656,N,07726.3666,W,1,09,0.94,158.9,M,-34.4,M,,*5A
lng=-77.439430, lat=43.141090, altitude=159.00, speed=12.50, satellites=9, angle=310.2300, fixquality=1
$GPRMC,135023.400,A,4308.4659,N,07726.3675,W,12.95,303.57,090419,,,A*44
$GPGGA,135023.600,4308.4662,N,07726.3683,W,1,09,0.94,159.0,M,-34.4,M,,*5A
lng=-77.439460, lat=43.141098, altitude=158.90, speed=12.95, satellites=9, angle=303.5700, fixquality=1
$GPRMC,135023.800,A,4308.4665,N,07726.3692,W,13.95,297.43,090419,,,A*46
$GPGGA,135024.000,4308.4668,N,07726.3700,W,1,09,0.94,159.0,M,-34.4,M,,*5B
lng=-77.439483, lat=43.141105, altitude=159.00, speed=13.95, satellites=9, angle=297.4300, fixquality=1
$GPRMC,135024.200,A,4308.4671,N,07726.3708,W,14.12,293.99,090419,,,A*47
$GPGGA,135024.400,4308.4673,N,07726.3716,W,1,09,0.94,159.0,M,-34.4,M,,*52
lng=-77.439506, lat=43.141120, altitude=159.00, speed=14.12, satellites=9, angle=293.9900, fixquality=1
$GPRMC,135024.600,A,4308.4675,N,07726.3725,W,14.57,289.19,090419,,,A*4A
$GPGGA,135024.800,4308.4677,N,07726.3735,W,1,09,0.94,158.9,M,-34.4,M,,*53
lng=-77.439544, lat=43.141120, altitude=159.00, speed=14.57, satellites=9, angle=289.1900, fixquality=1
$GPRMC,135025.000,A,4308.4679,N,07726.3745,W,15.01,286.32,090419,,,A*43
$GPGGA,135025.200,4308.4681,N,07726.3756,W,1,09,0.94,158.7,M,-34.4,M,,*5A
lng=-77.439575, lat=43.141128, altitude=158.90, speed=15.01, satellites=9, angle=286.3200, fixquality=1
$GPRMC,135025.400,A,4308.4681,N,07726.3768,W,15.74,281.79,090419,,,A*45
$GPGGA,135025.600,4308.4683,N,07726.3781,W,1,09,0.94,158.5,M,-34.4,M,,*54
lng=-77.439613, lat=43.141136, altitude=158.70, speed=15.74, satellites=9, angle=281.7900, fixquality=1
$GPRMC,135025.800,A,4308.4684,N,07726.3794,W,16.43,279.59,090419,,,A*4D
$GPGGA,135026.000,4308.4684,N,07726.3807,W,1,09,0.94,158.3,M,-34.4,M,,*51
lng=-77.439659, lat=43.141136, altitude=158.50, speed=16.43, satellites=9, angle=279.5900, fixquality=1
$GPRMC,135026.200,A,4308.4684,N,07726.3821,W,17.44,276.73,090419,,,A*44
$GPGGA,135026.400,4308.4684,N,07726.3836,W,1,09,0.94,158.1,M,-34.4,M,,*55
lng=-77.439704, lat=43.141136, altitude=158.30, speed=17.44, satellites=9, angle=276.7300, fixquality=1
$GPRMC,135026.600,A,4308.4684,N,07726.3851,W,18.84,275.90,090419,,,A*4A
$GPGGA,135026.800,4308.4684,N,07726.3867,W,1,09,0.94,158.0,M,-34.4,M,,*5C
lng=-77.439750, lat=43.141136, altitude=158.10, speed=18.84, satellites=9, angle=275.9000, fixquality=1
$GPRMC,135027.000,A,4308.4684,N,07726.3882,W,19.75,275.27,090419,,,A*40
$GPGGA,135027.200,4308.4684,N,07726.3898,W,1,09,0.94,157.7,M,-34.4,M,,*5F
lng=-77.439804, lat=43.141136, altitude=158.00, speed=19.75, satellites=9, angle=275.2700, fixquality=1
$GPRMC,135027.400,A,4308.4685,N,07726.3914,W,20.44,276.17,090419,,,A*43
$GPGGA,135027.600,4308.4685,N,07726.3930,W,1,08,1.01,157.4,M,-34.4,M,,*56
lng=-77.439857, lat=43.141136, altitude=157.70, speed=20.44, satellites=9, angle=276.1700, fixquality=1
$GPRMC,135027.800,A,4308.4686,N,07726.3945,W,20.94,276.31,090419,,,A*41
$GPGGA,135028.000,4308.4687,N,07726.3962,W,1,09,0.94,157.2,M,-34.4,M,,*50
lng=-77.439910, lat=43.141147, altitude=157.40, speed=20.94, satellites=8, angle=276.3100, fixquality=1
$GPRMC,135028.200,A,4308.4688,N,07726.3978,W,21.88,278.05,090419,,,A*41
$GPGGA,135028.400,4308.4689,N,07726.3995,W,1,09,0.94,156.9,M,-34.4,M,,*58
lng=-77.439964, lat=43.141147, altitude=157.20, speed=21.88, satellites=9, angle=278.0500, fixquality=1
$GPRMC,135028.600,A,4308.4691,N,07726.4013,W,22.99,278.07,090419,,,A*4F
$GPGGA,135028.800,4308.4692,N,07726.4031,W,1,09,0.91,156.7,M,-34.4,M,,*55
lng=-77.440025, lat=43.141155, altitude=156.90, speed=22.99, satellites=9, angle=278.0700, fixquality=1
$GPRMC,135029.000,A,4308.4694,N,07726.4048,W,23.29,277.58,090419,,,A*4C
$GPGGA,135029.200,4308.4695,N,07726.4066,W,1,09,0.94,156.5,M,-34.4,M,,*5C
lng=-77.440078, lat=43.141155, altitude=156.70, speed=23.29, satellites=9, angle=277.5800, fixquality=1
$GPRMC,135029.400,A,4308.4697,N,07726.4083,W,23.23,277.93,090419,,,A*41
$GPGGA,135029.600,4308.4699,N,07726.4100,W,1,09,0.94,156.3,M,-34.4,M,,*53
lng=-77.440139, lat=43.141162, altitude=156.50, speed=23.23, satellites=9, angle=277.9300, fixquality=1
$GPRMC,135029.800,A,4308.4700,N,07726.4117,W,23.12,277.75,090419,,,A*44
$GPGGA,135030.000,4308.4702,N,07726.4134,W,1,09,0.94,156.1,M,-34.4,M,,*5B
lng=-77.440193, lat=43.141170, altitude=156.30, speed=23.12, satellites=9, angle=277.7500, fixquality=1
$GPRMC,135030.200,A,4308.4703,N,07726.4151,W,22.61,276.80,090419,,,A*49
$GPGGA,135030.400,4308.4704,N,07726.4168,W,1,09,0.94,155.9,M,-34.4,M,,*5B
lng=-77.440254, lat=43.141170, altitude=156.10, speed=22.61, satellites=9, angle=276.8000, fixquality=1
$GPRMC,135030.600,A,4308.4705,N,07726.4184,W,21.54,275.56,090419,,,A*4E
$GPGGA,135030.800,4308.4710,N,07726.4203,W,1,09,0.91,155.5,M,-34.4,M,,*55
lng=-77.440307, lat=43.141178, altitude=155.90, speed=21.54, satellites=9, angle=275.5600, fixquality=1
$GPRMC,135031.000,A,4308.4713,N,07726.4221,W,23.91,282.78,090419,,,A*4D
$GPGGA,135031.200,4308.4716,N,07726.4239,W,1,09,0.94,155.4,M,-34.4,M,,*55
lng=-77.440361, lat=43.141185, altitude=155.50, speed=23.91, satellites=9, angle=282.7800, fixquality=1
$GPRMC,135031.400,A,4308.4717,N,07726.4258,W,24.78,280.13,090419,,,A*4C
$GPGGA,135031.600,4308.4719,N,07726.4277,W,1,09,0.94,155.1,M,-34.4,M,,*51
lng=-77.440429, lat=43.141193, altitude=155.40, speed=24.78, satellites=9, angle=280.1300, fixquality=1
$GPRMC,135031.800,A,4308.4722,N,07726.4296,W,25.69,279.87,090419,,,A*4E
$GPGGA,135032.000,4308.4724,N,07726.4315,W,1,09,0.91,155.1,M,-34.4,M,,*5A
lng=-77.440498, lat=43.141201, altitude=155.10, speed=25.69, satellites=9, angle=279.8700, fixquality=1
$GPRMC,135032.200,A,4308.4726,N,07726.4334,W,25.98,280.24,090419,,,A*4B
$GPGGA,135032.400,4308.4728,N,07726.4354,W,1,09,0.94,155.1,M,-34.4,M,,*52
lng=-77.440559, lat=43.141212, altitude=155.10, speed=25.98, satellites=9, angle=280.2400, fixquality=1
$GPRMC,135032.600,A,4308.4731,N,07726.4375,W,27.10,279.82,090419,,,A*44
$GPGGA,135032.800,4308.4733,N,07726.4396,W,1,09,0.91,155.0,M,-34.4,M,,*5E
lng=-77.440628, lat=43.141220, altitude=155.10, speed=27.10, satellites=9, angle=279.8200, fixquality=1
$GPRMC,135033.000,A,4308.4735,N,07726.4417,W,27.28,279.85,090419,,,A*48
$GPGGA,135033.200,4308.4738,N,07726.4438,W,1,09,0.94,155.1,M,-34.4,M,,*59
lng=-77.440696, lat=43.141227, altitude=155.00, speed=27.28, satellites=9, angle=279.8500, fixquality=1
$GPRMC,135033.400,A,4308.4740,N,07726.4459,W,28.03,279.44,090419,,,A*4F
$GPGGA,135033.600,4308.4743,N,07726.4480,W,1,09,0.94,155.2,M,-34.4,M,,*51
lng=-77.440765, lat=43.141235, altitude=155.10, speed=28.03, satellites=9, angle=279.4400, fixquality=1
$GPRMC,135033.800,A,4308.4745,N,07726.4502,W,28.85,279.46,090419,,,A*45
$GPGGA,135034.000,4308.4748,N,07726.4524,W,1,09,0.94,155.3,M,-34.4,M,,*55
lng=-77.440834, lat=43.141242, altitude=155.20, speed=28.85, satellites=9, angle=279.4600, fixquality=1
$GPRMC,135034.200,A,4308.4751,N,07726.4546,W,29.34,283.20,090419,,,A*43
$GPGGA,135034.400,4308.4754,N,07726.4569,W,1,09,0.94,155.5,M,-34.4,M,,*53
lng=-77.440910, lat=43.141250, altitude=155.30, speed=29.34, satellites=9, angle=283.2000, fixquality=1
$GPRMC,135034.600,A,4308.4757,N,07726.4592,W,29.88,281.56,090419,,,A*4C
$GPGGA,135034.800,4308.4761,N,07726.4615,W,1,09,0.94,155.5,M,-34.4,M,,*51
lng=-77.440986, lat=43.141258, altitude=155.50, speed=29.88, satellites=9, angle=281.5600, fixquality=1
$GPRMC,135035.000,A,4308.4763,N,07726.4638,W,30.18,278.53,090419,,,A*4D
$GPGGA,135035.200,4308.4766,N,07726.4662,W,1,09,0.94,155.6,M,-34.4,M,,*5E
lng=-77.441062, lat=43.141269, altitude=155.50, speed=30.18, satellites=9, angle=278.5300, fixquality=1
$GPRMC,135035.400,A,4308.4768,N,07726.4686,W,31.82,277.04,090419,,,A*48
$GPGGA,135035.600,4308.4771,N,07726.4710,W,1,09,0.94,155.8,M,-34.4,M,,*56
lng=-77.441146, lat=43.141277, altitude=155.60, speed=31.82, satellites=9, angle=277.0400, fixquality=1
$GPRMC,135035.800,A,4308.4773,N,07726.4734,W,32.37,276.72,090419,,,A*4B
$GPGGA,135036.000,4308.4775,N,07726.4759,W,1,09,0.94,155.9,M,-34.4,M,,*5B
lng=-77.441230, lat=43.141292, altitude=155.80, speed=32.37, satellites=9, angle=276.7200, fixquality=1
$GPRMC,135036.200,A,4308.4777,N,07726.4784,W,32.95,275.57,090419,,,A*41
$GPGGA,135036.400,4308.4779,N,07726.4810,W,1,09,0.94,156.0,M,-34.4,M,,*5B
lng=-77.441307, lat=43.141292, altitude=155.90, speed=32.95, satellites=9, angle=275.5700, fixquality=1
$GPRMC,135036.600,A,4308.4780,N,07726.4836,W,33.22,276.10,090419,,,A*46
$GPGGA,135036.800,4308.4782,N,07726.4861,W,1,09,0.94,156.0,M,-34.4,M,,*55
lng=-77.441390, lat=43.141300, altitude=156.00, speed=33.22, satellites=9, angle=276.1000, fixquality=1
$GPRMC,135037.000,A,4308.4784,N,07726.4887,W,34.02,275.44,090419,,,A*48
$GPGGA,135037.200,4308.4786,N,07726.4913,W,1,09,0.94,156.1,M,-34.4,M,,*5F
lng=-77.441482, lat=43.141307, altitude=156.00, speed=34.02, satellites=9, angle=275.4400, fixquality=1
$GPRMC,135037.400,A,4308.4788,N,07726.4939,W,34.28,275.33,090419,,,A*4C
$GPGGA,135037.600,4308.4789,N,07726.4965,W,1,09,0.94,156.2,M,-34.4,M,,*56
lng=-77.441566, lat=43.141315, altitude=156.10, speed=34.28, satellites=9, angle=275.3300, fixquality=1
$GPRMC,135037.800,A,4308.4791,N,07726.4991,W,34.64,275.26,090419,,,A*46
$GPGGA,135038.000,4308.4793,N,07726.5018,W,1,09,0.94,156.4,M,-34.4,M,,*50
lng=-77.441650, lat=43.141315, altitude=156.20, speed=34.64, satellites=9, angle=275.2600, fixquality=1
$GPRMC,135038.200,A,4308.4795,N,07726.5045,W,35.23,275.03,090419,,,A*43
$GPGGA,135038.400,4308.4797,N,07726.5072,W,1,09,0.94,156.5,M,-34.4,M,,*5D
lng=-77.441741, lat=43.141323, altitude=156.40, speed=35.23, satellites=9, angle=275.0300, fixquality=1
$GPRMC,135038.600,A,4308.4799,N,07726.5099,W,35.64,275.03,090419,,,A*49
$GPGGA,135038.800,4308.4800,N,07726.5127,W,1,09,0.94,156.4,M,-34.4,M,,*50
lng=-77.441825, lat=43.141334, altitude=156.50, speed=35.64, satellites=9, angle=275.0300, fixquality=1
$GPRMC,135039.000,A,4308.4802,N,07726.5154,W,36.95,274.68,090419,,,A*42
$GPGGA,135039.200,4308.4804,N,07726.5183,W,1,09,0.94,156.5,M,-34.4,M,,*50
lng=-77.441925, lat=43.141334, altitude=156.40, speed=36.95, satellites=9, angle=274.6800, fixquality=1
$GPRMC,135039.400,A,4308.4805,N,07726.5211,W,36.80,274.57,090419,,,A*4B
$GPGGA,135039.600,4308.4807,N,07726.5239,W,1,09,0.94,156.5,M,-34.4,M,,*55
lng=-77.442016, lat=43.141342, altitude=156.50, speed=36.80, satellites=9, angle=274.5700, fixquality=1
$GPRMC,135039.800,A,4308.4808,N,07726.5268,W,37.22,274.10,090419,,,A*4E
$GPGGA,135040.000,4308.4810,N,07726.5297,W,1,09,0.94,156.5,M,-34.4,M,,*5F
lng=-77.442115, lat=43.141349, altitude=156.50, speed=37.22, satellites=9, angle=274.1000, fixquality=1
$GPRMC,135040.200,A,4308.4811,N,07726.5326,W,37.44,273.78,090419,,,A*40
$GPGGA,135040.400,4308.4812,N,07726.5355,W,1,09,0.94,156.5,M,-34.4,M,,*56
lng=-77.442214, lat=43.141349, altitude=156.50, speed=37.44, satellites=9, angle=273.7800, fixquality=1
$GPRMC,135040.600,A,4308.4814,N,07726.5385,W,37.82,273.48,090419,,,A*41
$GPGGA,135040.800,4308.4815,N,07726.5415,W,1,09,0.94,156.5,M,-34.4,M,,*5E
lng=-77.442306, lat=43.141357, altitude=156.50, speed=37.82, satellites=9, angle=273.4800, fixquality=1
$GPRMC,135041.000,A,4308.4816,N,07726.5445,W,39.59,273.17,090419,,,A*4D
$GPGGA,135041.200,4308.4817,N,07726.5476,W,1,09,0.94,156.6,M,-34.4,M,,*51
lng=-77.442405, lat=43.141357, altitude=156.50, speed=39.59, satellites=9, angle=273.1700, fixquality=1
$GPRMC,135041.400,A,4308.4818,N,07726.5506,W,39.34,273.26,090419,,,A*48
$GPGGA,135041.600,4308.4819,N,07726.5537,W,1,09,0.94,156.7,M,-34.4,M,,*5E
lng=-77.442512, lat=43.141365, altitude=156.60, speed=39.34, satellites=9, angle=273.2600, fixquality=1
$GPRMC,135041.800,A,4308.4821,N,07726.5568,W,40.81,273.14,090419,,,A*47
$GPGGA,135042.000,4308.4822,N,07726.5599,W,1,09,0.94,156.7,M,-34.4,M,,*57
