Vers 81
USE_SERIAL_FEEDBACK=true
DEVELOPMENT_MODE=false
USE_RMC_ONLY=false

$GPRMC,131004.000,A,4308.3029,N,07726.2682,W,0.08,98.15,111019,,,A*42
$GPGGA,131004.250,4308.3030,N,07726.2682,W,1,07,1.47,135.7,M,-34.4,M,,*50
$GPRMC,131004.500,A,4308.3030,N,07726.2682,W,0.06,71.62,111019,,,A*46
$GPGGA,131004.750,4308.3030,N,07726.2682,W,1,07,1.47,135.7,M,-34.4,M,,*55
$GPRMC,131005.000,A,4308.3030,N,07726.2682,W,0.05,81.12,111019,,,A*49
$GPGGA,131005.250,4308.3031,N,07726.2682,W,1,07,1.47,135.8,M,-34.4,M,,*5F
$GPRMC,131005.500,A,4308.3030,N,07726.2682,W,0.03,36.11,111019,,,A*45
$GPGGA,131005.750,4308.3031,N,07726.2683,W,1,07,1.47,135.5,M,-34.4,M,,*56
$GPRMC,131006.000,A,4308.3031,N,07726.2683,W,0.04,120.32,111019,,,A*73
$GPGGA,131006.250,4308.3031,N,07726.2683,W,1,07,1.47,135.2,M,-34.4,M,,*57
$GPRMC,131006.500,A,4308.3031,N,07726.2683,W,0.01,127.40,111019,,,A*71
$GPGGA,131006.750,4308.3031,N,07726.2682,W,1,07,1.47,135.4,M,-34.4,M,,*55
$GPRMC,131007.000,A,4308.3030,N,07726.2682,W,0.03,132.31,111019,,,A*75
$GPGGA,131007.250,4308.3030,N,07726.2682,W,1,07,1.47,135.3,M,-34.4,M,,*57
$GPRMC,131007.500,A,4308.3029,N,07726.2682,W,0.02,66.65,111019,,,A*48
$GPGGA,131007.750,4308.3029,N,07726.2682,W,1,07,1.47,135.3,M,-34.4,M,,*5A
$GPRMC,131008.000,A,4308.3028,N,07726.2682,W,0.04,35.88,111019,,,A*40
$GPGGA,131008.250,4308.3028,N,07726.2682,W,1,07,1.47,135.6,M,-34.4,M,,*54
$GPRMC,131008.500,A,4308.3028,N,07726.2682,W,0.05,10.38,111019,,,A*48
$GPGGA,131008.750,4308.3027,N,07726.2682,W,1,07,1.66,135.7,M,-34.4,M,,*5C
$GPRMC,131009.000,A,4308.3026,N,07726.2682,W,0.05,299.63,111019,,,A*7F
$GPGGA,131009.250,4308.3025,N,07726.2682,W,1,07,1.47,136.0,M,-34.4,M,,*5D
$GPRMC,131009.500,A,4308.3024,N,07726.2681,W,0.06,169.96,111019,,,A*7E
$GPGGA,131009.750,4308.3022,N,07726.2681,W,1,07,1.47,136.2,M,-34.4,M,,*5E
$GPRMC,131010.000,A,4308.3021,N,07726.2681,W,0.02,119.26,111019,,,A*7E
$GPGGA,131010.250,4308.3020,N,07726.2681,W,1,07,1.47,136.3,M,-34.4,M,,*50
$GPRMC,131010.500,A,4308.3019,N,07726.2681,W,0.02,55.47,111019,,,A*4E
$GPGGA,131010.750,4308.3018,N,07726.2681,W,1,07,1.47,136.3,M,-34.4,M,,*5E
$GPRMC,131011.000,A,4308.3018,N,07726.2681,W,0.14,348.60,111019,,,A*76
$GPGGA,131011.250,4308.3017,N,07726.2680,W,1,07,1.66,136.7,M,-34.4,M,,*53
$GPRMC,131011.500,A,4308.3017,N,07726.2680,W,0.28,13.85,111019,,,A*44
$GPGGA,131011.750,4308.3016,N,07726.2679,W,1,07,1.66,137.2,M,-34.4,M,,*55
$GPRMC,131012.000,A,4308.3016,N,07726.2678,W,0.18,1.30,111019,,,A*7A
$GPGGA,131012.250,4308.3016,N,07726.2678,W,1,07,1.66,137.7,M,-34.4,M,,*57
$GPRMC,131012.500,A,4308.3015,N,07726.2678,W,0.18,10.74,111019,,,A*4C
$GPGGA,131012.750,4308.3015,N,07726.2677,W,1,07,1.66,138.0,M,-34.4,M,,*56
$GPRMC,131013.000,A,4308.3014,N,07726.2676,W,0.17,26.89,111019,,,A*4F
$GPGGA,131013.250,4308.3013,N,07726.2675,W,1,07,1.47,138.4,M,-34.4,M,,*51
$GPRMC,131013.500,A,4308.3012,N,07726.2675,W,0.14,57.36,111019,,,A*4E
$GPGGA,131013.750,4308.3011,N,07726.2674,W,1,07,1.47,138.6,M,-34.4,M,,*55
$GPRMC,131014.000,A,4308.3010,N,07726.2673,W,0.16,50.13,111019,,,A*4A
$GPGGA,131014.250,4308.3010,N,07726.2673,W,1,07,1.47,138.8,M,-34.4,M,,*5F
$GPRMC,131014.500,A,4308.3009,N,07726.2672,W,0.13,35.74,111019,,,A*41
$GPGGA,131014.750,4308.3009,N,07726.2672,W,1,07,1.47,138.9,M,-34.4,M,,*52
$GPRMC,131015.000,A,4308.3009,N,07726.2672,W,0.10,27.30,111019,,,A*45
$GPGGA,131015.250,4308.3008,N,07726.2671,W,1,07,1.47,138.9,M,-34.4,M,,*54
$GPRMC,131015.500,A,4308.3008,N,07726.2671,W,0.11,6.81,111019,,,A*7A
$GPGGA,131015.750,4308.3008,N,07726.2671,W,1,07,1.66,138.9,M,-34.4,M,,*52
$GPRMC,131016.000,A,4308.3008,N,07726.2671,W,0.10,357.83,111019,,,A*78
$GPGGA,131016.250,4308.3008,N,07726.2670,W,1,07,1.66,139.0,M,-34.4,M,,*5D
$GPRMC,131016.500,A,4308.3008,N,07726.2670,W,0.13,338.51,111019,,,A*79
$GPGGA,131016.750,4308.3008,N,07726.2670,W,1,07,1.47,139.1,M,-34.4,M,,*5A
$GPRMC,131017.000,A,4308.3008,N,07726.2670,W,0.11,333.75,111019,,,A*72
$GPGGA,131017.250,4308.3009,N,07726.2670,W,1,07,1.47,139.1,M,-34.4,M,,*5F
$GPRMC,131017.500,A,4308.3008,N,07726.2670,W,0.14,303.24,111019,,,A*75
$GPGGA,131017.750,4308.3008,N,07726.2670,W,1,07,1.47,139.2,M,-34.4,M,,*58
$GPRMC,131018.000,A,4308.3008,N,07726.2670,W,0.10,278.23,111019,,,A*71
$GPGGA,131018.250,4308.3008,N,07726.2670,W,1,07,1.47,139.2,M,-34.4,M,,*52
$GPRMC,131018.500,A,4308.3009,N,07726.2670,W,0.11,290.11,111019,,,A*73
$GPGGA,131018.750,4308.3009,N,07726.2669,W,1,07,1.47,139.3,M,-34.4,M,,*5F
$GPRMC,131019.000,A,4308.3009,N,07726.2669,W,0.07,330.35,111019,,,A*75
$GPGGA,131019.250,4308.3008,N,07726.2669,W,1,07,1.47,139.4,M,-34.4,M,,*5D
$GPRMC,131019.500,A,4308.3008,N,07726.2669,W,0.16,200.75,111019,,,A*77
$GPGGA,131019.750,4308.3008,N,07726.2669,W,1,07,1.47,139.4,M,-34.4,M,,*58
$GPRMC,131020.000,A,4308.3008,N,07726.2669,W,0.17,203.34,111019,,,A*7F
$GPGGA,131020.250,4308.3007,N,07726.2669,W,1,07,1.47,139.5,M,-34.4,M,,*59
$GPRMC,131020.500,A,4308.3007,N,07726.2669,W,0.21,202.92,111019,,,A*7D
$GPGGA,131020.750,4308.3007,N,07726.2669,W,1,07,1.47,139.6,M,-34.4,M,,*5F
$GPRMC,131021.000,A,4308.3007,N,07726.2669,W,0.29,225.18,111019,,,A*76
$GPGGA,131021.250,4308.3007,N,07726.2669,W,1,07,1.47,139.8,M,-34.4,M,,*55
$GPRMC,131021.500,A,4308.3006,N,07726.2668,W,0.25,213.28,111019,,,A*79
$GPGGA,131021.750,4308.3006,N,07726.2668,W,1,07,1.47,140.0,M,-34.4,M,,*56
$GPRMC,131022.000,A,4308.3006,N,07726.2668,W,0.27,206.24,111019,,,A*75
$GPGGA,131022.250,4308.3005,N,07726.2668,W,1,07,1.47,140.2,M,-34.4,M,,*51
$GPRMC,131022.500,A,4308.3005,N,07726.2668,W,0.29,211.44,111019,,,A*7D
$GPGGA,131022.750,4308.3005,N,07726.2667,W,1,07,1.47,140.4,M,-34.4,M,,*5D
$GPRMC,131023.000,A,4308.3005,N,07726.2667,W,0.26,203.10,111019,,,A*7B
$GPGGA,131023.250,4308.3005,N,07726.2667,W,1,07,1.47,140.5,M,-34.4,M,,*58
$GPRMC,131023.500,A,4308.3005,N,07726.2667,W,0.17,209.90,111019,,,A*7E
$GPGGA,131023.750,4308.3006,N,07726.2667,W,1,07,1.47,140.6,M,-34.4,M,,*5D
$GPRMC,131024.000,A,4308.3005,N,07726.2666,W,0.17,224.65,111019,,,A*78
$GPGGA,131024.250,4308.3006,N,07726.2666,W,1,07,1.47,140.6,M,-34.4,M,,*5E
$GPRMC,131024.500,A,4308.3006,N,07726.2666,W,0.17,247.56,111019,,,A*7B
$GPGGA,131024.750,4308.3006,N,07726.2666,W,1,07,1.47,140.7,M,-34.4,M,,*5A
$GPRMC,131025.000,A,4308.3006,N,07726.2666,W,0.08,246.19,111019,,,A*7B
$GPGGA,131025.250,4308.3006,N,07726.2665,W,1,07,1.47,140.7,M,-34.4,M,,*5D
$GPRMC,131025.500,A,4308.3007,N,07726.2665,W,0.10,314.40,111019,,,A*7F
$GPGGA,131025.750,4308.3007,N,07726.2665,W,1,07,1.47,140.6,M,-34.4,M,,*58
$GPRMC,131026.000,A,4308.3008,N,07726.2664,W,0.08,338.50,111019,,,A*71
$GPGGA,131026.250,4308.3008,N,07726.2664,W,1,07,1.47,140.5,M,-34.4,M,,*53
$GPRMC,131026.500,A,4308.3009,N,07726.2664,W,0.10,351.89,111019,,,A*77
$GPGGA,131026.750,4308.3009,N,07726.2663,W,1,07,1.65,140.6,M,-34.4,M,,*53
$GPRMC,131027.000,A,4308.3009,N,07726.2663,W,0.08,11.77,111019,,,A*4B
$GPGGA,131027.250,4308.3009,N,07726.2663,W,1,07,1.65,140.6,M,-34.4,M,,*57
$GPRMC,131027.500,A,4308.3010,N,07726.2663,W,0.13,11.19,111019,,,A*44
$GPGGA,131027.750,4308.3010,N,07726.2662,W,1,07,1.65,140.6,M,-34.4,M,,*5B
$GPRMC,131028.000,A,4308.3010,N,07726.2662,W,0.17,27.28,111019,,,A*4C
$GPGGA,131028.250,4308.3011,N,07726.2662,W,1,07,1.47,140.6,M,-34.4,M,,*50
$GPRMC,131028.500,A,4308.3011,N,07726.2662,W,0.17,23.94,111019,,,A*4B
$GPGGA,131028.750,4308.3011,N,07726.2662,W,1,07,1.47,140.6,M,-34.4,M,,*55
$GPRMC,131029.000,A,4308.3011,N,07726.2662,W,0.12,10.85,111019,,,A*4A
$GPGGA,131029.250,4308.3010,N,07726.2661,W,1,07,1.65,140.6,M,-34.4,M,,*53
$GPRMC,131029.500,A,4308.3011,N,07726.2661,W,0.16,46.85,111019,,,A*4B
$GPGGA,131029.750,4308.3011,N,07726.2661,W,1,07,1.46,140.6,M,-34.4,M,,*56
$GPRMC,131030.000,A,4308.3011,N,07726.2661,W,0.15,33.53,111019,,,A*4C
$GPGGA,131030.250,4308.3011,N,07726.2661,W,1,07,1.46,140.7,M,-34.4,M,,*5A
$GPRMC,131030.500,A,4308.3011,N,07726.2661,W,0.07,121.07,111019,,,A*79
$GPGGA,131030.750,4308.3010,N,07726.2661,W,1,07,1.46,140.9,M,-34.4,M,,*50
$GPRMC,131031.000,A,4308.3010,N,07726.2661,W,0.06,172.26,111019,,,A*78
$GPGGA,131031.250,4308.3011,N,07726.2661,W,1,07,1.46,141.0,M,-34.4,M,,*5D
$GPRMC,131031.750,A,4308.3011,N,07726.2660,W,0.06,155.95,111019,,,A*77
$GPGGA,131032.000,4308.3011,N,07726.2660,W,1,07,1.46,141.3,M,-34.4,M,,*5B
$GPRMC,131032.500,A,4308.3012,N,07726.2660,W,0.04,20.64,111019,,,A*4F
$GPGGA,131032.750,4308.3013,N,07726.2659,W,1,07,1.46,141.5,M,-38.3013,N,07726.2659,W,0.09,21.45,111019,,,A*4C
$GPGGA,131033.000,4308.3013,N,07726.2659,W,1,07,1.46,141.6,M,-34.4,M,,*57
$GPRMC,131033.000,A,4308.3013,N,07726.2659,W,0.12,8.06,111019,,,A*79
$GPGGA,131033.250,4308.3013,N,07726.2659,W,1,07,1.65,141.7,M,-34.4,M,,*50
$GPRMC,131033.250,A,4308.3013,N,07726.2659,W,0.13,8.18,111019,,,A*70
$GPGGA,131033.500,4308.3014,N,07726.2659,W,1,07,1.65,141.8,M,-34.4,M,,*5A
$GPRMC,131033.500,A,4308.3014,N,07726.2659,W,0.14,349.61,111019$GPGGA,131033.750,4308.3014,N,07726.2659,W,1,07,1.65,141.8,M,-34.4,M,,*5D
$GPRMC,131034.000,A,4308.3014,N,07726.2658,W,0.14,0.23,111019,,,A*71
$GPGGA,131034.250,4308.3014,N,07726.2658,W,1,07,1.65,141.9,M,-34.4,M,,*5F
$GPRMC,131034.500,A,4308.3014,N,07726.2658,W,0.12,65.92,111019,,,A*4B
$GPGGA,131034.750,4308.3014,N,07726.2657,W,1,07,1.47,142.1,M,-34.4,M,,*5E
$GPRMC,131035.000,A,4308.3015,N,07726.2657,W,0.17,49.88,111019,,,A*41
$GPGGA,131035.250,4308.3015,N,07726.2657,W,1,07,1.46,142.2,M,-34.4,M,,*59
$GPRMC,131035.500,A,4308.3014,N,07726.2656,W,0.18,81.63,111019,,,A*4A
$GPGGA,131035.750,4308.3014,N,07726.2656,W,1,07,1.46,142.3,M,-34.4,M,,*5D
$GPRMC,131036.000,A,4308.3014,N,07726.2656,W,0.13,90.47,111019,,,A*41
$GPGGA,131036.250,4308.3014,N,07726.2656,W,1,07,1.46,142.3,M,-34.4,M,,*5B
$GPRMC,131036.500,A,4308.3014,N,07726.2656,W,0.03,56.17,111019,,,A*4A
$GPGGA,131036.750,4308.3015,N,07726.2656,W,1,07,1.46,142.3,M,-34.4,M,,*5F
$GPRMC,131037.000,A,4308.3015,N,07726.2656,W,0.08,290.96,111019,,,A*75
$GPGGA,131037.250,4308.3015,N,07726.2656,W,1,07,1.46,142.3,M,-34.4,M,,*5B
$GPGGA,131038.000,4308.3015,N,07726.2656,W,1,07,1.46,142.3,M,-34.4,M,,*53
$GPRMC,131038.000,A,4308.3015,N,07726.2656,W,0.05,221.57,111019,,,A*70
$GPRMC,131038.500,A,4308.3014,N,07726.2656,W,0.05,240.73,111019,,,A*75
$GPGGA,131038.750,4308.3014,N,07726.2656,W,1,07,1.46,142.3,M,-34.4,M,,*50
$GPRMC,131039.000,A,4308.3014,N,07726.2656,W,0.06,16.31,111019,,,A*45
$GPGGA,131039.250,4308.3015,N,07726.2656,W,1,07,1.46,142.3,M,-34.4,M,,*55
$GPRMC,131039.500,A,4308.3015,N,07726.2656,W,0.14,23.14,111019,,,A*43
$GPGGA,131039.750,4308.3015,N,07726.2656,W,1,07,1.46,142.3,M,-34.4,M,,*50
$GPRMC,131040.000,A,4308.3015,N,07726.2656,W,0.20,27.38,111019,,,A*45
$GPGGA,131040.250,4308.3015,N,07726.2656,W,1,07,1.46,142.3,M,-34.4,M,,*5B
$GPRMC,131040.500,A,4308.3015,N,07726.2656,W,0.12,358.22,111019,,,A*71
$GPGGA,131040.750,4308.3015,N,07726.2656,W,1,07,1.65,142.3,M,-34.4,M,,*5F
$GPRMC,131041.000,A,4308.3015,N,07726.2656,W,0.09,195.33,111019,,,A*7C
$GPGGA,131041.250,4308.3015,N,07726.2656,W,1,07,1.46,142.3,M,-34.4,M,,*5A
$GPRMC,131041.500,A,4308.3015,N,07726.2656,W,0.04,145.22,111019,,,A*79
$GPGGA,131041.750,4308.3015,N,07726.2656,W,1,07,1.46,142.3,M,-34.4,M,,*5F
$GPRMC,131042.000,A,4308.3015,N,07726.2656,W,0.08,36.35,111019,,,A*40
$GPGGA,131042.250,4308.3015,N,07726.2656,W,1,07,1.46,142.3,M,-34.4,M,,*59
$GPRMC,131042.500,A,4308.3015,N,07726.2656,W,0.28,22.70,111019,,,A*43
$GPGGA,131042.750,4308.3015,N,07726.2656,W,1,07,1.46,142.3,M,-34.4,M,,*5C
$GPRMC,131043.000,A,4308.3016,N,07726.2656,W,0.58,20.75,111019,,,A*44
$GPGGA,131043.250,4308.3016,N,07726.2655,W,1,07,1.46,142.3,M,-34.4,M,,*58
$GPRMC,131043.500,A,4308.3017,N,07726.2654,W,0.81,27.47,111019,,,A*40
$GPGGA,131043.750,4308.3019,N,07726.2653,W,1,07,1.46,142.4,M,-34.4,M,,*53
$GPRMC,131044.000,A,4308.3020,N,07726.2653,W,1.01,25.86,111019,,,A*47
$GPGGA,131044.250,4308.3022,N,07726.2653,W,1,07,1.46,142.5,M,-34.4,M,,*58
$GPRMC,131044.500,A,4308.3023,N,07726.2652,W,1.14,23.02,111019,,,A*4E
$GPGGA,131044.750,4308.3024,N,07726.2652,W,1,07,1.46,142.5,M,-34.4,M,,*5A
$GPRMC,131045.000,A,4308.3026,N,07726.2652,W,1.26,20.01,111019,,,A*4E
$GPGGA,131045.250,4308.3027,N,07726.2652,W,1,07,1.65,142.6,M,-34.4,M,,*5F
$GPRMC,131045.500,A,4308.3029,N,07726.2651,W,1.38,16.47,111019,,,A*4F
$GPGGA,131045.750,4308.3032,N,07726.2651,W,1,07,1.65,142.7,M,-34.4,M,,*5C
$GPRMC,131046.000,A,4308.3035,N,07726.2651,W,2.02,1.38,111019,,,A*70
$GPGGA,131046.250,4308.3038,N,07726.2650,W,1,07,1.65,142.8,M,-34.4,M,,*5E
$GPRMC,131046.500,A,4308.3040,N,07726.2650,W,2.83,7.99,111019,,,A*72
$GPGGA,131046.750,4308.3042,N,07726.2650,W,1,07,1.65,142.9,M,-34.4,M,,*57
$GPRMC,131047.000,A,4308.3044,N,07726.2650,W,2.62,2.95,111019,,,A*74
$GPGGA,131047.250,4308.3046,N,07726.2650,W,1,07,1.65,142.9,M,-34.4,M,,*57
$GPRMC,131047.500,A,4308.3049,N,07726.2650,W,3.05,359.92,111019,,,A*76
$GPGGA,131047.750,4308.3051,N,07726.2650,W,1,07,1.65,143.0,M,-34.4,M,,*5C
$GPRMC,131048.000,A,4308.3053,N,07726.2651,W,3.32,359.21,111019,,,A*7A
$GPGGA,131048.250,4308.3055,N,07726.2651,W,1,07,1.65,143.1,M,-34.4,M,,*52
$GPRMC,131048.500,A,4308.3058,N,07726.2651,W,3.10,358.62,111019,,,A*72
$GPGGA,131048.750,4308.3060,N,07726.2651,W,1,07,1.65,143.1,M,-34.4,M,,*51
$GPRMC,131049.000,A,4308.3063,N,07726.2651,W,3.63,359.58,111019,,,A*72
$GPGGA,131049.250,4308.3065,N,07726.2651,W,1,07,1.65,143.1,M,-34.4,M,,*50
$GPRMC,131049.500,A,4308.3068,N,07726.2652,W,3.64,354.69,111019,,,A*77
$GPGGA,131049.750,4308.3070,N,07726.2652,W,1,07,1.65,143.0,M,-34.4,M,,*53
$GPRMC,131050.000,A,4308.3072,N,07726.2652,W,3.51,354.41,111019,,,A*7D
$GPGGA,131050.250,4308.3075,N,07726.2653,W,1,07,1.65,143.0,M,-34.4,M,,*5A
$GPRMC,131050.500,A,4308.3078,N,07726.2653,W,4.17,352.64,111019,,,A*77
$GPGGA,131050.750,4308.3081,N,07726.2654,W,1,07,1.65,142.9,M,-34.4,M,,*5B
$GPRMC,131051.000,A,4308.3084,N,07726.2654,W,4.04,353.99,111019,,,A*76
$GPGGA,131051.250,4308.3086,N,07726.2655,W,1,07,1.65,142.9,M,-34.4,M,,*59
$GPRMC,131051.500,A,4308.3089,N,07726.2655,W,3.84,356.85,111019,,,A*78
$GPGGA,131051.750,4308.3091,N,07726.2655,W,1,07,1.65,143.0,M,-34.4,M,,*52
$GPRMC,131052.000,A,4308.3093,N,07726.2656,W,3.27,356.58,111019,,,A*7F
$GPGGA,131052.250,4308.3094,N,07726.2656,W,1,07,1.65,143.1,M,-34.4,M,,*53
$GPRMC,131052.500,A,4308.3095,N,07726.2655,W,2.31,4.84,111019,,,A*7C
$GPGGA,131052.750,4308.3095,N,07726.2656,W,1,07,1.65,143.1,M,-34.4,M,,*57
$GPRMC,131053.000,A,4308.3096,N,07726.2655,W,1.54,4.70,111019,,,A*70
$GPGGA,131053.250,4308.3097,N,07726.2655,W,1,07,1.65,143.2,M,-34.4,M,,*51
$GPRMC,131053.500,A,4308.3098,N,07726.2655,W,1.37,357.71,111019,,,A*7A
$GPGGA,131053.750,4308.3099,N,07726.2654,W,1,07,1.65,143.3,M,-34.4,M,,*5A
$GPRMC,131054.000,A,4308.3101,N,07726.2654,W,1.83,359.93,111019,,,A*75
$GPGGA,131054.250,4308.3102,N,07726.2654,W,1,07,1.65,143.3,M,-34.4,M,,*5B
$GPRMC,131054.500,A,4308.3104,N,07726.2654,W,2.06,359.36,111019,,,A*74
$GPGGA,131054.750,4308.3106,N,07726.2654,W,1,07,1.65,143.4,M,-34.4,M,,*5D
$GPRMC,131055.000,A,4308.3107,N,07726.2654,W,2.38,7.59,111019,,,A*7F
$GPGGA,131055.250,4308.3109,N,07726.2654,W,1,07,1.65,143.5,M,-34.4,M,,*57
$GPRMC,131055.500,A,4308.3110,N,07726.2654,W,2.17,356.46,111019,,,A*78
$GPGGA,131055.750,4308.3111,N,07726.2654,W,1,07,1.65,143.6,M,-34.4,M,,*58
$GPRMC,131056.000,A,4308.3111,N,07726.2654,W,1.60,0.43,111019,,,A*79
$GPGGA,131056.250,4308.3112,N,07726.2654,W,1,07,1.65,143.6,M,-34.4,M,,*5D
$GPRMC,131056.500,A,4308.3112,N,07726.2655,W,1.04,5.45,111019,,,A*7F
$GPGGA,131056.750,4308.3111,N,07726.2655,W,1,07,1.65,143.7,M,-34.4,M,,*5B
$GPRMC,131057.000,A,4308.3111,N,07726.2655,W,0.52,357.30,111019,,,A*7C
$GPGGA,131057.250,4308.3112,N,07726.2655,W,1,07,1.65,143.8,M,-34.4,M,,*53
$GPRMC,131057.500,A,4308.3111,N,07726.2655,W,0.44,10.75,111019,,,A*4F
$GPGGA,131057.750,4308.3112,N,07726.2655,W,1,07,1.64,143.8,M,-34.4,M,,*57
$GPRMC,131058.000,A,4308.3112,N,07726.2655,W,0.55,10.76,111019,,,A*45
$GPGGA,131058.250,4308.3113,N,07726.2655,W,1,07,1.65,143.8,M,-34.4,M,,*5D
$GPRMC,131058.500,A,4308.3115,N,07726.2654,W,0.87,12.90,111019,,,A*43
$GPGGA,131058.750,4308.3116,N,07726.2654,W,1,07,1.64,144.3,M,-34.4,M,,*51
$GPRMC,131059.000,A,4308.3119,N,07726.2654,W,1.40,8.30,111019,,,A*70
$GPGGA,131059.250,4308.3120,N,07726.2653,W,1,07,1.65,144.4,M,-34.4,M,,*51
$GPRMC,131059.500,A,4308.3121,N,07726.2653,W,1.53,12.91,111019,,,A*4B
$GPGGA,131059.750,4308.3122,N,07726.2652,W,1,07,1.64,144.5,M,-34.4,M,,*57
$GPRMC,131100.000,A,4308.3123,N,07726.2651,W,1.72,21.46,111019,,,A*4A
$GPGGA,131100.250,4308.3125,N,07726.2649,W,1,07,1.46,144.7,M,-34.4,M,,*50
$GPRMC,131100.500,A,4308.3126,N,07726.2648,W,2.13,34.02,111019,,,A*42
$GPGGA,131100.750,4308.3127,N,07726.2646,W,1,07,1.46,144.8,M,-34.4,M,,*57
$GPRMC,131101.000,A,4308.3128,N,07726.2645,W,2.44,53.63,111019,,,A*41
$GPGGA,131101.250,4308.3129,N,07726.2643,W,1,07,1.46,144.9,M,-34.4,M,,*59
$GPRMC,131101.500,A,4308.3129,N,07726.2641,W,2.26,56.11,111019,,,A*45
$GPGGA,131101.750,4308.3130,N,07726.2640,W,1,07,1.46,144.9,M,-34.4,M,,*57
$GPRMC,131102.000,A,4308.3131,N,07726.2638,W,1.98,52.27,111019,,,A*43
$GPGGA,131102.250,4308.3132,N,07726.2637,W,1,07,1.46,145.0,M,-34.4,M,,*5B
$GPRMC,131102.500,A,4308.3132,N,07726.2637,W,1.58,39.01,111019,,,A*4F
$GPGGA,131102.750,4308.3132,N,07726.2636,W,1,07,1.46,145.1,M,-34.4,M,,*5E
$GPRMC,131103.000,A,4308.3133,N,07726.2637,W,0.70,20.85,111019,,,A*45
$GPGGA,131103.250,4308.3132,N,07726.2638,W,1,07,1.46,145.4,M,-34.4,M,,*51
$GPRMC,131103.500,A,4308.3132,N,07726.2639,W,0.45,277.57,111019,,,A*76
$GPGGA,131103.750,4308.3131,N,07726.2641,W,1,07,1.46,145.4,M,-34.4,M,,*59
$GPRMC,131104.000,A,4308.3131,N,07726.2643,W,1.02,265.80,111019,,,A*71
$GPGGA,131104.250,4308.3131,N,07726.2646,W,1,07,1.46,145.6,M,-34.4,M,,*5E
$GPRMC,131104.500,A,4308.3130,N,07726.2650,W,1.95,261.95,111019,,,A*79
$GPGGA,131104.750,4308.3130,N,07726.2654,W,1,07,1.46,145.9,M,-34.4,M,,*56
$GPRMC,131105.000,A,4308.3130,N,07726.2659,W,4.40,264.10,111019,,,A*71
$GPGGA,131105.250,4308.3130,N,07726.2664,W,1,07,1.64,146.1,M,-34.4,M,,*5A
$GPRMC,131105.500,A,4308.3130,N,07726.2671,W,5.89,271.27,111019,,,A*7A
$GPGGA,131105.750,4308.3131,N,07726.2677,W,1,07,1.64,146.2,M,-34.4,M,,*5F
$GPRMC,131106.000,A,4308.3131,N,07726.2684,W,6.92,276.47,111019,,,A*7F
$GPGGA,131106.250,4308.3133,N,07726.2691,W,1,07,1.64,146.3,M,-34.4,M,,*52
$GPRMC,131106.500,A,4308.3134,N,07726.2699,W,8.27,279.51,111019,,,A*7B
$GPGGA,131106.750,4308.3135,N,07726.2708,W,1,07,1.64,146.4,M,-34.4,M,,*57
$GPRMC,131107.000,A,4308.3137,N,07726.2716,W,9.16,281.81,111019,,,A*73
$GPGGA,131107.250,4308.3139,N,07726.2726,W,1,07,1.64,146.4,M,-34.4,M,,*53
$GPRMC,131107.500,A,4308.3141,N,07726.2736,W,10.56,282.98,111019,,,A*42
$GPGGA,131107.750,4308.3143,N,07726.2746,W,1,07,1.64,146.4,M,-34.4,M,,*5D
$GPRMC,131108.000,A,4308.3145,N,07726.2757,W,11.40,282.19,111019,,,A*44
$GPGGA,131108.250,4308.3147,N,07726.2768,W,1,07,1.64,146.4,M,-34.4,M,,*5F
$GPRMC,131108.500,A,4308.3148,N,07726.2779,W,12.47,280.62,111019,,,A*4A
$GPGGA,131108.750,4308.3150,N,07726.2792,W,1,07,1.64,146.4,M,-34.4,M,,*59
$GPRMC,131109.000,A,4308.3152,N,07726.2804,W,13.20,281.55,111019,,,A*45
$GPGGA,131109.250,4308.3155,N,07726.2817,W,1,07,1.64,146.4,M,-34.4,M,,*5A
$GPRMC,131109.500,A,4308.3158,N,07726.2830,W,14.01,283.80,111019,,,A*43
$GPGGA,131109.750,4308.3161,N,07726.2843,W,1,07,1.64,146.4,M,-34.4,M,,*59
$GPRMC,131110.000,A,4308.3164,N,07726.2857,W,14.66,285.89,111019,,,A*4E
$GPGGA,131110.250,4308.3168,N,07726.2871,W,1,07,1.64,146.4,M,-34.4,M,,*5C
$GPRMC,131110.500,A,4308.3172,N,07726.2885,W,15.54,288.75,111019,,,A*4D
$GPGGA,131110.750,4308.3177,N,07726.2899,W,1,07,1.64,146.4,M,-34.4,M,,*51
$GPRMC,131111.000,A,4308.3181,N,07726.2913,W,16.16,290.56,111019,,,A*46
$GPGGA,131111.250,4308.3186,N,07726.2928,W,1,07,1.64,146.3,M,-34.4,M,,*57
$GPRMC,131111.500,A,4308.3192,N,07726.2942,W,16.80,291.85,111019,,,A*45
$GPGGA,131111.750,4308.3197,N,07726.2957,W,1,07,1.64,146.3,M,-34.4,M,,*5A
$GPRMC,131112.000,A,4308.3202,N,07726.2972,W,17.25,293.34,111019,,,A*4C
$GPGGA,131112.250,4308.3208,N,07726.2987,W,1,07,1.64,146.2,M,-34.4,M,,*55
$GPRMC,131112.500,A,4308.3214,N,07726.3002,W,17.63,295.56,111019,,,A*41
$GPGGA,131112.750,4308.3220,N,07726.3017,W,1,07,1.64,146.1,M,-34.4,M,,*58
$GPRMC,131113.000,A,4308.3226,N,07726.3032,W,18.13,297.37,111019,,,A*4A
$GPGGA,131113.250,4308.3233,N,07726.3048,W,1,07,1.64,146.2,M,-34.4,M,,*57
$GPRMC,131113.500,A,4308.3240,N,07726.3063,W,18.76,298.62,111019,,,A*47
$GPGGA,131113.750,4308.3247,N,07726.3079,W,1,07,1.64,146.2,M,-34.4,M,,*53
$GPRMC,131114.000,A,4308.3255,N,07726.3095,W,19.15,300.90,111019,,,A*41
$GPGGA,131114.250,4308.3263,N,07726.3110,W,1,07,1.64,146.1,M,-34.4,M,,*5A
$GPRMC,131114.500,A,4308.3270,N,07726.3126,W,19.58,302.16,111019,,,A*4F
$GPGGA,131114.750,4308.3278,N,07726.3142,W,1,07,1.64,146.1,M,-34.4,M,,*52
$GPRMC,131115.000,A,4308.3286,N,07726.3158,W,19.68,302.85,111019,,,A*42
$GPGGA,131115.250,4308.3294,N,07726.3173,W,1,07,1.64,146.0,M,-34.4,M,,*57
$GPRMC,131115.500,A,4308.3302,N,07726.3189,W,20.01,303.58,111019,,,A*42
$GPGGA,131115.750,4308.3310,N,07726.3205,W,1,07,1.64,146.0,M,-34.4,M,,*5D
$GPRMC,131116.000,A,4308.3318,N,07726.3222,W,20.19,303.01,111019,,,A*48
$GPGGA,131116.250,4308.3326,N,07726.3238,W,1,07,1.64,145.9,M,-34.4,M,,*5A
$GPRMC,131116.500,A,4308.3334,N,07726.3255,W,20.47,302.37,111019,,,A*4C
$GPGGA,131116.750,4308.3341,N,07726.3272,W,1,07,1.64,145.9,M,-34.4,M,,*50
$GPRMC,131117.000,A,4308.3349,N,07726.3289,W,20.59,302.19,111019,,,A*40
$GPGGA,131117.250,4308.3357,N,07726.3306,W,1,07,1.64,145.9,M,-34.4,M,,*51
$GPRMC,131117.500,A,4308.3364,N,07726.3323,W,20.91,302.30,111019,,,A*44
$GPGGA,131117.750,4308.3372,N,07726.3340,W,1,07,1.64,145.9,M,-34.4,M,,*51
$GPRMC,131118.000,A,4308.3379,N,07726.3358,W,20.92,301.95,111019,,,A*41
$GPGGA,131118.250,4308.3387,N,07726.3375,W,1,07,1.45,145.9,M,-34.4,M,,*54
$GPRMC,131118.500,A,4308.3395,N,07726.3392,W,21.18,301.86,111019,,,A*41
$GPGGA,131118.750,4308.3403,N,07726.3410,W,1,07,1.64,145.9,M,-34.4,M,,*5D
$GPRMC,131119.000,A,4308.3411,N,07726.3428,W,21.42,301.74,111019,,,A*4A
$GPGGA,131119.250,4308.3419,N,07726.3446,W,1,07,1.45,145.8,M,-34.4,M,,*53
$GPRMC,131119.500,A,4308.3428,N,07726.3463,W,21.62,302.49,111019,,,A*45
$GPGGA,131119.750,4308.3436,N,07726.3481,W,1,07,1.64,145.7,M,-34.4,M,,*5C
$GPRMC,131120.000,A,4308.3445,N,07726.3498,W,21.85,304.22,111019,,,A*47
$GPGGA,131120.250,4308.3455,N,07726.3515,W,1,07,1.64,145.6,M,-34.4,M,,*5B
$GPRMC,131120.500,A,4308.3464,N,07726.3533,W,22.10,305.34,111019,,,A*48
$GPGGA,131120.750,4308.3473,N,07726.3550,W,1,07,1.64,145.6,M,-34.4,M,,*5B
$GPRMC,131121.000,A,4308.3482,N,07726.3568,W,22.22,305.54,111019,,,A*4D
$GPGGA,131121.250,4308.3491,N,07726.3585,W,1,07,1.64,145.7,M,-34.4,M,,*5A
$GPRMC,131121.500,A,4308.3500,N,07726.3602,W,22.34,306.19,111019,,,A*41
$GPGGA,131121.750,4308.3510,N,07726.3619,W,1,07,1.64,145.7,M,-34.4,M,,*51
$GPRMC,131122.000,A,4308.3520,N,07726.3635,W,22.40,308.51,111019,,,A*40
$GPGGA,131122.250,4308.3532,N,07726.3651,W,1,07,1.64,145.8,M,-34.4,M,,*54
$GPRMC,131122.500,A,4308.3544,N,07726.3665,W,22.40,312.90,111019,,,A*44
$GPGGA,131122.750,4308.3557,N,07726.3680,W,1,07,1.64,145.7,M,-34.4,M,,*51
$GPRMC,131123.000,A,4308.3570,N,07726.3694,W,22.44,316.96,111019,,,A*4F
$GPGGA,131123.250,4308.3582,N,07726.3707,W,1,07,1.64,145.7,M,-34.4,M,,*53
$GPRMC,131123.500,A,4308.3594,N,07726.3721,W,22.48,319.60,111019,,,A*45
$GPGGA,131123.750,4308.3607,N,07726.3734,W,1,07,1.64,145.9,M,-34.4,M,,*56
$GPRMC,131124.000,A,4308.3620,N,07726.3746,W,22.53,322.60,111019,,,A*48
$GPGGA,131124.250,4308.3634,N,07726.3757,W,1,07,1.45,146.1,M,-34.4,M,,*59
$GPRMC,131124.500,A,4308.3650,N,07726.3767,W,22.80,329.07,111019,,,A*4D
$GPGGA,131124.750,4308.3665,N,07726.3776,W,1,07,1.64,146.3,M,-34.4,M,,*5A
$GPRMC,131125.000,A,4308.3680,N,07726.3784,W,22.88,334.37,111019,,,A*4E
$GPGGA,131125.250,4308.3697,N,07726.3791,W,1,06,1.56,146.6,M,-34.4,M,,*5F
$GPRMC,131125.500,A,4308.3713,N,07726.3798,W,23.69,339.95,111019,,,A*46
$GPGGA,131125.750,4308.3729,N,07726.3805,W,1,06,1.75,146.9,M,-34.4,M,,*52
$GPRMC,131126.000,A,4308.3744,N,07726.3812,W,23.57,342.41,111019,,,A*47
$GPGGA,131126.250,4308.3761,N,07726.3817,W,1,07,1.64,147.1,M,-34.4,M,,*53
$GPRMC,131126.500,A,4308.3777,N,07726.3822,W,23.54,346.31,111019,,,A*41
$GPGGA,131126.750,4308.3793,N,07726.3826,W,1,07,1.64,147.3,M,-34.4,M,,*5B
$GPRMC,131127.000,A,4308.3809,N,07726.3829,W,23.23,349.50,111019,,,A*40
$GPGGA,131127.250,4308.3825,N,07726.3832,W,1,07,1.64,147.5,M,-34.4,M,,*5E
$GPRMC,131127.500,A,4308.3841,N,07726.3834,W,23.19,351.49,111019,,,A*4D
$GPGGA,131127.750,4308.3857,N,07726.3835,W,1,07,1.64,147.8,M,-34.4,M,,*54
$GPRMC,131128.000,A,4308.3872,N,07726.3836,W,22.84,355.25,111019,,,A*4E
$GPGGA,131128.250,4308.3888,N,07726.3835,W,1,07,1.64,148.1,M,-34.4,M,,*5A
$GPRMC,131128.500,A,4308.3905,N,07726.3832,W,22.58,0.82,111019,,,A*41
$GPGGA,131128.750,4308.3922,N,07726.3829,W,1,07,1.64,148.5,M,-34.4,M,,*57
$GPRMC,131129.000,A,4308.3938,N,07726.3827,W,22.83,3.75,111019,,,A*42
$GPGGA,131129.250,4308.3954,N,07726.3824,W,1,07,1.64,148.8,M,-34.4,M,,*52
$GPRMC,131129.500,A,4308.3970,N,07726.3821,W,22.83,6.26,111019,,,A*4E
$GPGGA,131129.750,4308.3986,N,07726.3817,W,1,07,1.64,149.0,M,-34.4,M,,*51
$GPRMC,131130.000,A,4308.4002,N,07726.3813,W,22.84,8.39,111019,,,A*4E
$GPGGA,131130.250,4308.4018,N,07726.3808,W,1,07,1.64,149.3,M,-34.4,M,,*58
$GPRMC,131130.500,A,4308.4034,N,07726.3804,W,22.91,9.79,111019,,,A*49
$GPGGA,131130.750,4308.4051,N,07726.3799,W,1,07,1.64,149.6,M,-34.4,M,,*52
$GPRMC,131131.000,A,4308.4067,N,07726.3794,W,23.00,10.19,111019,,,A*7A
$GPGGA,131131.250,4308.4083,N,07726.3789,W,1,07,1.64,149.9,M,-34.4,M,,*57
$GPRMC,131131.500,A,4308.4099,N,07726.3784,W,23.12,10.51,111019,,,A*70
$GPGGA,131131.750,4308.4116,N,07726.3779,W,1,07,1.64,150.1,M,-34.4,M,,*50
$GPRMC,131132.000,A,4308.4132,N,07726.3775,W,23.22,10.35,111019,,,A*79
$GPGGA,131132.250,4308.4149,N,07726.3770,W,1,07,1.64,150.4,M,-34.4,M,,*50
$GPRMC,131132.500,A,4308.4165,N,07726.3765,W,23.34,10.34,111019,,,A*79
$GPGGA,131132.750,4308.4181,N,07726.3761,W,1,07,1.64,150.6,M,-34.4,M,,*53
$GPRMC,131133.000,A,4308.4197,N,07726.3756,W,23.41,10.09,111019,,,A*7C
$GPGGA,131133.250,4308.4213,N,07726.3751,W,1,07,1.64,150.8,M,-34.4,M,,*52
$GPRMC,131133.500,A,4308.4229,N,07726.3747,W,23.23,10.07,111019,,,A*75
$GPGGA,131133.750,4308.4243,N,07726.3743,W,1,07,1.64,151.0,M,-34.4,M,,*58
$GPRMC,131134.000,A,4308.4259,N,07726.3738,W,22.85,9.84,111019,,,A*46
$GPGGA,131134.250,4308.4274,N,07726.3734,W,1,07,1.64,151.2,M,-34.4,M,,*5C
$GPRMC,131134.500,A,4308.4290,N,07726.3730,W,22.48,9.53,111019,,,A*45
$GPGGA,131134.750,4308.4304,N,07726.3726,W,1,07,1.64,151.4,M,-34.4,M,,*5A
$GPRMC,131135.000,A,4308.4320,N,07726.3722,W,22.15,9.46,111019,,,A*44
$GPGGA,131135.250,4308.4334,N,07726.3718,W,1,07,1.63,151.6,M,-34.4,M,,*55
$GPRMC,131135.500,A,4308.4348,N,07726.3714,W,21.56,9.86,111019,,,A*42
$GPGGA,131135.750,4308.4360,N,07726.3709,W,1,07,1.63,151.9,M,-34.4,M,,*5E
$GPRMC,131136.000,A,4308.4373,N,07726.3705,W,20.61,10.89,111019,,,A*7E
$GPGGA,131136.250,4308.4386,N,07726.3701,W,1,07,1.64,152.1,M,-34.4,M,,*54
$GPRMC,131136.500,A,4308.4398,N,07726.3697,W,19.86,10.82,111019,,,A*7C
$GPGGA,131136.750,4308.4411,N,07726.3693,W,1,07,1.63,152.3,M,-34.4,M,,*57
$GPRMC,131137.000,A,4308.4424,N,07726.3689,W,19.44,10.58,111019,,,A*7E
$GPGGA,131137.250,4308.4437,N,07726.3685,W,1,07,1.63,152.5,M,-34.4,M,,*56
$GPRMC,131137.500,A,4308.4450,N,07726.3681,W,18.40,9.56,111019,,,A*43
$GPGGA,131137.750,4308.4461,N,07726.3678,W,1,07,1.64,152.7,M,-34.4,M,,*57
$GPRMC,131138.000,A,4308.4473,N,07726.3674,W,17.24,9.80,111019,,,A*44
$GPGGA,131138.250,4308.4482,N,07726.3670,W,1,07,1.64,152.9,M,-34.4,M,,*56
$GPRMC,131138.500,A,4308.4491,N,07726.3668,W,14.63,8.65,111019,,,A*4A
$GPGGA,131138.750,4308.4499,N,07726.3665,W,1,07,1.63,153.0,M,-34.4,M,,*52
$GPRMC,131139.000,A,4308.4507,N,07726.3662,W,12.71,7.60,111019,,,A*45
$GPGGA,131139.250,4308.4514,N,07726.3660,W,1,07,1.63,153.2,M,-34.4,M,,*55
$GPRMC,131139.500,A,4308.4519,N,07726.3659,W,9.63,4.73,111019,,,A*7F
$GPGGA,131139.750,4308.4523,N,07726.3658,W,1,07,1.63,153.2,M,-34.4,M,,*5F
$GPRMC,131140.000,A,4308.4527,N,07726.3656,W,7.36,6.99,111019,,,A*7E
$GPGGA,131140.250,4308.4531,N,07726.3655,W,1,07,1.63,152.9,M,-34.4,M,,*50
$GPRMC,131140.500,A,4308.4533,N,07726.3654,W,4.90,7.35,111019,,,A*74
$GPGGA,131140.750,4308.4534,N,07726.3653,W,1,07,1.63,152.3,M,-34.4,M,,*5C
$GPRMC,131141.000,A,4308.4537,N,07726.3653,W,2.98,5.84,111019,,,A*75
$GPGGA,131141.250,4308.4539,N,07726.3653,W,1,07,1.63,152.1,M,-34.4,M,,*57
$GPRMC,131141.500,A,4308.4543,N,07726.3652,W,2.37,5.84,111019,,,A*77
$GPGGA,131141.750,4308.4547,N,07726.3652,W,1,07,1.63,151.3,M,-34.4,M,,*5B
$GPRMC,131142.000,A,4308.4551,N,07726.3651,W,3.10,12.73,111019,,,A*4B
$GPGGA,131142.250,4308.4554,N,07726.3651,W,1,07,1.63,150.9,M,-34.4,M,,*57
$GPRMC,131142.500,A,4308.4557,N,07726.3651,W,4.69,3.45,111019,,,A*74
$GPGGA,131142.750,4308.4562,N,07726.3651,W,1,07,1.63,151.0,M,-34.4,M,,*5F
$GPRMC,131143.000,A,4308.4567,N,07726.3651,W,6.00,356.87,111019,,,A*73
$GPGGA,131143.250,4308.4573,N,07726.3653,W,1,07,1.63,150.7,M,-34.4,M,,*5F
$GPRMC,131143.500,A,4308.4578,N,07726.3654,W,7.26,345.57,111019,,,A*77
$GPGGA,131143.750,4308.4584,N,07726.3657,W,1,07,1.63,150.6,M,-34.4,M,,*57
$GPRMC,131144.000,A,4308.4589,N,07726.3661,W,9.11,333.44,111019,,,A*74
$GPGGA,131144.250,4308.4593,N,07726.3667,W,1,07,1.63,150.7,M,-34.4,M,,*51
$GPRMC,131144.500,A,4308.4598,N,07726.3673,W,10.89,319.06,111019,,,A*45
$GPGGA,131144.750,4308.4603,N,07726.3680,W,1,07,1.63,150.8,M,-34.4,M,,*58
$GPRMC,131145.000,A,4308.4607,N,07726.3688,W,11.95,311.66,111019,,,A*42
$GPGGA,131145.250,4308.4611,N,07726.3698,W,1,07,1.63,150.4,M,-34.4,M,,*5A
$GPRMC,131145.500,A,4308.4615,N,07726.3708,W,13.06,302.15,111019,,,A*43
$GPGGA,131145.750,4308.4619,N,07726.3719,W,1,07,1.63,150.1,M,-34.4,M,,*5A
$GPRMC,131146.000,A,4308.4623,N,07726.3731,W,13.85,296.52,111019,,,A*4E
$GPGGA,131146.250,4308.4626,N,07726.3743,W,1,07,1.63,150.0,M,-34.4,M,,*5E
$GPRMC,131146.500,A,4308.4628,N,07726.3756,W,14.39,289.74,111019,,,A*4B
$GPGGA,131146.750,4308.4630,N,07726.3770,W,1,07,1.63,149.4,M,-34.4,M,,*50
$GPRMC,131147.000,A,4308.4632,N,07726.3783,W,14.36,284.24,111019,,,A*4B
$GPGGA,131147.250,4308.4633,N,07726.3796,W,1,07,1.63,149.2,M,-34.4,M,,*59
$GPRMC,131147.500,A,4308.4634,N,07726.3810,W,14.26,280.95,111019,,,A*42
$GPGGA,131147.750,4308.4635,N,07726.3823,W,1,07,1.63,148.9,M,-34.4,M,,*51
$GPRMC,131148.000,A,4308.4637,N,07726.3836,W,14.19,279.10,111019,,,A*48
$GPGGA,131148.250,4308.4637,N,07726.3850,W,1,07,1.63,148.9,M,-34.4,M,,*5D
$GPRMC,131148.500,A,4308.4638,N,07726.3863,W,13.90,276.79,111019,,,A*44
$GPGGA,131148.750,4308.4639,N,07726.3876,W,1,07,1.63,148.7,M,-34.4,M,,*5C
$GPRMC,131149.000,A,4308.4640,N,07726.3889,W,13.75,275.70,111019,,,A*4A
$GPGGA,131149.250,4308.4641,N,07726.3902,W,1,07,1.63,148.7,M,-34.4,M,,*55
$GPRMC,131149.500,A,4308.4642,N,07726.3914,W,13.75,276.64,111019,,,A*4E
$GPGGA,131149.750,4308.4643,N,07726.3927,W,1,07,1.63,148.7,M,-34.4,M,,*55
$GPRMC,131150.000,A,4308.4644,N,07726.3940,W,13.71,277.94,111019,,,A*4E
$GPGGA,131150.250,4308.4645,N,07726.3953,W,1,07,1.63,148.7,M,-34.4,M,,*5D
$GPRMC,131150.500,A,4308.4647,N,07726.3966,W,13.74,278.59,111019,,,A*47
$GPGGA,131150.750,4308.4648,N,07726.3979,W,1,07,1.63,148.8,M,-34.4,M,,*52
$GPRMC,131151.000,A,4308.4649,N,07726.3992,W,13.75,278.99,111019,,,A*4B
$GPGGA,131151.250,4308.4650,N,07726.4005,W,1,07,1.63,148.7,M,-34.4,M,,*55
$GPRMC,131151.500,A,4308.4652,N,07726.4018,W,13.72,278.59,111019,,,A*43
$GPGGA,131151.750,4308.4653,N,07726.4031,W,1,07,1.63,148.4,M,-34.4,M,,*57
$GPRMC,131152.000,A,4308.4654,N,07726.4044,W,13.73,277.99,111019,,,A*48
$GPGGA,131152.250,4308.4656,N,07726.4056,W,1,07,1.63,148.5,M,-34.4,M,,*54
$GPRMC,131152.500,A,4308.4657,N,07726.4069,W,13.70,277.63,111019,,,A*47
$GPGGA,131152.750,4308.4658,N,07726.4082,W,1,07,1.63,148.6,M,-34.4,M,,*55
$GPRMC,131153.000,A,4308.4659,N,07726.4094,W,13.49,275.45,111019,,,A*43
$GPGGA,131153.250,4308.4661,N,07726.4107,W,1,07,1.63,148.7,M,-34.4,M,,*56
$GPRMC,131153.500,A,4308.4663,N,07726.4120,W,13.48,276.71,111019,,,A*44
$GPGGA,131153.750,4308.4665,N,07726.4132,W,1,07,1.63,148.7,M,-34.4,M,,*51
$GPRMC,131154.000,A,4308.4667,N,07726.4145,W,13.48,278.86,111019,,,A*47
$GPGGA,131154.250,4308.4668,N,07726.4157,W,1,07,1.63,148.6,M,-34.4,M,,*5C
$GPRMC,131154.500,A,4308.4670,N,07726.4170,W,13.53,282.32,111019,,,A*42
$GPGGA,131154.750,4308.4671,N,07726.4182,W,1,07,1.63,148.5,M,-34.4,M,,*5A
$GPRMC,131155.000,A,4308.4673,N,07726.4194,W,13.27,280.14,111019,,,A*4A
$GPGGA,131155.250,4308.4674,N,07726.4207,W,1,07,1.63,148.5,M,-34.4,M,,*55
$GPRMC,131155.500,A,4308.4675,N,07726.4219,W,12.97,279.56,111019,,,A*45
$GPGGA,131155.750,4308.4677,N,07726.4231,W,1,07,1.63,148.7,M,-34.4,M,,*54
$GPRMC,131156.000,A,4308.4678,N,07726.4242,W,12.59,281.79,111019,,,A*48
$GPGGA,131156.250,4308.4679,N,07726.4254,W,1,07,1.63,148.8,M,-34.4,M,,*50
$GPRMC,131156.500,A,4308.4680,N,07726.4265,W,11.77,283.40,111019,,,A*48
$GPGGA,131156.750,4308.4681,N,07726.4275,W,1,07,1.63,148.8,M,-34.4,M,,*51
$GPRMC,131157.000,A,4308.4683,N,07726.4286,W,10.72,282.59,111019,,,A*4F
$GPGGA,131157.250,4308.4684,N,07726.4295,W,1,07,1.63,148.8,M,-34.4,M,,*5E
$GPRMC,131157.500,A,4308.4682,N,07726.4303,W,8.93,279.88,111019,,,A*79
$GPGGA,131157.750,4308.4682,N,07726.4310,W,1,07,1.63,149.7,M,-34.4,M,,*5F
$GPRMC,131158.000,A,4308.4683,N,07726.4318,W,7.27,279.26,111019,,,A*7C
$GPGGA,131158.250,4308.4684,N,07726.4324,W,1,07,1.63,149.5,M,-34.4,M,,*56
$GPRMC,131158.500,A,4308.4684,N,07726.4330,W,5.56,277.24,111019,,,A*7C
$GPGGA,131158.750,4308.4685,N,07726.4335,W,1,07,1.63,149.5,M,-34.4,M,,*52
$GPRMC,131159.000,A,4308.4686,N,07726.4339,W,4.15,277.70,111019,,,A*74
$GPGGA,131159.250,4308.4686,N,07726.4343,W,1,07,1.63,149.5,M,-34.4,M,,*54
$GPRMC,131159.500,A,4308.4686,N,07726.4346,W,2.51,275.89,111019,,,A*7B
$GPGGA,131159.750,4308.4686,N,07726.4347,W,1,07,1.44,149.5,M,-34.4,M,,*50
$GPRMC,131200.000,A,4308.4686,N,07726.4349,W,0.93,275.89,111019,,,A*72
$GPGGA,131200.250,4308.4686,N,07726.4349,W,1,07,1.44,149.6,M,-34.4,M,,*57
$GPRMC,131200.500,A,4308.4686,N,07726.4349,W,0.42,275.89,111019,,,A*7B
$GPGGA,131200.750,4308.4686,N,07726.4349,W,1,07,1.44,149.7,M,-34.4,M,,*53
$GPRMC,131201.000,A,4308.4686,N,07726.4349,W,0.13,275.89,111019,,,A*7B
$GPGGA,131201.250,4308.4686,N,07726.4349,W,1,07,1.44,149.7,M,-34.4,M,,*57
$GPRMC,131201.500,A,4308.4685,N,07726.4349,W,0.08,275.89,111019,,,A*77
$GPGGA,131201.750,4308.4685,N,07726.4349,W,1,07,1.44,149.8,M,-34.4,M,,*5E
$GPRMC,131202.000,A,4308.4684,N,07726.4348,W,0.04,275.89,111019,,,A*7D
$GPGGA,131202.250,4308.4684,N,07726.4348,W,1,07,1.44,149.9,M,-34.4,M,,*59
$GPRMC,131202.500,A,4308.4683,N,07726.4348,W,0.02,275.89,111019,,,A*79
$GPGGA,131202.750,4308.4683,N,07726.4348,W,1,07,1.44,150.0,M,-34.4,M,,*5A
$GPRMC,131203.000,A,4308.4682,N,07726.4348,W,0.02,275.89,111019,,,A*7C
$GPGGA,131203.250,4308.4682,N,07726.4348,W,1,07,1.44,150.1,M,-34.4,M,,*5E
$GPRMC,131203.500,A,4308.4682,N,07726.4348,W,0.04,275.89,111019,,,A*7F
$GPGGA,131203.750,4308.4682,N,07726.4348,W,1,07,1.63,150.1,M,-34.4,M,,*5E
$GPRMC,131204.000,A,4308.4682,N,07726.4348,W,0.04,275.89,111019,,,A*7D
$GPGGA,131204.250,4308.4682,N,07726.4348,W,1,07,1.44,150.2,M,-34.4,M,,*5A
$GPRMC,131204.500,A,4308.4682,N,07726.4348,W,0.03,275.89,111019,,,A*7F
$GPGGA,131204.750,4308.4682,N,07726.4348,W,1,07,1.63,150.2,M,-34.4,M,,*5A
$GPRMC,131205.000,A,4308.4682,N,07726.4348,W,0.02,275.89,111019,,,A*7A
$GPGGA,131205.250,4308.4682,N,07726.4348,W,1,07,1.44,150.2,M,-34.4,M,,*5B
$GPRMC,131205.500,A,4308.4682,N,07726.4348,W,0.03,275.89,111019,,,A*7E
$GPGGA,131205.750,4308.4682,N,07726.4348,W,1,07,1.63,150.2,M,-34.4,M,,*5B
$GPRMC,131206.000,A,4308.4682,N,07726.4348,W,0.02,275.89,111019,,,A*79
$GPGGA,131206.250,4308.4682,N,07726.4348,W,1,07,1.44,150.2,M,-34.4,M,,*58
$GPRMC,131206.500,A,4308.4682,N,07726.4348,W,0.01,275.89,111019,,,A*7F
$GPGGA,131206.750,4308.4682,N,07726.4348,W,1,07,1.44,150.2,M,-34.4,M,,*5D
$GPRMC,131207.000,A,4308.4682,N,07726.4347,W,0.02,275.89,111019,,,A*77
$GPGGA,131207.250,4308.4682,N,07726.4347,W,1,07,1.44,150.2,M,-34.4,M,,*56
$GPRMC,131207.500,A,4308.4682,N,07726.4347,W,0.03,275.89,111019,,,A*73
$GPGGA,131207.750,4308.4682,N,07726.4347,W,1,07,1.44,150.2,M,-34.4,M,,*53
$GPRMC,131208.000,A,4308.4682,N,07726.4347,W,0.04,275.89,111019,,,A*7E
$GPGGA,131208.250,4308.4682,N,07726.4347,W,1,07,1.63,150.3,M,-34.4,M,,*5D
$GPRMC,131208.500,A,4308.4682,N,07726.4347,W,0.03,275.89,111019,,,A*7C
$GPGGA,131208.750,4308.4682,N,07726.4347,W,1,07,1.44,150.3,M,-34.4,M,,*5D
$GPRMC,131209.000,A,4308.4682,N,07726.4347,W,0.03,275.89,111019,,,A*78
$GPGGA,131209.250,4308.4682,N,07726.4347,W,1,07,1.44,150.3,M,-34.4,M,,*59
$GPRMC,131209.500,A,4308.4682,N,07726.4347,W,0.14,275.89,111019,,,A*7B
$GPGGA,131209.750,4308.4682,N,07726.4348,W,1,07,1.44,150.3,M,-34.4,M,,*53
$GPRMC,131210.000,A,4308.4682,N,07726.4348,W,0.86,275.89,111019,,,A*72
$GPGGA,131210.250,4308.4683,N,07726.4349,W,1,07,1.44,150.3,M,-34.4,M,,*5E
$GPRMC,131210.500,A,4308.4683,N,07726.4350,W,2.29,275.89,111019,,,A*78
$GPGGA,131210.750,4308.4683,N,07726.4353,W,1,07,1.44,150.3,M,-34.4,M,,*50
$GPRMC,131211.000,A,4308.4683,N,07726.4356,W,3.77,275.13,111019,,,A*73
$GPGGA,131211.250,4308.4683,N,07726.4360,W,1,07,1.44,150.4,M,-34.4,M,,*53
$GPRMC,131211.500,A,4308.4684,N,07726.4365,W,5.66,278.54,111019,,,A*79
$GPGGA,131211.750,4308.4684,N,07726.4371,W,1,07,1.63,150.4,M,-34.4,M,,*54
$GPRMC,131212.000,A,4308.4685,N,07726.4377,W,7.66,281.68,111019,,,A*76
$GPGGA,131212.250,4308.4686,N,07726.4385,W,1,07,1.63,150.4,M,-34.4,M,,*5B
$GPRMC,131212.500,A,4308.4687,N,07726.4393,W,9.32,282.19,111019,,,A*71
$GPGGA,131212.750,4308.4689,N,07726.4402,W,1,07,1.63,150.5,M,-34.4,M,,*58
$GPRMC,131213.000,A,4308.4690,N,07726.4412,W,10.34,282.84,111019,,,A*47
$GPGGA,131213.250,4308.4692,N,07726.4422,W,1,07,1.63,150.4,M,-34.4,M,,*55
$GPRMC,131213.500,A,4308.4694,N,07726.4433,W,11.62,282.75,111019,,,A*49
$GPGGA,131213.750,4308.4695,N,07726.4444,W,1,07,1.63,150.5,M,-34.4,M,,*56
$GPRMC,131214.000,A,4308.4697,N,07726.4457,W,13.16,282.15,111019,,,A*4D
$GPGGA,131214.250,4308.4699,N,07726.4470,W,1,07,1.44,150.5,M,-34.4,M,,*5A
$GPRMC,131214.500,A,4308.4700,N,07726.4484,W,15.52,279.48,111019,,,A*43
$GPGGA,131214.750,4308.4702,N,07726.4500,W,1,07,1.62,150.5,M,-34.4,M,,*5E
$GPRMC,131215.000,A,4308.4704,N,07726.4516,W,17.17,278.38,111019,,,A*4C
$GPGGA,131215.250,4308.4705,N,07726.4533,W,1,07,1.44,150.6,M,-34.4,M,,*5A
$GPRMC,131215.500,A,4308.4707,N,07726.4551,W,19.32,277.46,111019,,,A*46
$GPGGA,131215.750,4308.4708,N,07726.4571,W,1,07,1.62,150.7,M,-34.4,M,,*51
$GPRMC,131216.000,A,4308.4709,N,07726.4590,W,20.69,275.76,111019,,,A*46
$GPGGA,131216.250,4308.4710,N,07726.4611,W,1,07,1.62,150.8,M,-34.4,M,,*54
$GPRMC,131216.500,A,4308.4711,N,07726.4633,W,22.18,273.87,111019,,,A*4C
$GPGGA,131216.750,4308.4713,N,07726.4654,W,1,07,1.62,150.8,M,-34.4,M,,*53
$GPRMC,131217.000,A,4308.4716,N,07726.4676,W,22.91,275.86,111019,,,A*48
$GPGGA,131217.250,4308.4717,N,07726.4698,W,1,07,1.62,150.8,M,-34.4,M,,*53
$GPRMC,131217.500,A,4308.4719,N,07726.4721,W,24.05,276.21,111019,,,A*44
$GPGGA,131217.750,4308.4720,N,07726.4744,W,1,07,1.62,150.9,M,-34.4,M,,*53
$GPRMC,131218.000,A,4308.4722,N,07726.4767,W,24.39,275.61,111019,,,A*4C
$GPGGA,131218.250,4308.4724,N,07726.4790,W,1,07,1.62,151.1,M,-34.4,M,,*5D
$GPRMC,131218.500,A,4308.4726,N,07726.4813,W,24.81,277.05,111019,,,A*42
$GPGGA,131218.750,4308.4728,N,07726.4838,W,1,07,1.62,151.2,M,-34.4,M,,*5A
$GPRMC,131219.000,A,4308.4731,N,07726.4862,W,25.80,277.69,111019,,,A*4C
$GPGGA,131219.250,4308.4733,N,07726.4887,W,1,07,1.44,151.4,M,-34.4,M,,*52
$GPRMC,131219.500,A,4308.4735,N,07726.4912,W,26.13,276.96,111019,,,A*43
$GPGGA,131219.750,4308.4737,N,07726.4937,W,1,07,1.62,151.5,M,-34.4,M,,*5C
$GPRMC,131220.000,A,4308.4739,N,07726.4962,W,26.93,276.63,111019,,,A*45
$GPGGA,131220.250,4308.4741,N,07726.4988,W,1,07,1.62,151.7,M,-34.4,M,,*54
$GPRMC,131220.500,A,4308.4743,N,07726.5015,W,27.21,276.77,111019,,,A*48
$GPGGA,131220.750,4308.4745,N,07726.5041,W,1,07,1.62,151.8,M,-34.4,M,,*57
$GPRMC,131221.000,A,4308.4747,N,07726.5068,W,27.64,276.04,111019,,,A*47
$GPGGA,131221.250,4308.4749,N,07726.5095,W,1,07,1.62,151.9,M,-34.4,M,,*57
$GPRMC,131221.500,A,4308.4752,N,07726.5123,W,29.13,275.99,111019,,,A*41
$GPGGA,131221.750,4308.4754,N,07726.5151,W,1,07,1.62,152.0,M,-34.4,M,,*5D
$GPRMC,131222.000,A,4308.4755,N,07726.5179,W,29.86,274.79,111019,,,A*4C
$GPGGA,131222.250,4308.4757,N,07726.5208,W,1,07,1.62,152.1,M,-34.4,M,,*56
$GPRMC,131222.500,A,4308.4759,N,07726.5237,W,30.32,274.08,111019,,,A*4D
$GPGGA,131222.750,4308.4760,N,07726.5267,W,1,07,1.62,152.2,M,-34.4,M,,*5D
$GPRMC,131223.000,A,4308.4762,N,07726.5296,W,30.87,273.99,111019,,,A*4B
$GPGGA,131223.250,4308.4764,N,07726.5327,W,1,07,1.62,152.2,M,-34.4,M,,*58
$GPRMC,131223.500,A,4308.4765,N,07726.5357,W,31.28,273.42,111019,,,A*47
$GPGGA,131223.750,4308.4767,N,07726.5388,W,1,07,1.62,152.3,M,-34.4,M,,*5A
$GPRMC,131224.000,A,4308.4768,N,07726.5419,W,31.62,272.41,111019,,,A*49
$GPGGA,131224.250,4308.4769,N,07726.5451,W,1,07,1.62,152.4,M,-34.4,M,,*52
$GPRMC,131224.500,A,4308.4770,N,07726.5483,W,31.95,272.80,111019,,,A*43
$GPGGA,131224.750,4308.4772,N,07726.5515,W,1,07,1.62,152.5,M,-34.4,M,,*5D
$GPRMC,131225.000,A,4308.4773,N,07726.5547,W,32.30,272.60,111019,,,A*4F
$GPGGA,131225.250,4308.4774,N,07726.5580,W,1,07,1.62,152.6,M,-34.4,M,,*50
$GPRMC,131225.500,A,4308.4776,N,07726.5613,W,34.66,272.70,111019,,,A*49
$GPGGA,131225.750,4308.4777,N,07726.5646,W,1,07,1.62,152.7,M,-34.4,M,,*5E
$GPRMC,131226.000,A,4308.4778,N,07726.5680,W,35.18,272.41,111019,,,A*41
$GPGGA,131226.250,4308.4779,N,07726.5713,W,1,07,1.62,152.8,M,-34.4,M,,*58
$GPRMC,131226.500,A,4308.4781,N,07726.5747,W,35.77,272.52,111019,,,A*43
$GPGGA,131226.750,4308.4782,N,07726.5781,W,1,07,1.62,153.0,M,-34.4,M,,*5B
$GPRMC,131227.000,A,4308.4783,N,07726.5816,W,36.29,272.43,111019,,,A*46
$GPGGA,131227.250,4308.4784,N,07726.5851,W,1,07,1.62,153.2,M,-34.4,M,,*59
$GPRMC,131227.500,A,4308.4785,N,07726.5885,W,36.73,273.10,111019,,,A*47
$GPGGA,131227.750,4308.4787,N,07726.5921,W,1,07,1.62,153.4,M,-34.4,M,,*5F
$GPRMC,131228.000,A,4308.4788,N,07726.5956,W,36.97,272.32,111019,,,A*44
$GPGGA,131228.250,4308.4789,N,07726.5992,W,1,07,1.62,153.6,M,-34.4,M,,*51
$GPRMC,131228.500,A,4308.4791,N,07726.6027,W,37.20,272.22,111019,,,A*49
$GPGGA,131228.750,4308.4792,N,07726.6063,W,1,07,1.62,153.7,M,-34.4,M,,*5B
$GPRMC,131229.000,A,4308.4793,N,07726.6099,W,38.08,271.99,111019,,,A*4C
$GPGGA,131229.250,4308.4795,N,07726.6136,W,1,07,1.62,153.8,M,-34.4,M,,*56
$GPRMC,131229.500,A,4308.4796,N,07726.6173,W,38.52,271.88,111019,,,A*46
$GPGGA,131229.750,4308.4797,N,07726.6209,W,1,07,1.62,153.9,M,-34.4,M,,*5F
$GPRMC,131230.000,A,4308.4797,N,07726.6246,W,38.95,270.95,111019,,,A*49
$GPGGA,131230.250,4308.4798,N,07726.6284,W,1,07,1.62,154.1,M,-34.4,M,,*57
$GPRMC,131230.500,A,4308.4798,N,07726.6321,W,39.38,270.14,111019,,,A*4C
$GPGGA,131230.750,4308.4798,N,07726.6359,W,1,07,1.62,154.2,M,-34.4,M,,*50
$GPRMC,131231.000,A,4308.4798,N,07726.6397,W,39.81,269.23,111019,,,A*4B
$GPGGA,131231.250,4308.4798,N,07726.6435,W,1,07,1.62,154.3,M,-34.4,M,,*58
$GPRMC,131231.500,A,4308.4797,N,07726.6473,W,40.27,268.21,111019,,,A*4D
$GPGGA,131231.750,4308.4796,N,07726.6512,W,1,07,1.62,154.4,M,-34.4,M,,*50
$GPRMC,131232.000,A,4308.4795,N,07726.6551,W,40.52,267.49,111019,,,A*4B
$GPGGA,131232.250,4308.4794,N,07726.6590,W,1,07,1.62,154.5,M,-34.4,M,,*5F
$GPRMC,131232.500,A,4308.4793,N,07726.6629,W,41.09,266.88,111019,,,A*47
$GPGGA,131232.750,4308.4791,N,07726.6668,W,1,07,1.62,154.6,M,-34.4,M,,*58
$GPRMC,131233.000,A,4308.4790,N,07726.6707,W,41.21,266.60,111019,,,A*41
$GPGGA,131233.250,4308.4788,N,07726.6747,W,1,07,1.62,154.8,M,-34.4,M,,*56
$GPRMC,131233.500,A,4308.4786,N,07726.6787,W,41.67,266.39,111019,,,A*45
$GPGGA,131233.750,4308.4785,N,07726.6826,W,1,07,1.62,155.0,M,-34.4,M,,*5F
$GPRMC,131234.000,A,4308.4783,N,07726.6866,W,42.00,266.23,111019,,,A*4B
$GPGGA,131234.250,4308.4781,N,07726.6907,W,1,07,1.62,155.2,M,-34.4,M,,*59
$GPRMC,131234.500,A,4308.4779,N,07726.6947,W,42.36,265.83,111019,,,A*45
$GPGGA,131234.750,4308.4777,N,07726.6987,W,1,07,1.62,155.4,M,-34.4,M,,*5B
$GPRMC,131235.000,A,4308.4774,N,07726.7028,W,42.62,265.95,111019,,,A*4B
$GPGGA,131235.250,4308.4772,N,07726.7069,W,1,07,1.62,155.7,M,-34.4,M,,*51
$GPRMC,131235.500,A,4308.4770,N,07726.7110,W,42.99,265.82,111019,,,A*42
$GPGGA,131235.750,4308.4768,N,07726.7151,W,1,07,1.62,156.1,M,-34.4,M,,*50
$GPRMC,131236.000,A,4308.4766,N,07726.7192,W,43.21,266.07,111019,,,A*45
$GPGGA,131236.250,4308.4763,N,07726.7233,W,1,07,1.62,156.4,M,-34.4,M,,*5F
$GPRMC,131236.500,A,4308.4761,N,07726.7275,W,43.33,265.77,111019,,,A*4A
$GPGGA,131236.750,4308.4758,N,07726.7316,W,1,07,1.62,156.7,M,-34.4,M,,*57
$GPRMC,131237.000,A,4308.4756,N,07726.7358,W,43.57,265.94,111019,,,A*4B
$GPGGA,131237.250,4308.4753,N,07726.7399,W,1,07,1.62,157.1,M,-34.4,M,,*58
$GPRMC,131237.500,A,4308.4751,N,07726.7441,W,43.70,265.66,111019,,,A*4E
$GPGGA,131237.750,4308.4748,N,07726.7483,W,1,07,1.62,157.6,M,-34.4,M,,*5C
$GPRMC,131238.000,A,4308.4746,N,07726.7524,W,43.94,265.60,111019,,,A*4C
$GPGGA,131238.250,4308.4743,N,07726.7566,W,1,07,1.62,158.0,M,-34.4,M,,*5E
$GPRMC,131238.500,A,4308.4741,N,07726.7608,W,44.03,265.83,111019,,,A*47
$GPGGA,131238.750,4308.4739,N,07726.7650,W,1,07,1.62,158.4,M,-34.4,M,,*54
$GPRMC,131239.000,A,4308.4736,N,07726.7692,W,44.31,265.19,111019,,,A*42
$GPGGA,131239.250,4308.4734,N,07726.7734,W,1,07,1.62,158.7,M,-34.4,M,,*5D
$GPRMC,131239.500,A,4308.4731,N,07726.7777,W,44.62,264.26,111019,,,A*41
$GPGGA,131239.750,4308.4729,N,07726.7819,W,1,07,1.62,159.0,M,-34.4,M,,*52
$GPRMC,131240.000,A,4308.4726,N,07726.7862,W,44.74,264.02,111019,,,A*46
$GPGGA,131240.250,4308.4723,N,07726.7905,W,1,06,2.14,159.1,M,-34.4,M,,*5D
$GPRMC,131240.500,A,4308.4720,N,07726.7948,W,44.93,263.98,111019,,,A*41
$GPGGA,131240.750,4308.4716,N,07726.7991,W,1,07,1.62,159.2,M,-34.4,M,,*53
$GPRMC,131241.000,A,4308.4713,N,07726.8034,W,45.52,263.94,111019,,,A*48
$GPGGA,131241.250,4308.4710,N,07726.8078,W,1,07,1.62,159.2,M,-34.4,M,,*50
$GPRMC,131241.500,A,4308.4709,N,07726.8122,W,45.79,265.06,111019,,,A*44
$GPGGA,131241.750,4308.4706,N,07726.8166,W,1,07,1.62,158.9,M,-34.4,M,,*56
$GPRMC,131242.000,A,4308.4704,N,07726.8210,W,46.06,265.56,111019,,,A*43
$GPGGA,131242.250,4308.4701,N,07726.8254,W,1,07,1.62,158.8,M,-34.4,M,,*54
$GPRMC,131242.500,A,4308.4698,N,07726.8299,W,46.22,265.01,111019,,,A*47
$GPGGA,131242.750,4308.4696,N,07726.8343,W,1,07,1.62,158.6,M,-34.4,M,,*57
$GPRMC,131243.000,A,4308.4694,N,07726.8388,W,46.80,264.93,111019,,,A*4C
$GPGGA,131243.250,4308.4691,N,07726.8432,W,1,07,1.62,158.2,M,-34.4,M,,*51
$GPRMC,131243.500,A,4308.4689,N,07726.8477,W,47.01,265.08,111019,,,A*49
$GPGGA,131243.750,4308.4686,N,07726.8522,W,1,07,1.62,157.9,M,-34.4,M,,*56
$GPRMC,131244.000,A,4308.4684,N,07726.8567,W,47.15,265.05,111019,,,A*4E
$GPGGA,131244.250,4308.4682,N,07726.8612,W,1,07,1.62,157.6,M,-34.4,M,,*5F
$GPRMC,131244.500,A,4308.4679,N,07726.8657,W,47.43,264.72,111019,,,A*4B
$GPGGA,131244.750,4308.4676,N,07726.8702,W,1,07,1.62,157.4,M,-34.4,M,,*53
$GPRMC,131245.000,A,4308.4674,N,07726.8747,W,47.40,264.89,111019,,,A*45
$GPGGA,131245.250,4308.4671,N,07726.8792,W,1,07,1.62,157.2,M,-34.4,M,,*5F
$GPRMC,131245.500,A,4308.4668,N,07726.8836,W,47.13,264.98,111019,,,A*42
$GPGGA,131245.750,4308.4666,N,07726.8881,W,1,07,1.62,157.1,M,-34.4,M,,*52
$GPRMC,131246.000,A,4308.4663,N,07726.8925,W,46.86,264.96,111019,,,A*4F
$GPGGA,131246.250,4308.4660,N,07726.8969,W,1,07,1.62,157.0,M,-34.4,M,,*54
$GPRMC,131246.500,A,4308.4657,N,07726.9013,W,46.51,265.01,111019,,,A*45
$GPGGA,131246.750,4308.4655,N,07726.9057,W,1,07,1.62,156.8,M,-34.4,M,,*5B
$GPRMC,131247.000,A,4308.4652,N,07726.9101,W,46.17,265.53,111019,,,A*43
$GPGGA,131247.250,4308.4650,N,07726.9145,W,1,07,1.62,156.7,M,-34.4,M,,*57
$GPRMC,131247.500,A,4308.4647,N,07726.9189,W,46.04,265.28,111019,,,A*4C
$GPGGA,131247.750,4308.4644,N,07726.9232,W,1,07,1.62,156.5,M,-34.4,M,,*56
$GPRMC,131248.000,A,4308.4642,N,07726.9275,W,45.76,264.94,111019,,,A*43
$GPGGA,131248.250,4308.4639,N,07726.9319,W,1,07,1.62,156.3,M,-34.4,M,,*58
$GPRMC,131248.500,A,4308.4637,N,07726.9362,W,45.50,265.00,111019,,,A*4B
$GPGGA,131248.750,4308.4634,N,07726.9405,W,1,07,1.62,156.1,M,-34.4,M,,*58
$GPRMC,131249.000,A,4308.4631,N,07726.9448,W,45.30,265.03,111019,,,A*43
$GPGGA,131249.250,4308.4628,N,07726.9490,W,1,07,1.62,155.9,M,-34.4,M,,*56
$GPRMC,131249.500,A,4308.4625,N,07726.9533,W,45.08,264.83,111019,,,A*4C
$GPGGA,131249.750,4308.4623,N,07726.9576,W,1,07,1.62,155.6,M,-34.4,M,,*5E
$GPRMC,131250.000,A,4308.4620,N,07726.9619,W,44.87,264.63,111019,,,A*47
$GPGGA,131250.250,4308.4617,N,07726.9661,W,1,07,1.62,155.3,M,-34.4,M,,*54
$GPRMC,131250.500,A,4308.4614,N,07726.9703,W,44.64,265.03,111019,,,A*45
$GPGGA,131250.750,4308.4611,N,07726.9745,W,1,07,1.62,155.1,M,-34.4,M,,*52
$GPRMC,131251.000,A,4308.4609,N,07726.9787,W,44.41,265.15,111019,,,A*41
$GPGGA,131251.250,4308.4606,N,07726.9829,W,1,07,1.62,154.9,M,-34.4,M,,*5C
$GPRMC,131251.500,A,4308.4603,N,07726.9871,W,44.31,265.62,111019,,,A*4F
$GPGGA,131251.750,4308.4601,N,07726.9913,W,1,07,1.61,154.7,M,-34.4,M,,*5B
$GPRMC,131252.000,A,4308.4599,N,07726.9955,W,44.64,265.52,111019,,,A*4D
$GPGGA,131252.250,4308.4596,N,07726.9997,W,1,07,1.61,154.6,M,-34.4,M,,*5D
$GPRMC,131252.500,A,4308.4594,N,07727.0040,W,44.67,265.60,111019,,,A*42
$GPGGA,131252.750,4308.4592,N,07727.0082,W,1,07,1.61,154.4,M,-34.4,M,,*5B
$GPRMC,131253.000,A,4308.4590,N,07727.0124,W,44.92,265.43,111019,,,A*4A
$GPGGA,131253.250,4308.4587,N,07727.0167,W,1,07,1.61,154.2,M,-34.4,M,,*57
$GPRMC,131253.500,A,4308.4585,N,07727.0209,W,45.03,266.04,111019,,,A*4E
$GPGGA,131253.750,4308.4583,N,07727.0252,W,1,07,1.61,154.1,M,-34.4,M,,*50
$GPRMC,131254.000,A,4308.4581,N,07727.0295,W,45.11,266.73,111019,,,A*4E
$GPGGA,131254.250,4308.4579,N,07727.0338,W,1,07,1.61,154.0,M,-34.4,M,,*5B
$GPRMC,131254.500,A,4308.4577,N,07727.0381,W,45.17,267.68,111019,,,A*4B
$GPGGA,131254.750,4308.4576,N,07727.0424,W,1,07,1.61,153.8,M,-34.4,M,,*54
$GPRMC,131255.000,A,4308.4576,N,07727.0467,W,45.26,268.89,111019,,,A*43
$GPGGA,131255.250,4308.4575,N,07727.0510,W,1,07,1.61,153.7,M,-34.4,M,,*5A
$GPRMC,131255.500,A,4308.4575,N,07727.0553,W,45.35,270.24,111019,,,A*4F
$GPGGA,131255.750,4308.4575,N,07727.0596,W,1,07,1.61,153.5,M,-34.4,M,,*53
$GPRMC,131256.000,A,4308.4576,N,07727.0639,W,45.43,271.78,111019,,,A*4C
$GPGGA,131256.250,4308.4577,N,07727.0682,W,1,07,1.62,153.4,M,-34.4,M,,*53
$GPRMC,131256.500,A,4308.4579,N,07727.0725,W,45.49,273.21,111019,,,A*4E
$GPGGA,131256.750,4308.4581,N,07727.0768,W,1,07,1.61,153.2,M,-34.4,M,,*5F
$GPRMC,131257.000,A,4308.4583,N,07727.0811,W,45.54,274.38,111019,,,A*44
$GPGGA,131257.250,4308.4586,N,07727.0854,W,1,07,1.61,153.1,M,-34.4,M,,*5F
$GPRMC,131257.500,A,4308.4590,N,07727.0897,W,45.60,276.33,111019,,,A*43
$GPGGA,131257.750,4308.4593,N,07727.0940,W,1,07,1.61,152.9,M,-34.4,M,,*53
$GPRMC,131258.000,A,4308.4597,N,07727.0983,W,45.69,277.27,111019,,,A*47
$GPGGA,131258.250,4308.4601,N,07727.1026,W,1,07,1.61,152.8,M,-34.4,M,,*58
$GPRMC,131258.500,A,4308.4605,N,07727.1069,W,45.86,277.84,111019,,,A*4E
$GPGGA,131258.750,4308.4609,N,07727.1112,W,1,07,1.61,152.8,M,-34.4,M,,*53
$GPRMC,131259.000,A,4308.4614,N,07727.1155,W,45.84,278.43,111019,,,A*42
$GPGGA,131259.250,4308.4618,N,07727.1197,W,1,07,1.61,152.9,M,-34.4,M,,*5B
$GPRMC,131259.500,A,4308.4623,N,07727.1240,W,45.90,279.18,111019,,,A*4E
$GPGGA,131259.750,4308.4628,N,07727.1283,W,1,07,1.61,152.9,M,-34.4,M,,*5B
$GPRMC,131300.000,A,4308.4633,N,07727.1326,W,45.91,279.24,111019,,,A*48
$GPGGA,131300.250,4308.4638,N,07727.1369,W,1,07,1.61,152.9,M,-34.4,M,,*57
$GPRMC,131300.500,A,4308.4643,N,07727.1412,W,45.97,279.15,111019,,,A*4E
$GPGGA,131300.750,4308.4648,N,07727.1456,W,1,07,1.61,152.9,M,-34.4,M,,*5E
$GPRMC,131301.000,A,4308.4653,N,07727.1499,W,46.07,279.31,111019,,,A*44
$GPGGA,131301.250,4308.4659,N,07727.1542,W,1,07,1.61,153.0,M,-34.4,M,,*56
$GPRMC,131301.500,A,4308.4664,N,07727.1585,W,46.15,279.14,111019,,,A*4D
$GPGGA,131301.750,4308.4669,N,07727.1629,W,1,07,1.61,153.0,M,-34.4,M,,*5E
$GPRMC,131302.000,A,4308.4674,N,07727.1672,W,46.15,279.49,111019,,,A*49
$GPGGA,131302.250,4308.4679,N,07727.1715,W,1,07,1.61,153.1,M,-34.4,M,,*56
$GPRMC,131302.500,A,4308.4685,N,07727.1759,W,46.20,280.00,111019,,,A*47
$GPGGA,131302.750,4308.4690,N,07727.1802,W,1,07,1.61,153.2,M,-34.4,M,,*5E
$GPRMC,131303.000,A,4308.4696,N,07727.1846,W,46.42,279.46,111019,,,A*40
$GPGGA,131303.250,4308.4701,N,07727.1889,W,1,07,1.61,153.3,M,-34.4,M,,*51
$GPRMC,131303.500,A,4308.4706,N,07727.1933,W,46.47,278.50,111019,,,A*4D
$GPGGA,131303.750,4308.4710,N,07727.1977,W,1,07,1.61,153.5,M,-34.4,M,,*52
$GPRMC,131304.000,A,4308.4715,N,07727.2020,W,46.76,278.84,111019,,,A*4E
$GPGGA,131304.250,4308.4720,N,07727.2064,W,1,07,1.61,153.6,M,-34.4,M,,*58
$GPRMC,131304.500,A,4308.4725,N,07727.2108,W,46.84,278.97,111019,,,A*4C
$GPGGA,131304.750,4308.4730,N,07727.2152,W,1,07,1.61,153.7,M,-34.4,M,,*59
$GPRMC,131305.000,A,4308.4735,N,07727.2196,W,46.97,279.46,111019,,,A*41
$GPGGA,131305.250,4308.4741,N,07727.2240,W,1,07,1.61,153.9,M,-34.4,M,,*55
$GPRMC,131305.500,A,4308.4746,N,07727.2284,W,47.19,279.34,111019,,,A*42
$GPGGA,131305.750,4308.4751,N,07727.2329,W,1,07,1.61,154.0,M,-34.4,M,,*51
$GPRMC,131306.000,A,4308.4756,N,07727.2373,W,47.24,278.79,111019,,,A*4A
$GPGGA,131306.250,4308.4761,N,07727.2417,W,1,07,1.61,154.1,M,-34.4,M,,*5F
$GPRMC,131306.500,A,4308.4766,N,07727.2462,W,47.40,279.08,111019,,,A*4E
$GPGGA,131306.750,4308.4771,N,07727.2506,W,1,07,1.61,154.2,M,-34.4,M,,*59
$GPRMC,131307.000,A,4308.4776,N,07727.2550,W,47.38,278.61,111019,,,A*4A
$GPGGA,131307.250,4308.4781,N,07727.2594,W,1,07,1.61,154.1,M,-34.4,M,,*5A
$GPRMC,131307.500,A,4308.4787,N,07727.2638,W,47.44,279.37,111019,,,A*45
$GPGGA,131307.750,4308.4792,N,07727.2682,W,1,07,1.61,154.1,M,-34.4,M,,*59
$GPRMC,131308.000,A,4308.4798,N,07727.2727,W,47.51,278.98,111019,,,A*4E
$GPGGA,131308.250,4308.4803,N,07727.2771,W,1,07,1.61,154.1,M,-34.4,M,,*59
$GPRMC,131308.500,A,4308.4808,N,07727.2815,W,47.52,279.04,111019,,,A*44
$GPGGA,131308.750,4308.4813,N,07727.2860,W,1,07,1.61,154.1,M,-34.4,M,,*52
$GPRMC,131309.000,A,4308.4819,N,07727.2904,W,47.54,278.43,111019,,,A*45
$GPGGA,131309.250,4308.4824,N,07727.2949,W,1,07,1.61,154.2,M,-34.4,M,,*5B
$GPRMC,131309.500,A,4308.4829,N,07727.2993,W,47.49,279.02,111019,,,A*45
$GPGGA,131309.750,4308.4835,N,07727.3037,W,1,07,1.61,154.2,M,-34.4,M,,*5F
$GPRMC,131310.000,A,4308.4840,N,07727.3081,W,47.41,279.26,111019,,,A*42
$GPGGA,131310.250,4308.4846,N,07727.3126,W,1,07,1.61,154.1,M,-34.4,M,,*54
$GPRMC,131310.500,A,4308.4852,N,07727.3170,W,47.35,279.37,111019,,,A*48
$GPGGA,131310.750,4308.4858,N,07727.3214,W,1,07,1.61,153.8,M,-34.4,M,,*52
$GPRMC,131311.000,A,4308.4864,N,07727.3258,W,47.29,279.62,111019,,,A*4D
$GPGGA,131311.250,4308.4870,N,07727.3303,W,1,07,1.61,153.5,M,-34.4,M,,*56
$GPRMC,131311.500,A,4308.4875,N,07727.3347,W,47.26,279.13,111019,,,A*4E
$GPGGA,131311.750,4308.4881,N,07727.3391,W,1,07,1.61,153.2,M,-34.4,M,,*51
$GPRMC,131312.000,A,4308.4886,N,07727.3435,W,47.09,278.81,111019,,,A*41
$GPGGA,131312.250,4308.4892,N,07727.3479,W,1,07,1.61,152.9,M,-34.4,M,,*5E
$GPRMC,131312.500,A,4308.4897,N,07727.3523,W,46.85,279.11,111019,,,A*4F
$GPGGA,131312.750,4308.4902,N,07727.3567,W,1,07,1.61,152.7,M,-34.4,M,,*53
$GPRMC,131313.000,A,4308.4907,N,07727.3611,W,46.61,279.10,111019,,,A*4A
$GPGGA,131313.250,4308.4912,N,07727.3655,W,1,07,1.61,152.5,M,-34.4,M,,*56
$GPRMC,131313.500,A,4308.4918,N,07727.3698,W,46.15,280.01,111019,,,A*45
$GPGGA,131313.750,4308.4923,N,07727.3741,W,1,07,1.61,152.3,M,-34.4,M,,*53
$GPRMC,131314.000,A,4308.4929,N,07727.3784,W,46.02,279.37,111019,,,A*4C
$GPGGA,131314.250,4308.4934,N,07727.3827,W,1,07,1.61,152.1,M,-34.4,M,,*5A
$GPRMC,131314.500,A,4308.4939,N,07727.3870,W,45.55,278.65,111019,,,A*4B
$GPGGA,131314.750,4308.4944,N,07727.3913,W,1,07,1.61,151.8,M,-34.4,M,,*54
$GPRMC,131315.000,A,4308.4949,N,07727.3955,W,45.43,278.82,111019,,,A*40
$GPGGA,131315.250,4308.4954,N,07727.3998,W,1,07,1.61,151.7,M,-34.4,M,,*5D
$GPRMC,131315.500,A,4308.4959,N,07727.4040,W,44.97,278.91,111019,,,A*44
$GPGGA,131315.750,4308.4964,N,07727.4082,W,1,07,1.61,151.7,M,-34.4,M,,*5E
$GPRMC,131316.000,A,4308.4969,N,07727.4124,W,44.54,278.92,111019,,,A*4E
$GPGGA,131316.250,4308.4973,N,07727.4165,W,1,07,1.61,151.7,M,-34.4,M,,*56
$GPRMC,131316.500,A,4308.4978,N,07727.4207,W,44.39,279.23,111019,,,A*49
$GPGGA,131316.750,4308.4983,N,07727.4248,W,1,07,1.61,151.7,M,-34.4,M,,*50
$GPRMC,131317.000,A,4308.4988,N,07727.4289,W,44.20,278.87,111019,,,A*43
$GPGGA,131317.250,4308.4993,N,07727.4330,W,1,07,1.61,151.7,M,-34.4,M,,*5B
$GPRMC,131317.500,A,4308.4997,N,07727.4371,W,44.02,279.04,111019,,,A*44
$GPGGA,131317.750,4308.5002,N,07727.4411,W,1,07,1.61,151.7,M,-34.4,M,,*5A
$GPRMC,131318.000,A,4308.5007,N,07727.4451,W,43.78,278.93,111019,,,A*4F
$GPGGA,131318.250,4308.5012,N,07727.4491,W,1,07,1.61,151.7,M,-34.4,M,,*59
$GPRMC,131318.500,A,4308.5017,N,07727.4531,W,42.26,279.05,111019,,,A*48
$GPGGA,131318.750,4308.5022,N,07727.4570,W,1,07,1.61,151.7,M,-34.4,M,,*51
$GPRMC,131319.000,A,4308.5026,N,07727.4610,W,42.08,278.68,111019,,,A*48
$GPGGA,131319.250,4308.5031,N,07727.4648,W,1,07,1.61,151.8,M,-34.4,M,,*50
$GPRMC,131319.500,A,4308.5036,N,07727.4687,W,41.47,280.03,111019,,,A*40
$GPGGA,131319.750,4308.5041,N,07727.4726,W,1,07,1.61,151.8,M,-34.4,M,,*5B
$GPRMC,131320.000,A,4308.5045,N,07727.4765,W,41.19,278.54,111019,,,A*48
$GPGGA,131320.250,4308.5049,N,07727.4803,W,1,07,1.61,151.9,M,-34.4,M,,*55
$GPRMC,131320.500,A,4308.5054,N,07727.4842,W,41.18,278.61,111019,,,A*40
$GPGGA,131320.750,4308.5059,N,07727.4881,W,1,07,1.61,151.9,M,-34.4,M,,*5B
$GPRMC,131321.000,A,4308.5064,N,07727.4920,W,41.55,279.59,111019,,,A*41
$GPGGA,131321.250,4308.5069,N,07727.4958,W,1,07,1.61,151.9,M,-34.4,M,,*59
$GPRMC,131321.500,A,4308.5074,N,07727.4997,W,41.63,279.30,111019,,,A*43
$GPGGA,131321.750,4308.5078,N,07727.5036,W,1,07,1.61,151.9,M,-34.4,M,,*5C
$GPRMC,131322.000,A,4308.5083,N,07727.5075,W,41.70,279.61,111019,,,A*4F
$GPGGA,131322.250,4308.5088,N,07727.5115,W,1,07,1.61,151.9,M,-34.4,M,,*55
$GPRMC,131322.500,A,4308.5093,N,07727.5154,W,41.76,279.54,111019,,,A*49
$GPGGA,131322.750,4308.5097,N,07727.5193,W,1,07,1.61,151.9,M,-34.4,M,,*50
$GPRMC,131323.000,A,4308.5102,N,07727.5232,W,41.80,279.69,111019,,,A*40
$GPGGA,131323.250,4308.5107,N,07727.5271,W,1,07,1.61,152.0,M,-34.4,M,,*59
$GPRMC,131323.500,A,4308.5112,N,07727.5310,W,41.81,279.73,111019,,,A*4F
$GPGGA,131323.750,4308.5116,N,07727.5349,W,1,07,1.61,152.0,M,-34.4,M,,*56
$GPRMC,131324.000,A,4308.5121,N,07727.5388,W,41.79,279.62,111019,,,A*4B
$GPGGA,131324.250,4308.5126,N,07727.5427,W,1,07,1.61,152.0,M,-34.4,M,,*58
$GPRMC,131324.500,A,4308.5131,N,07727.5466,W,41.51,279.68,111019,,,A*48
$GPGGA,131324.750,4308.5136,N,07727.5504,W,1,07,1.61,152.0,M,-34.4,M,,*5C
$GPRMC,131325.000,A,4308.5140,N,07727.5543,W,41.45,279.45,111019,,,A*46
$GPGGA,131325.250,4308.5145,N,07727.5582,W,1,07,1.61,152.0,M,-34.4,M,,*52
$GPRMC,131325.500,A,4308.5150,N,07727.5620,W,41.43,279.10,111019,,,A*42
$GPGGA,131325.750,4308.5154,N,07727.5659,W,1,07,1.61,152.0,M,-34.4,M,,*52
$GPRMC,131326.000,A,4308.5159,N,07727.5698,W,41.51,279.36,111019,,,A*49
$GPGGA,131326.250,4308.5164,N,07727.5737,W,1,07,1.42,152.0,M,-34.4,M,,*5F
$GPRMC,131326.500,A,4308.5171,N,07727.5776,W,41.55,280.12,111019,,,A*43
$GPGGA,131326.750,4308.5177,N,07727.5815,W,1,07,1.61,151.4,M,-34.4,M,,*51
$GPRMC,131327.000,A,4308.5182,N,07727.5854,W,41.83,279.72,111019,,,A*4F
$GPGGA,131327.250,4308.5187,N,07727.5893,W,1,07,1.61,151.1,M,-34.4,M,,*51
$GPRMC,131327.500,A,4308.5192,N,07727.5932,W,41.87,279.28,111019,,,A*41
$GPGGA,131327.750,4308.5196,N,07727.5971,W,1,07,1.61,151.0,M,-34.4,M,,*58
$GPRMC,131328.000,A,4308.5201,N,07727.6010,W,41.65,279.35,111019,,,A*48
$GPGGA,131328.250,4308.5206,N,07727.6049,W,1,07,1.61,150.5,M,-34.4,M,,*5D
$GPRMC,131328.500,A,4308.5211,N,07727.6088,W,41.38,278.91,111019,,,A*4A
$GPGGA,131328.750,4308.5215,N,07727.6126,W,1,07,1.61,150.4,M,-34.4,M,,*53
$GPRMC,131329.000,A,4308.5219,N,07727.6165,W,41.16,278.62,111019,,,A*44
$GPGGA,131329.250,4308.5224,N,07727.6203,W,1,07,1.61,150.4,M,-34.4,M,,*51
$GPRMC,131329.500,A,4308.5228,N,07727.6241,W,40.80,278.53,111019,,,A*4A
$GPGGA,131329.750,4308.5232,N,07727.6280,W,1,07,1.61,150.3,M,-34.4,M,,*5F
$GPRMC,131330.000,A,4308.5236,N,07727.6318,W,40.44,278.02,111019,,,A*49
