Vers 81
USE_SERIAL_FEEDBACK=true
DEVELOPMENT_MODE=false
USE_RMC_ONLY=false

$GPRMC,133904.250,A,4308.3045,N,07726.2610,W,0.37,243.65,090919,,,A*71
$GPGGA,133904.500,4308.3044,N,07726.2613,W,1,06,1.15,160.2,M,-34.4,M,,*51
$GPRMC,133904.750,A,4308.3044,N,07726.2615,W,0.20,221.31,090919,,,A*73
$GPGGA,133905.000,4308.3044,N,07726.2616,W,1,06,1.15,159.5,M,-34.4,M,,*5D
$GPRMC,133905.250,A,4308.3044,N,07726.2618,W,0.11,133.23,090919,,,A*7B
$GPGGA,133905.500,4308.3044,N,07726.2618,W,1,06,1.15,159.3,M,-34.4,M,,*50
$GPRMC,133905.750,A,4308.3044,N,07726.2620,W,0.08,46.27,090919,,,A*4A
$GPGGA,133906.000,4308.3044,N,07726.2619,W,1,06,1.15,158.7,M,-34.4,M,,*52
$GPRMC,133906.250,A,4308.3045,N,07726.2615,W,0.05,303.12,090919,,,A*72
$GPGGA,133906.500,4308.3045,N,07726.2612,W,1,06,1.15,159.0,M,-34.4,M,,*5B
$GPRMC,133906.750,A,4308.3045,N,07726.2610,W,0.10,286.25,090919,,,A*7E
$GPGGA,133907.000,4308.3045,N,07726.2609,W,1,06,1.15,158.9,M,-34.4,M,,*5D
$GPRMC,133907.250,A,4308.3045,N,07726.2607,W,0.07,56.50,090919,,,A*47
$GPGGA,133907.500,4308.3046,N,07726.2605,W,1,06,1.15,159.0,M,-34.4,M,,*5F
$GPRMC,133907.750,A,4308.3046,N,07726.2605,W,0.01,200.21,090919,,,A*72
$GPGGA,133908.000,4308.3046,N,07726.2606,W,1,06,1.15,158.8,M,-34.4,M,,*5F
$GPRMC,133908.250,A,4308.3046,N,07726.2606,W,0.06,332.91,090919,,,A*77
$GPGGA,133908.500,4308.3045,N,07726.2607,W,1,06,1.15,158.6,M,-34.4,M,,*56
$GPRMC,133908.750,A,4308.3045,N,07726.2608,W,0.01,306.09,090919,,,A*7E
$GPGGA,133909.000,4308.3045,N,07726.2609,W,1,06,1.15,158.3,M,-34.4,M,,*59
$GPRMC,133909.250,A,4308.3044,N,07726.2610,W,0.14,298.93,090919,,,A*73
$GPGGA,133909.500,4308.3044,N,07726.2611,W,1,06,1.15,158.0,M,-34.4,M,,*57
$GPRMC,133909.750,A,4308.3043,N,07726.2613,W,0.21,275.65,090919,,,A*7E
$GPGGA,133910.000,4308.3043,N,07726.2614,W,1,06,1.15,157.6,M,-34.4,M,,*51
$GPRMC,133910.250,A,4308.3043,N,07726.2614,W,0.21,262.64,090919,,,A*73
$GPGGA,133910.500,4308.3043,N,07726.2614,W,1,06,1.15,157.3,M,-34.4,M,,*51
$GPRMC,133910.750,A,4308.3043,N,07726.2615,W,0.16,265.70,090919,,,A*71
$GPGGA,133911.000,4308.3042,N,07726.2615,W,1,06,1.15,157.0,M,-34.4,M,,*56
$GPRMC,133911.250,A,4308.3042,N,07726.2615,W,0.16,267.92,090919,,,A*7A
$GPGGA,133911.500,4308.3042,N,07726.2615,W,1,06,1.15,156.8,M,-34.4,M,,*5A
$GPRMC,133911.750,A,4308.3042,N,07726.2614,W,0.13,179.60,090919,,,A*7A
$GPGGA,133912.000,4308.3042,N,07726.2612,W,1,06,1.15,156.7,M,-34.4,M,,*54
$GPRMC,133912.250,A,4308.3042,N,07726.2611,W,0.30,101.58,090919,,,A*7C
$GPGGA,133912.500,4308.3042,N,07726.2612,W,1,06,1.15,156.7,M,-34.4,M,,*51
$GPRMC,133912.750,A,4308.3042,N,07726.2611,W,0.27,100.51,090919,,,A*77
$GPGGA,133913.000,4308.3042,N,07726.2611,W,1,06,1.15,156.5,M,-34.4,M,,*54
$GPRMC,133913.250,A,4308.3043,N,07726.2611,W,0.19,90.40,090919,,,A*47
$GPGGA,133913.500,4308.3043,N,07726.2611,W,1,06,1.15,156.3,M,-34.4,M,,*56
$GPRMC,133913.750,A,4308.3043,N,07726.2611,W,0.12,97.99,090919,,,A*4A
$GPGGA,133914.000,4308.3043,N,07726.2611,W,1,06,1.15,156.1,M,-34.4,M,,*56
$GPRMC,133914.250,A,4308.3043,N,07726.2611,W,0.08,93.32,090919,,,A*46
$GPGGA,133914.500,4308.3043,N,07726.2611,W,1,06,1.15,156.0,M,-34.4,M,,*52
$GPRMC,133914.750,A,4308.3043,N,07726.2611,W,0.05,347.30,090919,,,A*76
$GPGGA,133915.000,4308.3043,N,07726.2612,W,1,06,1.18,155.9,M,-34.4,M,,*52
$GPRMC,133915.250,A,4308.3043,N,07726.2612,W,0.12,279.77,090919,,,A*78
$GPGGA,133915.500,4308.3043,N,07726.2611,W,1,06,1.15,155.9,M,-34.4,M,,*59
$GPRMC,133915.750,A,4308.3043,N,07726.2611,W,0.10,233.15,090919,,,A*76
$GPGGA,133916.000,4308.3043,N,07726.2611,W,1,06,1.15,155.8,M,-34.4,M,,*5E
$GPRMC,133916.250,A,4308.3043,N,07726.2611,W,0.15,234.65,090919,,,A*75
$GPGGA,133916.500,4308.3043,N,07726.2610,W,1,06,1.15,155.7,M,-34.4,M,,*55
$GPRMC,133916.750,A,4308.3043,N,07726.2610,W,0.14,225.29,090919,,,A*78
$GPGGA,133917.000,4308.3043,N,07726.2609,W,1,06,1.15,155.7,M,-34.4,M,,*59
$GPRMC,133917.250,A,4308.3043,N,07726.2609,W,0.13,216.20,090919,,,A*7A
$GPGGA,133917.500,4308.3044,N,07726.2609,W,1,06,1.15,155.7,M,-34.4,M,,*5B
$GPRMC,133917.750,A,4308.3044,N,07726.2609,W,0.05,245.26,090919,,,A*7F
$GPGGA,133918.000,4308.3044,N,07726.2609,W,1,06,1.15,155.7,M,-34.4,M,,*51
$GPRMC,133918.250,A,4308.3045,N,07726.2608,W,0.05,261.07,090919,,,A*70
$GPGGA,133918.500,4308.3045,N,07726.2608,W,1,06,1.15,155.7,M,-34.4,M,,*54
$GPRMC,133918.750,A,4308.3045,N,07726.2608,W,0.11,257.99,090919,,,A*72
$GPGGA,133919.000,4308.3044,N,07726.2609,W,1,06,1.15,155.8,M,-34.4,M,,*5F
$GPRMC,133919.250,A,4308.3044,N,07726.2609,W,0.18,246.53,090919,,,A*79
$GPGGA,133919.500,4308.3044,N,07726.2609,W,1,06,1.15,155.8,M,-34.4,M,,*5A
$GPRMC,133919.750,A,4308.3044,N,07726.2609,W,0.19,257.83,090919,,,A*70
$GPGGA,133920.000,4308.3044,N,07726.2609,W,1,06,1.15,155.8,M,-34.4,M,,*55
$GPRMC,133920.250,A,4308.3044,N,07726.2610,W,0.24,258.49,090919,,,A*70
$GPGGA,133920.500,4308.3044,N,07726.2610,W,1,07,1.07,155.9,M,-34.4,M,,*5B
$GPRMC,133920.750,A,4308.3044,N,07726.2610,W,0.20,266.03,090919,,,A*72
$GPGGA,133921.000,4308.3044,N,07726.2610,W,1,07,1.07,156.0,M,-34.4,M,,*55
$GPRMC,133921.250,A,4308.3044,N,07726.2610,W,0.12,298.60,090919,,,A*73
$GPGGA,133921.500,4308.3044,N,07726.2611,W,1,07,1.07,156.1,M,-34.4,M,,*50
$GPRMC,133921.750,A,4308.3044,N,07726.2610,W,0.06,243.78,090919,,,A*7C
$GPGGA,133922.000,4308.3043,N,07726.2611,W,1,07,1.07,156.2,M,-34.4,M,,*52
$GPRMC,133922.250,A,4308.3042,N,07726.2611,W,0.14,210.99,090919,,,A*77
$GPGGA,133922.500,4308.3042,N,07726.2611,W,1,07,1.07,156.3,M,-34.4,M,,*57
$GPRMC,133922.750,A,4308.3042,N,07726.2611,W,0.13,197.70,090919,,,A*7E
$GPGGA,133923.000,4308.3042,N,07726.2612,W,1,07,1.07,156.5,M,-34.4,M,,*56
$GPRMC,133923.250,A,4308.3042,N,07726.2612,W,0.13,203.20,090919,,,A*72
$GPGGA,133923.500,4308.3042,N,07726.2612,W,1,07,1.07,156.6,M,-34.4,M,,*50
$GPRMC,133923.750,A,4308.3042,N,07726.2612,W,0.13,174.10,090919,,,A*77
$GPGGA,133924.000,4308.3042,N,07726.2612,W,1,07,1.07,156.8,M,-34.4,M,,*5C
$GPRMC,133924.250,A,4308.3042,N,07726.2612,W,0.17,165.97,090919,,,A*7E
$GPGGA,133924.500,4308.3042,N,07726.2612,W,1,07,1.07,157.0,M,-34.4,M,,*50
$GPRMC,133924.750,A,4308.3043,N,07726.2612,W,0.11,152.03,090919,,,A*75
$GPGGA,133925.000,4308.3043,N,07726.2612,W,1,07,1.07,157.2,M,-34.4,M,,*57
$GPRMC,133925.250,A,4308.3044,N,07726.2613,W,0.04,4.37,090919,,,A*76
$GPGGA,133925.500,4308.3044,N,07726.2613,W,1,07,1.10,157.3,M,-34.4,M,,*53
$GPRMC,133925.750,A,4308.3044,N,07726.2613,W,0.07,353.43,090919,,,A*72
$GPGGA,133926.000,4308.3045,N,07726.2613,W,1,07,1.10,157.5,M,-34.4,M,,*52
$GPRMC,133926.250,A,4308.3045,N,07726.2614,W,0.10,2.65,090919,,,A*77
$GPGGA,133926.500,4308.3045,N,07726.2614,W,1,07,1.11,157.6,M,-34.4,M,,*52
$GPRMC,133926.750,A,4308.3045,N,07726.2614,W,0.04,5.48,090919,,,A*7F
$GPGGA,133927.000,4308.3045,N,07726.2614,W,1,07,1.10,157.7,M,-34.4,M,,*56
$GPRMC,133927.250,A,4308.3045,N,07726.2614,W,0.07,3.42,090919,,,A*74
$GPGGA,133927.500,4308.3045,N,07726.2614,W,1,07,1.10,157.8,M,-34.4,M,,*5C
$GPRMC,133927.750,A,4308.3046,N,07726.2613,W,0.24,38.29,090919,,,A*41
$GPGGA,133928.000,4308.3047,N,07726.2612,W,1,07,1.07,157.9,M,-34.4,M,,*55
$GPRMC,133928.250,A,4308.3048,N,07726.2612,W,0.58,28.56,090919,,,A*46
$GPGGA,133928.500,4308.3053,N,07726.2613,W,1,07,1.07,157.9,M,-34.4,M,,*54
$GPRMC,133928.750,A,4308.3061,N,07726.2615,W,1.95,2.86,090919,,,A*7A
$GPGGA,133929.000,4308.3064,N,07726.2614,W,1,07,1.10,158.0,M,-34.4,M,,*53
$GPRMC,133929.250,A,4308.3067,N,07726.2613,W,2.98,12.00,090919,,,A*4F
$GPGGA,133929.500,4308.3070,N,07726.2613,W,1,07,1.10,158.1,M,-34.4,M,,*55
$GPRMC,133929.750,A,4308.3073,N,07726.2613,W,3.98,7.14,090919,,,A*7F
$GPGGA,133930.000,4308.3077,N,07726.2613,W,1,07,1.10,158.1,M,-34.4,M,,*5F
$GPRMC,133930.250,A,4308.3080,N,07726.2613,W,4.64,5.06,090919,,,A*7B
$GPGGA,133930.500,4308.3085,N,07726.2612,W,1,07,1.10,158.2,M,-34.4,M,,*55
$GPRMC,133930.750,A,4308.3093,N,07726.2613,W,6.31,2.13,090919,,,A*7D
$GPGGA,133931.000,4308.3100,N,07726.2612,W,1,07,1.10,158.3,M,-34.4,M,,*5C
$GPRMC,133931.250,A,4308.3105,N,07726.2611,W,7.05,4.97,090919,,,A*79
$GPGGA,133931.500,4308.3110,N,07726.2609,W,1,07,1.10,158.3,M,-34.4,M,,*52
$GPRMC,133931.750,A,4308.3114,N,07726.2607,W,6.53,11.98,090919,,,A*42
$GPGGA,133932.000,4308.3119,N,07726.2605,W,1,07,1.10,158.4,M,-34.4,M,,*56
$GPRMC,133932.250,A,4308.3123,N,07726.2604,W,6.40,14.33,090919,,,A*45
$GPGGA,133932.500,4308.3127,N,07726.2603,W,1,07,1.10,158.4,M,-34.4,M,,*58
$GPRMC,133932.750,A,4308.3131,N,07726.2601,W,5.68,20.01,090919,,,A*49
$GPGGA,133933.000,4308.3134,N,07726.2598,W,1,07,1.10,158.3,M,-34.4,M,,*58
$GPRMC,133933.250,A,4308.3138,N,07726.2596,W,5.40,32.61,090919,,,A*46
$GPGGA,133933.500,4308.3141,N,07726.2593,W,1,07,1.10,158.4,M,-34.4,M,,*53
$GPRMC,133933.750,A,4308.3145,N,07726.2590,W,5.30,39.46,090919,,,A*46
$GPGGA,133934.000,4308.3147,N,07726.2587,W,1,07,1.10,158.4,M,-34.4,M,,*52
$GPRMC,133934.250,A,4308.3149,N,07726.2584,W,4.75,48.73,090919,,,A*4D
$GPGGA,133934.500,4308.3151,N,07726.2581,W,1,07,1.10,158.4,M,-34.4,M,,*56
$GPRMC,133934.750,A,4308.3152,N,07726.2577,W,4.29,69.51,090919,,,A*44
$GPGGA,133935.000,4308.3153,N,07726.2573,W,1,07,1.10,158.3,M,-34.4,M,,*5A
$GPRMC,133935.250,A,4308.3154,N,07726.2569,W,4.19,77.38,090919,,,A*4A
$GPGGA,133935.500,4308.3155,N,07726.2566,W,1,07,1.10,158.2,M,-34.4,M,,*5C
$GPRMC,133935.750,A,4308.3155,N,07726.2564,W,3.33,79.29,090919,,,A*42
$GPGGA,133936.000,4308.3155,N,07726.2561,W,1,07,1.07,158.2,M,-34.4,M,,*5B
$GPRMC,133936.250,A,4308.3156,N,07726.2559,W,2.52,86.01,090919,,,A*45
$GPGGA,133936.500,4308.3156,N,07726.2559,W,1,07,1.07,158.2,M,-34.4,M,,*56
$GPRMC,133936.750,A,4308.3156,N,07726.2559,W,1.12,79.37,090919,,,A*42
$GPGGA,133937.000,4308.3157,N,07726.2560,W,1,07,1.07,158.2,M,-34.4,M,,*59
$GPRMC,133937.250,A,4308.3157,N,07726.2561,W,0.40,18.41,090919,,,A*4C
$GPGGA,133937.500,4308.3158,N,07726.2563,W,1,07,1.07,158.3,M,-34.4,M,,*51
$GPRMC,133937.750,A,4308.3159,N,07726.2566,W,0.85,312.72,090919,,,A*70
$GPGGA,133938.000,4308.3159,N,07726.2570,W,1,07,1.07,158.3,M,-34.4,M,,*58
$GPRMC,133938.250,A,4308.3159,N,07726.2576,W,1.78,283.70,090919,,,A*73
$GPGGA,133938.500,4308.3159,N,07726.2586,W,1,07,1.07,158.3,M,-34.4,M,,*54
$GPRMC,133938.750,A,4308.3159,N,07726.2595,W,4.87,277.45,090919,,,A*73
$GPGGA,133939.000,4308.3160,N,07726.2609,W,1,07,1.10,158.3,M,-34.4,M,,*58
$GPRMC,133939.250,A,4308.3161,N,07726.2618,W,8.13,277.61,090919,,,A*7D
$GPGGA,133939.500,4308.3162,N,07726.2629,W,1,07,1.10,158.3,M,-34.4,M,,*5D
$GPRMC,133939.750,A,4308.3163,N,07726.2640,W,10.04,277.30,090919,,,A*4C
$GPGGA,133940.000,4308.3164,N,07726.2653,W,1,07,1.10,158.3,M,-34.4,M,,*5D
$GPRMC,133940.250,A,4308.3165,N,07726.2665,W,11.63,276.58,090919,,,A*49
$GPGGA,133940.500,4308.3167,N,07726.2679,W,1,07,1.10,158.3,M,-34.4,M,,*53
$GPRMC,133940.750,A,4308.3169,N,07726.2693,W,13.08,279.08,090919,,,A*4C
$GPGGA,133941.000,4308.3172,N,07726.2710,W,1,07,1.10,158.4,M,-34.4,M,,*5A
$GPRMC,133941.250,A,4308.3174,N,07726.2726,W,14.83,281.04,090919,,,A*44
$GPGGA,133941.500,4308.3177,N,07726.2744,W,1,07,1.10,158.4,M,-34.4,M,,*5B
$GPRMC,133941.750,A,4308.3180,N,07726.2763,W,16.32,281.64,090919,,,A*45
$GPGGA,133942.000,4308.3182,N,07726.2782,W,1,07,1.10,158.3,M,-34.4,M,,*5A
$GPRMC,133942.250,A,4308.3185,N,07726.2800,W,17.20,282.37,090919,,,A*4B
$GPGGA,133942.500,4308.3189,N,07726.2819,W,1,07,1.07,158.3,M,-34.4,M,,*5F
$GPRMC,133942.750,A,4308.3193,N,07726.2837,W,18.07,283.94,090919,,,A*4F
$GPGGA,133943.000,4308.3197,N,07726.2856,W,1,07,1.07,158.3,M,-34.4,M,,*5F
$GPRMC,133943.250,A,4308.3202,N,07726.2876,W,19.11,286.06,090919,,,A*4D
$GPGGA,133943.500,4308.3209,N,07726.2901,W,1,07,1.07,158.3,M,-34.4,M,,*5D
$GPRMC,133943.750,A,4308.3217,N,07726.2925,W,21.95,289.53,090919,,,A*43
$GPGGA,133944.000,4308.3223,N,07726.2947,W,1,07,1.10,158.3,M,-34.4,M,,*53
$GPRMC,133944.250,A,4308.3231,N,07726.2970,W,23.00,291.50,090919,,,A*41
$GPGGA,133944.500,4308.3238,N,07726.2991,W,1,07,1.10,158.3,M,-34.4,M,,*57
$GPRMC,133944.750,A,4308.3247,N,07726.3013,W,24.14,293.88,090919,,,A*4D
$GPGGA,133945.000,4308.3258,N,07726.3034,W,1,07,1.10,158.3,M,-34.4,M,,*52
$GPRMC,133945.250,A,4308.3268,N,07726.3056,W,25.16,297.59,090919,,,A*4E
$GPGGA,133945.500,4308.3278,N,07726.3078,W,1,07,1.10,158.3,M,-34.4,M,,*5D
$GPRMC,133945.750,A,4308.3288,N,07726.3100,W,25.98,299.89,090919,,,A*42
$GPGGA,133946.000,4308.3298,N,07726.3122,W,1,07,1.10,158.3,M,-34.4,M,,*5B
$GPRMC,133946.250,A,4308.3308,N,07726.3145,W,26.77,302.00,090919,,,A*4C
$GPGGA,133946.500,4308.3319,N,07726.3169,W,1,07,1.10,158.4,M,-34.4,M,,*5E
$GPRMC,133946.750,A,4308.3330,N,07726.3192,W,27.89,302.90,090919,,,A*41
$GPGGA,133947.000,4308.3342,N,07726.3216,W,1,07,1.10,158.4,M,-34.4,M,,*5F
$GPRMC,133947.250,A,4308.3353,N,07726.3239,W,28.18,303.84,090919,,,A*41
$GPGGA,133947.500,4308.3364,N,07726.3262,W,1,07,1.10,158.4,M,-34.4,M,,*5D
$GPRMC,133947.750,A,4308.3375,N,07726.3285,W,28.38,303.92,090919,,,A*42
$GPGGA,133948.000,4308.3386,N,07726.3308,W,1,07,1.10,158.5,M,-34.4,M,,*57
$GPRMC,133948.250,A,4308.3398,N,07726.3331,W,28.44,304.03,090919,,,A*41
$GPGGA,133948.500,4308.3409,N,07726.3354,W,1,07,1.10,158.6,M,-34.4,M,,*58
$GPRMC,133948.750,A,4308.3421,N,07726.3376,W,28.45,304.91,090919,,,A*48
$GPGGA,133949.000,4308.3433,N,07726.3399,W,1,07,1.10,158.7,M,-34.4,M,,*55
$GPRMC,133949.250,A,4308.3445,N,07726.3421,W,28.40,305.68,090919,,,A*49
$GPGGA,133949.500,4308.3458,N,07726.3443,W,1,07,1.10,158.9,M,-34.4,M,,*53
$GPRMC,133949.750,A,4308.3470,N,07726.3464,W,28.20,306.87,090919,,,A*4F
$GPGGA,133950.000,4308.3482,N,07726.3485,W,1,07,1.10,159.2,M,-34.4,M,,*59
$GPRMC,133950.250,A,4308.3495,N,07726.3506,W,26.83,308.50,090919,,,A*4F
$GPGGA,133950.500,4308.3507,N,07726.3528,W,1,07,1.10,159.4,M,-34.4,M,,*50
$GPRMC,133950.750,A,4308.3520,N,07726.3548,W,26.40,310.11,090919,,,A*4C
$GPGGA,133951.000,4308.3533,N,07726.3567,W,1,07,1.10,159.7,M,-34.4,M,,*5B
$GPRMC,133951.250,A,4308.3546,N,07726.3585,W,25.90,313.72,090919,,,A*41
$GPGGA,133951.500,4308.3560,N,07726.3603,W,1,07,1.10,160.1,M,-34.4,M,,*55
$GPRMC,133951.750,A,4308.3574,N,07726.3620,W,25.34,317.55,090919,,,A*46
$GPGGA,133952.000,4308.3588,N,07726.3636,W,1,07,1.10,160.3,M,-34.4,M,,*51
$GPRMC,133952.250,A,4308.3602,N,07726.3651,W,25.52,321.68,090919,,,A*4F
$GPGGA,133952.500,4308.3616,N,07726.3666,W,1,07,1.10,160.5,M,-34.4,M,,*53
$GPRMC,133952.750,A,4308.3631,N,07726.3680,W,25.66,324.72,090919,,,A*4F
$GPGGA,133953.000,4308.3647,N,07726.3693,W,1,07,1.10,160.6,M,-34.4,M,,*5A
$GPRMC,133953.250,A,4308.3662,N,07726.3705,W,25.69,328.42,090919,,,A*41
$GPGGA,133953.500,4308.3678,N,07726.3717,W,1,07,1.07,160.8,M,-34.4,M,,*56
$GPRMC,133953.750,A,4308.3694,N,07726.3729,W,25.37,330.66,090919,,,A*47
$GPGGA,133954.000,4308.3710,N,07726.3739,W,1,07,1.10,161.0,M,-34.4,M,,*58
$GPRMC,133954.250,A,4308.3726,N,07726.3749,W,25.00,333.44,090919,,,A*4C
$GPGGA,133954.500,4308.3743,N,07726.3759,W,1,07,1.07,161.3,M,-34.4,M,,*58
$GPRMC,133954.750,A,4308.3759,N,07726.3768,W,25.04,336.01,090919,,,A*42
$GPGGA,133955.000,4308.3776,N,07726.3776,W,1,07,1.07,161.6,M,-34.4,M,,*52
$GPRMC,133955.250,A,4308.3793,N,07726.3782,W,25.02,338.93,090919,,,A*47
$GPGGA,133955.500,4308.3810,N,07726.3789,W,1,07,1.07,161.9,M,-34.4,M,,*57
$GPRMC,133955.750,A,4308.3830,N,07726.3785,W,25.37,346.86,090919,,,A*48
$GPGGA,133956.000,4308.3849,N,07726.3784,W,1,07,1.07,162.1,M,-34.4,M,,*5B
$GPRMC,133956.250,A,4308.3866,N,07726.3787,W,25.72,353.62,090919,,,A*40
$GPGGA,133956.500,4308.3884,N,07726.3787,W,1,07,1.07,162.5,M,-34.4,M,,*58
$GPRMC,133956.750,A,4308.3902,N,07726.3787,W,25.79,358.16,090919,,,A*45
$GPGGA,133957.000,4308.3920,N,07726.3786,W,1,07,1.07,162.8,M,-34.4,M,,*5F
$GPRMC,133957.250,A,4308.3937,N,07726.3785,W,25.51,1.33,090919,,,A*47
$GPGGA,133957.500,4308.3955,N,07726.3783,W,1,07,1.07,163.0,M,-34.4,M,,*54
$GPRMC,133957.750,A,4308.3972,N,07726.3782,W,25.13,2.36,090919,,,A*44
$GPGGA,133958.000,4308.3990,N,07726.3780,W,1,07,1.10,163.3,M,-34.4,M,,*51
$GPRMC,133958.250,A,4308.4007,N,07726.3778,W,24.82,4.21,090919,,,A*4E
$GPGGA,133958.500,4308.4025,N,07726.3776,W,1,07,1.10,163.5,M,-34.4,M,,*5B
$GPRMC,133958.750,A,4308.4043,N,07726.3775,W,25.25,4.09,090919,,,A*40
$GPGGA,133959.000,4308.4061,N,07726.3774,W,1,07,1.10,163.7,M,-34.4,M,,*5F
$GPRMC,133959.250,A,4308.4079,N,07726.3773,W,25.37,4.77,090919,,,A*41
$GPGGA,133959.500,4308.4096,N,07726.3770,W,1,07,1.10,163.9,M,-34.4,M,,*58
$GPRMC,133959.750,A,4308.4115,N,07726.3767,W,25.77,6.65,090919,,,A*4F
$GPGGA,134000.000,4308.4132,N,07726.3763,W,1,07,1.10,164.1,M,-34.4,M,,*5D
$GPRMC,134000.250,A,4308.4151,N,07726.3759,W,25.79,8.22,090919,,,A*46
$GPGGA,134000.500,4308.4169,N,07726.3755,W,1,07,1.10,164.3,M,-34.4,M,,*51
$GPRMC,134000.750,A,4308.4187,N,07726.3750,W,25.80,10.17,090919,,,A*78
$GPGGA,134001.000,4308.4205,N,07726.3745,W,1,07,1.10,164.6,M,-34.4,M,,*58
$GPRMC,134001.250,A,4308.4223,N,07726.3740,W,25.80,11.46,090919,,,A*75
$GPGGA,134001.500,4308.4241,N,07726.3735,W,1,07,1.10,164.9,M,-34.4,M,,*55
$GPRMC,134001.750,A,4308.4260,N,07726.3729,W,25.56,12.68,090919,,,A*7C
$GPGGA,134002.000,4308.4278,N,07726.3724,W,1,07,1.10,165.1,M,-34.4,M,,*50
$GPRMC,134002.250,A,4308.4295,N,07726.3719,W,25.22,13.40,090919,,,A*7B
$GPGGA,134002.500,4308.4313,N,07726.3714,W,1,07,1.10,165.3,M,-34.4,M,,*58
$GPRMC,134002.750,A,4308.4330,N,07726.3708,W,24.93,13.79,090919,,,A*71
$GPGGA,134003.000,4308.4347,N,07726.3703,W,1,07,1.10,165.6,M,-34.4,M,,*5E
$GPRMC,134003.250,A,4308.4364,N,07726.3698,W,24.51,13.41,090919,,,A*79
$GPGGA,134003.500,4308.4380,N,07726.3693,W,1,07,1.10,165.8,M,-34.4,M,,*56
$GPRMC,134003.750,A,4308.4396,N,07726.3688,W,23.90,13.44,090919,,,A*7F
$GPGGA,134004.000,4308.4411,N,07726.3684,W,1,07,1.10,166.0,M,-34.4,M,,*56
$GPRMC,134004.250,A,4308.4426,N,07726.3679,W,23.10,13.13,090919,,,A*75
$GPGGA,134004.500,4308.4441,N,07726.3675,W,1,07,1.10,166.3,M,-34.4,M,,*5B
$GPRMC,134004.750,A,4308.4455,N,07726.3671,W,22.03,12.80,090919,,,A*74
$GPGGA,134005.000,4308.4468,N,07726.3669,W,1,07,1.10,166.5,M,-34.4,M,,*5F
$GPRMC,134005.250,A,4308.4481,N,07726.3665,W,20.36,11.95,090919,,,A*7F
$GPGGA,134005.500,4308.4493,N,07726.3662,W,1,07,1.10,166.8,M,-34.4,M,,*58
$GPRMC,134005.750,A,4308.4504,N,07726.3659,W,18.53,11.75,090919,,,A*7F
$GPGGA,134006.000,4308.4515,N,07726.3657,W,1,07,1.10,167.1,M,-34.4,M,,*5F
$GPRMC,134006.250,A,4308.4526,N,07726.3653,W,17.00,12.64,090919,,,A*79
$GPGGA,134006.500,4308.4536,N,07726.3650,W,1,07,1.10,167.3,M,-34.4,M,,*5E
$GPRMC,134006.750,A,4308.4545,N,07726.3648,W,15.51,12.47,090919,,,A*74
$GPGGA,134007.000,4308.4553,N,07726.3645,W,1,07,1.10,167.6,M,-34.4,M,,*58
$GPRMC,134007.250,A,4308.4561,N,07726.3643,W,13.80,11.66,090919,,,A*77
$GPGGA,134007.500,4308.4568,N,07726.3642,W,1,07,1.10,167.7,M,-34.4,M,,*53
$GPRMC,134007.750,A,4308.4575,N,07726.3640,W,12.11,10.18,090919,,,A*75
$GPGGA,134008.000,4308.4581,N,07726.3638,W,1,07,1.10,167.8,M,-34.4,M,,*5C
$GPRMC,134008.250,A,4308.4586,N,07726.3637,W,10.77,10.19,090919,,,A*70
$GPGGA,134008.500,4308.4591,N,07726.3635,W,1,07,1.10,167.8,M,-34.4,M,,*55
$GPRMC,134008.750,A,4308.4595,N,07726.3634,W,9.62,8.54,090919,,,A*78
$GPGGA,134009.000,4308.4600,N,07726.3633,W,1,07,1.10,167.8,M,-34.4,M,,*5C
$GPRMC,134009.250,A,4308.4604,N,07726.3631,W,8.68,6.52,090919,,,A*71
$GPGGA,134009.500,4308.4608,N,07726.3630,W,1,07,1.10,167.9,M,-34.4,M,,*53
$GPRMC,134009.750,A,4308.4611,N,07726.3628,W,7.79,4.83,090919,,,A*79
$GPGGA,134010.000,4308.4613,N,07726.3627,W,1,07,1.10,167.9,M,-34.4,M,,*52
$GPRMC,134010.250,A,4308.4609,N,07726.3625,W,6.29,6.57,090919,,,A*7F
$GPGGA,134010.500,4308.4612,N,07726.3625,W,1,07,1.10,167.7,M,-34.4,M,,*5A
$GPRMC,134010.750,A,4308.4615,N,07726.3625,W,6.89,357.81,090919,,,A*71
$GPGGA,134011.000,4308.4618,N,07726.3626,W,1,07,1.10,167.9,M,-34.4,M,,*59
$GPRMC,134011.250,A,4308.4621,N,07726.3628,W,7.90,349.45,090919,,,A*71
$GPGGA,134011.500,4308.4625,N,07726.3630,W,1,07,1.10,167.8,M,-34.4,M,,*54
$GPRMC,134011.750,A,4308.4630,N,07726.3633,W,8.74,343.51,090919,,,A*74
$GPGGA,134012.000,4308.4636,N,07726.3643,W,1,07,1.10,167.4,M,-34.4,M,,*58
$GPRMC,134012.250,A,4308.4641,N,07726.3649,W,10.05,327.49,090919,,,A*4D
$GPGGA,134012.500,4308.4647,N,07726.3655,W,1,07,1.07,167.5,M,-34.4,M,,*5B
$GPRMC,134012.750,A,4308.4648,N,07726.3669,W,10.73,307.27,090919,,,A*48
$GPGGA,134013.000,4308.4651,N,07726.3680,W,1,07,1.07,167.7,M,-34.4,M,,*52
$GPRMC,134013.250,A,4308.4655,N,07726.3690,W,11.69,299.30,090919,,,A*4C
$GPGGA,134013.500,4308.4659,N,07726.3702,W,1,07,1.07,167.8,M,-34.4,M,,*5B
$GPRMC,134013.750,A,4308.4662,N,07726.3714,W,12.59,293.40,090919,,,A*4D
$GPGGA,134014.000,4308.4664,N,07726.3728,W,1,07,1.07,168.0,M,-34.4,M,,*58
$GPRMC,134014.250,A,4308.4666,N,07726.3743,W,14.29,285.75,090919,,,A*49
$GPGGA,134014.500,4308.4669,N,07726.3758,W,1,07,1.07,168.1,M,-34.4,M,,*56
$GPRMC,134014.750,A,4308.4670,N,07726.3775,W,15.78,281.78,090919,,,A*42
$GPGGA,134015.000,4308.4672,N,07726.3792,W,1,07,1.07,168.3,M,-34.4,M,,*5C
$GPRMC,134015.250,A,4308.4674,N,07726.3809,W,16.67,280.18,090919,,,A*4C
$GPGGA,134015.500,4308.4676,N,07726.3827,W,1,07,1.07,168.4,M,-34.4,M,,*5B
$GPRMC,134015.750,A,4308.4678,N,07726.3845,W,17.33,280.70,090919,,,A*43
$GPGGA,134016.000,4308.4680,N,07726.3863,W,1,07,1.07,168.5,M,-34.4,M,,*55
$GPRMC,134016.250,A,4308.4682,N,07726.3881,W,17.67,280.40,090919,,,A*4A
$GPGGA,134016.500,4308.4684,N,07726.3898,W,1,07,1.07,168.7,M,-34.4,M,,*52
$GPRMC,134016.750,A,4308.4686,N,07726.3915,W,17.68,280.37,090919,,,A*48
$GPGGA,134017.000,4308.4687,N,07726.3932,W,1,06,1.22,168.9,M,-34.4,M,,*5C
$GPRMC,134017.250,A,4308.4688,N,07726.3949,W,17.57,279.83,090919,,,A*4E
$GPGGA,134017.500,4308.4689,N,07726.3966,W,1,07,1.07,169.1,M,-34.4,M,,*59
$GPRMC,134017.750,A,4308.4690,N,07726.3983,W,17.33,279.30,090919,,,A*4E
$GPGGA,134018.000,4308.4691,N,07726.3999,W,1,07,1.07,169.3,M,-34.4,M,,*58
$GPRMC,134018.250,A,4308.4693,N,07726.4016,W,17.10,279.53,090919,,,A*41
$GPGGA,134018.500,4308.4694,N,07726.4032,W,1,07,1.07,169.6,M,-34.4,M,,*52
$GPRMC,134018.750,A,4308.4695,N,07726.4048,W,16.77,279.46,090919,,,A*4D
$GPGGA,134019.000,4308.4696,N,07726.4064,W,1,07,1.07,169.8,M,-34.4,M,,*59
$GPRMC,134019.250,A,4308.4697,N,07726.4080,W,16.52,279.34,090919,,,A*4D
$GPGGA,134019.500,4308.4697,N,07726.4095,W,1,07,1.10,170.0,M,-34.4,M,,*55
$GPRMC,134019.750,A,4308.4697,N,07726.4111,W,16.20,277.99,090919,,,A*4D
$GPGGA,134020.000,4308.4698,N,07726.4127,W,1,07,1.07,170.1,M,-34.4,M,,*5A
$GPRMC,134020.250,A,4308.4698,N,07726.4143,W,16.19,278.10,090919,,,A*4E
$GPGGA,134020.500,4308.4699,N,07726.4160,W,1,07,1.10,170.3,M,-34.4,M,,*59
$GPRMC,134020.750,A,4308.4701,N,07726.4177,W,16.15,278.61,090919,,,A*47
$GPGGA,134021.000,4308.4702,N,07726.4193,W,1,07,1.10,170.5,M,-34.4,M,,*54
$GPRMC,134021.250,A,4308.4704,N,07726.4209,W,16.40,279.44,090919,,,A*4A
$GPGGA,134021.500,4308.4705,N,07726.4226,W,1,07,1.07,170.6,M,-34.4,M,,*5E
$GPRMC,134021.750,A,4308.4707,N,07726.4242,W,16.37,279.82,090919,,,A*49
$GPGGA,134022.000,4308.4709,N,07726.4257,W,1,07,1.10,170.8,M,-34.4,M,,*5A
$GPRMC,134022.250,A,4308.4710,N,07726.4273,W,16.15,280.19,090919,,,A*4F
$GPGGA,134022.500,4308.4711,N,07726.4287,W,1,07,1.10,170.9,M,-34.4,M,,*5A
$GPRMC,134022.750,A,4308.4712,N,07726.4301,W,15.28,280.67,090919,,,A*48
$GPGGA,134023.000,4308.4713,N,07726.4314,W,1,07,1.10,171.1,M,-34.4,M,,*5E
$GPRMC,134023.250,A,4308.4714,N,07726.4327,W,14.19,282.45,090919,,,A*4F
$GPGGA,134023.500,4308.4716,N,07726.4339,W,1,07,1.07,171.2,M,-34.4,M,,*54
$GPRMC,134023.750,A,4308.4718,N,07726.4351,W,13.48,283.47,090919,,,A*47
$GPGGA,134024.000,4308.4720,N,07726.4362,W,1,07,1.07,171.4,M,-34.4,M,,*5B
$GPRMC,134024.250,A,4308.4722,N,07726.4372,W,12.28,284.80,090919,,,A*46
$GPGGA,134024.500,4308.4723,N,07726.4379,W,1,07,1.07,171.5,M,-34.4,M,,*56
$GPRMC,134024.750,A,4308.4724,N,07726.4387,W,10.45,285.81,090919,,,A*46
$GPGGA,134025.000,4308.4726,N,07726.4394,W,1,07,1.07,171.6,M,-34.4,M,,*57
$GPRMC,134025.250,A,4308.4727,N,07726.4402,W,9.50,285.32,090919,,,A*7F
$GPGGA,134025.500,4308.4727,N,07726.4406,W,1,07,1.07,171.7,M,-34.4,M,,*5E
$GPRMC,134025.750,A,4308.4729,N,07726.4412,W,7.93,285.58,090919,,,A*78
$GPGGA,134026.000,4308.4730,N,07726.4416,W,1,07,1.07,171.7,M,-34.4,M,,*5F
$GPRMC,134026.250,A,4308.4733,N,07726.4419,W,6.72,289.35,090919,,,A*77
$GPGGA,134026.500,4308.4735,N,07726.4421,W,1,08,1.03,171.6,M,-34.4,M,,*51
$GPRMC,134026.750,A,4308.4736,N,07726.4423,W,5.57,292.37,090919,,,A*72
$GPGGA,134027.000,4308.4737,N,07726.4424,W,1,08,1.03,171.5,M,-34.4,M,,*51
$GPRMC,134027.250,A,4308.4740,N,07726.4423,W,4.13,303.47,090919,,,A*78
$GPGGA,134027.500,4308.4739,N,07726.4421,W,1,08,1.03,171.5,M,-34.4,M,,*5F
$GPRMC,134027.750,A,4308.4739,N,07726.4420,W,2.43,310.71,090919,,,A*74
$GPGGA,134028.000,4308.4738,N,07726.4420,W,1,08,1.03,171.5,M,-34.4,M,,*55
$GPRMC,134028.250,A,4308.4738,N,07726.4420,W,1.69,310.71,090919,,,A*74
$GPGGA,134028.500,4308.4738,N,07726.4420,W,1,08,1.03,171.5,M,-34.4,M,,*50
$GPRMC,134028.750,A,4308.4737,N,07726.4420,W,1.28,310.71,090919,,,A*7B
$GPGGA,134029.000,4308.4737,N,07726.4420,W,1,08,1.03,171.5,M,-34.4,M,,*5B
$GPRMC,134029.250,A,4308.4737,N,07726.4420,W,1.18,310.71,090919,,,A*7C
$GPGGA,134029.500,4308.4736,N,07726.4421,W,1,08,1.07,171.6,M,-34.4,M,,*59
$GPRMC,134029.750,A,4308.4736,N,07726.4422,W,1.06,310.71,090919,,,A*75
$GPGGA,134030.000,4308.4735,N,07726.4423,W,1,08,1.07,171.7,M,-34.4,M,,*54
$GPRMC,134030.250,A,4308.4735,N,07726.4424,W,0.97,310.71,090919,,,A*74
$GPGGA,134030.500,4308.4736,N,07726.4425,W,1,08,1.03,171.7,M,-34.4,M,,*50
$GPRMC,134030.750,A,4308.4735,N,07726.4427,W,0.92,310.71,090919,,,A*77
$GPGGA,134031.000,4308.4735,N,07726.4427,W,1,08,1.03,171.8,M,-34.4,M,,*5A
$GPRMC,134031.250,A,4308.4734,N,07726.4428,W,0.87,310.71,090919,,,A*79
$GPGGA,134031.500,4308.4735,N,07726.4428,W,1,08,1.03,171.9,M,-34.4,M,,*51
$GPRMC,134031.750,A,4308.4735,N,07726.4428,W,0.00,310.71,090919,,,A*72
$GPGGA,134032.000,4308.4735,N,07726.4428,W,1,08,1.07,172.0,M,-34.4,M,,*59
$GPRMC,134032.250,A,4308.4735,N,07726.4428,W,0.00,310.71,090919,,,A*74
$GPGGA,134032.500,4308.4735,N,07726.4428,W,1,09,0.97,172.0,M,-34.4,M,,*55
$GPRMC,134032.750,A,4308.4735,N,07726.4428,W,0.00,310.71,090919,,,A*71
$GPGGA,134033.000,4308.4735,N,07726.4428,W,1,09,0.97,172.0,M,-34.4,M,,*51
$GPRMC,134033.250,A,4308.4735,N,07726.4428,W,0.00,310.71,090919,,,A*75
$GPGGA,134033.500,4308.4735,N,07726.4428,W,1,09,0.97,172.0,M,-34.4,M,,*54
$GPRMC,134033.750,A,4308.4735,N,07726.4428,W,0.00,310.71,090919,,,A*70
$GPGGA,134034.000,4308.4735,N,07726.4428,W,1,09,0.97,172.0,M,-34.4,M,,*56
$GPRMC,134034.250,A,4308.4735,N,07726.4428,W,0.00,310.71,090919,,,A*72
$GPGGA,134034.500,4308.4735,N,07726.4428,W,1,09,0.97,172.0,M,-34.4,M,,*53
$GPRMC,134034.750,A,4308.4735,N,07726.4428,W,0.00,310.71,090919,,,A*77
$GPGGA,134035.000,4308.4735,N,07726.4428,W,1,09,0.97,172.0,M,-34.4,M,,*57
$GPRMC,134035.250,A,4308.4735,N,07726.4428,W,0.00,310.71,090919,,,A*73
$GPGGA,134035.500,4308.4735,N,07726.4428,W,1,09,0.97,172.0,M,-34.4,M,,*52
$GPRMC,134035.750,A,4308.4735,N,07726.4428,W,0.00,310.71,090919,,,A*76
$GPGGA,134036.000,4308.4735,N,07726.4428,W,1,09,0.97,172.0,M,-34.4,M,,*54
$GPRMC,134036.250,A,4308.4735,N,07726.4428,W,0.00,310.71,090919,,,A*70
$GPGGA,134036.500,4308.4735,N,07726.4428,W,1,09,0.97,172.0,M,-34.4,M,,*51
$GPRMC,134036.750,A,4308.4735,N,07726.4428,W,0.00,310.71,090919,,,A*75
$GPGGA,134037.000,4308.4735,N,07726.4428,W,1,09,0.97,172.0,M,-34.4,M,,*55
$GPRMC,134037.250,A,4308.4735,N,07726.4428,W,0.00,310.71,090919,,,A*71
$GPGGA,134037.500,4308.4735,N,07726.4428,W,1,09,0.97,172.0,M,-34.4,M,,*50
$GPRMC,134037.750,A,4308.4735,N,07726.4428,W,0.00,310.71,090919,,,A*74
$GPGGA,134038.000,4308.4735,N,07726.4428,W,1,09,0.95,172.0,M,-34.4,M,,*58
$GPRMC,134038.250,A,4308.4735,N,07726.4428,W,0.03,310.71,090919,,,A*7D
$GPGGA,134038.500,4308.4735,N,07726.4428,W,1,09,0.95,172.0,M,-34.4,M,,*5D
$GPRMC,134038.750,A,4308.4735,N,07726.4428,W,0.05,310.71,090919,,,A*7E
$GPGGA,134039.000,4308.4735,N,07726.4428,W,1,09,0.95,172.0,M,-34.4,M,,*59
$GPRMC,134039.250,A,4308.4735,N,07726.4428,W,0.00,310.71,090919,,,A*7F
$GPGGA,134039.500,4308.4735,N,07726.4428,W,1,09,0.97,172.0,M,-34.4,M,,*5E
$GPRMC,134039.750,A,4308.4735,N,07726.4428,W,0.00,310.71,090919,,,A*7A
$GPGGA,134040.000,4308.4735,N,07726.4428,W,1,09,0.97,172.0,M,-34.4,M,,*55
$GPRMC,134040.250,A,4308.4735,N,07726.4428,W,0.00,310.71,090919,,,A*71
$GPGGA,134040.500,4308.4735,N,07726.4428,W,1,09,0.97,172.0,M,-34.4,M,,*50
$GPRMC,134040.750,A,4308.4735,N,07726.4428,W,0.00,310.71,090919,,,A*74
$GPGGA,134041.000,4308.4735,N,07726.4428,W,1,09,0.97,172.0,M,-34.4,M,,*54
$GPRMC,134041.250,A,4308.4735,N,07726.4428,W,0.00,310.71,090919,,,A*70
$GPGGA,134041.500,4308.4735,N,07726.4428,W,1,09,0.97,172.0,M,-34.4,M,,*51
$GPRMC,134041.750,A,4308.4735,N,07726.4428,W,0.00,310.71,090919,,,A*75
$GPGGA,134042.000,4308.4735,N,07726.4428,W,1,09,0.97,172.0,M,-34.4,M,,*57
$GPRMC,134042.250,A,4308.4735,N,07726.4428,W,0.00,310.71,090919,,,A*73
$GPGGA,134042.500,4308.4735,N,07726.4428,W,1,09,0.97,172.0,M,-34.4,M,,*52
$GPRMC,134042.750,A,4308.4735,N,07726.4428,W,0.00,310.71,090919,,,A*76
$GPGGA,134043.000,4308.4735,N,07726.4428,W,1,09,0.97,172.0,M,-34.4,M,,*56
$GPRMC,134043.250,A,4308.4735,N,07726.4428,W,0.00,310.71,090919,,,A*72
$GPGGA,134043.500,4308.4735,N,07726.4428,W,1,09,0.97,172.0,M,-34.4,M,,*53
$GPRMC,134043.750,A,4308.4735,N,07726.4428,W,0.00,310.71,090919,,,A*77
$GPGGA,134044.000,4308.4735,N,07726.4428,W,1,09,0.97,172.0,M,-34.4,M,,*51
$GPRMC,134044.250,A,4308.4735,N,07726.4428,W,0.04,310.71,090919,,,A*71
$GPGGA,134044.500,4308.4735,N,07726.4428,W,1,09,0.95,172.0,M,-34.4,M,,*56
$GPRMC,134044.750,A,4308.4735,N,07726.4428,W,0.04,310.71,090919,,,A*74
$GPGGA,134045.000,4308.4735,N,07726.4428,W,1,09,0.95,172.0,M,-34.4,M,,*52
$GPRMC,134045.250,A,4308.4735,N,07726.4428,W,0.00,310.71,090919,,,A*74
$GPGGA,134045.500,4308.4735,N,07726.4428,W,1,09,0.95,172.0,M,-34.4,M,,*57
$GPRMC,134045.750,A,4308.4735,N,07726.4428,W,0.02,310.71,090919,,,A*73
$GPGGA,134046.000,4308.4735,N,07726.4428,W,1,09,0.97,172.0,M,-34.4,M,,*53
$GPRMC,134046.250,A,4308.4735,N,07726.4428,W,0.00,310.71,090919,,,A*77
$GPGGA,134046.500,4308.4735,N,07726.4428,W,1,09,0.97,172.0,M,-34.4,M,,*56
$GPRMC,134046.750,A,4308.4735,N,07726.4428,W,0.00,310.71,090919,,,A*72
$GPGGA,134047.000,4308.4735,N,07726.4428,W,1,09,0.97,172.0,M,-34.4,M,,*52
$GPRMC,134047.250,A,4308.4735,N,07726.4428,W,0.00,310.71,090919,,,A*76
$GPGGA,134047.500,4308.4735,N,07726.4428,W,1,09,0.97,172.0,M,-34.4,M,,*57
$GPRMC,134047.750,A,4308.4735,N,07726.4428,W,0.00,310.71,090919,,,A*73
$GPGGA,134048.000,4308.4735,N,07726.4428,W,1,09,0.97,172.0,M,-34.4,M,,*5D
$GPRMC,134048.250,A,4308.4735,N,07726.4428,W,0.00,310.71,090919,,,A*79
$GPGGA,134048.500,4308.4735,N,07726.4428,W,1,09,0.97,172.0,M,-34.4,M,,*58
$GPRMC,134048.750,A,4308.4735,N,07726.4428,W,0.00,310.71,090919,,,A*7C
$GPGGA,134049.000,4308.4735,N,07726.4428,W,1,09,0.97,172.0,M,-34.4,M,,*5C
$GPRMC,134049.250,A,4308.4735,N,07726.4428,W,0.00,310.71,090919,,,A*78
$GPGGA,134049.500,4308.4735,N,07726.4428,W,1,09,0.95,171.9,M,-34.4,M,,*51
$GPRMC,134049.750,A,4308.4735,N,07726.4428,W,0.00,310.71,090919,,,A*7D
$GPGGA,134050.000,4308.4735,N,07726.4428,W,1,09,0.97,171.9,M,-34.4,M,,*5E
$GPRMC,134050.250,A,4308.4735,N,07726.4428,W,0.14,310.71,090919,,,A*75
$GPGGA,134050.500,4308.4735,N,07726.4429,W,1,09,0.95,171.9,M,-34.4,M,,*58
$GPRMC,134050.750,A,4308.4735,N,07726.4429,W,0.29,310.71,090919,,,A*7F
$GPGGA,134051.000,4308.4735,N,07726.4429,W,1,09,0.95,171.9,M,-34.4,M,,*5C
$GPRMC,134051.250,A,4308.4735,N,07726.4430,W,0.48,310.71,090919,,,A*74
$GPGGA,134051.500,4308.4735,N,07726.4430,W,1,09,0.95,171.9,M,-34.4,M,,*51
$GPRMC,134051.750,A,4308.4735,N,07726.4431,W,1.12,310.71,090919,,,A*7E
$GPGGA,134052.000,4308.4735,N,07726.4432,W,1,09,0.95,171.9,M,-34.4,M,,*55
$GPRMC,134052.250,A,4308.4735,N,07726.4433,W,2.09,310.71,090919,,,A*73
$GPGGA,134052.500,4308.4736,N,07726.4438,W,1,09,0.95,171.9,M,-34.4,M,,*59
$GPRMC,134052.750,A,4308.4735,N,07726.4445,W,3.68,286.30,090919,,,A*7A
$GPGGA,134053.000,4308.4729,N,07726.4464,W,1,09,0.95,171.3,M,-34.4,M,,*50
$GPRMC,134053.250,A,4308.4726,N,07726.4478,W,8.55,281.86,090919,,,A*7D
$GPGGA,134053.500,4308.4727,N,07726.4488,W,1,09,0.95,170.9,M,-34.4,M,,*52
$GPRMC,134053.750,A,4308.4724,N,07726.4498,W,10.32,277.68,090919,,,A*45
$GPGGA,134054.000,4308.4725,N,07726.4510,W,1,09,0.95,170.7,M,-34.4,M,,*5C
$GPRMC,134054.250,A,4308.4726,N,07726.4523,W,12.51,274.37,090919,,,A*4A
$GPGGA,134054.500,4308.4728,N,07726.4539,W,1,09,0.95,170.7,M,-34.4,M,,*5F
$GPRMC,134054.750,A,4308.4729,N,07726.4553,W,14.25,273.54,090919,,,A*40
$GPGGA,134055.000,4308.4729,N,07726.4572,W,1,09,0.95,170.5,M,-34.4,M,,*57
$GPRMC,134055.250,A,4308.4730,N,07726.4589,W,16.30,275.86,090919,,,A*44
$GPGGA,134055.500,4308.4729,N,07726.4608,W,1,09,0.95,170.5,M,-34.4,M,,*5C
$GPRMC,134055.750,A,4308.4729,N,07726.4630,W,19.48,277.53,090919,,,A*42
$GPGGA,134056.000,4308.4731,N,07726.4656,W,1,09,0.97,170.4,M,-34.4,M,,*5B
$GPRMC,134056.250,A,4308.4733,N,07726.4679,W,21.53,276.64,090919,,,A*46
$GPGGA,134056.500,4308.4734,N,07726.4706,W,1,09,0.97,170.4,M,-34.4,M,,*5F
$GPRMC,134056.750,A,4308.4736,N,07726.4733,W,24.61,274.42,090919,,,A*4B
$GPGGA,134057.000,4308.4738,N,07726.4759,W,1,09,0.97,170.4,M,-34.4,M,,*5D
$GPRMC,134057.250,A,4308.4741,N,07726.4787,W,26.05,274.95,090919,,,A*4A
$GPGGA,134057.500,4308.4744,N,07726.4816,W,1,09,0.95,170.3,M,-34.4,M,,*52
$GPRMC,134057.750,A,4308.4746,N,07726.4846,W,27.75,274.95,090919,,,A*4C
$GPGGA,134058.000,4308.4747,N,07726.4876,W,1,09,0.97,170.2,M,-34.4,M,,*5E
$GPRMC,134058.250,A,4308.4750,N,07726.4908,W,30.37,275.31,090919,,,A*45
$GPGGA,134058.500,4308.4754,N,07726.4942,W,1,09,0.95,170.2,M,-34.4,M,,*5D
$GPRMC,134058.750,A,4308.4758,N,07726.4977,W,32.97,276.60,090919,,,A*4F
$GPGGA,134059.000,4308.4761,N,07726.5013,W,1,09,0.97,170.1,M,-34.4,M,,*52
$GPRMC,134059.250,A,4308.4765,N,07726.5050,W,35.40,275.89,090919,,,A*41
$GPGGA,134059.500,4308.4767,N,07726.5088,W,1,09,0.97,170.1,M,-34.4,M,,*53
$GPRMC,134059.750,A,4308.4769,N,07726.5126,W,37.15,274.99,090919,,,A*4A
$GPGGA,134100.000,4308.4769,N,07726.5163,W,1,09,0.97,170.0,M,-34.4,M,,*50
$GPRMC,134100.250,A,4308.4770,N,07726.5200,W,38.19,274.49,090919,,,A*43
$GPGGA,134100.500,4308.4769,N,07726.5237,W,1,09,0.97,170.1,M,-34.4,M,,*56
$GPRMC,134100.750,A,4308.4769,N,07726.5275,W,39.38,273.46,090919,,,A*46
$GPGGA,134101.000,4308.4769,N,07726.5314,W,1,09,0.97,170.2,M,-34.4,M,,*51
$GPRMC,134101.250,A,4308.4769,N,07726.5352,W,40.17,272.80,090919,,,A*4E
$GPGGA,134101.500,4308.4769,N,07726.5392,W,1,09,0.97,170.3,M,-34.4,M,,*5B
$GPRMC,134101.750,A,4308.4769,N,07726.5433,W,41.32,272.64,090919,,,A*47
$GPGGA,134102.000,4308.4770,N,07726.5474,W,1,09,0.97,170.4,M,-34.4,M,,*5D
$GPRMC,134102.250,A,4308.4771,N,07726.5514,W,41.88,272.77,090919,,,A*4F
$GPGGA,134102.500,4308.4771,N,07726.5555,W,1,09,0.97,170.6,M,-34.4,M,,*59
$GPRMC,134102.750,A,4308.4774,N,07726.5598,W,42.56,273.20,090919,,,A*48
$GPGGA,134103.000,4308.4775,N,07726.5640,W,1,09,0.97,170.6,M,-34.4,M,,*5E
$GPRMC,134103.250,A,4308.4776,N,07726.5681,W,42.80,273.25,090919,,,A*4B
$GPGGA,134103.500,4308.4777,N,07726.5723,W,1,09,0.95,170.7,M,-34.4,M,,*5E
$GPRMC,134103.750,A,4308.4778,N,07726.5765,W,43.33,273.15,090919,,,A*41
$GPGGA,134104.000,4308.4779,N,07726.5808,W,1,09,0.97,171.0,M,-34.4,M,,*50
$GPRMC,134104.250,A,4308.4780,N,07726.5851,W,43.46,272.69,090919,,,A*44
$GPGGA,134104.500,4308.4782,N,07726.5894,W,1,09,0.97,171.2,M,-34.4,M,,*56
$GPRMC,134104.750,A,4308.4783,N,07726.5938,W,44.08,272.29,090919,,,A*45
$GPGGA,134105.000,4308.4783,N,07726.5985,W,1,09,0.97,171.3,M,-34.4,M,,*53
$GPRMC,134105.250,A,4308.4783,N,07726.6032,W,44.46,271.99,090919,,,A*43
$GPGGA,134105.500,4308.4783,N,07726.6079,W,1,09,0.97,171.3,M,-34.4,M,,*5F
$GPRMC,134105.750,A,4308.4783,N,07726.6125,W,45.39,271.61,090919,,,A*4F
$GPGGA,134106.000,4308.4783,N,07726.6171,W,1,09,0.97,171.3,M,-34.4,M,,*50
$GPRMC,134106.250,A,4308.4783,N,07726.6216,W,44.78,270.80,090919,,,A*40
$GPGGA,134106.500,4308.4785,N,07726.6264,W,1,09,0.97,171.0,M,-34.4,M,,*57
$GPRMC,134106.750,A,4308.4786,N,07726.6310,W,44.34,269.88,090919,,,A*4F
$GPGGA,134107.000,4308.4788,N,07726.6355,W,1,09,0.97,170.7,M,-34.4,M,,*5B
$GPRMC,134107.250,A,4308.4789,N,07726.6400,W,44.23,269.25,090919,,,A*43
$GPGGA,134107.500,4308.4789,N,07726.6445,W,1,09,0.97,170.6,M,-34.4,M,,*58
$GPRMC,134107.750,A,4308.4790,N,07726.6489,W,44.18,268.57,090919,,,A*43
$GPGGA,134108.000,4308.4790,N,07726.6534,W,1,08,1.08,170.4,M,-34.4,M,,*59
$GPRMC,134108.250,A,4308.4789,N,07726.6578,W,44.21,268.08,090919,,,A*4E
$GPGGA,134108.500,4308.4789,N,07726.6623,W,1,08,1.08,170.5,M,-34.4,M,,*50
$GPRMC,134108.750,A,4308.4788,N,07726.6667,W,44.44,267.37,090919,,,A*47
$GPGGA,134109.000,4308.4788,N,07726.6711,W,1,09,0.97,170.6,M,-34.4,M,,*50
$GPRMC,134109.250,A,4308.4787,N,07726.6756,W,44.81,266.79,090919,,,A*4D
$GPGGA,134109.500,4308.4786,N,07726.6800,W,1,09,0.97,170.8,M,-34.4,M,,*5A
$GPRMC,134109.750,A,4308.4784,N,07726.6844,W,45.06,266.05,090919,,,A*42
$GPGGA,134110.000,4308.4782,N,07726.6888,W,1,09,0.97,171.0,M,-34.4,M,,*5A
$GPRMC,134110.250,A,4308.4780,N,07726.6931,W,45.00,265.73,090919,,,A*4C
$GPGGA,134110.500,4308.4777,N,07726.6975,W,1,09,0.97,171.3,M,-34.4,M,,*55
$GPRMC,134110.750,A,4308.4774,N,07726.7019,W,45.21,264.86,090919,,,A*48
$GPGGA,134111.000,4308.4771,N,07726.7064,W,1,09,0.97,171.6,M,-34.4,M,,*5A
$GPRMC,134111.250,A,4308.4768,N,07726.7107,W,45.19,264.52,090919,,,A*4D
$GPGGA,134111.500,4308.4765,N,07726.7151,W,1,09,0.97,172.0,M,-34.4,M,,*58
$GPRMC,134111.750,A,4308.4762,N,07726.7194,W,45.14,264.42,090919,,,A*44
$GPGGA,134112.000,4308.4759,N,07726.7238,W,1,09,0.97,172.3,M,-34.4,M,,*5E
$GPRMC,134112.250,A,4308.4756,N,07726.7281,W,45.38,264.42,090919,,,A*4C
$GPGGA,134112.500,4308.4754,N,07726.7326,W,1,08,1.03,172.6,M,-34.4,M,,*50
$GPRMC,134112.750,A,4308.4751,N,07726.7370,W,45.66,264.74,090919,,,A*4F
$GPGGA,134113.000,4308.4748,N,07726.7414,W,1,08,1.08,173.0,M,-34.4,M,,*53
$GPRMC,134113.250,A,4308.4746,N,07726.7458,W,45.63,264.99,090919,,,A*46
$GPGGA,134113.500,4308.4743,N,07726.7502,W,1,08,1.03,173.4,M,-34.4,M,,*54
$GPRMC,134113.750,A,4308.4741,N,07726.7546,W,45.47,265.01,090919,,,A*4C
$GPGGA,134114.000,4308.4739,N,07726.7589,W,1,09,0.97,173.8,M,-34.4,M,,*59
$GPRMC,134114.250,A,4308.4736,N,07726.7632,W,45.40,264.93,090919,,,A*43
$GPGGA,134114.500,4308.4734,N,07726.7676,W,1,09,0.97,174.3,M,-34.4,M,,*5E
$GPRMC,134114.750,A,4308.4731,N,07726.7720,W,45.79,264.79,090919,,,A*4D
$GPGGA,134115.000,4308.4729,N,07726.7764,W,1,09,0.97,174.5,M,-34.4,M,,*52
$GPRMC,134115.250,A,4308.4726,N,07726.7808,W,45.78,265.89,090919,,,A*45
$GPGGA,134115.500,4308.4724,N,07726.7851,W,1,09,0.95,174.6,M,-34.4,M,,*52
$GPRMC,134115.750,A,4308.4722,N,07726.7895,W,45.36,265.67,090919,,,A*4A
$GPGGA,134116.000,4308.4719,N,07726.7939,W,1,09,0.97,174.4,M,-34.4,M,,*55
$GPRMC,134116.250,A,4308.4716,N,07726.7983,W,45.54,265.48,090919,,,A*44
$GPGGA,134116.500,4308.4714,N,07726.8027,W,1,09,0.97,174.0,M,-34.4,M,,*50
$GPRMC,134116.750,A,4308.4711,N,07726.8072,W,46.17,265.32,090919,,,A*47
$GPGGA,134117.000,4308.4708,N,07726.8117,W,1,09,0.97,173.6,M,-34.4,M,,*5A
$GPRMC,134117.250,A,4308.4706,N,07726.8162,W,46.27,265.29,090919,,,A*4C
$GPGGA,134117.500,4308.4703,N,07726.8208,W,1,09,0.97,173.1,M,-34.4,M,,*5E
$GPRMC,134117.750,A,4308.4700,N,07726.8253,W,46.63,265.11,090919,,,A*45
$GPGGA,134118.000,4308.4698,N,07726.8299,W,1,09,0.97,172.5,M,-34.4,M,,*5A
$GPRMC,134118.250,A,4308.4695,N,07726.8344,W,47.29,264.55,090919,,,A*4B
$GPGGA,134118.500,4308.4691,N,07726.8391,W,1,09,0.97,171.7,M,-34.4,M,,*5E
$GPRMC,134118.750,A,4308.4688,N,07726.8437,W,47.83,264.43,090919,,,A*46
$GPGGA,134119.000,4308.4685,N,07726.8483,W,1,09,0.97,170.9,M,-34.4,M,,*54
$GPRMC,134119.250,A,4308.4682,N,07726.8529,W,48.36,264.82,090919,,,A*4A
$GPGGA,134119.500,4308.4680,N,07726.8575,W,1,09,0.97,170.1,M,-34.4,M,,*54
$GPRMC,134119.750,A,4308.4677,N,07726.8621,W,48.60,264.98,090919,,,A*46
$GPGGA,134120.000,4308.4675,N,07726.8667,W,1,09,0.97,169.2,M,-34.4,M,,*5A
$GPRMC,134120.250,A,4308.4672,N,07726.8714,W,48.68,264.98,090919,,,A*43
$GPGGA,134120.500,4308.4669,N,07726.8761,W,1,09,0.97,168.4,M,-34.4,M,,*52
$GPRMC,134120.750,A,4308.4666,N,07726.8808,W,49.15,265.02,090919,,,A*48
$GPGGA,134121.000,4308.4664,N,07726.8855,W,1,09,0.97,167.6,M,-34.4,M,,*5E
$GPRMC,134121.250,A,4308.4661,N,07726.8902,W,49.46,265.06,090919,,,A*42
$GPGGA,134121.500,4308.4658,N,07726.8950,W,1,09,0.97,167.0,M,-34.4,M,,*56
$GPRMC,134121.750,A,4308.4655,N,07726.8998,W,49.44,265.00,090919,,,A*47
$GPGGA,134122.000,4308.4652,N,07726.9045,W,1,09,0.97,166.4,M,-34.4,M,,*53
$GPRMC,134122.250,A,4308.4648,N,07726.9092,W,49.39,264.92,090919,,,A*4F
$GPGGA,134122.500,4308.4645,N,07726.9139,W,1,09,0.97,165.8,M,-34.4,M,,*55
$GPRMC,134122.750,A,4308.4642,N,07726.9186,W,49.20,264.99,090919,,,A*47
$GPGGA,134123.000,4308.4639,N,07726.9233,W,1,09,0.95,165.2,M,-34.4,M,,*5B
$GPRMC,134123.250,A,4308.4636,N,07726.9280,W,48.74,265.25,090919,,,A*43
$GPGGA,134123.500,4308.4633,N,07726.9326,W,1,09,0.97,164.8,M,-34.4,M,,*58
$GPRMC,134123.750,A,4308.4630,N,07726.9372,W,48.43,265.29,090919,,,A*44
$GPGGA,134124.000,4308.4628,N,07726.9417,W,1,09,0.97,164.3,M,-34.4,M,,*5E
$GPRMC,134124.250,A,4308.4625,N,07726.9463,W,48.05,265.09,090919,,,A*45
$GPGGA,134124.500,4308.4622,N,07726.9508,W,1,09,0.97,163.8,M,-34.4,M,,*52
$GPRMC,134124.750,A,4308.4619,N,07726.9554,W,47.76,264.87,090919,,,A*46
$GPGGA,134125.000,4308.4615,N,07726.9599,W,1,09,0.97,163.2,M,-34.4,M,,*50
$GPRMC,134125.250,A,4308.4612,N,07726.9644,W,47.34,264.93,090919,,,A*48
$GPGGA,134125.500,4308.4609,N,07726.9689,W,1,09,0.97,162.7,M,-34.4,M,,*5E
$GPRMC,134125.750,A,4308.4606,N,07726.9733,W,46.84,264.99,090919,,,A*49
$GPGGA,134126.000,4308.4604,N,07726.9778,W,1,09,0.97,162.1,M,-34.4,M,,*5C
$GPRMC,134126.250,A,4308.4601,N,07726.9822,W,46.62,265.43,090919,,,A*49
$GPGGA,134126.500,4308.4598,N,07726.9866,W,1,09,0.97,161.5,M,-34.4,M,,*58
$GPRMC,134126.750,A,4308.4596,N,07726.9910,W,46.54,265.67,090919,,,A*42
$GPGGA,134127.000,4308.4593,N,07726.9955,W,1,09,0.97,161.0,M,-34.4,M,,*53
$GPRMC,134127.250,A,4308.4591,N,07726.9999,W,46.56,265.69,090919,,,A*4C
$GPGGA,134127.500,4308.4588,N,07727.0043,W,1,09,0.97,160.4,M,-34.4,M,,*5F
$GPRMC,134127.750,A,4308.4586,N,07727.0087,W,46.56,265.67,090919,,,A*4F
$GPGGA,134128.000,4308.4584,N,07727.0131,W,1,09,0.97,159.8,M,-34.4,M,,*5B
$GPRMC,134128.250,A,4308.4581,N,07727.0174,W,46.14,265.78,090919,,,A*47
$GPGGA,134128.500,4308.4579,N,07727.0218,W,1,09,0.97,159.3,M,-34.4,M,,*5F
$GPRMC,134128.750,A,4308.4577,N,07727.0261,W,46.18,265.94,090919,,,A*42
$GPGGA,134129.000,4308.4574,N,07727.0305,W,1,09,0.97,158.9,M,-34.4,M,,*50
$GPRMC,134129.250,A,4308.4572,N,07727.0348,W,45.72,265.97,090919,,,A*45
$GPGGA,134129.500,4308.4570,N,07727.0391,W,1,09,0.97,158.6,M,-34.4,M,,*53
$GPRMC,134129.750,A,4308.4568,N,07727.0434,W,45.56,266.19,090919,,,A*44
$GPGGA,134130.000,4308.4566,N,07727.0476,W,1,09,0.97,158.3,M,-34.4,M,,*52
$GPRMC,134130.250,A,4308.4565,N,07727.0519,W,44.98,266.94,090919,,,A*4C
$GPGGA,134130.500,4308.4564,N,07727.0561,W,1,09,0.97,158.0,M,-34.4,M,,*51
$GPRMC,134130.750,A,4308.4564,N,07727.0604,W,44.90,268.58,090919,,,A*41
$GPGGA,134131.000,4308.4564,N,07727.0646,W,1,09,0.97,157.7,M,-34.4,M,,*5B
$GPRMC,134131.250,A,4308.4565,N,07727.0688,W,44.83,270.26,090919,,,A*42
$GPGGA,134131.500,4308.4565,N,07727.0730,W,1,09,0.97,157.4,M,-34.4,M,,*5C
$GPRMC,134131.750,A,4308.4567,N,07727.0772,W,45.09,271.60,090919,,,A*41
$GPGGA,134132.000,4308.4569,N,07727.0814,W,1,09,0.97,157.1,M,-34.4,M,,*5A
$GPRMC,134132.250,A,4308.4571,N,07727.0856,W,45.03,272.89,090919,,,A*47
$GPGGA,134132.500,4308.4574,N,07727.0897,W,1,09,0.97,157.0,M,-34.4,M,,*59
$GPRMC,134132.750,A,4308.4577,N,07727.0938,W,44.75,274.96,090919,,,A*45
$GPGGA,134133.000,4308.4580,N,07727.0981,W,1,09,0.97,157.0,M,-34.4,M,,*50
$GPRMC,134133.250,A,4308.4583,N,07727.1023,W,44.95,275.20,090919,,,A*4A
$GPGGA,134133.500,4308.4587,N,07727.1065,W,1,09,0.97,156.9,M,-34.4,M,,*58
$GPRMC,134133.750,A,4308.4590,N,07727.1108,W,45.17,275.46,090919,,,A*4E
$GPGGA,134134.000,4308.4594,N,07727.1148,W,1,09,0.97,156.7,M,-34.4,M,,*58
$GPRMC,134134.250,A,4308.4598,N,07727.1189,W,45.15,276.64,090919,,,A*4C
$GPGGA,134134.500,4308.4602,N,07727.1230,W,1,09,0.97,156.5,M,-34.4,M,,*5F
$GPRMC,134134.750,A,4308.4606,N,07727.1270,W,43.52,277.39,090919,,,A*44
$GPGGA,134135.000,4308.4610,N,07727.1309,W,1,09,0.97,156.3,M,-34.4,M,,*55
$GPRMC,134135.250,A,4308.4615,N,07727.1349,W,43.39,278.11,090919,,,A*41
$GPGGA,134135.500,4308.4620,N,07727.1389,W,1,09,0.97,156.3,M,-34.4,M,,*5B
$GPRMC,134135.750,A,4308.4625,N,07727.1428,W,42.91,278.89,090919,,,A*45
$GPGGA,134136.000,4308.4630,N,07727.1468,W,1,09,0.97,156.3,M,-34.4,M,,*54
$GPRMC,134136.250,A,4308.4635,N,07727.1506,W,42.00,279.23,090919,,,A*46
$GPGGA,134136.500,4308.4640,N,07727.1545,W,1,09,0.97,156.3,M,-34.4,M,,*58
$GPRMC,134136.750,A,4308.4645,N,07727.1583,W,41.46,279.67,090919,,,A*48
$GPGGA,134137.000,4308.4650,N,07727.1621,W,1,09,0.97,156.6,M,-34.4,M,,*59
$GPRMC,134137.250,A,4308.4655,N,07727.1659,W,41.10,279.79,090919,,,A*45
$GPGGA,134137.500,4308.4660,N,07727.1697,W,1,09,0.97,156.6,M,-34.4,M,,*52
$GPRMC,134137.750,A,4308.4664,N,07727.1735,W,40.98,279.65,090919,,,A*45
$GPGGA,134138.000,4308.4669,N,07727.1773,W,1,09,0.97,156.8,M,-34.4,M,,*54
$GPRMC,134138.250,A,4308.4674,N,07727.1811,W,40.89,279.47,090919,,,A*47
$GPGGA,134138.500,4308.4678,N,07727.1849,W,1,09,0.95,156.9,M,-34.4,M,,*54
$GPRMC,134138.750,A,4308.4683,N,07727.1886,W,40.81,279.39,090919,,,A*45
$GPGGA,134139.000,4308.4687,N,07727.1923,W,1,09,0.97,156.9,M,-34.4,M,,*5F
$GPRMC,134139.250,A,4308.4692,N,07727.1961,W,40.40,279.25,090919,,,A*49
$GPGGA,134139.500,4308.4696,N,07727.1999,W,1,09,0.95,156.9,M,-34.4,M,,*59
$GPRMC,134139.750,A,4308.4702,N,07727.2037,W,40.63,279.25,090919,,,A*4C
$GPGGA,134140.000,4308.4707,N,07727.2075,W,1,09,0.97,157.0,M,-34.4,M,,*59
$GPRMC,134140.250,A,4308.4712,N,07727.2112,W,40.58,279.42,090919,,,A*49
$GPGGA,134140.500,4308.4717,N,07727.2151,W,1,09,0.97,157.1,M,-34.4,M,,*5B
$GPRMC,134140.750,A,4308.4722,N,07727.2189,W,40.63,279.30,090919,,,A*40
$GPGGA,134141.000,4308.4726,N,07727.2227,W,1,09,0.97,157.2,M,-34.4,M,,*5C
$GPRMC,134141.250,A,4308.4731,N,07727.2265,W,40.69,279.10,090919,,,A*4F
$GPGGA,134141.500,4308.4736,N,07727.2304,W,1,09,0.97,157.3,M,-34.4,M,,*59
$GPRMC,134141.750,A,4308.4740,N,07727.2343,W,41.13,278.91,090919,,,A*4D
$GPGGA,134142.000,4308.4745,N,07727.2382,W,1,09,0.97,157.5,M,-34.4,M,,*53
$GPRMC,134142.250,A,4308.4750,N,07727.2420,W,41.19,279.34,090919,,,A*4C
$GPGGA,134142.500,4308.4756,N,07727.2458,W,1,09,0.95,157.6,M,-34.4,M,,*55
$GPRMC,134142.750,A,4308.4761,N,07727.2496,W,41.03,279.94,090919,,,A*47
$GPGGA,134143.000,4308.4766,N,07727.2534,W,1,09,0.97,157.7,M,-34.4,M,,*5A
$GPRMC,134143.250,A,4308.4771,N,07727.2573,W,41.17,279.77,090919,,,A*40
$GPGGA,134143.500,4308.4776,N,07727.2611,W,1,09,0.97,158.0,M,-34.4,M,,*52
$GPRMC,134143.750,A,4308.4781,N,07727.2651,W,41.90,279.46,090919,,,A*44
$GPGGA,134144.000,4308.4785,N,07727.2690,W,1,09,0.97,158.2,M,-34.4,M,,*57
$GPRMC,134144.250,A,4308.4790,N,07727.2730,W,42.14,279.02,090919,,,A*4F
$GPGGA,134144.500,4308.4795,N,07727.2768,W,1,09,0.95,158.4,M,-34.4,M,,*51
$GPRMC,134144.750,A,4308.4800,N,07727.2806,W,42.14,278.80,090919,,,A*4D
$GPGGA,134145.000,4308.4806,N,07727.2845,W,1,09,0.97,158.4,M,-34.4,M,,*52
$GPRMC,134145.250,A,4308.4811,N,07727.2884,W,42.07,279.25,090919,,,A*4F
$GPGGA,134145.500,4308.4817,N,07727.2923,W,1,09,0.97,158.3,M,-34.4,M,,*51
$GPRMC,134145.750,A,4308.4823,N,07727.2963,W,42.29,279.76,090919,,,A*49
$GPGGA,134146.000,4308.4828,N,07727.3003,W,1,09,0.97,158.2,M,-34.4,M,,*50
$GPRMC,134146.250,A,4308.4833,N,07727.3043,W,42.21,279.67,090919,,,A*4C
$GPGGA,134146.500,4308.4837,N,07727.3082,W,1,09,0.97,158.1,M,-34.4,M,,*51
$GPRMC,134146.750,A,4308.4842,N,07727.3121,W,42.00,279.54,090919,,,A*49
$GPGGA,134147.000,4308.4847,N,07727.3160,W,1,09,0.97,158.1,M,-34.4,M,,*5F
$GPRMC,134147.250,A,4308.4852,N,07727.3199,W,41.73,279.55,090919,,,A*49
$GPGGA,134147.500,4308.4857,N,07727.3238,W,1,09,0.97,158.0,M,-34.4,M,,*54
$GPRMC,134147.750,A,4308.4862,N,07727.3277,W,41.69,279.56,090919,,,A*44
$GPGGA,134148.000,4308.4867,N,07727.3315,W,1,09,0.97,158.0,M,-34.4,M,,*53
$GPRMC,134148.250,A,4308.4872,N,07727.3354,W,41.67,279.23,090919,,,A*43
$GPGGA,134148.500,4308.4877,N,07727.3393,W,1,09,0.97,158.0,M,-34.4,M,,*59
$GPRMC,134148.750,A,4308.4882,N,07727.3431,W,41.62,278.91,090919,,,A*40
$GPGGA,134149.000,4308.4887,N,07727.3470,W,1,09,0.97,158.0,M,-34.4,M,,*58
$GPRMC,134149.250,A,4308.4891,N,07727.3509,W,41.57,278.39,090919,,,A*48
$GPGGA,134149.500,4308.4895,N,07727.3547,W,1,09,0.97,158.1,M,-34.4,M,,*5A
$GPRMC,134149.750,A,4308.4900,N,07727.3586,W,41.38,278.23,090919,,,A*41
$GPGGA,134150.000,4308.4905,N,07727.3624,W,1,09,0.97,158.1,M,-34.4,M,,*59
$GPRMC,134150.250,A,4308.4910,N,07727.3664,W,41.38,278.42,090919,,,A*45
$GPGGA,134150.500,4308.4914,N,07727.3703,W,1,09,0.97,158.1,M,-34.4,M,,*58
$GPRMC,134150.750,A,4308.4919,N,07727.3742,W,41.53,278.68,090919,,,A*49
$GPGGA,134151.000,4308.4924,N,07727.3781,W,1,09,0.97,158.1,M,-34.4,M,,*55
$GPRMC,134151.250,A,4308.4929,N,07727.3820,W,41.85,278.88,090919,,,A*40
$GPGGA,134151.500,4308.4934,N,07727.3860,W,1,09,0.97,158.1,M,-34.4,M,,*51
$GPRMC,134151.750,A,4308.4938,N,07727.3898,W,41.74,279.15,090919,,,A*4D
$GPGGA,134152.000,4308.4943,N,07727.3937,W,1,09,0.97,158.1,M,-34.4,M,,*54
$GPRMC,134152.250,A,4308.4948,N,07727.3976,W,41.83,279.55,090919,,,A*41
$GPGGA,134152.500,4308.4954,N,07727.4016,W,1,08,1.03,158.0,M,-34.4,M,,*56
$GPRMC,134152.750,A,4308.4959,N,07727.4055,W,42.01,279.79,090919,,,A*4C
$GPGGA,134153.000,4308.4964,N,07727.4094,W,1,09,0.97,158.0,M,-34.4,M,,*56
$GPRMC,134153.250,A,4308.4968,N,07727.4134,W,42.00,279.60,090919,,,A*45
$GPGGA,134153.500,4308.4973,N,07727.4173,W,1,09,0.97,157.7,M,-34.4,M,,*55
$GPRMC,134153.750,A,4308.4977,N,07727.4212,W,41.86,279.50,090919,,,A*47
$GPGGA,134154.000,4308.4984,N,07727.4252,W,1,09,0.97,157.6,M,-34.4,M,,*5E
$GPRMC,134154.250,A,4308.4989,N,07727.4292,W,42.05,279.46,090919,,,A*43
$GPGGA,134154.500,4308.4994,N,07727.4332,W,1,09,0.97,157.6,M,-34.4,M,,*5D
$GPRMC,134154.750,A,4308.5000,N,07727.4372,W,42.31,279.61,090919,,,A*42
$GPGGA,134155.000,4308.5006,N,07727.4412,W,1,09,0.97,157.5,M,-34.4,M,,*5C
$GPRMC,134155.250,A,4308.5011,N,07727.4452,W,42.23,280.12,090919,,,A*42
$GPGGA,134155.500,4308.5017,N,07727.4492,W,1,09,0.97,157.4,M,-34.4,M,,*50
$GPRMC,134155.750,A,4308.5022,N,07727.4532,W,42.51,279.90,090919,,,A*49
$GPGGA,134156.000,4308.5027,N,07727.4573,W,1,09,0.97,157.5,M,-34.4,M,,*5A
$GPRMC,134156.250,A,4308.5032,N,07727.4613,W,42.48,279.87,090919,,,A*40
$GPGGA,134156.500,4308.5037,N,07727.4654,W,1,09,0.97,157.5,M,-34.4,M,,*58
$GPRMC,134156.750,A,4308.5043,N,07727.4695,W,42.57,279.58,090919,,,A*41
$GPGGA,134157.000,4308.5048,N,07727.4735,W,1,09,0.97,157.5,M,-34.4,M,,*52
$GPRMC,134157.250,A,4308.5053,N,07727.4775,W,42.28,279.65,090919,,,A*4D
$GPGGA,134157.500,4308.5057,N,07727.4815,W,1,09,0.97,157.5,M,-34.4,M,,*54
$GPRMC,134157.750,A,4308.5062,N,07727.4855,W,41.94,279.86,090919,,,A*4E
$GPGGA,134158.000,4308.5068,N,07727.4895,W,1,09,0.97,157.5,M,-34.4,M,,*5A
$GPRMC,134158.250,A,4308.5073,N,07727.4934,W,41.51,279.98,090919,,,A*44
$GPGGA,134158.500,4308.5078,N,07727.4972,W,1,09,0.97,157.6,M,-34.4,M,,*55
$GPRMC,134158.750,A,4308.5083,N,07727.5011,W,41.07,280.25,090919,,,A*42
$GPGGA,134159.000,4308.5088,N,07727.5049,W,1,09,0.97,157.7,M,-34.4,M,,*5F
$GPRMC,134159.250,A,4308.5093,N,07727.5088,W,41.07,280.22,090919,,,A*40
$GPGGA,134159.500,4308.5097,N,07727.5126,W,1,09,0.97,157.8,M,-34.4,M,,*53
$GPRMC,134159.750,A,4308.5102,N,07727.5164,W,40.92,279.91,090919,,,A*4C
$GPGGA,134200.000,4308.5107,N,07727.5203,W,1,09,0.97,157.9,M,-34.4,M,,*54
$GPRMC,134200.250,A,4308.5113,N,07727.5242,W,40.90,280.03,090919,,,A*4E
$GPGGA,134200.500,4308.5118,N,07727.5280,W,1,09,0.97,158.0,M,-34.4,M,,*52
$GPRMC,134200.750,A,4308.5123,N,07727.5319,W,40.93,280.23,090919,,,A*46
$GPGGA,134201.000,4308.5128,N,07727.5357,W,1,09,0.97,158.3,M,-34.4,M,,*5D
$GPRMC,134201.250,A,4308.5133,N,07727.5395,W,40.71,280.52,090919,,,A*4D
$GPGGA,134201.500,4308.5138,N,07727.5433,W,1,09,0.97,158.5,M,-34.4,M,,*5A
$GPRMC,134201.750,A,4308.5143,N,07727.5471,W,40.67,280.31,090919,,,A*40
$GPGGA,134202.000,4308.5148,N,07727.5509,W,1,09,0.97,158.8,M,-34.4,M,,*5E
$GPRMC,134202.250,A,4308.5153,N,07727.5546,W,40.38,280.22,090919,,,A*4A
$GPGGA,134202.500,4308.5158,N,07727.5584,W,1,09,0.97,159.1,M,-34.4,M,,*57
$GPRMC,134202.750,A,4308.5162,N,07727.5620,W,39.93,280.33,090919,,,A*41
$GPGGA,134203.000,4308.5167,N,07727.5657,W,1,09,0.97,159.3,M,-34.4,M,,*50
$GPRMC,134203.250,A,4308.5171,N,07727.5693,W,39.73,280.14,090919,,,A*44
$GPGGA,134203.500,4308.5176,N,07727.5728,W,1,09,0.95,159.5,M,-34.4,M,,*58
$GPRMC,134203.750,A,4308.5181,N,07727.5764,W,39.16,280.68,090919,,,A*4F
$GPGGA,134204.000,4308.5185,N,07727.5801,W,1,09,0.97,159.7,M,-34.4,M,,*52
$GPRMC,134204.250,A,4308.5190,N,07727.5837,W,38.92,280.34,090919,,,A*40
$GPGGA,134204.500,4308.5195,N,07727.5875,W,1,09,0.95,159.9,M,-34.4,M,,*59
$GPRMC,134204.750,A,4308.5201,N,07727.5912,W,39.06,279.87,090919,,,A*4A
$GPGGA,134205.000,4308.5206,N,07727.5949,W,1,09,0.97,160.0,M,-34.4,M,,*5B
$GPRMC,134205.250,A,4308.5210,N,07727.5986,W,38.80,279.68,090919,,,A*4D
$GPGGA,134205.500,4308.5214,N,07727.6022,W,1,09,0.95,160.2,M,-34.4,M,,*5A
$GPRMC,134205.750,A,4308.5218,N,07727.6058,W,38.54,279.10,090919,,,A*4F
$GPGGA,134206.000,4308.5222,N,07727.6094,W,1,09,0.97,160.3,M,-34.4,M,,*57
$GPRMC,134206.250,A,4308.5226,N,07727.6130,W,38.15,278.74,090919,,,A*4D
$GPGGA,134206.500,4308.5230,N,07727.6167,W,1,09,0.97,160.5,M,-34.4,M,,*5A
$GPRMC,134206.750,A,4308.5235,N,07727.6204,W,38.24,278.89,090919,,,A*4E
$GPGGA,134207.000,4308.5240,N,07727.6241,W,1,09,0.97,160.4,M,-34.4,M,,*5F
$GPRMC,134207.250,A,4308.5244,N,07727.6277,W,38.25,278.88,090919,,,A*48
$GPGGA,134207.500,4308.5249,N,07727.6312,W,1,09,0.97,160.3,M,-34.4,M,,*53
$GPRMC,134207.750,A,4308.5250,N,07727.6346,W,37.33,278.40,090919,,,A*47
$GPGGA,134208.000,4308.5253,N,07727.6380,W,1,09,0.97,160.1,M,-34.4,M,,*5B
$GPRMC,134208.250,A,4308.5256,N,07727.6416,W,37.31,278.22,090919,,,A*4F
$GPGGA,134208.500,4308.5260,N,07727.6452,W,1,09,0.97,160.2,M,-34.4,M,,*55
$GPRMC,134208.750,A,4308.5263,N,07727.6488,W,37.57,277.98,090919,,,A*45
$GPGGA,134209.000,4308.5267,N,07727.6524,W,1,09,0.97,160.1,M,-34.4,M,,*55
$GPRMC,134209.250,A,4308.5270,N,07727.6561,W,37.81,277.50,090919,,,A*4A
$GPGGA,134209.500,4308.5272,N,07727.6596,W,1,09,0.95,160.2,M,-34.4,M,,*5C
$GPRMC,134209.750,A,4308.5273,N,07727.6631,W,37.86,275.75,090919,,,A*48
$GPGGA,134210.000,4308.5275,N,07727.6667,W,1,09,0.97,159.9,M,-34.4,M,,*58
$GPRMC,134210.250,A,4308.5279,N,07727.6704,W,37.85,276.15,090919,,,A*4E
$GPGGA,134210.500,4308.5282,N,07727.6738,W,1,09,0.97,159.6,M,-34.4,M,,*51
$GPRMC,134210.750,A,4308.5286,N,07727.6774,W,37.72,276.33,090919,,,A*40
$GPGGA,134211.000,4308.5289,N,07727.6809,W,1,09,0.97,159.5,M,-34.4,M,,*50
$GPRMC,134211.250,A,4308.5293,N,07727.6844,W,37.51,276.41,090919,,,A*48
$GPGGA,134211.500,4308.5296,N,07727.6879,W,1,09,0.97,159.7,M,-34.4,M,,*5E
$GPRMC,134211.750,A,4308.5298,N,07727.6913,W,35.87,275.98,090919,,,A*4B
$GPGGA,134212.000,4308.5300,N,07727.6946,W,1,09,0.97,159.9,M,-34.4,M,,*55
$GPRMC,134212.250,A,4308.5301,N,07727.6979,W,35.34,275.36,090919,,,A*4C
$GPGGA,134212.500,4308.5302,N,07727.7012,W,1,09,0.97,160.0,M,-34.4,M,,*58
$GPRMC,134212.750,A,4308.5304,N,07727.7045,W,35.01,275.19,090919,,,A*40
$GPGGA,134213.000,4308.5305,N,07727.7078,W,1,09,0.97,160.1,M,-34.4,M,,*56
$GPRMC,134213.250,A,4308.5307,N,07727.7111,W,34.72,274.95,090919,,,A*47
$GPGGA,134213.500,4308.5308,N,07727.7143,W,1,09,0.95,160.4,M,-34.4,M,,*50
$GPRMC,134213.750,A,4308.5309,N,07727.7175,W,34.00,274.07,090919,,,A*40
$GPGGA,134214.000,4308.5311,N,07727.7207,W,1,09,0.97,160.7,M,-34.4,M,,*58
$GPRMC,134214.250,A,4308.5313,N,07727.7240,W,34.22,274.50,090919,,,A*4E
$GPGGA,134214.500,4308.5314,N,07727.7272,W,1,09,0.97,161.0,M,-34.4,M,,*5C
$GPRMC,134214.750,A,4308.5315,N,07727.7304,W,33.79,273.40,090919,,,A*43
$GPGGA,134215.000,4308.5316,N,07727.7335,W,1,09,0.97,161.3,M,-34.4,M,,*5B
$GPRMC,134215.250,A,4308.5318,N,07727.7366,W,33.20,274.36,090919,,,A*44
$GPGGA,134215.500,4308.5322,N,07727.7400,W,1,09,0.97,161.3,M,-34.4,M,,*58
$GPRMC,134215.750,A,4308.5324,N,07727.7433,W,33.28,274.25,090919,,,A*43
$GPGGA,134216.000,4308.5326,N,07727.7465,W,1,09,0.97,161.1,M,-34.4,M,,*5B
$GPRMC,134216.250,A,4308.5329,N,07727.7498,W,33.23,274.58,090919,,,A*48
$GPGGA,134216.500,4308.5331,N,07727.7531,W,1,09,0.97,161.2,M,-34.4,M,,*5B
$GPRMC,134216.750,A,4308.5334,N,07727.7563,W,33.22,275.09,090919,,,A*40
$GPGGA,134217.000,4308.5337,N,07727.7597,W,1,09,0.97,161.0,M,-34.4,M,,*57
$GPRMC,134217.250,A,4308.5340,N,07727.7629,W,33.17,275.51,090919,,,A*41
$GPGGA,134217.500,4308.5342,N,07727.7661,W,1,09,0.97,161.2,M,-34.4,M,,*58
$GPRMC,134217.750,A,4308.5344,N,07727.7692,W,33.05,275.18,090919,,,A*4E
$GPGGA,134218.000,4308.5345,N,07727.7723,W,1,09,0.97,161.5,M,-34.4,M,,*55
$GPRMC,134218.250,A,4308.5345,N,07727.7752,W,30.58,273.57,090919,,,A*4E
$GPGGA,134218.500,4308.5345,N,07727.7780,W,1,09,0.97,161.9,M,-34.4,M,,*55
$GPRMC,134218.750,A,4308.5346,N,07727.7809,W,29.27,273.56,090919,,,A*48
$GPGGA,134219.000,4308.5347,N,07727.7836,W,1,09,0.97,162.1,M,-34.4,M,,*5A
$GPRMC,134219.250,A,4308.5349,N,07727.7863,W,28.14,274.31,090919,,,A*48
$GPGGA,134219.500,4308.5350,N,07727.7889,W,1,09,0.97,162.3,M,-34.4,M,,*5F
$GPRMC,134219.750,A,4308.5352,N,07727.7914,W,26.38,276.07,090919,,,A*41
$GPGGA,134220.000,4308.5355,N,07727.7939,W,1,09,0.97,162.5,M,-34.4,M,,*59
$GPRMC,134220.250,A,4308.5357,N,07727.7962,W,24.27,276.86,090919,,,A*4F
$GPGGA,134220.500,4308.5357,N,07727.7983,W,1,09,0.97,162.6,M,-34.4,M,,*5C
$GPRMC,134220.750,A,4308.5358,N,07727.8002,W,21.68,276.82,090919,,,A*4F
$GPGGA,134221.000,4308.5360,N,07727.8021,W,1,09,0.97,162.7,M,-34.4,M,,*53
$GPRMC,134221.250,A,4308.5362,N,07727.8039,W,20.09,278.15,090919,,,A*4C
$GPGGA,134221.500,4308.5365,N,07727.8055,W,1,09,0.97,162.9,M,-34.4,M,,*5E
$GPRMC,134221.750,A,4308.5367,N,07727.8071,W,17.97,280.90,090919,,,A*49
$GPGGA,134222.000,4308.5362,N,07727.8078,W,1,09,0.97,162.7,M,-34.4,M,,*5E
$GPRMC,134222.250,A,4308.5364,N,07727.8087,W,12.66,279.64,090919,,,A*43
$GPGGA,134222.500,4308.5365,N,07727.8092,W,1,09,0.97,162.7,M,-34.4,M,,*58
$GPRMC,134222.750,A,4308.5367,N,07727.8097,W,9.03,286.52,090919,,,A*78
$GPGGA,134223.000,4308.5369,N,07727.8102,W,1,09,0.97,163.1,M,-34.4,M,,*5F
$GPRMC,134223.250,A,4308.5370,N,07727.8109,W,6.88,287.19,090919,,,A*7E
$GPGGA,134223.500,4308.5370,N,07727.8115,W,1,09,0.97,163.4,M,-34.4,M,,*51
$GPRMC,134223.750,A,4308.5371,N,07727.8120,W,6.03,284.19,090919,,,A*71
$GPGGA,134224.000,4308.5371,N,07727.8124,W,1,09,0.97,163.6,M,-34.4,M,,*52
$GPRMC,134224.250,A,4308.5370,N,07727.8129,W,5.61,282.31,090919,,,A*70
$GPGGA,134224.500,4308.5369,N,07727.8131,W,1,09,0.97,163.6,M,-34.4,M,,*5A
$GPRMC,134224.750,A,4308.5370,N,07727.8137,W,5.57,289.35,090919,,,A*70
$GPGGA,134225.000,4308.5369,N,07727.8144,W,1,09,0.97,163.6,M,-34.4,M,,*5C
$GPRMC,134225.250,A,4308.5370,N,07727.8151,W,6.78,284.38,090919,,,A*7A
$GPGGA,134225.500,4308.5370,N,07727.8159,W,1,09,0.97,163.9,M,-34.4,M,,*52
$GPRMC,134225.750,A,4308.5370,N,07727.8167,W,8.36,277.19,090919,,,A*71
$GPGGA,134226.000,4308.5370,N,07727.8177,W,1,09,0.97,164.2,M,-34.4,M,,*54
$GPRMC,134226.250,A,4308.5370,N,07727.8188,W,10.10,272.24,090919,,,A*40
$GPGGA,134226.500,4308.5370,N,07727.8199,W,1,09,0.95,164.6,M,-34.4,M,,*57
$GPRMC,134226.750,A,4308.5369,N,07727.8210,W,10.81,271.92,090919,,,A*49
$GPGGA,134227.000,4308.5369,N,07727.8223,W,1,09,0.97,163.8,M,-34.4,M,,*52
$GPRMC,134227.250,A,4308.5370,N,07727.8237,W,12.62,276.28,090919,,,A*49
$GPGGA,134227.500,4308.5371,N,07727.8251,W,1,09,0.97,164.1,M,-34.4,M,,*55
$GPRMC,134227.750,A,4308.5372,N,07727.8267,W,14.04,277.41,090919,,,A*43
$GPGGA,134228.000,4308.5373,N,07727.8282,W,1,09,0.97,164.4,M,-34.4,M,,*56
$GPRMC,134228.250,A,4308.5374,N,07727.8299,W,15.15,276.80,090919,,,A*43
$GPGGA,134228.500,4308.5374,N,07727.8315,W,1,09,0.95,164.7,M,-34.4,M,,*5A
$GPRMC,134228.750,A,4308.5375,N,07727.8334,W,16.45,274.93,090919,,,A*47
$GPGGA,134229.000,4308.5375,N,07727.8353,W,1,09,0.97,165.1,M,-34.4,M,,*58
$GPRMC,134229.250,A,4308.5375,N,07727.8373,W,17.79,273.64,090919,,,A*41
$GPGGA,134229.500,4308.5375,N,07727.8392,W,1,09,0.95,164.7,M,-34.4,M,,*55
$GPRMC,134229.750,A,4308.5376,N,07727.8414,W,18.97,273.45,090919,,,A*4D
