Vers 81
USE_SERIAL_FEEDBACK=true
DEVELOPMENT_MODE=false
USE_RMC_ONLY=false

$GPRMC,135712.250,A,4308.2960,N,07726.2656,W,0.23,29.20,170919,,,A*46
$GPGGA,135712.500,4308.2958,N,07726.2656,W,1,05,3.95,158.7,M,-34.4,M,,*5D
$GPRMC,135712.750,A,4308.2958,N,07726.2655,W,0.35,30.94,170919,,,A*4B
$GPGGA,135713.000,4308.2956,N,07726.2655,W,1,05,3.94,158.6,M,-34.4,M,,*54
$GPRMC,135713.250,A,4308.2956,N,07726.2655,W,0.58,10.75,170919,,,A*47
$GPGGA,135713.500,4308.2954,N,07726.2655,W,1,05,3.96,158.7,M,-34.4,M,,*50
$GPRMC,135713.750,A,4308.2952,N,07726.2655,W,0.50,355.84,170919,,,A*72
$GPGGA,135714.000,4308.2949,N,07726.2655,W,1,05,3.96,158.5,M,-34.4,M,,*5C
$GPRMC,135714.250,A,4308.2946,N,07726.2655,W,0.26,7.92,170919,,,A*77
$GPGGA,135714.500,4308.2943,N,07726.2655,W,1,05,3.96,158.7,M,-34.4,M,,*51
$GPRMC,135714.750,A,4308.2941,N,07726.2655,W,0.25,352.13,170919,,,A*7C
$GPGGA,135715.000,4308.2940,N,07726.2655,W,1,05,3.96,158.7,M,-34.4,M,,*56
$GPRMC,135715.250,A,4308.2939,N,07726.2655,W,0.32,337.60,170919,,,A*76
$GPGGA,135715.500,4308.2937,N,07726.2655,W,1,05,3.94,159.0,M,-34.4,M,,*57
$GPRMC,135715.750,A,4308.2937,N,07726.2654,W,0.26,338.79,170919,,,A*7E
$GPGGA,135716.000,4308.2933,N,07726.2653,W,1,05,3.93,159.6,M,-34.4,M,,*52
$GPRMC,135716.250,A,4308.2931,N,07726.2653,W,0.12,45.75,170919,,,A*4B
$GPGGA,135716.500,4308.2930,N,07726.2652,W,1,05,3.93,160.4,M,-34.4,M,,*5D
$GPRMC,135716.750,A,4308.2929,N,07726.2651,W,0.15,38.64,170919,,,A*48
$GPGGA,135717.000,4308.2928,N,07726.2651,W,1,05,3.94,160.7,M,-34.4,M,,*57
$GPRMC,135717.250,A,4308.2927,N,07726.2651,W,0.07,0.50,170919,,,A*7D
$GPGGA,135717.500,4308.2927,N,07726.2650,W,1,05,3.95,161.0,M,-34.4,M,,*5B
$GPRMC,135717.750,A,4308.2927,N,07726.2650,W,0.15,0.34,170919,,,A*78
$GPGGA,135718.000,4308.2926,N,07726.2649,W,1,05,3.96,161.2,M,-34.4,M,,*59
$GPRMC,135718.250,A,4308.2926,N,07726.2649,W,0.27,341.89,170919,,,A*7A
$GPGGA,135718.500,4308.2925,N,07726.2649,W,1,05,3.93,161.4,M,-34.4,M,,*5C
$GPRMC,135718.750,A,4308.2924,N,07726.2649,W,0.23,328.10,170919,,,A*76
$GPGGA,135719.000,4308.2924,N,07726.2648,W,1,05,3.93,161.5,M,-34.4,M,,*59
$GPRMC,135719.250,A,4308.2924,N,07726.2648,W,0.20,349.99,170919,,,A*76
$GPGGA,135719.500,4308.2925,N,07726.2647,W,1,05,3.95,161.9,M,-34.4,M,,*58
$GPRMC,135719.750,A,4308.2926,N,07726.2647,W,0.28,10.42,170919,,,A*4F
$GPGGA,135720.000,4308.2928,N,07726.2647,W,1,05,3.95,161.7,M,-34.4,M,,*54
$GPRMC,135720.250,A,4308.2943,N,07726.2650,W,0.29,11.73,170919,,,A*47
$GPGGA,135720.500,4308.2958,N,07726.2654,W,1,06,2.32,160.2,M,-34.4,M,,*5F
$GPRMC,135720.750,A,4308.2968,N,07726.2656,W,0.21,23.56,170919,,,A*43
$GPGGA,135721.000,4308.2982,N,07726.2659,W,1,06,2.22,159.0,M,-34.4,M,,*58
$GPRMC,135721.250,A,4308.2992,N,07726.2662,W,0.29,19.19,170919,,,A*4F
$GPGGA,135721.500,4308.2998,N,07726.2662,W,1,06,2.22,158.0,M,-34.4,M,,*5F
$GPRMC,135721.750,A,4308.3001,N,07726.2662,W,0.39,36.90,170919,,,A*45
$GPGGA,135722.000,4308.3006,N,07726.2664,W,1,06,2.22,156.9,M,-34.4,M,,*57
$GPRMC,135722.250,A,4308.3010,N,07726.2665,W,0.10,38.31,170919,,,A*4A
$GPGGA,135722.500,4308.3015,N,07726.2666,W,1,06,2.22,156.2,M,-34.4,M,,*59
$GPRMC,135722.750,A,4308.3020,N,07726.2667,W,0.21,332.77,170919,,,A*77
$GPGGA,135723.000,4308.3027,N,07726.2669,W,1,06,2.22,155.6,M,-34.4,M,,*54
$GPRMC,135723.250,A,4308.3030,N,07726.2669,W,0.19,358.63,170919,,,A*7E
$GPGGA,135723.500,4308.3036,N,07726.2669,W,1,06,2.32,155.2,M,-34.4,M,,*54
$GPRMC,135723.750,A,4308.3039,N,07726.2669,W,0.15,10.14,170919,,,A*41
$GPGGA,135724.000,4308.3044,N,07726.2670,W,1,06,2.32,154.8,M,-34.4,M,,*50
$GPRMC,135724.250,A,4308.3047,N,07726.2669,W,0.21,351.97,170919,,,A*70
$GPGGA,135724.500,4308.3052,N,07726.2669,W,1,06,2.32,154.6,M,-34.4,M,,*54
$GPRMC,135724.750,A,4308.3055,N,07726.2669,W,0.28,1.17,170919,,,A*71
$GPGGA,135725.000,4308.3059,N,07726.2669,W,1,06,2.32,154.3,M,-34.4,M,,*5E
$GPRMC,135725.250,A,4308.3062,N,07726.2669,W,0.24,359.63,170919,,,A*70
$GPGGA,135725.500,4308.3064,N,07726.2668,W,1,06,2.32,154.1,M,-34.4,M,,*56
$GPRMC,135725.750,A,4308.3066,N,07726.2668,W,0.18,6.89,170919,,,A*72
$GPGGA,135726.000,4308.3068,N,07726.2667,W,1,06,2.32,154.0,M,-34.4,M,,*52
$GPRMC,135726.250,A,4308.3070,N,07726.2666,W,0.16,15.84,170919,,,A*4C
$GPGGA,135726.500,4308.3072,N,07726.2665,W,1,06,2.22,154.1,M,-34.4,M,,*5E
$GPRMC,135726.750,A,4308.3074,N,07726.2664,W,0.13,21.79,170919,,,A*4F
$GPGGA,135727.000,4308.3076,N,07726.2663,W,1,06,2.22,154.1,M,-34.4,M,,*58
$GPRMC,135727.250,A,4308.3077,N,07726.2663,W,0.08,1.42,170919,,,A*7F
$GPGGA,135727.500,4308.3079,N,07726.2662,W,1,06,2.32,154.1,M,-34.4,M,,*52
$GPRMC,135727.750,A,4308.3080,N,07726.2661,W,0.06,53.09,170919,,,A*46
$GPGGA,135728.000,4308.3082,N,07726.2661,W,1,06,2.22,154.1,M,-34.4,M,,*5E
$GPRMC,135728.250,A,4308.3083,N,07726.2660,W,0.04,158.07,170919,,,A*78
$GPGGA,135728.500,4308.3085,N,07726.2660,W,1,06,2.22,154.1,M,-34.4,M,,*5D
$GPRMC,135728.750,A,4308.3086,N,07726.2659,W,0.03,0.24,170919,,,A*78
$GPGGA,135729.000,4308.3087,N,07726.2658,W,1,06,2.32,154.1,M,-34.4,M,,*51
$GPRMC,135729.250,A,4308.3089,N,07726.2658,W,0.02,255.45,170919,,,A*76
$GPGGA,135729.500,4308.3090,N,07726.2657,W,1,06,2.22,154.1,M,-34.4,M,,*5C
$GPRMC,135729.750,A,4308.3091,N,07726.2657,W,0.01,295.58,170919,,,A*76
$GPGGA,135730.000,4308.3092,N,07726.2656,W,1,06,2.22,154.2,M,-34.4,M,,*51
$GPRMC,135730.250,A,4308.3093,N,07726.2656,W,0.03,5.03,170919,,,A*7F
$GPGGA,135730.500,4308.3094,N,07726.2655,W,1,06,2.32,154.1,M,-34.4,M,,*53
$GPRMC,135730.750,A,4308.3095,N,07726.2655,W,0.03,163.66,170919,,,A*7D
$GPGGA,135731.000,4308.3097,N,07726.2654,W,1,06,2.22,154.0,M,-34.4,M,,*55
$GPRMC,135731.250,A,4308.3097,N,07726.2654,W,0.04,234.56,170919,,,A*7F
$GPGGA,135731.500,4308.3099,N,07726.2653,W,1,06,2.22,154.0,M,-34.4,M,,*59
$GPRMC,135731.750,A,4308.3099,N,07726.2653,W,0.05,189.94,170919,,,A*79
$GPGGA,135732.000,4308.3101,N,07726.2652,W,1,06,2.22,154.0,M,-34.4,M,,*5E
$GPRMC,135732.250,A,4308.3101,N,07726.2652,W,0.01,212.23,170919,,,A*77
$GPGGA,135732.500,4308.3102,N,07726.2652,W,1,06,2.22,154.0,M,-34.4,M,,*58
$GPRMC,135732.750,A,4308.3103,N,07726.2651,W,0.03,269.30,170919,,,A*7F
$GPGGA,135733.000,4308.3103,N,07726.2651,W,1,06,2.22,153.9,M,-34.4,M,,*50
$GPRMC,135733.250,A,4308.3104,N,07726.2650,W,0.05,12.81,170919,,,A*4F
$GPGGA,135733.500,4308.3104,N,07726.2650,W,1,06,2.32,153.9,M,-34.4,M,,*52
$GPRMC,135733.750,A,4308.3105,N,07726.2649,W,0.02,18.97,170919,,,A*49
$GPGGA,135734.000,4308.3106,N,07726.2649,W,1,06,2.22,153.8,M,-34.4,M,,*5A
$GPRMC,135734.250,A,4308.3106,N,07726.2649,W,0.02,106.67,170919,,,A*79
$GPGGA,135734.500,4308.3106,N,07726.2648,W,1,06,2.22,153.8,M,-34.4,M,,*5E
$GPRMC,135734.750,A,4308.3107,N,07726.2648,W,0.01,128.11,170919,,,A*72
$GPGGA,135735.000,4308.3107,N,07726.2647,W,1,06,2.22,153.7,M,-34.4,M,,*5B
$GPRMC,135735.250,A,4308.3107,N,07726.2647,W,0.02,159.30,170919,,,A*7F
$GPGGA,135735.500,4308.3108,N,07726.2647,W,1,06,2.22,153.5,M,-34.4,M,,*53
$GPRMC,135735.750,A,4308.3108,N,07726.2647,W,0.04,193.16,170919,,,A*71
$GPGGA,135736.000,4308.3108,N,07726.2646,W,1,06,2.22,153.5,M,-34.4,M,,*54
$GPRMC,135736.250,A,4308.3109,N,07726.2646,W,0.03,1.73,170919,,,A*79
$GPGGA,135736.500,4308.3109,N,07726.2646,W,1,06,2.33,153.4,M,-34.4,M,,*51
$GPRMC,135736.750,A,4308.3109,N,07726.2646,W,0.04,56.69,170919,,,A*42
$GPGGA,135737.000,4308.3109,N,07726.2645,W,1,06,2.22,153.4,M,-34.4,M,,*56
$GPRMC,135737.250,A,4308.3110,N,07726.2645,W,0.05,30.63,170919,,,A*46
$GPGGA,135737.500,4308.3110,N,07726.2645,W,1,06,2.22,153.4,M,-34.4,M,,*5B
$GPRMC,135737.750,A,4308.3110,N,07726.2645,W,0.03,6.80,170919,,,A*7D
$GPGGA,135738.000,4308.3110,N,07726.2644,W,1,06,2.33,153.3,M,-34.4,M,,*57
$GPRMC,135738.250,A,4308.3110,N,07726.2644,W,0.04,255.19,170919,,,A*75
$GPGGA,135738.500,4308.3111,N,07726.2644,W,1,06,2.22,153.3,M,-34.4,M,,*53
$GPRMC,135738.750,A,4308.3111,N,07726.2643,W,0.02,26.64,170919,,,A*4C
$GPGGA,135739.000,4308.3111,N,07726.2643,W,1,06,2.22,153.2,M,-34.4,M,,*51
$GPRMC,135739.250,A,4308.3111,N,07726.2643,W,0.02,178.60,170919,,,A*76
$GPGGA,135739.500,4308.3111,N,07726.2643,W,1,06,2.22,153.2,M,-34.4,M,,*54
$GPRMC,135739.750,A,4308.3111,N,07726.2643,W,0.04,102.22,170919,,,A*7E
$GPGGA,135740.000,4308.3111,N,07726.2642,W,1,06,2.22,153.1,M,-34.4,M,,*5D
$GPRMC,135740.250,A,4308.3111,N,07726.2642,W,0.01,244.63,170919,,,A*75
$GPGGA,135740.500,4308.3111,N,07726.2642,W,1,06,2.22,153.1,M,-34.4,M,,*58
$GPRMC,135740.750,A,4308.3111,N,07726.2642,W,0.02,272.87,170919,,,A*7C
$GPGGA,135741.000,4308.3111,N,07726.2642,W,1,06,2.22,153.1,M,-34.4,M,,*5C
$GPRMC,135741.250,A,4308.3111,N,07726.2642,W,0.01,301.31,170919,,,A*73
$GPGGA,135741.500,4308.3111,N,07726.2642,W,1,06,2.22,153.0,M,-34.4,M,,*58
$GPRMC,135741.750,A,4308.3111,N,07726.2642,W,0.01,89.22,170919,,,A*47
$GPGGA,135742.000,4308.3111,N,07726.2642,W,1,06,2.22,153.0,M,-34.4,M,,*5E
$GPRMC,135742.250,A,4308.3111,N,07726.2642,W,0.04,97.05,170919,,,A*4E
$GPGGA,135742.500,4308.3111,N,07726.2642,W,1,06,2.22,153.0,M,-34.4,M,,*5B
$GPRMC,135742.750,A,4308.3111,N,07726.2642,W,0.03,295.32,170919,,,A*78
$GPGGA,135743.000,4308.3111,N,07726.2642,W,1,06,2.22,153.0,M,-34.4,M,,*5F
$GPRMC,135743.250,A,4308.3111,N,07726.2642,W,0.03,172.89,170919,,,A*76
$GPGGA,135743.500,4308.3111,N,07726.2642,W,1,06,2.22,152.9,M,-34.4,M,,*52
$GPRMC,135743.750,A,4308.3111,N,07726.2642,W,0.01,206.02,170919,,,A*72
$GPGGA,135744.000,4308.3111,N,07726.2642,W,1,06,2.22,152.9,M,-34.4,M,,*50
$GPRMC,135744.250,A,4308.3111,N,07726.2642,W,0.03,56.39,170919,,,A*4D
$GPGGA,135744.500,4308.3111,N,07726.2642,W,1,06,2.22,152.9,M,-34.4,M,,*55
$GPRMC,135744.750,A,4308.3111,N,07726.2642,W,0.03,91.79,170919,,,A*47
$GPGGA,135745.000,4308.3111,N,07726.2642,W,1,06,2.22,152.9,M,-34.4,M,,*51
$GPRMC,135745.250,A,4308.3111,N,07726.2642,W,0.01,255.16,170919,,,A*72
$GPGGA,135745.500,4308.3111,N,07726.2642,W,1,06,2.22,152.9,M,-34.4,M,,*54
$GPRMC,135745.750,A,4308.3111,N,07726.2642,W,0.03,258.86,170919,,,A*71
$GPGGA,135746.000,4308.3111,N,07726.2642,W,1,06,2.22,152.9,M,-34.4,M,,*52
$GPRMC,135746.250,A,4308.3111,N,07726.2642,W,0.01,210.05,170919,,,A*72
$GPGGA,135746.500,4308.3111,N,07726.2642,W,1,06,2.22,152.9,M,-34.4,M,,*57
$GPRMC,135746.750,A,4308.3111,N,07726.2642,W,0.05,196.68,170919,,,A*75
$GPGGA,135747.000,4308.3111,N,07726.2642,W,1,06,2.22,152.9,M,-34.4,M,,*53
$GPRMC,135747.250,A,4308.3111,N,07726.2642,W,0.01,244.49,170919,,,A*7A
$GPGGA,135747.500,4308.3111,N,07726.2642,W,1,06,2.22,152.9,M,-34.4,M,,*56
$GPRMC,135747.750,A,4308.3111,N,07726.2642,W,0.02,34.17,170919,,,A*42
$GPGGA,135748.000,4308.3111,N,07726.2642,W,1,06,2.22,152.9,M,-34.4,M,,*5C
$GPRMC,135748.250,A,4308.3111,N,07726.2642,W,0.01,315.35,170919,,,A*7B
$GPGGA,135748.500,4308.3111,N,07726.2642,W,1,06,2.22,152.9,M,-34.4,M,,*59
$GPRMC,135748.750,A,4308.3111,N,07726.2642,W,0.01,165.40,170919,,,A*79
$GPGGA,135749.000,4308.3111,N,07726.2642,W,1,06,2.22,152.9,M,-34.4,M,,*5D
$GPRMC,135749.250,A,4308.3111,N,07726.2642,W,0.02,241.02,170919,,,A*7D
$GPGGA,135749.500,4308.3111,N,07726.2642,W,1,06,2.22,152.9,M,-34.4,M,,*58
$GPRMC,135749.750,A,4308.3111,N,07726.2642,W,0.02,40.52,170919,,,A*4E
$GPGGA,135750.000,4308.3111,N,07726.2642,W,1,06,2.22,152.9,M,-34.4,M,,*55
$GPRMC,135750.250,A,4308.3111,N,07726.2642,W,0.02,151.66,170919,,,A*75
$GPGGA,135750.500,4308.3111,N,07726.2642,W,1,06,2.22,152.9,M,-34.4,M,,*50
$GPRMC,135750.750,A,4308.3111,N,07726.2642,W,0.01,236.69,170919,,,A*7E
$GPGGA,135751.000,4308.3111,N,07726.2642,W,1,06,2.22,152.9,M,-34.4,M,,*54
$GPRMC,135751.250,A,4308.3111,N,07726.2642,W,0.01,8.25,170919,,,A*7D
$GPGGA,135751.500,4308.3111,N,07726.2642,W,1,06,2.33,152.9,M,-34.4,M,,*51
$GPRMC,135751.750,A,4308.3111,N,07726.2642,W,0.00,0.00,170919,,,A*76
$GPGGA,135752.000,4308.3111,N,07726.2642,W,1,06,2.33,152.9,M,-34.4,M,,*57
$GPRMC,135752.250,A,4308.3111,N,07726.2642,W,0.03,187.98,170919,,,A*7C
$GPGGA,135752.500,4308.3111,N,07726.2642,W,1,06,2.22,152.9,M,-34.4,M,,*52
$GPRMC,135752.750,A,4308.3111,N,07726.2642,W,0.01,38.92,170919,,,A*44
$GPGGA,135753.000,4308.3111,N,07726.2642,W,1,06,2.22,152.9,M,-34.4,M,,*56
$GPRMC,135753.250,A,4308.3111,N,07726.2642,W,0.01,27.74,170919,,,A*46
$GPGGA,135753.500,4308.3111,N,07726.2642,W,1,06,2.22,152.9,M,-34.4,M,,*53
$GPRMC,135753.750,A,4308.3111,N,07726.2642,W,0.06,22.06,170919,,,A*44
$GPGGA,135754.000,4308.3111,N,07726.2642,W,1,06,2.22,152.9,M,-34.4,M,,*51
$GPRMC,135754.250,A,4308.3111,N,07726.2642,W,0.01,174.12,170919,,,A*76
$GPGGA,135754.500,4308.3111,N,07726.2642,W,1,06,2.22,152.9,M,-34.4,M,,*54
$GPRMC,135754.750,A,4308.3111,N,07726.2642,W,0.04,26.43,170919,,,A*44
$GPGGA,135755.000,4308.3111,N,07726.2642,W,1,06,2.22,152.9,M,-34.4,M,,*50
$GPRMC,135755.250,A,4308.3111,N,07726.2642,W,0.19,10.30,170919,,,A*4D
$GPGGA,135755.500,4308.3111,N,07726.2642,W,1,06,2.33,152.9,M,-34.4,M,,*55
$GPRMC,135755.750,A,4308.3111,N,07726.2641,W,0.87,10.30,170919,,,A*4C
$GPGGA,135756.000,4308.3112,N,07726.2641,W,1,06,2.33,152.9,M,-34.4,M,,*53
$GPRMC,135756.250,A,4308.3114,N,07726.2641,W,2.66,14.45,170919,,,A*44
$GPGGA,135756.500,4308.3116,N,07726.2640,W,1,06,2.33,152.9,M,-34.4,M,,*53
$GPRMC,135756.750,A,4308.3117,N,07726.2639,W,2.65,15.31,170919,,,A*4C
$GPGGA,135757.000,4308.3119,N,07726.2639,W,1,06,2.22,152.8,M,-34.4,M,,*57
$GPRMC,135757.250,A,4308.3122,N,07726.2638,W,3.59,16.82,170919,,,A*4A
$GPGGA,135757.500,4308.3124,N,07726.2636,W,1,06,2.22,152.8,M,-34.4,M,,*53
$GPRMC,135757.750,A,4308.3126,N,07726.2635,W,3.78,19.74,170919,,,A*43
$GPGGA,135758.000,4308.3129,N,07726.2634,W,1,06,2.22,152.8,M,-34.4,M,,*56
$GPRMC,135758.250,A,4308.3132,N,07726.2632,W,4.09,21.53,170919,,,A*44
$GPGGA,135758.500,4308.3134,N,07726.2630,W,1,06,2.33,152.8,M,-34.4,M,,*5B
$GPRMC,135758.750,A,4308.3136,N,07726.2628,W,4.16,35.06,170919,,,A*45
$GPGGA,135759.000,4308.3139,N,07726.2626,W,1,06,2.33,152.8,M,-34.4,M,,*55
$GPRMC,135759.250,A,4308.3141,N,07726.2624,W,4.14,34.88,170919,,,A*48
$GPGGA,135759.500,4308.3144,N,07726.2621,W,1,06,2.33,152.7,M,-34.4,M,,*52
$GPRMC,135759.750,A,4308.3146,N,07726.2618,W,4.39,40.85,170919,,,A*44
$GPGGA,135800.000,4308.3148,N,07726.2615,W,1,06,2.33,152.7,M,-34.4,M,,*5F
$GPRMC,135800.250,A,4308.3149,N,07726.2613,W,3.86,47.08,170919,,,A*47
$GPGGA,135800.500,4308.3150,N,07726.2610,W,1,06,2.22,152.7,M,-34.4,M,,*56
$GPRMC,135800.750,A,4308.3151,N,07726.2607,W,3.72,53.09,170919,,,A*41
$GPGGA,135801.000,4308.3152,N,07726.2604,W,1,06,2.22,152.6,M,-34.4,M,,*54
$GPRMC,135801.250,A,4308.3152,N,07726.2601,W,3.43,63.97,170919,,,A*46
$GPGGA,135801.500,4308.3152,N,07726.2599,W,1,06,2.22,152.6,M,-34.4,M,,*56
$GPRMC,135801.750,A,4308.3152,N,07726.2597,W,2.22,66.35,170919,,,A*44
$GPGGA,135802.000,4308.3152,N,07726.2596,W,1,06,2.22,152.6,M,-34.4,M,,*5F
$GPRMC,135802.250,A,4308.3151,N,07726.2596,W,0.58,93.28,170919,,,A*49
$GPGGA,135802.500,4308.3151,N,07726.2596,W,1,06,2.22,152.6,M,-34.4,M,,*59
$GPRMC,135802.750,A,4308.3151,N,07726.2597,W,0.24,285.08,170919,,,A*71
$GPGGA,135803.000,4308.3151,N,07726.2598,W,1,06,2.22,152.5,M,-34.4,M,,*50
$GPRMC,135803.250,A,4308.3152,N,07726.2600,W,0.87,275.85,170919,,,A*78
$GPGGA,135803.500,4308.3153,N,07726.2603,W,1,06,2.23,152.5,M,-34.4,M,,*57
$GPRMC,135803.750,A,4308.3154,N,07726.2607,W,1.75,284.87,170919,,,A*7C
$GPGGA,135804.000,4308.3157,N,07726.2612,W,1,06,2.22,152.4,M,-34.4,M,,*51
$GPRMC,135804.250,A,4308.3158,N,07726.2616,W,3.33,284.31,170919,,,A*7F
$GPGGA,135804.500,4308.3158,N,07726.2621,W,1,06,2.23,152.4,M,-34.4,M,,*5A
$GPRMC,135804.750,A,4308.3158,N,07726.2625,W,4.68,276.56,170919,,,A*7F
$GPGGA,135805.000,4308.3158,N,07726.2631,W,1,06,2.33,152.4,M,-34.4,M,,*5E
$GPRMC,135805.250,A,4308.3159,N,07726.2637,W,5.84,276.55,170919,,,A*79
$GPGGA,135805.500,4308.3160,N,07726.2644,W,1,06,2.34,152.3,M,-34.4,M,,*52
$GPRMC,135805.750,A,4308.3159,N,07726.2653,W,7.40,275.33,170919,,,A*77
$GPGGA,135806.000,4308.3159,N,07726.2662,W,1,06,2.33,152.3,M,-34.4,M,,*5D
$GPRMC,135806.250,A,4308.3159,N,07726.2672,W,8.92,273.92,170919,,,A*7F
$GPGGA,135806.500,4308.3159,N,07726.2681,W,1,06,2.34,152.3,M,-34.4,M,,*52
$GPRMC,135806.750,A,4308.3160,N,07726.2691,W,9.74,274.73,170919,,,A*7C
$GPGGA,135807.000,4308.3162,N,07726.2701,W,1,06,2.23,152.3,M,-34.4,M,,*51
$GPRMC,135807.250,A,4308.3163,N,07726.2712,W,10.95,277.24,170919,,,A*47
$GPGGA,135807.500,4308.3165,N,07726.2723,W,1,06,2.33,152.2,M,-34.4,M,,*53
$GPRMC,135807.750,A,4308.3166,N,07726.2734,W,11.76,278.88,170919,,,A*46
$GPGGA,135808.000,4308.3169,N,07726.2746,W,1,06,2.23,152.2,M,-34.4,M,,*57
$GPRMC,135808.250,A,4308.3171,N,07726.2759,W,12.63,281.13,170919,,,A*42
$GPGGA,135808.500,4308.3174,N,07726.2771,W,1,06,2.34,152.2,M,-34.4,M,,*5C
$GPRMC,135808.750,A,4308.3176,N,07726.2783,W,13.02,283.10,170919,,,A*40
$GPGGA,135809.000,4308.3179,N,07726.2796,W,1,06,2.23,152.2,M,-34.4,M,,*5A
$GPRMC,135809.250,A,4308.3181,N,07726.2808,W,13.22,284.21,170919,,,A*47
$GPGGA,135809.500,4308.3183,N,07726.2821,W,1,06,2.34,152.2,M,-34.4,M,,*5F
$GPRMC,135809.750,A,4308.3185,N,07726.2833,W,13.36,284.09,170919,,,A*41
$GPGGA,135810.000,4308.3186,N,07726.2847,W,1,06,2.23,152.1,M,-34.4,M,,*52
$GPRMC,135810.250,A,4308.3188,N,07726.2860,W,13.65,283.44,170919,,,A*4F
$GPGGA,135810.500,4308.3190,N,07726.2873,W,1,06,2.23,152.1,M,-34.4,M,,*57
$GPRMC,135810.750,A,4308.3192,N,07726.2886,W,13.82,283.63,170919,,,A*45
$GPGGA,135811.000,4308.3194,N,07726.2899,W,1,06,2.23,152.0,M,-34.4,M,,*52
$GPRMC,135811.250,A,4308.3196,N,07726.2913,W,13.89,284.33,170919,,,A*41
$GPGGA,135811.500,4308.3200,N,07726.2926,W,1,06,2.23,152.0,M,-34.4,M,,*5C
$GPRMC,135811.750,A,4308.3203,N,07726.2939,W,14.43,286.61,170919,,,A*47
$GPGGA,135812.000,4308.3208,N,07726.2953,W,1,06,2.23,151.9,M,-34.4,M,,*5A
$GPRMC,135812.250,A,4308.3213,N,07726.2966,W,14.88,290.45,170919,,,A*4C
$GPGGA,135812.500,4308.3219,N,07726.2979,W,1,06,2.34,151.9,M,-34.4,M,,*51
$GPRMC,135812.750,A,4308.3223,N,07726.2992,W,15.12,293.00,170919,,,A*41
$GPGGA,135813.000,4308.3227,N,07726.3006,W,1,06,2.23,151.9,M,-34.4,M,,*5E
$GPRMC,135813.250,A,4308.3232,N,07726.3020,W,15.50,293.89,170919,,,A*43
$GPGGA,135813.500,4308.3237,N,07726.3033,W,1,06,2.34,151.8,M,-34.4,M,,*5B
$GPRMC,135813.750,A,4308.3243,N,07726.3047,W,15.91,295.01,170919,,,A*4A
$GPGGA,135814.000,4308.3248,N,07726.3062,W,1,06,2.23,151.8,M,-34.4,M,,*53
$GPRMC,135814.250,A,4308.3254,N,07726.3076,W,16.52,296.10,170919,,,A*43
$GPGGA,135814.500,4308.3259,N,07726.3091,W,1,06,2.23,151.8,M,-34.4,M,,*5A
$GPRMC,135814.750,A,4308.3264,N,07726.3106,W,16.75,296.13,170919,,,A*45
$GPGGA,135815.000,4308.3269,N,07726.3121,W,1,06,2.23,151.8,M,-34.4,M,,*57
$GPRMC,135815.250,A,4308.3275,N,07726.3136,W,17.25,296.59,170919,,,A*48
$GPGGA,135815.500,4308.3282,N,07726.3152,W,1,06,2.34,151.8,M,-34.4,M,,*55
$GPRMC,135815.750,A,4308.3288,N,07726.3168,W,17.89,297.00,170919,,,A*4F
$GPGGA,135816.000,4308.3295,N,07726.3184,W,1,06,2.23,151.8,M,-34.4,M,,*58
$GPRMC,135816.250,A,4308.3303,N,07726.3199,W,18.35,298.60,170919,,,A*44
$GPGGA,135816.500,4308.3310,N,07726.3216,W,1,06,2.34,151.9,M,-34.4,M,,*5E
$GPRMC,135816.750,A,4308.3317,N,07726.3232,W,18.79,298.83,170919,,,A*43
$GPGGA,135817.000,4308.3325,N,07726.3248,W,1,06,2.34,152.0,M,-34.4,M,,*5D
$GPRMC,135817.250,A,4308.3332,N,07726.3266,W,19.48,298.69,170919,,,A*46
$GPGGA,135817.500,4308.3340,N,07726.3283,W,1,06,2.34,152.1,M,-34.4,M,,*5D
$GPRMC,135817.750,A,4308.3347,N,07726.3300,W,19.84,299.17,170919,,,A*48
$GPGGA,135818.000,4308.3354,N,07726.3317,W,1,06,2.23,152.1,M,-34.4,M,,*58
$GPRMC,135818.250,A,4308.3362,N,07726.3334,W,20.27,299.14,170919,,,A*42
$GPGGA,135818.500,4308.3370,N,07726.3352,W,1,06,2.23,152.2,M,-34.4,M,,*59
$GPRMC,135818.750,A,4308.3378,N,07726.3370,W,20.82,299.02,170919,,,A*44
$GPGGA,135819.000,4308.3387,N,07726.3389,W,1,06,2.34,152.3,M,-34.4,M,,*54
$GPRMC,135819.250,A,4308.3395,N,07726.3407,W,21.37,299.15,170919,,,A*4D
$GPGGA,135819.500,4308.3404,N,07726.3426,W,1,06,2.34,152.4,M,-34.4,M,,*58
$GPRMC,135819.750,A,4308.3414,N,07726.3444,W,21.70,300.41,170919,,,A*42
$GPGGA,135820.000,4308.3424,N,07726.3463,W,1,06,2.23,152.4,M,-34.4,M,,*52
$GPRMC,135820.250,A,4308.3433,N,07726.3480,W,21.71,301.47,170919,,,A*46
$GPGGA,135820.500,4308.3443,N,07726.3498,W,1,06,2.34,152.5,M,-34.4,M,,*55
$GPRMC,135820.750,A,4308.3453,N,07726.3516,W,21.62,302.69,170919,,,A*46
$GPGGA,135821.000,4308.3467,N,07726.3533,W,1,06,2.34,152.6,M,-34.4,M,,*54
$GPRMC,135821.250,A,4308.3481,N,07726.3551,W,21.50,305.49,170919,,,A*4A
$GPGGA,135821.500,4308.3495,N,07726.3569,W,1,06,2.34,152.6,M,-34.4,M,,*53
$GPRMC,135821.750,A,4308.3507,N,07726.3586,W,21.66,308.27,170919,,,A*4A
$GPGGA,135822.000,4308.3519,N,07726.3602,W,1,06,2.34,152.7,M,-34.4,M,,*5F
$GPRMC,135822.250,A,4308.3530,N,07726.3617,W,21.13,310.59,170919,,,A*41
$GPGGA,135822.500,4308.3541,N,07726.3631,W,1,06,2.34,152.8,M,-34.4,M,,*58
$GPRMC,135822.750,A,4308.3552,N,07726.3644,W,20.44,314.67,170919,,,A*4C
$GPGGA,135823.000,4308.3563,N,07726.3656,W,1,06,2.23,152.9,M,-34.4,M,,*5A
$GPRMC,135823.250,A,4308.3571,N,07726.3667,W,19.71,317.61,170919,,,A*41
$GPGGA,135823.500,4308.3581,N,07726.3679,W,1,06,2.34,153.3,M,-34.4,M,,*53
$GPRMC,135823.750,A,4308.3592,N,07726.3691,W,19.42,321.08,170919,,,A*4A
$GPGGA,135824.000,4308.3604,N,07726.3701,W,1,06,2.34,153.5,M,-34.4,M,,*57
$GPRMC,135824.250,A,4308.3618,N,07726.3712,W,19.55,326.49,170919,,,A*47
$GPGGA,135824.500,4308.3635,N,07726.3722,W,1,06,2.34,153.7,M,-34.4,M,,*53
$GPRMC,135824.750,A,4308.3649,N,07726.3733,W,20.42,329.80,170919,,,A*43
$GPGGA,135825.000,4308.3662,N,07726.3742,W,1,06,2.34,153.9,M,-34.4,M,,*5D
$GPRMC,135825.250,A,4308.3675,N,07726.3751,W,20.39,331.35,170919,,,A*47
$GPGGA,135825.500,4308.3687,N,07726.3760,W,1,06,2.34,154.0,M,-34.4,M,,*5D
$GPRMC,135825.750,A,4308.3700,N,07726.3768,W,20.13,332.48,170919,,,A*4A
$GPGGA,135826.000,4308.3712,N,07726.3776,W,1,06,2.23,154.1,M,-34.4,M,,*56
$GPRMC,135826.250,A,4308.3725,N,07726.3783,W,19.74,335.33,170919,,,A*4E
$GPGGA,135826.500,4308.3738,N,07726.3789,W,1,06,2.34,154.3,M,-34.4,M,,*5F
$GPRMC,135826.750,A,4308.3750,N,07726.3794,W,19.21,338.05,170919,,,A*47
$GPGGA,135827.000,4308.3761,N,07726.3799,W,1,06,2.23,154.4,M,-34.4,M,,*57
$GPRMC,135827.250,A,4308.3773,N,07726.3804,W,18.38,340.71,170919,,,A*41
$GPGGA,135827.500,4308.3784,N,07726.3807,W,1,06,2.23,154.5,M,-34.4,M,,*50
$GPRMC,135827.750,A,4308.3795,N,07726.3810,W,17.57,343.92,170919,,,A*41
$GPGGA,135828.000,4308.3813,N,07726.3808,W,1,06,2.23,154.6,M,-34.4,M,,*57
$GPRMC,135828.250,A,4308.3826,N,07726.3809,W,18.27,351.45,170919,,,A*45
$GPGGA,135828.500,4308.3839,N,07726.3809,W,1,06,2.34,154.7,M,-34.4,M,,*5C
$GPRMC,135828.750,A,4308.3853,N,07726.3809,W,18.27,354.68,170919,,,A*48
$GPGGA,135829.000,4308.3868,N,07726.3808,W,1,06,2.34,154.8,M,-34.4,M,,*52
$GPRMC,135829.250,A,4308.3883,N,07726.3807,W,18.68,358.61,170919,,,A*41
$GPGGA,135829.500,4308.3898,N,07726.3805,W,1,06,2.34,154.9,M,-34.4,M,,*54
$GPRMC,135829.750,A,4308.3914,N,07726.3802,W,19.12,2.35,170919,,,A*4F
$GPGGA,135830.000,4308.3938,N,07726.3796,W,1,06,2.34,155.0,M,-34.4,M,,*5F
$GPRMC,135830.250,A,4308.3961,N,07726.3790,W,21.94,8.01,170919,,,A*4C
$GPGGA,135830.500,4308.3979,N,07726.3785,W,1,06,2.34,155.1,M,-34.4,M,,*5C
$GPRMC,135830.750,A,4308.3996,N,07726.3781,W,22.46,9.93,170919,,,A*47
$GPGGA,135831.000,4308.4013,N,07726.3777,W,1,06,2.34,155.1,M,-34.4,M,,*57
$GPRMC,135831.250,A,4308.4029,N,07726.3772,W,22.69,11.25,170919,,,A*7C
$GPGGA,135831.500,4308.4047,N,07726.3767,W,1,06,2.34,155.2,M,-34.4,M,,*51
$GPRMC,135831.750,A,4308.4063,N,07726.3763,W,22.94,11.61,170919,,,A*75
$GPGGA,135832.000,4308.4080,N,07726.3758,W,1,06,2.34,155.2,M,-34.4,M,,*50
$GPRMC,135832.250,A,4308.4097,N,07726.3753,W,23.01,11.89,170919,,,A*70
$GPGGA,135832.500,4308.4112,N,07726.3748,W,1,06,2.34,155.3,M,-34.4,M,,*5F
$GPRMC,135832.750,A,4308.4128,N,07726.3743,W,22.97,11.92,170919,,,A*75
$GPGGA,135833.000,4308.4144,N,07726.3738,W,1,06,2.34,155.4,M,-34.4,M,,*58
$GPRMC,135833.250,A,4308.4159,N,07726.3734,W,22.97,11.43,170919,,,A*7B
$GPGGA,135833.500,4308.4174,N,07726.3729,W,1,06,2.35,155.4,M,-34.4,M,,*5F
$GPRMC,135833.750,A,4308.4189,N,07726.3725,W,22.48,10.56,170919,,,A*74
$GPGGA,135834.000,4308.4204,N,07726.3721,W,1,06,2.35,155.5,M,-34.4,M,,*50
$GPRMC,135834.250,A,4308.4219,N,07726.3717,W,22.02,9.85,170919,,,A*45
$GPGGA,135834.500,4308.4234,N,07726.3714,W,1,06,2.35,155.6,M,-34.4,M,,*53
$GPRMC,135834.750,A,4308.4248,N,07726.3710,W,21.66,9.43,170919,,,A*48
$GPGGA,135835.000,4308.4263,N,07726.3707,W,1,06,2.35,155.6,M,-34.4,M,,*57
$GPRMC,135835.250,A,4308.4277,N,07726.3704,W,21.02,9.23,170919,,,A*41
$GPGGA,135835.500,4308.4290,N,07726.3701,W,1,06,2.34,155.7,M,-34.4,M,,*58
$GPRMC,135835.750,A,4308.4304,N,07726.3698,W,20.36,8.81,170919,,,A*4A
$GPGGA,135836.000,4308.4317,N,07726.3695,W,1,06,2.35,155.8,M,-34.4,M,,*52
$GPRMC,135836.250,A,4308.4331,N,07726.3693,W,19.75,7.61,170919,,,A*4D
$GPGGA,135836.500,4308.4345,N,07726.3691,W,1,06,2.35,155.9,M,-34.4,M,,*55
$GPRMC,135836.750,A,4308.4359,N,07726.3688,W,19.72,6.94,170919,,,A*40
$GPGGA,135837.000,4308.4372,N,07726.3685,W,1,06,2.35,156.0,M,-34.4,M,,*5A
$GPRMC,135837.250,A,4308.4383,N,07726.3682,W,18.79,8.52,170919,,,A*47
$GPGGA,135837.500,4308.4394,N,07726.3679,W,1,06,2.35,156.1,M,-34.4,M,,*55
$GPRMC,135837.750,A,4308.4406,N,07726.3676,W,17.90,9.63,170919,,,A*48
$GPGGA,135838.000,4308.4417,N,07726.3673,W,1,06,2.35,156.1,M,-34.4,M,,*59
$GPRMC,135838.250,A,4308.4428,N,07726.3670,W,17.18,10.00,170919,,,A*75
$GPGGA,135838.500,4308.4437,N,07726.3667,W,1,06,2.35,156.2,M,-34.4,M,,*58
$GPRMC,135838.750,A,4308.4447,N,07726.3664,W,16.38,10.01,170919,,,A*7E
$GPGGA,135839.000,4308.4456,N,07726.3662,W,1,06,2.35,156.2,M,-34.4,M,,*5E
$GPRMC,135839.250,A,4308.4465,N,07726.3660,W,15.36,9.62,170919,,,A*4E
$GPGGA,135839.500,4308.4472,N,07726.3658,W,1,06,2.35,156.2,M,-34.4,M,,*54
$GPRMC,135839.750,A,4308.4481,N,07726.3656,W,14.30,8.04,170919,,,A*42
$GPGGA,135840.000,4308.4488,N,07726.3655,W,1,06,2.35,156.2,M,-34.4,M,,*57
$GPRMC,135840.250,A,4308.4495,N,07726.3653,W,12.74,6.49,170919,,,A*48
$GPGGA,135840.500,4308.4501,N,07726.3652,W,1,06,2.35,156.3,M,-34.4,M,,*54
$GPRMC,135840.750,A,4308.4508,N,07726.3651,W,11.55,5.47,170919,,,A*47
$GPGGA,135841.000,4308.4512,N,07726.3649,W,1,06,2.35,156.7,M,-34.4,M,,*5C
$GPRMC,135841.250,A,4308.4516,N,07726.3647,W,9.45,9.02,170919,,,A*7E
$GPGGA,135841.500,4308.4523,N,07726.3647,W,1,06,2.35,157.0,M,-34.4,M,,*53
$GPRMC,135841.750,A,4308.4529,N,07726.3646,W,9.15,6.40,170919,,,A*7A
$GPGGA,135842.000,4308.4535,N,07726.3645,W,1,06,2.35,157.1,M,-34.4,M,,*51
$GPRMC,135842.250,A,4308.4543,N,07726.3646,W,9.78,358.99,170919,,,A*77
$GPGGA,135842.500,4308.4551,N,07726.3648,W,1,06,2.35,156.8,M,-34.4,M,,*53
$GPRMC,135842.750,A,4308.4555,N,07726.3651,W,10.17,345.11,170919,,,A*4E
$GPGGA,135843.000,4308.4560,N,07726.3656,W,1,06,2.35,156.8,M,-34.4,M,,*5A
$GPRMC,135843.250,A,4308.4567,N,07726.3662,W,11.01,330.88,170919,,,A*4F
$GPGGA,135843.500,4308.4575,N,07726.3669,W,1,06,2.35,156.6,M,-34.4,M,,*59
$GPRMC,135843.750,A,4308.4581,N,07726.3677,W,12.67,319.48,170919,,,A*42
$GPGGA,135844.000,4308.4587,N,07726.3688,W,1,06,2.35,156.9,M,-34.4,M,,*56
$GPRMC,135844.250,A,4308.4593,N,07726.3701,W,15.31,305.95,170919,,,A*4A
$GPGGA,135844.500,4308.4597,N,07726.3714,W,1,06,2.35,157.1,M,-34.4,M,,*5F
$GPRMC,135844.750,A,4308.4603,N,07726.3729,W,17.47,298.52,170919,,,A*42
$GPGGA,135845.000,4308.4606,N,07726.3746,W,1,06,2.23,157.3,M,-34.4,M,,*52
$GPRMC,135845.250,A,4308.4609,N,07726.3764,W,19.91,291.27,170919,,,A*4B
$GPGGA,135845.500,4308.4612,N,07726.3783,W,1,06,2.35,157.6,M,-34.4,M,,*59
$GPRMC,135845.750,A,4308.4615,N,07726.3804,W,22.29,286.91,170919,,,A*4A
$GPGGA,135846.000,4308.4617,N,07726.3828,W,1,06,2.23,157.8,M,-34.4,M,,*5D
$GPRMC,135846.250,A,4308.4619,N,07726.3853,W,25.45,282.93,170919,,,A*49
$GPGGA,135846.500,4308.4618,N,07726.3878,W,1,06,2.35,158.0,M,-34.4,M,,*52
$GPRMC,135846.750,A,4308.4620,N,07726.3904,W,26.82,278.71,170919,,,A*44
$GPGGA,135847.000,4308.4622,N,07726.3929,W,1,06,2.35,158.1,M,-34.4,M,,*5B
$GPRMC,135847.250,A,4308.4624,N,07726.3955,W,27.23,277.83,170919,,,A*48
$GPGGA,135847.500,4308.4627,N,07726.3981,W,1,06,2.35,158.2,M,-34.4,M,,*5A
$GPRMC,135847.750,A,4308.4630,N,07726.4007,W,27.00,277.90,170919,,,A*42
$GPGGA,135848.000,4308.4632,N,07726.4032,W,1,06,2.23,158.1,M,-34.4,M,,*56
$GPRMC,135848.250,A,4308.4635,N,07726.4058,W,26.56,278.00,170919,,,A*43
$GPGGA,135848.500,4308.4637,N,07726.4083,W,1,06,2.23,157.9,M,-34.4,M,,*5B
$GPRMC,135848.750,A,4308.4639,N,07726.4108,W,25.88,277.14,170919,,,A*44
$GPGGA,135849.000,4308.4640,N,07726.4133,W,1,06,2.23,157.7,M,-34.4,M,,*5B
$GPRMC,135849.250,A,4308.4641,N,07726.4157,W,24.57,276.82,170919,,,A*48
$GPGGA,135849.500,4308.4643,N,07726.4181,W,1,06,2.23,157.5,M,-34.4,M,,*56
$GPRMC,135849.750,A,4308.4644,N,07726.4204,W,23.84,276.80,170919,,,A*46
$GPGGA,135850.000,4308.4646,N,07726.4226,W,1,06,2.23,157.4,M,-34.4,M,,*51
$GPRMC,135850.250,A,4308.4648,N,07726.4247,W,22.33,277.14,170919,,,A*41
$GPGGA,135850.500,4308.4649,N,07726.4267,W,1,06,2.23,157.4,M,-34.4,M,,*5E
$GPRMC,135850.750,A,4308.4650,N,07726.4287,W,20.15,276.92,170919,,,A*48
$GPGGA,135851.000,4308.4652,N,07726.4306,W,1,06,2.23,157.5,M,-34.4,M,,*57
$GPRMC,135851.250,A,4308.4653,N,07726.4322,W,17.76,277.39,170919,,,A*40
$GPGGA,135851.500,4308.4655,N,07726.4338,W,1,06,2.35,157.4,M,-34.4,M,,*5E
$GPRMC,135851.750,A,4308.4657,N,07726.4353,W,16.05,278.74,170919,,,A*44
$GPGGA,135852.000,4308.4660,N,07726.4366,W,1,06,2.23,157.4,M,-34.4,M,,*52
$GPRMC,135852.250,A,4308.4662,N,07726.4378,W,12.99,281.13,170919,,,A*4B
$GPGGA,135852.500,4308.4665,N,07726.4389,W,1,06,2.23,157.4,M,-34.4,M,,*53
$GPRMC,135852.750,A,4308.4667,N,07726.4398,W,10.60,282.63,170919,,,A*45
$GPGGA,135853.000,4308.4668,N,07726.4407,W,1,06,2.23,157.5,M,-34.4,M,,*5A
$GPRMC,135853.250,A,4308.4668,N,07726.4415,W,9.51,280.23,170919,,,A*70
$GPGGA,135853.500,4308.4669,N,07726.4422,W,1,06,2.23,157.6,M,-34.4,M,,*5A
$GPRMC,135853.750,A,4308.4670,N,07726.4429,W,8.11,279.31,170919,,,A*73
$GPGGA,135854.000,4308.4671,N,07726.4434,W,1,06,2.23,157.7,M,-34.4,M,,*57
$GPRMC,135854.250,A,4308.4673,N,07726.4439,W,6.71,281.80,170919,,,A*76
$GPGGA,135854.500,4308.4673,N,07726.4442,W,1,06,2.23,157.8,M,-34.4,M,,*5E
$GPRMC,135854.750,A,4308.4674,N,07726.4444,W,4.94,284.92,170919,,,A*71
$GPGGA,135855.000,4308.4675,N,07726.4445,W,1,06,2.23,158.0,M,-34.4,M,,*5C
$GPRMC,135855.250,A,4308.4675,N,07726.4446,W,3.41,290.40,170919,,,A*73
$GPGGA,135855.500,4308.4672,N,07726.4436,W,1,06,2.23,158.0,M,-34.4,M,,*5A
$GPRMC,135855.750,A,4308.4671,N,07726.4434,W,0.13,290.40,170919,,,A*73
$GPGGA,135856.000,4308.4670,N,07726.4432,W,1,06,2.23,157.8,M,-34.4,M,,*5D
$GPRMC,135856.250,A,4308.4669,N,07726.4430,W,0.15,290.40,170919,,,A*7E
$GPGGA,135856.500,4308.4668,N,07726.4428,W,1,06,2.23,157.6,M,-34.4,M,,*54
$GPRMC,135856.750,A,4308.4667,N,07726.4427,W,0.14,290.40,170919,,,A*72
$GPGGA,135857.000,4308.4666,N,07726.4426,W,1,06,2.23,157.6,M,-34.4,M,,*50
$GPRMC,135857.250,A,4308.4666,N,07726.4425,W,0.12,290.40,170919,,,A*73
$GPGGA,135857.500,4308.4665,N,07726.4425,W,1,06,2.23,157.7,M,-34.4,M,,*54
$GPRMC,135857.750,A,4308.4665,N,07726.4424,W,0.10,290.40,170919,,,A*76
$GPGGA,135858.000,4308.4665,N,07726.4423,W,1,06,2.23,157.7,M,-34.4,M,,*58
$GPRMC,135858.250,A,4308.4665,N,07726.4423,W,0.08,290.40,170919,,,A*72
$GPGGA,135858.500,4308.4664,N,07726.4422,W,1,06,2.23,157.7,M,-34.4,M,,*5D
$GPRMC,135858.750,A,4308.4665,N,07726.4422,W,0.07,290.40,170919,,,A*79
$GPGGA,135859.000,4308.4665,N,07726.4421,W,1,06,2.23,157.8,M,-34.4,M,,*54
$GPRMC,135859.250,A,4308.4665,N,07726.4421,W,0.06,290.40,170919,,,A*7F
$GPGGA,135859.500,4308.4665,N,07726.4420,W,1,06,2.23,157.9,M,-34.4,M,,*51
$GPRMC,135859.750,A,4308.4665,N,07726.4420,W,0.06,290.40,170919,,,A*7B
$GPGGA,135900.000,4308.4665,N,07726.4419,W,1,06,2.23,158.0,M,-34.4,M,,*55
$GPRMC,135900.250,A,4308.4666,N,07726.4419,W,0.05,290.40,170919,,,A*79
$GPGGA,135900.500,4308.4666,N,07726.4418,W,1,06,2.23,158.0,M,-34.4,M,,*52
$GPRMC,135900.750,A,4308.4666,N,07726.4418,W,0.05,290.40,170919,,,A*7D
$GPGGA,135901.000,4308.4666,N,07726.4417,W,1,06,2.23,158.1,M,-34.4,M,,*58
$GPRMC,135901.250,A,4308.4666,N,07726.4417,W,0.05,290.40,170919,,,A*76
$GPGGA,135901.500,4308.4666,N,07726.4416,W,1,06,2.23,158.2,M,-34.4,M,,*5F
$GPRMC,135901.750,A,4308.4667,N,07726.4416,W,0.05,290.40,170919,,,A*73
$GPGGA,135902.000,4308.4667,N,07726.4416,W,1,06,2.23,158.2,M,-34.4,M,,*58
$GPRMC,135902.250,A,4308.4667,N,07726.4415,W,0.05,290.40,170919,,,A*76
$GPGGA,135902.500,4308.4667,N,07726.4415,W,1,06,2.23,158.3,M,-34.4,M,,*5F
$GPRMC,135902.750,A,4308.4667,N,07726.4414,W,0.05,290.40,170919,,,A*72
$GPGGA,135903.000,4308.4667,N,07726.4414,W,1,06,2.23,158.3,M,-34.4,M,,*5A
$GPRMC,135903.250,A,4308.4667,N,07726.4414,W,0.04,290.40,170919,,,A*77
$GPGGA,135903.500,4308.4668,N,07726.4413,W,1,06,2.23,158.4,M,-34.4,M,,*50
$GPRMC,135903.750,A,4308.4668,N,07726.4413,W,0.04,290.40,170919,,,A*7A
$GPGGA,135904.000,4308.4668,N,07726.4413,W,1,06,2.23,158.4,M,-34.4,M,,*52
$GPRMC,135904.250,A,4308.4668,N,07726.4412,W,0.04,290.40,170919,,,A*79
$GPGGA,135904.500,4308.4668,N,07726.4412,W,1,06,2.23,158.4,M,-34.4,M,,*56
$GPRMC,135904.750,A,4308.4668,N,07726.4411,W,0.04,290.40,170919,,,A*7F
$GPGGA,135905.000,4308.4668,N,07726.4411,W,1,06,2.23,158.5,M,-34.4,M,,*50
$GPRMC,135905.250,A,4308.4668,N,07726.4411,W,0.05,290.40,170919,,,A*7A
$GPGGA,135905.500,4308.4668,N,07726.4410,W,1,06,2.24,158.5,M,-34.4,M,,*53
$GPRMC,135905.750,A,4308.4669,N,07726.4410,W,0.06,290.40,170919,,,A*7C
$GPGGA,135906.000,4308.4669,N,07726.4409,W,1,06,2.23,158.5,M,-34.4,M,,*5B
$GPRMC,135906.250,A,4308.4669,N,07726.4409,W,0.06,290.40,170919,,,A*72
$GPGGA,135906.500,4308.4669,N,07726.4408,W,1,06,2.24,158.6,M,-34.4,M,,*5B
$GPRMC,135906.750,A,4308.4669,N,07726.4407,W,0.06,290.40,170919,,,A*79
$GPGGA,135907.000,4308.4669,N,07726.4407,W,1,06,2.23,158.6,M,-34.4,M,,*57
$GPRMC,135907.250,A,4308.4669,N,07726.4406,W,0.06,290.40,170919,,,A*7C
$GPGGA,135907.500,4308.4669,N,07726.4406,W,1,06,2.23,158.6,M,-34.4,M,,*53
$GPRMC,135907.750,A,4308.4670,N,07726.4405,W,0.04,290.40,170919,,,A*70
$GPGGA,135908.000,4308.4670,N,07726.4405,W,1,06,2.24,158.6,M,-34.4,M,,*55
$GPRMC,135908.250,A,4308.4670,N,07726.4405,W,0.06,290.40,170919,,,A*78
$GPGGA,135908.500,4308.4670,N,07726.4406,W,1,06,2.23,158.7,M,-34.4,M,,*55
$GPRMC,135908.750,A,4308.4671,N,07726.4406,W,0.95,290.40,170919,,,A*75
$GPGGA,135909.000,4308.4671,N,07726.4407,W,1,06,2.24,158.7,M,-34.4,M,,*56
$GPRMC,135909.250,A,4308.4673,N,07726.4414,W,6.58,281.20,170919,,,A*71
$GPGGA,135909.500,4308.4677,N,07726.4424,W,1,06,2.36,158.7,M,-34.4,M,,*57
$GPRMC,135909.750,A,4308.4679,N,07726.4434,W,10.06,282.11,170919,,,A*41
$GPGGA,135910.000,4308.4684,N,07726.4446,W,1,06,2.24,158.7,M,-34.4,M,,*51
$GPRMC,135910.250,A,4308.4689,N,07726.4458,W,12.78,285.32,170919,,,A*44
$GPGGA,135910.500,4308.4695,N,07726.4471,W,1,06,2.35,158.7,M,-34.4,M,,*50
$GPRMC,135910.750,A,4308.4699,N,07726.4485,W,14.99,286.75,170919,,,A*49
$GPGGA,135911.000,4308.4703,N,07726.4501,W,1,06,2.24,158.7,M,-34.4,M,,*5C
$GPRMC,135911.250,A,4308.4708,N,07726.4517,W,17.46,286.24,170919,,,A*4B
$GPGGA,135911.500,4308.4711,N,07726.4535,W,1,06,2.36,158.6,M,-34.4,M,,*5F
$GPRMC,135911.750,A,4308.4715,N,07726.4553,W,19.05,285.80,170919,,,A*46
$GPGGA,135912.000,4308.4718,N,07726.4574,W,1,06,2.23,158.5,M,-34.4,M,,*52
$GPRMC,135912.250,A,4308.4723,N,07726.4595,W,21.55,284.82,170919,,,A*42
$GPGGA,135912.500,4308.4728,N,07726.4616,W,1,06,2.24,158.5,M,-34.4,M,,*54
$GPRMC,135912.750,A,4308.4733,N,07726.4637,W,22.82,285.30,170919,,,A*4C
$GPGGA,135913.000,4308.4739,N,07726.4659,W,1,06,2.24,158.5,M,-34.4,M,,*5B
$GPRMC,135913.250,A,4308.4744,N,07726.4682,W,24.54,285.86,170919,,,A*46
$GPGGA,135913.500,4308.4750,N,07726.4706,W,1,06,2.24,158.5,M,-34.4,M,,*5A
$GPRMC,135913.750,A,4308.4755,N,07726.4729,W,25.55,286.15,170919,,,A*4A
$GPGGA,135914.000,4308.4761,N,07726.4754,W,1,06,2.24,158.4,M,-34.4,M,,*5C
$GPRMC,135914.250,A,4308.4767,N,07726.4779,W,26.89,286.40,170919,,,A*4E
$GPGGA,135914.500,4308.4773,N,07726.4805,W,1,06,2.24,158.3,M,-34.4,M,,*56
$GPRMC,135914.750,A,4308.4777,N,07726.4832,W,27.88,285.64,170919,,,A*4F
$GPGGA,135915.000,4308.4780,N,07726.4860,W,1,06,2.24,158.1,M,-34.4,M,,*5F
$GPRMC,135915.250,A,4308.4784,N,07726.4888,W,29.24,283.63,170919,,,A*4F
$GPGGA,135915.500,4308.4788,N,07726.4917,W,1,06,2.36,157.9,M,-34.4,M,,*57
$GPRMC,135915.750,A,4308.4792,N,07726.4946,W,30.19,282.64,170919,,,A*4E
$GPGGA,135916.000,4308.4797,N,07726.4976,W,1,06,2.24,157.8,M,-34.4,M,,*5A
$GPRMC,135916.250,A,4308.4803,N,07726.5007,W,31.78,282.14,170919,,,A*43
$GPGGA,135916.500,4308.4807,N,07726.5039,W,1,06,2.36,157.7,M,-34.4,M,,*56
$GPRMC,135916.750,A,4308.4812,N,07726.5070,W,32.70,281.32,170919,,,A*4A
$GPGGA,135917.000,4308.4815,N,07726.5102,W,1,06,2.24,157.7,M,-34.4,M,,*5B
$GPRMC,135917.250,A,4308.4820,N,07726.5134,W,33.32,280.68,170919,,,A*47
$GPGGA,135917.500,4308.4824,N,07726.5167,W,1,06,2.24,157.7,M,-34.4,M,,*5F
$GPRMC,135917.750,A,4308.4827,N,07726.5199,W,33.84,280.18,170919,,,A*48
$GPGGA,135918.000,4308.4831,N,07726.5232,W,1,06,2.24,157.8,M,-34.4,M,,*5D
$GPRMC,135918.250,A,4308.4835,N,07726.5265,W,34.21,279.83,170919,,,A*4D
$GPGGA,135918.500,4308.4839,N,07726.5298,W,1,06,2.24,157.8,M,-34.4,M,,*50
$GPRMC,135918.750,A,4308.4843,N,07726.5330,W,34.34,279.63,170919,,,A*42
$GPGGA,135919.000,4308.4846,N,07726.5363,W,1,06,2.24,157.9,M,-34.4,M,,*58
$GPRMC,135919.250,A,4308.4849,N,07726.5396,W,33.82,278.82,170919,,,A*44
$GPGGA,135919.500,4308.4851,N,07726.5429,W,1,06,2.36,158.0,M,-34.4,M,,*57
$GPRMC,135919.750,A,4308.4854,N,07726.5462,W,33.81,278.07,170919,,,A*4F
$GPGGA,135920.000,4308.4857,N,07726.5494,W,1,06,2.24,158.1,M,-34.4,M,,*5A
$GPRMC,135920.250,A,4308.4860,N,07726.5527,W,33.56,277.54,170919,,,A*44
$GPGGA,135920.500,4308.4863,N,07726.5559,W,1,06,2.36,158.2,M,-34.4,M,,*58
$GPRMC,135920.750,A,4308.4866,N,07726.5591,W,33.39,277.24,170919,,,A*44
$GPGGA,135921.000,4308.4869,N,07726.5624,W,1,06,2.24,158.4,M,-34.4,M,,*5A
$GPRMC,135921.250,A,4308.4871,N,07726.5657,W,33.14,276.56,170919,,,A*44
$GPGGA,135921.500,4308.4873,N,07726.5689,W,1,06,2.24,158.6,M,-34.4,M,,*51
$GPRMC,135921.750,A,4308.4874,N,07726.5722,W,33.13,275.73,170919,,,A*44
$GPGGA,135922.000,4308.4873,N,07726.5754,W,1,06,2.24,158.8,M,-34.4,M,,*58
$GPRMC,135922.250,A,4308.4873,N,07726.5787,W,33.04,274.48,170919,,,A*45
$GPGGA,135922.500,4308.4874,N,07726.5820,W,1,06,2.24,158.9,M,-34.4,M,,*57
$GPRMC,135922.750,A,4308.4875,N,07726.5852,W,32.99,274.06,170919,,,A*4E
$GPGGA,135923.000,4308.4876,N,07726.5885,W,1,06,2.24,159.1,M,-34.4,M,,*57
$GPRMC,135923.250,A,4308.4876,N,07726.5917,W,32.74,273.78,170919,,,A*44
$GPGGA,135923.500,4308.4877,N,07726.5949,W,1,06,2.36,159.4,M,-34.4,M,,*54
$GPRMC,135923.750,A,4308.4878,N,07726.5980,W,32.47,273.73,170919,,,A*4A
$GPGGA,135924.000,4308.4879,N,07726.6012,W,1,06,2.24,159.6,M,-34.4,M,,*5D
$GPRMC,135924.250,A,4308.4879,N,07726.6043,W,32.22,273.71,170919,,,A*4D
$GPGGA,135924.500,4308.4880,N,07726.6075,W,1,06,2.36,159.8,M,-34.4,M,,*52
$GPRMC,135924.750,A,4308.4881,N,07726.6105,W,31.70,273.43,170919,,,A*49
$GPGGA,135925.000,4308.4881,N,07726.6136,W,1,06,2.24,160.1,M,-34.4,M,,*51
$GPRMC,135925.250,A,4308.4881,N,07726.6166,W,30.98,272.61,170919,,,A*4E
$GPGGA,135925.500,4308.4883,N,07726.6197,W,1,06,2.24,160.4,M,-34.4,M,,*58
$GPRMC,135925.750,A,4308.4885,N,07726.6227,W,30.77,272.82,170919,,,A*45
$GPGGA,135926.000,4308.4886,N,07726.6259,W,1,06,2.24,160.6,M,-34.4,M,,*58
$GPRMC,135926.250,A,4308.4887,N,07726.6288,W,30.24,273.01,170919,,,A*48
$GPGGA,135926.500,4308.4888,N,07726.6318,W,1,06,2.36,160.9,M,-34.4,M,,*5B
$GPRMC,135926.750,A,4308.4888,N,07726.6347,W,30.11,272.68,170919,,,A*48
$GPGGA,135927.000,4308.4888,N,07726.6376,W,1,06,2.24,161.2,M,-34.4,M,,*5E
$GPRMC,135927.250,A,4308.4887,N,07726.6406,W,29.59,271.28,170919,,,A*42
$GPGGA,135927.500,4308.4887,N,07726.6435,W,1,06,2.36,161.4,M,-34.4,M,,*51
$GPRMC,135927.750,A,4308.4886,N,07726.6464,W,29.40,270.75,170919,,,A*43
$GPGGA,135928.000,4308.4886,N,07726.6493,W,1,06,2.24,161.7,M,-34.4,M,,*56
$GPRMC,135928.250,A,4308.4885,N,07726.6521,W,28.71,270.15,170919,,,A*4F
$GPGGA,135928.500,4308.4884,N,07726.6550,W,1,06,2.24,161.9,M,-34.4,M,,*51
$GPRMC,135928.750,A,4308.4883,N,07726.6577,W,28.38,269.49,170919,,,A*43
$GPGGA,135929.000,4308.4881,N,07726.6605,W,1,06,2.24,162.2,M,-34.4,M,,*5B
$GPRMC,135929.250,A,4308.4879,N,07726.6632,W,27.92,268.48,170919,,,A*4F
$GPGGA,135929.500,4308.4877,N,07726.6659,W,1,06,2.36,162.5,M,-34.4,M,,*5A
$GPRMC,135929.750,A,4308.4875,N,07726.6687,W,27.63,267.66,170919,,,A*45
$GPGGA,135930.000,4308.4873,N,07726.6714,W,1,06,2.24,162.8,M,-34.4,M,,*55
$GPRMC,135930.250,A,4308.4870,N,07726.6740,W,27.19,266.82,170919,,,A*41
$GPGGA,135930.500,4308.4867,N,07726.6766,W,1,06,2.36,163.1,M,-34.4,M,,*5B
$GPRMC,135930.750,A,4308.4866,N,07726.6793,W,26.98,266.86,170919,,,A*41
$GPGGA,135931.000,4308.4864,N,07726.6818,W,1,06,2.24,163.4,M,-34.4,M,,*5C
$GPRMC,135931.250,A,4308.4862,N,07726.6844,W,26.38,267.34,170919,,,A*46
$GPGGA,135931.500,4308.4859,N,07726.6869,W,1,06,2.36,163.7,M,-34.4,M,,*51
$GPRMC,135931.750,A,4308.4857,N,07726.6893,W,25.91,267.17,170919,,,A*4E
$GPGGA,135932.000,4308.4855,N,07726.6918,W,1,06,2.24,163.9,M,-34.4,M,,*51
$GPRMC,135932.250,A,4308.4853,N,07726.6943,W,25.67,266.69,170919,,,A*41
$GPGGA,135932.500,4308.4851,N,07726.6967,W,1,06,2.36,164.1,M,-34.4,M,,*54
$GPRMC,135932.750,A,4308.4849,N,07726.6992,W,25.57,266.40,170919,,,A*4B
$GPGGA,135933.000,4308.4846,N,07726.7013,W,1,06,2.24,164.0,M,-34.4,M,,*5F
$GPRMC,135933.250,A,4308.4843,N,07726.7036,W,26.03,263.32,170919,,,A*41
$GPGGA,135933.500,4308.4839,N,07726.7064,W,1,06,2.36,163.6,M,-34.4,M,,*50
$GPRMC,135933.750,A,4308.4836,N,07726.7088,W,25.40,262.64,170919,,,A*45
$GPGGA,135934.000,4308.4832,N,07726.7114,W,1,06,2.36,163.2,M,-34.4,M,,*5B
$GPRMC,135934.250,A,4308.4828,N,07726.7139,W,24.74,262.38,170919,,,A*4C
$GPGGA,135934.500,4308.4823,N,07726.7162,W,1,06,2.37,162.7,M,-34.4,M,,*5A
$GPRMC,135934.750,A,4308.4820,N,07726.7187,W,24.14,262.68,170919,,,A*47
$GPGGA,135935.000,4308.4816,N,07726.7211,W,1,06,2.37,162.5,M,-34.4,M,,*5D
$GPRMC,135935.250,A,4308.4814,N,07726.7235,W,23.27,263.85,170919,,,A*4B
$GPGGA,135935.500,4308.4811,N,07726.7258,W,1,06,2.36,162.1,M,-34.4,M,,*57
$GPRMC,135935.750,A,4308.4810,N,07726.7280,W,22.68,264.92,170919,,,A*4F
$GPGGA,135936.000,4308.4808,N,07726.7304,W,1,06,2.36,161.8,M,-34.4,M,,*5B
$GPRMC,135936.250,A,4308.4806,N,07726.7327,W,22.59,265.52,170919,,,A*4D
$GPGGA,135936.500,4308.4804,N,07726.7349,W,1,06,2.36,161.2,M,-34.4,M,,*51
$GPRMC,135936.750,A,4308.4802,N,07726.7371,W,22.62,265.85,170919,,,A*4D
$GPGGA,135937.000,4308.4801,N,07726.7394,W,1,06,2.37,161.1,M,-34.4,M,,*52
$GPRMC,135937.250,A,4308.4799,N,07726.7417,W,22.63,266.25,170919,,,A*4B
$GPGGA,135937.500,4308.4798,N,07726.7439,W,1,06,2.36,161.0,M,-34.4,M,,*58
$GPRMC,135937.750,A,4308.4797,N,07726.7461,W,22.70,266.73,170919,,,A*40
$GPGGA,135938.000,4308.4796,N,07726.7484,W,1,06,2.37,161.0,M,-34.4,M,,*5B
$GPRMC,135938.250,A,4308.4793,N,07726.7506,W,23.02,266.96,170919,,,A*41
$GPGGA,135938.500,4308.4792,N,07726.7530,W,1,06,2.37,160.7,M,-34.4,M,,*52
$GPRMC,135938.750,A,4308.4790,N,07726.7553,W,23.38,267.04,170919,,,A*44
$GPGGA,135939.000,4308.4789,N,07726.7576,W,1,06,2.37,160.5,M,-34.4,M,,*5C
$GPRMC,135939.250,A,4308.4787,N,07726.7599,W,23.38,267.29,170919,,,A*4F
$GPGGA,135939.500,4308.4785,N,07726.7623,W,1,06,2.36,160.3,M,-34.4,M,,*51
$GPRMC,135939.750,A,4308.4783,N,07726.7646,W,23.42,266.60,170919,,,A*4E
$GPGGA,135940.000,4308.4780,N,07726.7668,W,1,06,2.24,160.2,M,-34.4,M,,*52
$GPRMC,135940.250,A,4308.4778,N,07726.7691,W,24.03,266.32,170919,,,A*4E
$GPGGA,135940.500,4308.4776,N,07726.7715,W,1,06,2.37,160.2,M,-34.4,M,,*57
$GPRMC,135940.750,A,4308.4774,N,07726.7738,W,24.50,266.23,170919,,,A*43
$GPGGA,135941.000,4308.4771,N,07726.7761,W,1,06,2.37,160.3,M,-34.4,M,,*56
$GPRMC,135941.250,A,4308.4769,N,07726.7785,W,25.18,265.73,170919,,,A*46
$GPGGA,135941.500,4308.4767,N,07726.7810,W,1,06,2.37,160.3,M,-34.4,M,,*5D
$GPRMC,135941.750,A,4308.4764,N,07726.7834,W,25.82,265.82,170919,,,A*46
$GPGGA,135942.000,4308.4761,N,07726.7858,W,1,06,2.24,160.5,M,-34.4,M,,*55
$GPRMC,135942.250,A,4308.4758,N,07726.7883,W,26.08,265.60,170919,,,A*4E
$GPGGA,135942.500,4308.4754,N,07726.7907,W,1,06,2.36,160.6,M,-34.4,M,,*5D
$GPRMC,135942.750,A,4308.4752,N,07726.7932,W,26.84,266.13,170919,,,A*49
$GPGGA,135943.000,4308.4749,N,07726.7957,W,1,06,2.24,160.6,M,-34.4,M,,*53
$GPRMC,135943.250,A,4308.4747,N,07726.7983,W,27.19,266.13,170919,,,A*46
$GPGGA,135943.500,4308.4743,N,07726.8009,W,1,06,2.37,160.5,M,-34.4,M,,*50
$GPRMC,135943.750,A,4308.4741,N,07726.8035,W,27.72,266.04,170919,,,A*45
$GPGGA,135944.000,4308.4738,N,07726.8061,W,1,06,2.24,160.5,M,-34.4,M,,*52
$GPRMC,135944.250,A,4308.4736,N,07726.8088,W,28.24,265.84,170919,,,A*46
$GPGGA,135944.500,4308.4733,N,07726.8114,W,1,06,2.37,160.5,M,-34.4,M,,*5D
$GPRMC,135944.750,A,4308.4732,N,07726.8141,W,28.26,265.96,170919,,,A*42
$GPGGA,135945.000,4308.4730,N,07726.8167,W,1,06,2.24,160.5,M,-34.4,M,,*5C
$GPRMC,135945.250,A,4308.4728,N,07726.8194,W,28.00,266.08,170919,,,A*45
$GPGGA,135945.500,4308.4726,N,07726.8220,W,1,06,2.37,160.5,M,-34.4,M,,*5C
$GPRMC,135945.750,A,4308.4725,N,07726.8247,W,27.77,266.55,170919,,,A*47
$GPGGA,135946.000,4308.4723,N,07726.8273,W,1,06,2.24,160.4,M,-34.4,M,,*5A
$GPRMC,135946.250,A,4308.4721,N,07726.8298,W,27.28,267.05,170919,,,A*49
$GPGGA,135946.500,4308.4720,N,07726.8324,W,1,06,2.37,160.3,M,-34.4,M,,*5A
$GPRMC,135946.750,A,4308.4718,N,07726.8349,W,26.84,267.26,170919,,,A*4D
$GPGGA,135947.000,4308.4717,N,07726.8375,W,1,06,2.37,160.3,M,-34.4,M,,*5E
$GPRMC,135947.250,A,4308.4714,N,07726.8400,W,26.38,266.72,170919,,,A*48
$GPGGA,135947.500,4308.4714,N,07726.8425,W,1,06,2.37,160.2,M,-34.4,M,,*5B
$GPRMC,135947.750,A,4308.4713,N,07726.8449,W,25.77,267.38,170919,,,A*40
$GPGGA,135948.000,4308.4710,N,07726.8473,W,1,06,2.37,160.0,M,-34.4,M,,*54
$GPRMC,135948.250,A,4308.4707,N,07726.8498,W,25.54,266.54,170919,,,A*49
$GPGGA,135948.500,4308.4704,N,07726.8523,W,1,06,2.37,160.0,M,-34.4,M,,*50
$GPRMC,135948.750,A,4308.4701,N,07726.8547,W,25.47,266.00,170919,,,A*4A
$GPGGA,135949.000,4308.4699,N,07726.8572,W,1,06,2.37,159.9,M,-34.4,M,,*56
$GPRMC,135949.250,A,4308.4696,N,07726.8596,W,25.23,265.61,170919,,,A*4B
$GPGGA,135949.500,4308.4693,N,07726.8620,W,1,06,2.37,160.0,M,-34.4,M,,*5E
$GPRMC,135949.750,A,4308.4691,N,07726.8644,W,25.24,265.91,170919,,,A*4D
$GPGGA,135950.000,4308.4689,N,07726.8668,W,1,06,2.37,160.0,M,-34.4,M,,*54
$GPRMC,135950.250,A,4308.4687,N,07726.8692,W,25.49,266.42,170919,,,A*4A
$GPGGA,135950.500,4308.4685,N,07726.8717,W,1,06,2.37,160.0,M,-34.4,M,,*54
$GPRMC,135950.750,A,4308.4682,N,07726.8742,W,25.92,267.00,170919,,,A*47
$GPGGA,135951.000,4308.4681,N,07726.8767,W,1,06,2.37,160.0,M,-34.4,M,,*53
$GPRMC,135951.250,A,4308.4679,N,07726.8792,W,26.02,267.41,170919,,,A*45
$GPGGA,135951.500,4308.4677,N,07726.8818,W,1,06,2.37,159.9,M,-34.4,M,,*5B
$GPRMC,135951.750,A,4308.4675,N,07726.8844,W,26.26,267.79,170919,,,A*45
$GPGGA,135952.000,4308.4674,N,07726.8870,W,1,06,2.37,159.9,M,-34.4,M,,*50
$GPRMC,135952.250,A,4308.4672,N,07726.8897,W,27.60,268.48,170919,,,A*44
$GPGGA,135952.500,4308.4671,N,07726.8924,W,1,06,2.37,159.8,M,-34.4,M,,*51
$GPRMC,135952.750,A,4308.4670,N,07726.8950,W,27.84,268.46,170919,,,A*4D
$GPGGA,135953.000,4308.4668,N,07726.8977,W,1,06,2.37,159.8,M,-34.4,M,,*5B
$GPRMC,135953.250,A,4308.4667,N,07726.9004,W,28.11,268.47,170919,,,A*44
$GPGGA,135953.500,4308.4666,N,07726.9031,W,1,06,2.37,159.7,M,-34.4,M,,*55
$GPRMC,135953.750,A,4308.4665,N,07726.9059,W,28.22,268.74,170919,,,A*4B
$GPGGA,135954.000,4308.4664,N,07726.9086,W,1,06,2.37,159.7,M,-34.4,M,,*59
$GPRMC,135954.250,A,4308.4662,N,07726.9113,W,28.30,268.80,170919,,,A*49
$GPGGA,135954.500,4308.4661,N,07726.9141,W,1,06,2.37,159.6,M,-34.4,M,,*52
$GPRMC,135954.750,A,4308.4659,N,07726.9168,W,28.38,268.00,170919,,,A*48
$GPGGA,135955.000,4308.4657,N,07726.9196,W,1,06,2.37,159.6,M,-34.4,M,,*59
$GPRMC,135955.250,A,4308.4655,N,07726.9224,W,28.86,267.49,170919,,,A*4C
$GPGGA,135955.500,4308.4653,N,07726.9251,W,1,06,2.37,159.6,M,-34.4,M,,*50
$GPRMC,135955.750,A,4308.4651,N,07726.9280,W,29.21,267.66,170919,,,A*42
$GPGGA,135956.000,4308.4649,N,07726.9308,W,1,06,2.37,159.5,M,-34.4,M,,*53
$GPRMC,135956.250,A,4308.4648,N,07726.9336,W,29.60,268.20,170919,,,A*48
$GPGGA,135956.500,4308.4646,N,07726.9365,W,1,06,2.37,159.6,M,-34.4,M,,*51
$GPRMC,135956.750,A,4308.4644,N,07726.9394,W,29.69,268.40,170919,,,A*46
$GPGGA,135957.000,4308.4642,N,07726.9423,W,1,06,2.37,159.6,M,-34.4,M,,*54
$GPRMC,135957.250,A,4308.4640,N,07726.9451,W,29.75,267.87,170919,,,A*41
$GPGGA,135957.500,4308.4638,N,07726.9480,W,1,06,2.37,159.6,M,-34.4,M,,*55
$GPRMC,135957.750,A,4308.4637,N,07726.9509,W,29.74,267.87,170919,,,A*49
$GPGGA,135958.000,4308.4635,N,07726.9537,W,1,06,2.37,159.7,M,-34.4,M,,*5E
$GPRMC,135958.250,A,4308.4634,N,07726.9566,W,30.15,268.39,170919,,,A*4C
$GPGGA,135958.500,4308.4633,N,07726.9595,W,1,06,2.37,159.7,M,-34.4,M,,*55
$GPRMC,135958.750,A,4308.4632,N,07726.9624,W,30.64,268.77,170919,,,A*46
$GPGGA,135959.000,4308.4630,N,07726.9654,W,1,06,2.37,159.7,M,-34.4,M,,*5C
$GPRMC,135959.250,A,4308.4629,N,07726.9684,W,30.77,268.62,170919,,,A*44
$GPGGA,135959.500,4308.4627,N,07726.9715,W,1,06,2.37,159.7,M,-34.4,M,,*5B
$GPRMC,135959.750,A,4308.4626,N,07726.9745,W,31.01,268.83,170919,,,A*4D
$GPGGA,140000.000,4308.4624,N,07726.9776,W,1,06,2.37,159.6,M,-34.4,M,,*5E
$GPRMC,140000.250,A,4308.4622,N,07726.9806,W,32.24,268.32,170919,,,A*4D
$GPGGA,140000.500,4308.4621,N,07726.9838,W,1,06,2.37,159.6,M,-34.4,M,,*5B
$GPRMC,140000.750,A,4308.4619,N,07726.9869,W,32.72,267.91,170919,,,A*4C
$GPGGA,140001.000,4308.4617,N,07726.9900,W,1,06,2.37,159.5,M,-34.4,M,,*53
$GPRMC,140001.250,A,4308.4615,N,07726.9932,W,33.19,267.48,170919,,,A*43
$GPGGA,140001.500,4308.4612,N,07726.9965,W,1,06,2.37,159.4,M,-34.4,M,,*51
$GPRMC,140001.750,A,4308.4610,N,07726.9997,W,33.91,267.18,170919,,,A*49
$GPGGA,140002.000,4308.4607,N,07727.0030,W,1,06,2.37,159.4,M,-34.4,M,,*52
$GPRMC,140002.250,A,4308.4605,N,07727.0063,W,34.33,266.99,170919,,,A*46
$GPGGA,140002.500,4308.4603,N,07727.0096,W,1,06,2.37,159.4,M,-34.4,M,,*5F
$GPRMC,140002.750,A,4308.4601,N,07727.0130,W,34.59,267.91,170919,,,A*45
$GPGGA,140003.000,4308.4600,N,07727.0163,W,1,06,2.37,159.3,M,-34.4,M,,*54
$GPRMC,140003.250,A,4308.4599,N,07727.0196,W,34.86,268.70,170919,,,A*4D
$GPGGA,140003.500,4308.4598,N,07727.0230,W,1,06,2.37,159.3,M,-34.4,M,,*56
$GPRMC,140003.750,A,4308.4597,N,07727.0263,W,35.00,269.54,170919,,,A*47
$GPGGA,140004.000,4308.4597,N,07727.0297,W,1,06,2.37,159.3,M,-34.4,M,,*56
$GPRMC,140004.250,A,4308.4596,N,07727.0331,W,35.47,270.39,170919,,,A*42
$GPGGA,140004.500,4308.4596,N,07727.0365,W,1,06,2.37,159.3,M,-34.4,M,,*5E
$GPRMC,140004.750,A,4308.4596,N,07727.0399,W,35.50,271.02,170919,,,A*4A
$GPGGA,140005.000,4308.4596,N,07727.0433,W,1,06,2.38,159.4,M,-34.4,M,,*56
$GPRMC,140005.250,A,4308.4596,N,07727.0467,W,35.58,271.00,170919,,,A*42
$GPGGA,140005.500,4308.4596,N,07727.0501,W,1,06,2.37,159.4,M,-34.4,M,,*5C
$GPRMC,140005.750,A,4308.4597,N,07727.0534,W,35.23,271.22,170919,,,A*4D
$GPGGA,140006.000,4308.4599,N,07727.0568,W,1,06,2.37,159.5,M,-34.4,M,,*5B
$GPRMC,140006.250,A,4308.4601,N,07727.0600,W,35.20,272.47,170919,,,A*40
$GPGGA,140006.500,4308.4603,N,07727.0633,W,1,06,2.37,159.6,M,-34.4,M,,*50
$GPRMC,140006.750,A,4308.4604,N,07727.0666,W,34.96,273.04,170919,,,A*4A
$GPGGA,140007.000,4308.4606,N,07727.0699,W,1,06,2.37,159.7,M,-34.4,M,,*50
$GPRMC,140007.250,A,4308.4609,N,07727.0732,W,34.01,274.72,170919,,,A*4B
$GPGGA,140007.500,4308.4612,N,07727.0765,W,1,06,2.38,159.8,M,-34.4,M,,*52
$GPRMC,140007.750,A,4308.4613,N,07727.0798,W,33.93,275.65,170919,,,A*4E
$GPGGA,140008.000,4308.4612,N,07727.0833,W,1,06,2.24,159.7,M,-34.4,M,,*56
$GPRMC,140008.250,A,4308.4613,N,07727.0868,W,33.75,276.34,170919,,,A*4B
$GPGGA,140008.500,4308.4613,N,07727.0903,W,1,06,2.37,159.5,M,-34.4,M,,*50
$GPRMC,140008.750,A,4308.4614,N,07727.0937,W,34.44,276.69,170919,,,A*4F
$GPGGA,140009.000,4308.4613,N,07727.0973,W,1,06,2.25,159.3,M,-34.4,M,,*56
$GPRMC,140009.250,A,4308.4613,N,07727.1008,W,34.71,277.07,170919,,,A*47
$GPGGA,140009.500,4308.4612,N,07727.1045,W,1,06,2.24,159.0,M,-34.4,M,,*5D
$GPRMC,140009.750,A,4308.4613,N,07727.1080,W,35.19,277.12,170919,,,A*49
$GPGGA,140010.000,4308.4614,N,07727.1115,W,1,06,2.24,159.0,M,-34.4,M,,*52
$GPRMC,140010.250,A,4308.4616,N,07727.1149,W,35.44,277.20,170919,,,A*4C
$GPGGA,140010.500,4308.4618,N,07727.1184,W,1,06,2.24,159.1,M,-34.4,M,,*52
$GPRMC,140010.750,A,4308.4620,N,07727.1218,W,35.68,277.36,170919,,,A*42
$GPGGA,140011.000,4308.4622,N,07727.1253,W,1,06,2.24,159.3,M,-34.4,M,,*54
$GPRMC,140011.250,A,4308.4624,N,07727.1288,W,36.05,277.21,170919,,,A*45
$GPGGA,140011.500,4308.4626,N,07727.1323,W,1,06,2.24,159.2,M,-34.4,M,,*52
$GPRMC,140011.750,A,4308.4629,N,07727.1358,W,36.31,277.21,170919,,,A*46
$GPGGA,140012.000,4308.4631,N,07727.1394,W,1,06,2.24,159.4,M,-34.4,M,,*58
$GPRMC,140012.250,A,4308.4635,N,07727.1429,W,36.59,277.33,170919,,,A*41
$GPGGA,140012.500,4308.4639,N,07727.1464,W,1,06,2.24,159.6,M,-34.4,M,,*5F
$GPRMC,140012.750,A,4308.4643,N,07727.1499,W,36.71,277.90,170919,,,A*4D
$GPGGA,140013.000,4308.4646,N,07727.1534,W,1,06,2.25,159.9,M,-34.4,M,,*59
$GPRMC,140013.250,A,4308.4649,N,07727.1570,W,36.87,277.81,170919,,,A*4C
$GPGGA,140013.500,4308.4654,N,07727.1605,W,1,06,2.25,160.1,M,-34.4,M,,*5C
$GPRMC,140013.750,A,4308.4657,N,07727.1640,W,36.84,278.01,170919,,,A*42
$GPGGA,140014.000,4308.4660,N,07727.1675,W,1,06,2.25,160.4,M,-34.4,M,,*5B
$GPRMC,140014.250,A,4308.4664,N,07727.1711,W,36.81,277.87,170919,,,A*41
$GPGGA,140014.500,4308.4667,N,07727.1746,W,1,06,2.24,160.4,M,-34.4,M,,*59
$GPRMC,140014.750,A,4308.4670,N,07727.1781,W,36.62,277.71,170919,,,A*4C
$GPGGA,140015.000,4308.4674,N,07727.1817,W,1,06,2.25,160.6,M,-34.4,M,,*57
$GPRMC,140015.250,A,4308.4678,N,07727.1852,W,36.60,277.68,170919,,,A*4B
$GPGGA,140015.500,4308.4682,N,07727.1887,W,1,06,2.25,160.9,M,-34.4,M,,*5D
$GPRMC,140015.750,A,4308.4685,N,07727.1922,W,36.60,277.66,170919,,,A*44
$GPGGA,140016.000,4308.4686,N,07727.1957,W,1,06,2.25,161.0,M,-34.4,M,,*5B
$GPRMC,140016.250,A,4308.4689,N,07727.1993,W,36.34,276.79,170919,,,A*4A
$GPGGA,140016.500,4308.4691,N,07727.2028,W,1,06,2.38,161.3,M,-34.4,M,,*55
$GPRMC,140016.750,A,4308.4694,N,07727.2063,W,36.24,276.63,170919,,,A*4C
$GPGGA,140017.000,4308.4697,N,07727.2098,W,1,06,2.25,161.6,M,-34.4,M,,*55
$GPRMC,140017.250,A,4308.4699,N,07727.2132,W,36.14,276.88,170919,,,A*46
$GPGGA,140017.500,4308.4702,N,07727.2167,W,1,06,2.25,161.8,M,-34.4,M,,*52
$GPRMC,140017.750,A,4308.4705,N,07727.2202,W,36.33,277.56,170919,,,A*40
$GPGGA,140018.000,4308.4709,N,07727.2237,W,1,06,2.25,162.1,M,-34.4,M,,*5F
$GPRMC,140018.250,A,4308.4712,N,07727.2272,W,36.56,278.17,170919,,,A*42
$GPGGA,140018.500,4308.4716,N,07727.2306,W,1,06,2.25,162.3,M,-34.4,M,,*55
$GPRMC,140018.750,A,4308.4720,N,07727.2341,W,36.58,278.72,170919,,,A*4A
$GPGGA,140019.000,4308.4722,N,07727.2377,W,1,06,2.25,162.6,M,-34.4,M,,*55
$GPRMC,140019.250,A,4308.4724,N,07727.2412,W,36.69,278.20,170919,,,A*4E
$GPGGA,140019.500,4308.4726,N,07727.2448,W,1,06,2.24,162.6,M,-34.4,M,,*5E
$GPRMC,140019.750,A,4308.4727,N,07727.2483,W,36.69,277.78,170919,,,A*42
$GPGGA,140020.000,4308.4729,N,07727.2519,W,1,06,2.25,162.8,M,-34.4,M,,*54
$GPRMC,140020.250,A,4308.4732,N,07727.2554,W,36.63,277.43,170919,,,A*40
$GPGGA,140020.500,4308.4733,N,07727.2590,W,1,06,2.25,162.9,M,-34.4,M,,*5A
$GPRMC,140020.750,A,4308.4736,N,07727.2625,W,36.43,276.70,170919,,,A*47
$GPGGA,140021.000,4308.4740,N,07727.2660,W,1,06,2.25,163.1,M,-34.4,M,,*5F
$GPRMC,140021.250,A,4308.4745,N,07727.2695,W,36.40,277.40,170919,,,A*4D
$GPGGA,140021.500,4308.4749,N,07727.2730,W,1,06,2.25,163.4,M,-34.4,M,,*52
$GPRMC,140021.750,A,4308.4753,N,07727.2764,W,36.12,277.69,170919,,,A*4C
$GPGGA,140022.000,4308.4757,N,07727.2798,W,1,06,2.25,163.5,M,-34.4,M,,*58
$GPRMC,140022.250,A,4308.4762,N,07727.2832,W,35.66,277.68,170919,,,A*45
$GPGGA,140022.500,4308.4765,N,07727.2866,W,1,06,2.25,163.9,M,-34.4,M,,*5E
$GPRMC,140022.750,A,4308.4769,N,07727.2900,W,35.45,277.75,170919,,,A*46
$GPGGA,140023.000,4308.4774,N,07727.2933,W,1,06,2.25,164.2,M,-34.4,M,,*57
$GPRMC,140023.250,A,4308.4779,N,07727.2966,W,35.24,278.23,170919,,,A*48
$GPGGA,140023.500,4308.4784,N,07727.3000,W,1,06,2.38,164.6,M,-34.4,M,,*5D
$GPRMC,140023.750,A,4308.4789,N,07727.3033,W,35.20,278.89,170919,,,A*4E
$GPGGA,140024.000,4308.4794,N,07727.3066,W,1,06,2.38,164.9,M,-34.4,M,,*51
$GPRMC,140024.250,A,4308.4800,N,07727.3099,W,35.29,279.63,170919,,,A*4E
$GPGGA,140024.500,4308.4808,N,07727.3132,W,1,06,2.38,165.2,M,-34.4,M,,*54
$GPRMC,140024.750,A,4308.4813,N,07727.3166,W,35.55,280.04,170919,,,A*44
$GPGGA,140025.000,4308.4817,N,07727.3200,W,1,06,2.25,165.6,M,-34.4,M,,*54
$GPRMC,140025.250,A,4308.4822,N,07727.3234,W,35.61,280.40,170919,,,A*41
$GPGGA,140025.500,4308.4830,N,07727.3267,W,1,06,2.38,165.8,M,-34.4,M,,*57
$GPRMC,140025.750,A,4308.4834,N,07727.3301,W,35.89,280.81,170919,,,A*4F
$GPGGA,140026.000,4308.4839,N,07727.3335,W,1,06,2.38,166.2,M,-34.4,M,,*57
$GPRMC,140026.250,A,4308.4844,N,07727.3368,W,35.94,280.93,170919,,,A*4E
$GPGGA,140026.500,4308.4850,N,07727.3401,W,1,06,2.38,166.5,M,-34.4,M,,*5A
$GPRMC,140026.750,A,4308.4854,N,07727.3435,W,35.89,281.34,170919,,,A*45
$GPGGA,140027.000,4308.4859,N,07727.3468,W,1,06,2.38,166.8,M,-34.4,M,,*55
$GPRMC,140027.250,A,4308.4863,N,07727.3501,W,35.67,280.91,170919,,,A*4D
$GPGGA,140027.500,4308.4867,N,07727.3535,W,1,06,2.38,167.1,M,-34.4,M,,*5C
$GPRMC,140027.750,A,4308.4871,N,07727.3568,W,35.67,280.62,170919,,,A*48
$GPGGA,140028.000,4308.4875,N,07727.3601,W,1,06,2.25,167.4,M,-34.4,M,,*58
$GPRMC,140028.250,A,4308.4880,N,07727.3635,W,35.63,280.80,170919,,,A*4F
$GPGGA,140028.500,4308.4884,N,07727.3668,W,1,06,2.38,167.7,M,-34.4,M,,*53
$GPRMC,140028.750,A,4308.4888,N,07727.3701,W,35.57,280.67,170919,,,A*4A
$GPGGA,140029.000,4308.4892,N,07727.3734,W,1,06,2.25,167.9,M,-34.4,M,,*5A
$GPRMC,140029.250,A,4308.4895,N,07727.3767,W,35.31,279.93,170919,,,A*4F
$GPGGA,140029.500,4308.4900,N,07727.3801,W,1,06,2.25,168.2,M,-34.4,M,,*58
$GPRMC,140029.750,A,4308.4903,N,07727.3834,W,35.32,279.80,170919,,,A*4C
$GPGGA,140030.000,4308.4906,N,07727.3867,W,1,06,2.25,168.4,M,-34.4,M,,*55
$GPRMC,140030.250,A,4308.4909,N,07727.3900,W,35.09,279.04,170919,,,A*49
$GPGGA,140030.500,4308.4912,N,07727.3933,W,1,06,2.24,168.5,M,-34.4,M,,*55
$GPRMC,140030.750,A,4308.4915,N,07727.3966,W,35.13,278.58,170919,,,A*42
$GPGGA,140031.000,4308.4918,N,07727.4000,W,1,06,2.25,168.7,M,-34.4,M,,*56
$GPRMC,140031.250,A,4308.4921,N,07727.4033,W,35.17,278.30,170919,,,A*45
$GPGGA,140031.500,4308.4924,N,07727.4066,W,1,06,2.25,169.0,M,-34.4,M,,*5A
$GPRMC,140031.750,A,4308.4927,N,07727.4099,W,35.20,278.45,170919,,,A*40
$GPGGA,140032.000,4308.4931,N,07727.4133,W,1,06,2.25,169.2,M,-34.4,M,,*5B
$GPRMC,140032.250,A,4308.4936,N,07727.4166,W,35.21,279.04,170919,,,A*42
$GPGGA,140032.500,4308.4940,N,07727.4200,W,1,06,2.38,169.5,M,-34.4,M,,*50
$GPRMC,140032.750,A,4308.4943,N,07727.4233,W,35.21,278.70,170919,,,A*44
$GPGGA,140033.000,4308.4946,N,07727.4266,W,1,06,2.25,169.6,M,-34.4,M,,*5D
$GPRMC,140033.250,A,4308.4950,N,07727.4300,W,35.02,277.74,170919,,,A*49
$GPGGA,140033.500,4308.4954,N,07727.4333,W,1,06,2.25,170.0,M,-34.4,M,,*54
$GPRMC,140033.750,A,4308.4958,N,07727.4366,W,35.00,277.95,170919,,,A*49
$GPGGA,140034.000,4308.4962,N,07727.4400,W,1,06,2.25,170.3,M,-34.4,M,,*57
$GPRMC,140034.250,A,4308.4967,N,07727.4432,W,34.69,278.48,170919,,,A*40
$GPGGA,140034.500,4308.4971,N,07727.4465,W,1,06,2.25,170.3,M,-34.4,M,,*53
$GPRMC,140034.750,A,4308.4975,N,07727.4498,W,34.73,278.71,170919,,,A*47
$GPGGA,140035.000,4308.4979,N,07727.4531,W,1,06,2.25,170.6,M,-34.4,M,,*5A
$GPRMC,140035.250,A,4308.4984,N,07727.4565,W,34.80,278.93,170919,,,A*4E
$GPGGA,140035.500,4308.4988,N,07727.4599,W,1,06,2.25,170.9,M,-34.4,M,,*5C
$GPRMC,140035.750,A,4308.4992,N,07727.4632,W,34.98,278.73,170919,,,A*4A
$GPGGA,140036.000,4308.4996,N,07727.4665,W,1,06,2.25,171.0,M,-34.4,M,,*5D
$GPRMC,140036.250,A,4308.4999,N,07727.4698,W,34.57,278.67,170919,,,A*41
$GPGGA,140036.500,4308.5003,N,07727.4732,W,1,06,2.25,171.3,M,-34.4,M,,*5C
$GPRMC,140036.750,A,4308.5006,N,07727.4765,W,34.63,278.64,170919,,,A*4D
$GPGGA,140037.000,4308.5010,N,07727.4798,W,1,06,2.25,171.7,M,-34.4,M,,*5E
$GPRMC,140037.250,A,4308.5013,N,07727.4831,W,34.55,278.28,170919,,,A*4E
$GPGGA,140037.500,4308.5015,N,07727.4864,W,1,06,2.25,171.8,M,-34.4,M,,*5D
$GPRMC,140037.750,A,4308.5019,N,07727.4897,W,34.78,278.22,170919,,,A*48
$GPGGA,140038.000,4308.5022,N,07727.4930,W,1,06,2.25,172.1,M,-34.4,M,,*59
