Vers 60
USE_SERIAL_FEEDBACK=true
DEVELOPMENT_MODE=false
USE_RMC_ONLY=false

$GPRMC,141208.250,A,4308.3037,N,07726.2641,W,0.00,312.89,230519,,,A*75
$GPGGA,141208.500,4308.3037,N,07726.2641,W,1,08,1.18,151.5,M,-34.4,M,,*56
lng=-77.437736, lat=43.138393, altitude=151.50, speed=0.00, satellites=8, angle=312.8900, fixquality=1
$GPRMC,141208.750,A,4308.3037,N,07726.2641,W,0.03,312.89,230519,,,A*73
$GPGGA,141209.000,4308.3037,N,07726.2641,W,1,08,1.07,151.5,M,-34.4,M,,*5C
lng=-77.437736, lat=43.138393, altitude=151.50, speed=0.03, satellites=8, angle=312.8900, fixquality=1
$GPRMC,141209.250,A,4308.3037,N,07726.2641,W,0.03,312.89,230519,,,A*77
$GPGGA,141209.500,4308.3037,N,07726.2641,W,1,08,1.18,151.5,M,-34.4,M,,*57
lng=-77.437736, lat=43.138393, altitude=151.50, speed=0.03, satellites=8, angle=312.8900, fixquality=1
$GPRMC,141209.750,A,4308.3037,N,07726.2641,W,0.00,312.89,230519,,,A*71
$GPGGA,141210.000,4308.3037,N,07726.2641,W,1,08,1.18,151.5,M,-34.4,M,,*5A
lng=-77.437736, lat=43.138393, altitude=151.50, speed=0.00, satellites=8, angle=312.8900, fixquality=1
$GPRMC,141210.250,A,4308.3037,N,07726.2641,W,0.08,312.89,230519,,,A*74
$GPGGA,141210.500,4308.3037,N,07726.2641,W,1,08,1.18,151.5,M,-34.4,M,,*5F
lng=-77.437736, lat=43.138393, altitude=151.50, speed=0.08, satellites=8, angle=312.8900, fixquality=1
$GPRMC,141210.750,A,4308.3037,N,07726.2641,W,0.01,312.89,230519,,,A*78
$GPGGA,141211.000,4308.3037,N,07726.2641,W,1,08,1.18,151.5,M,-34.4,M,,*5B
lng=-77.437736, lat=43.138393, altitude=151.50, speed=0.01, satellites=8, angle=312.8900, fixquality=1
$GPRMC,141211.250,A,4308.3037,N,07726.2641,W,0.01,312.89,230519,,,A*7C
$GPGGA,141211.500,4308.3037,N,07726.2641,W,1,08,1.18,151.5,M,-34.4,M,,*5E
lng=-77.437736, lat=43.138393, altitude=151.50, speed=0.01, satellites=8, angle=312.8900, fixquality=1
$GPRMC,141211.750,A,4308.3037,N,07726.2641,W,0.01,312.89,230519,,,A*79
$GPGGA,141212.000,4308.3037,N,07726.2641,W,1,08,1.18,151.5,M,-34.4,M,,*58
lng=-77.437736, lat=43.138393, altitude=151.50, speed=0.01, satellites=8, angle=312.8900, fixquality=1
$GPRMC,141212.250,A,4308.3037,N,07726.2641,W,0.01,312.89,230519,,,A*7F
$GPGGA,141212.500,4308.3037,N,07726.2641,W,1,08,1.18,151.5,M,-34.4,M,,*5D
lng=-77.437736, lat=43.138393, altitude=151.50, speed=0.01, satellites=8, angle=312.8900, fixquality=1
$GPRMC,141212.750,A,4308.3037,N,07726.2641,W,0.00,312.89,230519,,,A*7B
$GPGGA,141213.000,4308.3037,N,07726.2641,W,1,08,1.18,151.5,M,-34.4,M,,*59
lng=-77.437736, lat=43.138393, altitude=151.50, speed=0.00, satellites=8, angle=312.8900, fixquality=1
$GPRMC,141213.250,A,4308.3037,N,07726.2641,W,0.01,312.89,230519,,,A*7E
$GPGGA,141213.500,4308.3037,N,07726.2641,W,1,08,1.18,151.5,M,-34.4,M,,*5C
lng=-77.437736, lat=43.138393, altitude=151.50, speed=0.01, satellites=8, angle=312.8900, fixquality=1
$GPRMC,141213.750,A,4308.3037,N,07726.2641,W,0.00,312.89,230519,,,A*7A
$GPGGA,141214.000,4308.3037,N,07726.2641,W,1,08,1.18,151.5,M,-34.4,M,,*5E
lng=-77.437736, lat=43.138393, altitude=151.50, speed=0.00, satellites=8, angle=312.8900, fixquality=1
$GPRMC,141214.250,A,4308.3037,N,07726.2641,W,0.01,312.89,230519,,,A*79
$GPGGA,141214.500,4308.3037,N,07726.2641,W,1,08,1.18,151.5,M,-34.4,M,,*5B
lng=-77.437736, lat=43.138393, altitude=151.50, speed=0.01, satellites=8, angle=312.8900, fixquality=1
$GPRMC,141214.750,A,4308.3037,N,07726.2641,W,0.04,312.89,230519,,,A*79
$GPGGA,141215.000,4308.3037,N,07726.2641,W,1,08,1.18,151.5,M,-34.4,M,,*5F
lng=-77.437736, lat=43.138393, altitude=151.50, speed=0.04, satellites=8, angle=312.8900, fixquality=1
$GPRMC,141215.250,A,4308.3037,N,07726.2641,W,0.00,312.89,230519,,,A*79
$GPGGA,141215.500,4308.3037,N,07726.2641,W,1,08,1.18,151.5,M,-34.4,M,,*5A
lng=-77.437736, lat=43.138393, altitude=151.50, speed=0.00, satellites=8, angle=312.8900, fixquality=1
$GPRMC,141215.750,A,4308.3037,N,07726.2641,W,0.00,312.89,230519,,,A*7C
$GPGGA,141216.000,4308.3037,N,07726.2641,W,1,08,1.18,151.5,M,-34.4,M,,*5C
lng=-77.437736, lat=43.138393, altitude=151.50, speed=0.00, satellites=8, angle=312.8900, fixquality=1
$GPRMC,141216.250,A,4308.3037,N,07726.2641,W,0.00,312.89,230519,,,A*7A
$GPGGA,141216.500,4308.3037,N,07726.2641,W,1,08,1.18,151.5,M,-34.4,M,,*59
lng=-77.437736, lat=43.138393, altitude=151.50, speed=0.00, satellites=8, angle=312.8900, fixquality=1
$GPRMC,141216.750,A,4308.3037,N,07726.2641,W,0.00,312.89,230519,,,A*7F
$GPGGA,141217.000,4308.3037,N,07726.2641,W,1,08,1.18,151.5,M,-34.4,M,,*5D
lng=-77.437736, lat=43.138393, altitude=151.50, speed=0.00, satellites=8, angle=312.8900, fixquality=1
$GPRMC,141217.250,A,4308.3037,N,07726.2641,W,0.00,312.89,230519,,,A*7B
$GPGGA,141217.500,4308.3037,N,07726.2641,W,1,08,1.18,151.5,M,-34.4,M,,*58
lng=-77.437736, lat=43.138393, altitude=151.50, speed=0.00, satellites=8, angle=312.8900, fixquality=1
$GPRMC,141217.750,A,4308.3037,N,07726.2641,W,0.00,312.89,230519,,,A*7E
$GPGGA,141218.000,4308.3037,N,07726.2641,W,1,08,1.18,151.5,M,-34.4,M,,*52
lng=-77.437736, lat=43.138393, altitude=151.50, speed=0.00, satellites=8, angle=312.8900, fixquality=1
$GPRMC,141218.250,A,4308.3037,N,07726.2641,W,0.01,312.89,230519,,,A*75
$GPGGA,141218.500,4308.3037,N,07726.2641,W,1,08,1.18,151.5,M,-34.4,M,,*57
lng=-77.437736, lat=43.138393, altitude=151.50, speed=0.01, satellites=8, angle=312.8900, fixquality=1
$GPRMC,141218.750,A,4308.3037,N,07726.2641,W,0.01,312.89,230519,,,A*70
$GPGGA,141219.000,4308.3037,N,07726.2641,W,1,08,1.18,151.5,M,-34.4,M,,*53
lng=-77.437736, lat=43.138393, altitude=151.50, speed=0.01, satellites=8, angle=312.8900, fixquality=1
$GPRMC,141219.250,A,4308.3037,N,07726.2641,W,0.00,312.89,230519,,,A*75
$GPGGA,141219.500,4308.3037,N,07726.2641,W,1,07,1.41,151.5,M,-34.4,M,,*55
lng=-77.437736, lat=43.138393, altitude=151.50, speed=0.00, satellites=8, angle=312.8900, fixquality=1
$GPRMC,141219.750,A,4308.3037,N,07726.2641,W,0.01,312.89,230519,,,A*71
$GPGGA,141220.000,4308.3037,N,07726.2641,W,1,08,1.18,151.5,M,-34.4,M,,*59
lng=-77.437736, lat=43.138393, altitude=151.50, speed=0.01, satellites=7, angle=312.8900, fixquality=1
$GPRMC,141220.250,A,4308.3037,N,07726.2641,W,0.01,312.89,230519,,,A*7E
$GPGGA,141220.500,4308.3037,N,07726.2641,W,1,08,1.18,151.5,M,-34.4,M,,*5C
lng=-77.437736, lat=43.138393, altitude=151.50, speed=0.01, satellites=8, angle=312.8900, fixquality=1
$GPRMC,141220.750,A,4308.3037,N,07726.2641,W,0.01,312.89,230519,,,A*7B
$GPGGA,141221.000,4308.3037,N,07726.2641,W,1,08,1.18,151.5,M,-34.4,M,,*58
lng=-77.437736, lat=43.138393, altitude=151.50, speed=0.01, satellites=8, angle=312.8900, fixquality=1
$GPRMC,141221.250,A,4308.3037,N,07726.2641,W,0.02,312.89,230519,,,A*7C
$GPGGA,141221.500,4308.3037,N,07726.2641,W,1,08,1.18,151.5,M,-34.4,M,,*5D
lng=-77.437736, lat=43.138393, altitude=151.50, speed=0.02, satellites=8, angle=312.8900, fixquality=1
$GPRMC,141221.750,A,4308.3037,N,07726.2641,W,0.01,312.89,230519,,,A*7A
$GPGGA,141222.000,4308.3037,N,07726.2641,W,1,07,1.41,151.5,M,-34.4,M,,*58
lng=-77.437736, lat=43.138393, altitude=151.50, speed=0.01, satellites=8, angle=312.8900, fixquality=1
$GPRMC,141222.250,A,4308.3037,N,07726.2641,W,0.01,312.89,230519,,,A*7C
$GPGGA,141222.500,4308.3037,N,07726.2641,W,1,08,1.18,151.5,M,-34.4,M,,*5E
lng=-77.437736, lat=43.138393, altitude=151.50, speed=0.01, satellites=7, angle=312.8900, fixquality=1
$GPRMC,141222.750,A,4308.3037,N,07726.2641,W,0.00,312.89,230519,,,A*78
$GPGGA,141223.000,4308.3037,N,07726.2641,W,1,08,1.18,151.5,M,-34.4,M,,*5A
lng=-77.437736, lat=43.138393, altitude=151.50, speed=0.00, satellites=8, angle=312.8900, fixquality=1
$GPRMC,141223.250,A,4308.3037,N,07726.2641,W,0.00,312.89,230519,,,A*7C
$GPGGA,141223.500,4308.3037,N,07726.2641,W,1,08,1.18,151.5,M,-34.4,M,,*5F
lng=-77.437736, lat=43.138393, altitude=151.50, speed=0.00, satellites=8, angle=312.8900, fixquality=1
$GPRMC,141223.750,A,4308.3037,N,07726.2641,W,0.01,312.89,230519,,,A*78
$GPGGA,141224.000,4308.3037,N,07726.2641,W,1,07,1.41,151.5,M,-34.4,M,,*5E
lng=-77.437736, lat=43.138393, altitude=151.50, speed=0.01, satellites=8, angle=312.8900, fixquality=1
$GPRMC,141224.250,A,4308.3037,N,07726.2641,W,0.00,312.89,230519,,,A*7B
$GPGGA,141224.500,4308.3037,N,07726.2641,W,1,08,1.18,151.5,M,-34.4,M,,*58
lng=-77.437736, lat=43.138393, altitude=151.50, speed=0.00, satellites=7, angle=312.8900, fixquality=1
$GPRMC,141224.750,A,4308.3037,N,07726.2641,W,0.00,312.89,230519,,,A*7E
$GPGGA,141225.000,4308.3037,N,07726.2641,W,1,08,1.18,151.5,M,-34.4,M,,*5C
lng=-77.437736, lat=43.138393, altitude=151.50, speed=0.00, satellites=8, angle=312.8900, fixquality=1
$GPRMC,141225.250,A,4308.3037,N,07726.2641,W,0.01,312.89,230519,,,A*7B
$GPGGA,141225.500,4308.3037,N,07726.2641,W,1,07,1.41,151.5,M,-34.4,M,,*5A
lng=-77.437736, lat=43.138393, altitude=151.50, speed=0.01, satellites=8, angle=312.8900, fixquality=1
$GPRMC,141225.750,A,4308.3037,N,07726.2641,W,0.00,312.89,230519,,,A*7F
$GPGGA,141226.000,4308.3037,N,07726.2641,W,1,07,1.41,151.5,M,-34.4,M,,*5C
lng=-77.437736, lat=43.138393, altitude=151.50, speed=0.00, satellites=7, angle=312.8900, fixquality=1
$GPRMC,141226.250,A,4308.3037,N,07726.2641,W,0.01,312.89,230519,,,A*78
$GPGGA,141226.500,4308.3037,N,07726.2641,W,1,07,1.41,151.5,M,-34.4,M,,*59
lng=-77.437736, lat=43.138393, altitude=151.50, speed=0.01, satellites=7, angle=312.8900, fixquality=1
$GPRMC,141226.750,A,4308.3037,N,07726.2641,W,0.00,312.89,230519,,,A*7C
$GPGGA,141227.000,4308.3037,N,07726.2641,W,1,07,1.41,151.5,M,-34.4,M,,*5D
lng=-77.437736, lat=43.138393, altitude=151.50, speed=0.00, satellites=7, angle=312.8900, fixquality=1
$GPRMC,141227.250,A,4308.3037,N,07726.2641,W,0.01,312.89,230519,,,A*79
$GPGGA,141227.500,4308.3037,N,07726.2641,W,1,07,1.41,151.5,M,-34.4,M,,*58
lng=-77.437736, lat=43.138393, altitude=151.50, speed=0.01, satellites=7, angle=312.8900, fixquality=1
$GPRMC,141227.750,A,4308.3037,N,07726.2641,W,0.00,312.89,230519,,,A*7D
$GPGGA,141228.000,4308.3037,N,07726.2641,W,1,07,1.41,151.5,M,-34.4,M,,*52
lng=-77.437736, lat=43.138393, altitude=151.50, speed=0.00, satellites=7, angle=312.8900, fixquality=1
$GPRMC,141228.250,A,4308.3037,N,07726.2641,W,0.01,312.89,230519,,,A*76
$GPGGA,141228.500,4308.3037,N,07726.2641,W,1,07,1.41,151.5,M,-34.4,M,,*57
lng=-77.437736, lat=43.138393, altitude=151.50, speed=0.01, satellites=7, angle=312.8900, fixquality=1
$GPRMC,141228.750,A,4308.3037,N,07726.2641,W,0.00,312.89,230519,,,A*72
$GPGGA,141229.000,4308.3037,N,07726.2641,W,1,07,1.41,151.5,M,-34.4,M,,*53
lng=-77.437736, lat=43.138393, altitude=151.50, speed=0.00, satellites=7, angle=312.8900, fixquality=1
$GPRMC,141229.250,A,4308.3037,N,07726.2641,W,0.01,312.89,230519,,,A*77
$GPGGA,141229.500,4308.3037,N,07726.2641,W,1,07,1.41,151.5,M,-34.4,M,,*56
lng=-77.437736, lat=43.138393, altitude=151.50, speed=0.01, satellites=7, angle=312.8900, fixquality=1
$GPRMC,141229.750,A,4308.3037,N,07726.2641,W,0.01,312.89,230519,,,A*72
$GPGGA,141230.000,4308.3037,N,07726.2641,W,1,07,1.41,151.5,M,-34.4,M,,*5B
lng=-77.437736, lat=43.138393, altitude=151.50, speed=0.01, satellites=7, angle=312.8900, fixquality=1
$GPRMC,141230.250,A,4308.3037,N,07726.2641,W,0.00,312.89,230519,,,A*7E
$GPGGA,141230.500,4308.3037,N,07726.2641,W,1,07,1.41,151.5,M,-34.4,M,,*5E
lng=-77.437736, lat=43.138393, altitude=151.50, speed=0.00, satellites=7, angle=312.8900, fixquality=1
$GPRMC,141230.750,A,4308.3037,N,07726.2641,W,0.01,312.89,230519,,,A*7A
$GPGGA,141231.000,4308.3037,N,07726.2641,W,1,07,1.41,151.5,M,-34.4,M,,*5A
lng=-77.437736, lat=43.138393, altitude=151.50, speed=0.01, satellites=7, angle=312.8900, fixquality=1
$GPRMC,141231.250,A,4308.3037,N,07726.2641,W,0.01,312.89,230519,,,A*7E
$GPGGA,141231.500,4308.3037,N,07726.2641,W,1,07,1.41,151.5,M,-34.4,M,,*5F
lng=-77.437736, lat=43.138393, altitude=151.50, speed=0.01, satellites=7, angle=312.8900, fixquality=1
$GPRMC,141231.750,A,4308.3037,N,07726.2641,W,0.01,312.89,230519,,,A*7B
$GPGGA,141232.000,4308.3037,N,07726.2641,W,1,07,1.41,151.5,M,-34.4,M,,*59
lng=-77.437736, lat=43.138393, altitude=151.50, speed=0.01, satellites=7, angle=312.8900, fixquality=1
$GPRMC,141232.250,A,4308.3037,N,07726.2641,W,0.00,312.89,230519,,,A*7C
$GPGGA,141232.500,4308.3037,N,07726.2641,W,1,07,1.41,151.5,M,-34.4,M,,*5C
lng=-77.437736, lat=43.138393, altitude=151.50, speed=0.00, satellites=7, angle=312.8900, fixquality=1
$GPRMC,141232.750,A,4308.3037,N,07726.2641,W,0.00,312.89,230519,,,A*79
$GPGGA,141233.000,4308.3037,N,07726.2641,W,1,07,1.41,151.5,M,-34.4,M,,*58
lng=-77.437736, lat=43.138393, altitude=151.50, speed=0.00, satellites=7, angle=312.8900, fixquality=1
$GPRMC,141233.250,A,4308.3037,N,07726.2641,W,0.01,312.89,230519,,,A*7C
$GPGGA,141233.500,4308.3037,N,07726.2641,W,1,07,1.41,151.5,M,-34.4,M,,*5D
lng=-77.437736, lat=43.138393, altitude=151.50, speed=0.01, satellites=7, angle=312.8900, fixquality=1
$GPRMC,141233.750,A,4308.3037,N,07726.2641,W,0.01,312.89,230519,,,A*79
$GPGGA,141234.000,4308.3037,N,07726.2641,W,1,07,1.41,151.5,M,-34.4,M,,*5F
lng=-77.437736, lat=43.138393, altitude=151.50, speed=0.01, satellites=7, angle=312.8900, fixquality=1
$GPRMC,141234.250,A,4308.3037,N,07726.2641,W,0.00,312.89,230519,,,A*7A
$GPGGA,141234.500,4308.3037,N,07726.2641,W,1,07,1.41,151.5,M,-34.4,M,,*5A
lng=-77.437736, lat=43.138393, altitude=151.50, speed=0.00, satellites=7, angle=312.8900, fixquality=1
$GPRMC,141234.750,A,4308.3037,N,07726.2641,W,0.01,312.89,230519,,,A*7E
$GPGGA,141235.000,4308.3037,N,07726.2641,W,1,07,1.41,151.5,M,-34.4,M,,*5E
lng=-77.437736, lat=43.138393, altitude=151.50, speed=0.01, satellites=7, angle=312.8900, fixquality=1
$GPRMC,141235.250,A,4308.3037,N,07726.2641,W,0.01,312.89,230519,,,A*7A
$GPGGA,141235.500,4308.3037,N,07726.2641,W,1,08,1.18,151.5,M,-34.4,M,,*58
lng=-77.437736, lat=43.138393, altitude=151.50, speed=0.01, satellites=7, angle=312.8900, fixquality=1
$GPRMC,141235.750,A,4308.3037,N,07726.2641,W,0.02,312.89,230519,,,A*7C
$GPGGA,141236.000,4308.3037,N,07726.2641,W,1,08,1.18,151.5,M,-34.4,M,,*5E
lng=-77.437736, lat=43.138393, altitude=151.50, speed=0.02, satellites=8, angle=312.8900, fixquality=1
$GPRMC,141236.250,A,4308.3037,N,07726.2641,W,0.01,312.89,230519,,,A*79
$GPGGA,141236.500,4308.3037,N,07726.2641,W,1,08,1.18,151.5,M,-34.4,M,,*5B
lng=-77.437736, lat=43.138393, altitude=151.50, speed=0.01, satellites=8, angle=312.8900, fixquality=1
$GPRMC,141236.750,A,4308.3037,N,07726.2641,W,0.08,312.89,230519,,,A*75
$GPGGA,141237.000,4308.3037,N,07726.2641,W,1,08,1.18,151.5,M,-34.4,M,,*5F
lng=-77.437736, lat=43.138393, altitude=151.50, speed=0.08, satellites=8, angle=312.8900, fixquality=1
$GPRMC,141237.250,A,4308.3037,N,07726.2641,W,1.25,312.89,230519,,,A*7F
$GPGGA,141237.500,4308.3039,N,07726.2641,W,1,08,1.18,151.4,M,-34.4,M,,*55
lng=-77.437736, lat=43.138393, altitude=151.50, speed=1.25, satellites=8, angle=312.8900, fixquality=1
$GPRMC,141237.750,A,4308.3041,N,07726.2641,W,3.71,5.00,230519,,,A*7C
$GPGGA,141238.000,4308.3043,N,07726.2641,W,1,08,1.18,151.4,M,-34.4,M,,*52
lng=-77.437736, lat=43.138404, altitude=151.40, speed=3.71, satellites=8, angle=5.0000, fixquality=1
$GPRMC,141238.250,A,4308.3047,N,07726.2641,W,5.37,3.28,230519,,,A*78
$GPGGA,141238.500,4308.3051,N,07726.2641,W,1,08,1.18,151.4,M,-34.4,M,,*54
lng=-77.437736, lat=43.138412, altitude=151.40, speed=5.37, satellites=8, angle=3.2800, fixquality=1
$GPRMC,141238.750,A,4308.3055,N,07726.2641,W,6.24,3.21,230519,,,A*76
$GPGGA,141239.000,4308.3059,N,07726.2641,W,1,08,1.18,151.4,M,-34.4,M,,*58
lng=-77.437736, lat=43.138427, altitude=151.40, speed=6.24, satellites=8, angle=3.2100, fixquality=1
$GPRMC,141239.250,A,4308.3063,N,07726.2641,W,6.44,0.90,230519,,,A*78
$GPGGA,141239.500,4308.3068,N,07726.2641,W,1,08,1.18,151.4,M,-34.4,M,,*5F
lng=-77.437736, lat=43.138435, altitude=151.40, speed=6.44, satellites=8, angle=0.9000, fixquality=1
$GPRMC,141239.750,A,4308.3072,N,07726.2641,W,6.70,359.16,230519,,,A*7B
$GPGGA,141240.000,4308.3077,N,07726.2642,W,1,08,1.18,151.5,M,-34.4,M,,*58
lng=-77.437736, lat=43.138450, altitude=151.40, speed=6.70, satellites=8, angle=359.1600, fixquality=1
$GPRMC,141240.250,A,4308.3081,N,07726.2642,W,6.60,357.96,230519,,,A*78
$GPGGA,141240.500,4308.3086,N,07726.2642,W,1,08,1.18,151.4,M,-34.4,M,,*52
lng=-77.437736, lat=43.138469, altitude=151.50, speed=6.60, satellites=8, angle=357.9600, fixquality=1
$GPRMC,141240.750,A,4308.3090,N,07726.2643,W,6.21,357.63,230519,,,A*73
$GPGGA,141241.000,4308.3094,N,07726.2643,W,1,08,1.18,151.4,M,-34.4,M,,*54
lng=-77.437736, lat=43.138484, altitude=151.40, speed=6.21, satellites=8, angle=357.6300, fixquality=1
$GPRMC,141241.250,A,4308.3099,N,07726.2644,W,6.26,355.46,230519,,,A*7B
$GPGGA,141241.500,4308.3103,N,07726.2645,W,1,08,1.18,151.3,M,-34.4,M,,*5F
lng=-77.437736, lat=43.138500, altitude=151.40, speed=6.26, satellites=8, angle=355.4600, fixquality=1
$GPRMC,141241.750,A,4308.3107,N,07726.2645,W,6.06,356.63,230519,,,A*7F
$GPGGA,141242.000,4308.3111,N,07726.2646,W,1,08,1.18,151.3,M,-34.4,M,,*59
lng=-77.437744, lat=43.138507, altitude=151.30, speed=6.06, satellites=8, angle=356.6300, fixquality=1
$GPRMC,141242.250,A,4308.3115,N,07726.2646,W,5.87,357.79,230519,,,A*79
$GPGGA,141242.500,4308.3119,N,07726.2646,W,1,08,1.18,151.3,M,-34.4,M,,*54
lng=-77.437744, lat=43.138526, altitude=151.30, speed=5.87, satellites=8, angle=357.7900, fixquality=1
$GPRMC,141242.750,A,4308.3122,N,07726.2646,W,5.29,359.42,230519,,,A*7A
$GPGGA,141243.000,4308.3126,N,07726.2646,W,1,08,1.18,151.2,M,-34.4,M,,*5D
lng=-77.437744, lat=43.138534, altitude=151.30, speed=5.29, satellites=8, angle=359.4200, fixquality=1
$GPRMC,141243.250,A,4308.3129,N,07726.2646,W,5.17,1.63,230519,,,A*75
$GPGGA,141243.500,4308.3132,N,07726.2645,W,1,08,1.18,151.1,M,-34.4,M,,*5D
lng=-77.437744, lat=43.138549, altitude=151.20, speed=5.17, satellites=8, angle=1.6300, fixquality=1
$GPRMC,141243.750,A,4308.3135,N,07726.2644,W,4.76,9.24,230519,,,A*72
$GPGGA,141244.000,4308.3138,N,07726.2643,W,1,08,1.18,151.1,M,-34.4,M,,*53
lng=-77.437736, lat=43.138557, altitude=151.10, speed=4.76, satellites=8, angle=9.2400, fixquality=1
$GPRMC,141244.250,A,4308.3141,N,07726.2641,W,4.71,17.76,230519,,,A*49
$GPGGA,141244.500,4308.3143,N,07726.2639,W,1,08,1.07,151.1,M,-34.4,M,,*59
lng=-77.437736, lat=43.138565, altitude=151.10, speed=4.71, satellites=8, angle=17.7600, fixquality=1
$GPRMC,141244.750,A,4308.3146,N,07726.2636,W,4.72,27.68,230519,,,A*44
$GPGGA,141245.000,4308.3148,N,07726.2634,W,1,08,1.07,151.1,M,-34.4,M,,*5B
lng=-77.437728, lat=43.138572, altitude=151.10, speed=4.72, satellites=8, angle=27.6800, fixquality=1
$GPRMC,141245.250,A,4308.3150,N,07726.2632,W,4.43,34.45,230519,,,A*4C
$GPGGA,141245.500,4308.3151,N,07726.2629,W,1,08,1.07,151.1,M,-34.4,M,,*5A
lng=-77.437721, lat=43.138584, altitude=151.10, speed=4.43, satellites=8, angle=34.4500, fixquality=1
$GPRMC,141245.750,A,4308.3152,N,07726.2625,W,4.34,49.32,230519,,,A*47
$GPGGA,141246.000,4308.3153,N,07726.2622,W,1,08,1.07,151.0,M,-34.4,M,,*54
lng=-77.437713, lat=43.138591, altitude=151.10, speed=4.34, satellites=8, angle=49.3200, fixquality=1
$GPRMC,141246.250,A,4308.3153,N,07726.2620,W,3.84,55.93,230519,,,A*4F
$GPGGA,141246.500,4308.3153,N,07726.2617,W,1,08,1.07,151.0,M,-34.4,M,,*57
lng=-77.437705, lat=43.138591, altitude=151.00, speed=3.84, satellites=8, angle=55.9300, fixquality=1
$GPRMC,141246.750,A,4308.3153,N,07726.2614,W,2.96,67.46,230519,,,A*46
$GPGGA,141247.000,4308.3153,N,07726.2612,W,1,08,1.07,150.9,M,-34.4,M,,*5E
lng=-77.437690, lat=43.138591, altitude=151.00, speed=2.96, satellites=8, angle=67.4600, fixquality=1
$GPRMC,141247.250,A,4308.3153,N,07726.2611,W,2.21,70.08,230519,,,A*47
$GPGGA,141247.500,4308.3153,N,07726.2609,W,1,08,1.07,150.9,M,-34.4,M,,*51
lng=-77.437690, lat=43.138591, altitude=150.90, speed=2.21, satellites=8, angle=70.0800, fixquality=1
$GPRMC,141247.750,A,4308.3153,N,07726.2608,W,1.56,74.64,230519,,,A*47
$GPGGA,141248.000,4308.3153,N,07726.2607,W,1,08,1.07,150.9,M,-34.4,M,,*55
lng=-77.437675, lat=43.138591, altitude=150.90, speed=1.56, satellites=8, angle=74.6400, fixquality=1
$GPRMC,141248.250,A,4308.3153,N,07726.2607,W,0.41,85.21,230519,,,A*4A
$GPGGA,141248.500,4308.3153,N,07726.2608,W,1,08,1.07,150.9,M,-34.4,M,,*5F
lng=-77.437675, lat=43.138591, altitude=150.90, speed=0.41, satellites=8, angle=85.2100, fixquality=1
$GPRMC,141248.750,A,4308.3153,N,07726.2609,W,0.34,85.21,230519,,,A*43
$GPGGA,141249.000,4308.3153,N,07726.2614,W,1,08,1.07,150.9,M,-34.4,M,,*56
lng=-77.437675, lat=43.138591, altitude=150.90, speed=0.34, satellites=8, angle=85.2100, fixquality=1
$GPRMC,141249.250,A,4308.3153,N,07726.2618,W,1.87,259.56,230519,,,A*7D
$GPGGA,141249.500,4308.3153,N,07726.2620,W,1,08,1.07,151.0,M,-34.4,M,,*5C
lng=-77.437698, lat=43.138591, altitude=150.90, speed=1.87, satellites=8, angle=259.5600, fixquality=1
$GPRMC,141249.750,A,4308.3153,N,07726.2623,W,2.15,259.51,230519,,,A*7F
$GPGGA,141250.000,4308.3152,N,07726.2626,W,1,08,1.07,151.0,M,-34.4,M,,*56
lng=-77.437705, lat=43.138591, altitude=151.00, speed=2.15, satellites=8, angle=259.5100, fixquality=1
$GPRMC,141250.250,A,4308.3151,N,07726.2632,W,4.22,253.70,230519,,,A*7B
$GPGGA,141250.500,4308.3150,N,07726.2637,W,1,08,1.07,151.0,M,-34.4,M,,*51
lng=-77.437721, lat=43.138584, altitude=151.00, speed=4.22, satellites=8, angle=253.7000, fixquality=1
$GPRMC,141250.750,A,4308.3152,N,07726.2645,W,6.08,257.07,230519,,,A*73
$GPGGA,141251.000,4308.3153,N,07726.2652,W,1,08,1.07,150.9,M,-34.4,M,,*5D
lng=-77.437744, lat=43.138591, altitude=151.00, speed=6.08, satellites=8, angle=257.0700, fixquality=1
$GPRMC,141251.250,A,4308.3154,N,07726.2661,W,7.29,261.86,230519,,,A*79
$GPGGA,141251.500,4308.3154,N,07726.2672,W,1,08,1.07,150.9,M,-34.4,M,,*5D
lng=-77.437767, lat=43.138591, altitude=150.90, speed=7.29, satellites=8, angle=261.8600, fixquality=1
$GPRMC,141251.750,A,4308.3155,N,07726.2683,W,9.22,265.87,230519,,,A*71
$GPGGA,141252.000,4308.3158,N,07726.2697,W,1,08,1.19,150.9,M,-34.4,M,,*53
lng=-77.437797, lat=43.138591, altitude=150.90, speed=9.22, satellites=8, angle=265.8700, fixquality=1
$GPRMC,141252.250,A,4308.3161,N,07726.2710,W,11.24,272.32,230519,,,A*4C
$GPGGA,141252.500,4308.3163,N,07726.2724,W,1,08,1.07,150.8,M,-34.4,M,,*59
lng=-77.437850, lat=43.138599, altitude=150.90, speed=11.24, satellites=8, angle=272.3200, fixquality=1
$GPRMC,141252.750,A,4308.3166,N,07726.2737,W,12.37,275.44,230519,,,A*4C
$GPGGA,141253.000,4308.3173,N,07726.2754,W,1,08,1.19,150.8,M,-34.4,M,,*54
lng=-77.437896, lat=43.138607, altitude=150.80, speed=12.37, satellites=8, angle=275.4400, fixquality=1
$GPRMC,141253.250,A,4308.3174,N,07726.2770,W,13.55,280.17,230519,,,A*41
$GPGGA,141253.500,4308.3179,N,07726.2785,W,1,08,1.07,150.7,M,-34.4,M,,*57
lng=-77.437950, lat=43.138622, altitude=150.80, speed=13.55, satellites=8, angle=280.1700, fixquality=1
$GPRMC,141253.750,A,4308.3182,N,07726.2802,W,15.03,284.28,230519,,,A*4A
$GPGGA,141254.000,4308.3186,N,07726.2818,W,1,08,1.19,150.7,M,-34.4,M,,*51
lng=-77.438003, lat=43.138637, altitude=150.70, speed=15.03, satellites=8, angle=284.2800, fixquality=1
$GPRMC,141254.250,A,4308.3189,N,07726.2834,W,16.49,286.94,230519,,,A*4E
$GPGGA,141254.500,4308.3193,N,07726.2851,W,1,08,1.07,150.7,M,-34.4,M,,*52
lng=-77.438056, lat=43.138648, altitude=150.70, speed=16.49, satellites=8, angle=286.9400, fixquality=1
$GPRMC,141254.750,A,4308.3196,N,07726.2868,W,17.94,288.92,230519,,,A*45
$GPGGA,141255.000,4308.3200,N,07726.2886,W,1,08,1.07,150.7,M,-34.4,M,,*55
lng=-77.438110, lat=43.138664, altitude=150.70, speed=17.94, satellites=8, angle=288.9200, fixquality=1
$GPRMC,141255.250,A,4308.3203,N,07726.2903,W,18.62,290.61,230519,,,A*41
$GPGGA,141255.500,4308.3208,N,07726.2920,W,1,08,1.07,150.7,M,-34.4,M,,*55
lng=-77.438179, lat=43.138671, altitude=150.70, speed=18.62, satellites=8, angle=290.6100, fixquality=1
$GPRMC,141255.750,A,4308.3212,N,07726.2937,W,19.19,291.77,230519,,,A*48
$GPGGA,141256.000,4308.3217,N,07726.2954,W,1,08,1.07,150.8,M,-34.4,M,,*51
lng=-77.438224, lat=43.138687, altitude=150.70, speed=19.19, satellites=8, angle=291.7700, fixquality=1
$GPRMC,141256.250,A,4308.3221,N,07726.2971,W,19.51,293.56,230519,,,A*41
$GPGGA,141256.500,4308.3229,N,07726.2989,W,1,08,1.07,150.7,M,-34.4,M,,*56
lng=-77.438278, lat=43.138706, altitude=150.80, speed=19.51, satellites=8, angle=293.5600, fixquality=1
$GPRMC,141256.750,A,4308.3237,N,07726.3009,W,20.75,296.00,230519,,,A*4E
$GPGGA,141257.000,4308.3246,N,07726.3029,W,1,08,1.07,150.8,M,-34.4,M,,*56
lng=-77.438346, lat=43.138729, altitude=150.70, speed=20.75, satellites=8, angle=296.0000, fixquality=1
$GPRMC,141257.250,A,4308.3254,N,07726.3048,W,21.77,297.41,230519,,,A*4D
$GPGGA,141257.500,4308.3264,N,07726.3068,W,1,08,1.07,150.9,M,-34.4,M,,*57
lng=-77.438407, lat=43.138751, altitude=150.80, speed=21.77, satellites=8, angle=297.4100, fixquality=1
$GPRMC,141257.750,A,4308.3273,N,07726.3088,W,22.43,299.71,230519,,,A*48
$GPGGA,141258.000,4308.3283,N,07726.3108,W,1,08,1.07,150.9,M,-34.4,M,,*53
lng=-77.438476, lat=43.138786, altitude=150.90, speed=22.43, satellites=8, angle=299.7100, fixquality=1
$GPRMC,141258.250,A,4308.3294,N,07726.3128,W,23.22,300.56,230519,,,A*42
$GPGGA,141258.500,4308.3304,N,07726.3148,W,1,08,1.07,151.0,M,-34.4,M,,*54
lng=-77.438552, lat=43.138828, altitude=150.90, speed=23.22, satellites=8, angle=300.5600, fixquality=1
$GPRMC,141258.750,A,4308.3314,N,07726.3169,W,23.84,301.04,230519,,,A*41
$GPGGA,141259.000,4308.3324,N,07726.3189,W,1,08,1.07,151.1,M,-34.4,M,,*5E
lng=-77.438613, lat=43.138858, altitude=151.00, speed=23.84, satellites=8, angle=301.0400, fixquality=1
$GPRMC,141259.250,A,4308.3334,N,07726.3210,W,24.47,301.50,230519,,,A*43
$GPGGA,141259.500,4308.3345,N,07726.3231,W,1,08,1.07,151.2,M,-34.4,M,,*5F
lng=-77.438682, lat=43.138893, altitude=151.10, speed=24.47, satellites=8, angle=301.5000, fixquality=1
$GPRMC,141259.750,A,4308.3355,N,07726.3252,W,25.04,301.99,230519,,,A*44
$GPGGA,141300.000,4308.3366,N,07726.3273,W,1,08,1.07,151.2,M,-34.4,M,,*50
lng=-77.438751, lat=43.138923, altitude=151.20, speed=25.04, satellites=8, angle=301.9900, fixquality=1
$GPRMC,141300.250,A,4308.3377,N,07726.3294,W,25.45,302.04,230519,,,A*44
$GPGGA,141300.500,4308.3387,N,07726.3315,W,1,08,1.07,151.3,M,-34.4,M,,*5A
lng=-77.438827, lat=43.138965, altitude=151.20, speed=25.45, satellites=8, angle=302.0400, fixquality=1
$GPRMC,141300.750,A,4308.3397,N,07726.3337,W,25.77,302.19,230519,,,A*4A
$GPGGA,141301.000,4308.3408,N,07726.3358,W,1,08,1.07,151.4,M,-34.4,M,,*50
lng=-77.438888, lat=43.138996, altitude=151.30, speed=25.77, satellites=8, angle=302.1900, fixquality=1
$GPRMC,141301.250,A,4308.3418,N,07726.3379,W,25.82,302.28,230519,,,A*4C
$GPGGA,141301.500,4308.3429,N,07726.3401,W,1,08,1.07,151.5,M,-34.4,M,,*5C
lng=-77.438964, lat=43.139030, altitude=151.40, speed=25.82, satellites=8, angle=302.2800, fixquality=1
$GPRMC,141301.750,A,4308.3439,N,07726.3422,W,25.85,303.15,230519,,,A*4B
$GPGGA,141302.000,4308.3450,N,07726.3443,W,1,08,1.07,151.6,M,-34.4,M,,*51
lng=-77.439041, lat=43.139060, altitude=151.50, speed=25.85, satellites=8, angle=303.1500, fixquality=1
$GPRMC,141302.250,A,4308.3461,N,07726.3464,W,25.88,304.01,230519,,,A*4D
$GPGGA,141302.500,4308.3472,N,07726.3486,W,1,08,1.07,151.8,M,-34.4,M,,*53
lng=-77.439102, lat=43.139102, altitude=151.60, speed=25.88, satellites=8, angle=304.0100, fixquality=1
$GPRMC,141302.750,A,4308.3482,N,07726.3506,W,25.57,305.87,230519,,,A*4D
$GPGGA,141303.000,4308.3494,N,07726.3526,W,1,08,1.07,151.9,M,-34.4,M,,*55
lng=-77.439178, lat=43.139137, altitude=151.80, speed=25.57, satellites=8, angle=305.8700, fixquality=1
$GPRMC,141303.250,A,4308.3505,N,07726.3546,W,25.44,307.65,230519,,,A*4F
$GPGGA,141303.500,4308.3516,N,07726.3565,W,1,08,1.07,151.9,M,-34.4,M,,*5C
lng=-77.439239, lat=43.139175, altitude=151.90, speed=25.44, satellites=8, angle=307.6500, fixquality=1
$GPRMC,141303.750,A,4308.3527,N,07726.3584,W,25.20,308.20,230519,,,A*48
$GPGGA,141304.000,4308.3539,N,07726.3602,W,1,08,1.07,152.1,M,-34.4,M,,*5A
lng=-77.439308, lat=43.139209, altitude=151.90, speed=25.20, satellites=8, angle=308.2000, fixquality=1
$GPRMC,141304.250,A,4308.3551,N,07726.3620,W,24.89,310.18,230519,,,A*46
$GPGGA,141304.500,4308.3564,N,07726.3637,W,1,08,1.07,152.2,M,-34.4,M,,*52
lng=-77.439361, lat=43.139247, altitude=152.10, speed=24.89, satellites=8, angle=310.1800, fixquality=1
$GPRMC,141304.750,A,4308.3577,N,07726.3652,W,24.12,313.30,230519,,,A*49
$GPGGA,141305.000,4308.3589,N,07726.3668,W,1,08,1.07,152.4,M,-34.4,M,,*59
lng=-77.439422, lat=43.139297, altitude=152.20, speed=24.12, satellites=8, angle=313.3000, fixquality=1
$GPRMC,141305.250,A,4308.3602,N,07726.3683,W,23.52,316.39,230519,,,A*4F
$GPGGA,141305.500,4308.3614,N,07726.3697,W,1,08,1.07,152.6,M,-34.4,M,,*59
lng=-77.439468, lat=43.139339, altitude=152.40, speed=23.52, satellites=8, angle=316.3900, fixquality=1
$GPRMC,141305.750,A,4308.3626,N,07726.3711,W,22.82,319.11,230519,,,A*4F
$GPGGA,141306.000,4308.3639,N,07726.3724,W,1,08,1.07,152.8,M,-34.4,M,,*57
lng=-77.439521, lat=43.139381, altitude=152.60, speed=22.82, satellites=8, angle=319.1100, fixquality=1
$GPRMC,141306.250,A,4308.3652,N,07726.3736,W,22.39,321.43,230519,,,A*43
$GPGGA,141306.500,4308.3665,N,07726.3748,W,1,08,1.07,152.9,M,-34.4,M,,*50
lng=-77.439559, lat=43.139419, altitude=152.80, speed=22.39, satellites=8, angle=321.4300, fixquality=1
$GPRMC,141306.750,A,4308.3679,N,07726.3759,W,22.09,326.39,230519,,,A*4F
$GPGGA,141307.000,4308.3692,N,07726.3770,W,1,08,1.07,153.1,M,-34.4,M,,*5E
lng=-77.439598, lat=43.139461, altitude=152.90, speed=22.09, satellites=8, angle=326.3900, fixquality=1
$GPRMC,141307.250,A,4308.3705,N,07726.3780,W,21.97,328.06,230519,,,A*43
$GPGGA,141307.500,4308.3718,N,07726.3790,W,1,08,1.07,153.2,M,-34.4,M,,*55
lng=-77.439628, lat=43.139511, altitude=153.10, speed=21.97, satellites=8, angle=328.0600, fixquality=1
$GPRMC,141307.750,A,4308.3731,N,07726.3799,W,21.28,330.31,230519,,,A*40
$GPGGA,141308.000,4308.3744,N,07726.3806,W,1,08,1.07,153.2,M,-34.4,M,,*56
lng=-77.439666, lat=43.139549, altitude=153.20, speed=21.28, satellites=8, angle=330.3100, fixquality=1
$GPRMC,141308.250,A,4308.3758,N,07726.3814,W,21.06,334.15,230519,,,A*41
$GPGGA,141308.500,4308.3773,N,07726.3820,W,1,08,1.07,153.4,M,-34.4,M,,*55
lng=-77.439689, lat=43.139598, altitude=153.20, speed=21.06, satellites=8, angle=334.1500, fixquality=1
$GPRMC,141308.750,A,4308.3788,N,07726.3825,W,21.26,339.36,230519,,,A*45
$GPGGA,141309.000,4308.3802,N,07726.3830,W,1,08,1.07,153.5,M,-34.4,M,,*58
lng=-77.439704, lat=43.139648, altitude=153.40, speed=21.26, satellites=8, angle=339.3600, fixquality=1
$GPRMC,141309.250,A,4308.3817,N,07726.3834,W,21.32,342.74,230519,,,A*47
$GPGGA,141309.500,4308.3831,N,07726.3836,W,1,08,1.07,153.6,M,-34.4,M,,*58
lng=-77.439720, lat=43.139698, altitude=153.50, speed=21.32, satellites=8, angle=342.7400, fixquality=1
$GPRMC,141309.750,A,4308.3845,N,07726.3830,W,20.20,353.24,230519,,,A*46
$GPGGA,141310.000,4308.3861,N,07726.3830,W,1,08,1.19,153.7,M,-34.4,M,,*58
lng=-77.439712, lat=43.139736, altitude=153.60, speed=20.20, satellites=8, angle=353.2400, fixquality=1
$GPRMC,141310.250,A,4308.3877,N,07726.3830,W,21.57,358.18,230519,,,A*4F
$GPGGA,141310.500,4308.3894,N,07726.3828,W,1,08,1.19,153.8,M,-34.4,M,,*51
lng=-77.439712, lat=43.139793, altitude=153.70, speed=21.57, satellites=8, angle=358.1800, fixquality=1
$GPRMC,141310.750,A,4308.3911,N,07726.3827,W,22.43,1.50,230519,,,A*48
$GPGGA,141311.000,4308.3928,N,07726.3824,W,1,08,1.19,153.9,M,-34.4,M,,*5E
lng=-77.439712, lat=43.139850, altitude=153.80, speed=22.43, satellites=8, angle=1.5000, fixquality=1
$GPRMC,141311.250,A,4308.3944,N,07726.3821,W,23.05,4.87,230519,,,A*46
$GPGGA,141311.500,4308.3961,N,07726.3816,W,1,08,1.19,154.0,M,-34.4,M,,*59
lng=-77.439704, lat=43.139907, altitude=153.90, speed=23.05, satellites=8, angle=4.8700, fixquality=1
$GPRMC,141311.750,A,4308.3978,N,07726.3812,W,23.86,8.32,230519,,,A*45
$GPGGA,141312.000,4308.3994,N,07726.3807,W,1,08,1.19,154.1,M,-34.4,M,,*54
lng=-77.439689, lat=43.139965, altitude=154.00, speed=23.86, satellites=8, angle=8.3200, fixquality=1
$GPRMC,141312.250,A,4308.4011,N,07726.3801,W,23.95,10.44,230519,,,A*7A
$GPGGA,141312.500,4308.4027,N,07726.3795,W,1,08,1.19,154.2,M,-34.4,M,,*50
lng=-77.439666, lat=43.140014, altitude=154.10, speed=23.95, satellites=8, angle=10.4400, fixquality=1
$GPRMC,141312.750,A,4308.4044,N,07726.3789,W,24.24,12.53,230519,,,A*79
$GPGGA,141313.000,4308.4061,N,07726.3783,W,1,08,1.19,154.3,M,-34.4,M,,*50
lng=-77.439651, lat=43.140071, altitude=154.20, speed=24.24, satellites=8, angle=12.5300, fixquality=1
$GPRMC,141313.250,A,4308.4078,N,07726.3777,W,24.75,13.54,230519,,,A*71
$GPGGA,141313.500,4308.4095,N,07726.3770,W,1,08,1.19,154.5,M,-34.4,M,,*54
lng=-77.439628, lat=43.140129, altitude=154.30, speed=24.75, satellites=8, angle=13.5400, fixquality=1
$GPRMC,141313.750,A,4308.4113,N,07726.3764,W,25.07,13.72,230519,,,A*7A
$GPGGA,141314.000,4308.4131,N,07726.3757,W,1,08,1.19,154.8,M,-34.4,M,,*51
lng=-77.439605, lat=43.140186, altitude=154.50, speed=25.07, satellites=8, angle=13.7200, fixquality=1
$GPRMC,141314.250,A,4308.4149,N,07726.3751,W,25.32,13.23,230519,,,A*73
$GPGGA,141314.500,4308.4167,N,07726.3746,W,1,08,1.07,155.0,M,-34.4,M,,*51
lng=-77.439582, lat=43.140251, altitude=154.80, speed=25.32, satellites=8, angle=13.2300, fixquality=1
$GPRMC,141314.750,A,4308.4184,N,07726.3741,W,25.27,11.50,230519,,,A*74
$GPGGA,141315.000,4308.4202,N,07726.3736,W,1,08,1.19,155.2,M,-34.4,M,,*5F
lng=-77.439567, lat=43.140308, altitude=155.00, speed=25.27, satellites=8, angle=11.5000, fixquality=1
$GPRMC,141315.250,A,4308.4219,N,07726.3731,W,25.02,10.56,230519,,,A*70
$GPGGA,141315.500,4308.4237,N,07726.3727,W,1,08,1.19,155.3,M,-34.4,M,,*5D
lng=-77.439552, lat=43.140365, altitude=155.20, speed=25.02, satellites=8, angle=10.5600, fixquality=1
$GPRMC,141315.750,A,4308.4254,N,07726.3723,W,24.51,9.95,230519,,,A*4F
$GPGGA,141316.000,4308.4270,N,07726.3719,W,1,08,1.19,155.5,M,-34.4,M,,*53
lng=-77.439537, lat=43.140422, altitude=155.30, speed=24.51, satellites=8, angle=9.9500, fixquality=1
$GPRMC,141316.250,A,4308.4287,N,07726.3716,W,23.97,9.15,230519,,,A*44
$GPGGA,141316.500,4308.4304,N,07726.3712,W,1,08,1.19,155.6,M,-34.4,M,,*5C
lng=-77.439529, lat=43.140480, altitude=155.50, speed=23.97, satellites=8, angle=9.1500, fixquality=1
$GPRMC,141316.750,A,4308.4320,N,07726.3709,W,23.43,8.37,230519,,,A*4B
$GPGGA,141317.000,4308.4336,N,07726.3706,W,1,08,1.19,155.8,M,-34.4,M,,*52
lng=-77.439521, lat=43.140537, altitude=155.60, speed=23.43, satellites=8, angle=8.3700, fixquality=1
$GPRMC,141317.250,A,4308.4353,N,07726.3703,W,22.93,8.00,230519,,,A*49
$GPGGA,141317.500,4308.4368,N,07726.3701,W,1,08,1.19,156.0,M,-34.4,M,,*50
lng=-77.439498, lat=43.140583, altitude=155.80, speed=22.93, satellites=8, angle=8.0000, fixquality=1
$GPRMC,141317.750,A,4308.4383,N,07726.3698,W,22.32,8.28,230519,,,A*43
$GPGGA,141318.000,4308.4398,N,07726.3694,W,1,08,1.19,156.2,M,-34.4,M,,*5A
lng=-77.439491, lat=43.140640, altitude=156.00, speed=22.32, satellites=8, angle=8.2800, fixquality=1
$GPRMC,141318.250,A,4308.4413,N,07726.3691,W,21.71,9.21,230519,,,A*42
$GPGGA,141318.500,4308.4427,N,07726.3688,W,1,08,1.19,156.4,M,-34.4,M,,*57
lng=-77.439483, lat=43.140689, altitude=156.20, speed=21.71, satellites=8, angle=9.2100, fixquality=1
$GPRMC,141318.750,A,4308.4441,N,07726.3684,W,20.84,9.67,230519,,,A*4D
$GPGGA,141319.000,4308.4454,N,07726.3680,W,1,08,1.19,156.6,M,-34.4,M,,*5D
lng=-77.439468, lat=43.140739, altitude=156.40, speed=20.84, satellites=8, angle=9.6700, fixquality=1
$GPRMC,141319.250,A,4308.4467,N,07726.3677,W,19.60,9.93,230519,,,A*4A
$GPGGA,141319.500,4308.4479,N,07726.3673,W,1,08,1.19,156.7,M,-34.4,M,,*5A
lng=-77.439460, lat=43.140781, altitude=156.60, speed=19.60, satellites=8, angle=9.9300, fixquality=1
$GPRMC,141319.750,A,4308.4491,N,07726.3670,W,18.15,9.85,230519,,,A*45
$GPGGA,141320.000,4308.4501,N,07726.3667,W,1,08,1.19,156.9,M,-34.4,M,,*50
lng=-77.439453, lat=43.140819, altitude=156.70, speed=18.15, satellites=8, angle=9.8500, fixquality=1
$GPRMC,141320.250,A,4308.4511,N,07726.3664,W,16.14,10.48,230519,,,A*70
$GPGGA,141320.500,4308.4521,N,07726.3660,W,1,08,1.19,157.0,M,-34.4,M,,*58
lng=-77.439437, lat=43.140853, altitude=156.90, speed=16.14, satellites=8, angle=10.4800, fixquality=1
$GPRMC,141320.750,A,4308.4529,N,07726.3657,W,14.07,9.50,230519,,,A*4F
$GPGGA,141321.000,4308.4537,N,07726.3655,W,1,08,1.19,157.1,M,-34.4,M,,*5C
lng=-77.439430, lat=43.140884, altitude=157.00, speed=14.07, satellites=8, angle=9.5000, fixquality=1
$GPRMC,141321.250,A,4308.4545,N,07726.3652,W,11.90,8.63,230519,,,A*4E
$GPGGA,141321.500,4308.4551,N,07726.3650,W,1,08,1.19,157.1,M,-34.4,M,,*5C
lng=-77.439422, lat=43.140911, altitude=157.10, speed=11.90, satellites=8, angle=8.6300, fixquality=1
$GPRMC,141321.750,A,4308.4553,N,07726.3647,W,8.60,8.62,230519,,,A*7E
$GPGGA,141322.000,4308.4558,N,07726.3645,W,1,08,1.19,157.3,M,-34.4,M,,*55
lng=-77.439414, lat=43.140918, altitude=157.10, speed=8.60, satellites=8, angle=8.6200, fixquality=1
$GPRMC,141322.250,A,4308.4562,N,07726.3643,W,6.74,11.46,230519,,,A*4B
$GPGGA,141322.500,4308.4565,N,07726.3641,W,1,08,1.19,157.3,M,-34.4,M,,*5A
lng=-77.439407, lat=43.140933, altitude=157.30, speed=6.74, satellites=8, angle=11.4600, fixquality=1
$GPRMC,141322.750,A,4308.4567,N,07726.3638,W,5.47,14.38,230519,,,A*48
$GPGGA,141323.000,4308.4569,N,07726.3635,W,1,08,1.19,157.4,M,-34.4,M,,*56
lng=-77.439399, lat=43.140941, altitude=157.30, speed=5.47, satellites=8, angle=14.3800, fixquality=1
$GPRMC,141323.250,A,4308.4574,N,07726.3634,W,5.16,17.84,230519,,,A*42
$GPGGA,141323.500,4308.4583,N,07726.3631,W,1,08,1.08,157.6,M,-34.4,M,,*51
lng=-77.439384, lat=43.140956, altitude=157.40, speed=5.16, satellites=8, angle=17.8400, fixquality=1
$GPRMC,141323.750,A,4308.4590,N,07726.3630,W,6.48,9.34,230519,,,A*75
$GPGGA,141324.000,4308.4595,N,07726.3629,W,1,08,1.19,157.7,M,-34.4,M,,*5C
lng=-77.439376, lat=43.140983, altitude=157.60, speed=6.48, satellites=8, angle=9.3400, fixquality=1
$GPRMC,141324.250,A,4308.4600,N,07726.3629,W,6.79,359.57,230519,,,A*74
$GPGGA,141324.500,4308.4605,N,07726.3629,W,1,08,1.19,157.8,M,-34.4,M,,*5C
lng=-77.439376, lat=43.140998, altitude=157.70, speed=6.79, satellites=8, angle=359.5700, fixquality=1
$GPRMC,141324.750,A,4308.4611,N,07726.3632,W,7.82,344.94,230519,,,A*7D
$GPGGA,141325.000,4308.4616,N,07726.3635,W,1,08,1.07,158.1,M,-34.4,M,,*5E
lng=-77.439384, lat=43.141014, altitude=157.80, speed=7.82, satellites=8, angle=344.9400, fixquality=1
$GPRMC,141325.250,A,4308.4622,N,07726.3640,W,9.07,328.22,230519,,,A*78
$GPGGA,141325.500,4308.4628,N,07726.3646,W,1,08,1.08,158.0,M,-34.4,M,,*5C
lng=-77.439399, lat=43.141040, altitude=158.10, speed=9.07, satellites=8, angle=328.2200, fixquality=1
$GPRMC,141325.750,A,4308.4634,N,07726.3652,W,10.81,320.71,230519,,,A*41
$GPGGA,141326.000,4308.4640,N,07726.3659,W,1,08,1.08,158.1,M,-34.4,M,,*5B
lng=-77.439422, lat=43.141056, altitude=158.00, speed=10.81, satellites=8, angle=320.7100, fixquality=1
$GPRMC,141326.250,A,4308.4645,N,07726.3668,W,11.57,316.11,230519,,,A*41
$GPGGA,141326.500,4308.4649,N,07726.3680,W,1,08,1.08,158.2,M,-34.4,M,,*50
lng=-77.439445, lat=43.141071, altitude=158.10, speed=11.57, satellites=8, angle=316.1100, fixquality=1
$GPRMC,141326.750,A,4308.4654,N,07726.3692,W,12.89,303.79,230519,,,A*4B
$GPGGA,141327.000,4308.4658,N,07726.3704,W,1,07,1.13,158.2,M,-34.4,M,,*5C
lng=-77.439483, lat=43.141090, altitude=158.20, speed=12.89, satellites=8, angle=303.7900, fixquality=1
$GPRMC,141327.250,A,4308.4662,N,07726.3716,W,13.45,298.70,230519,,,A*4C
$GPGGA,141327.500,4308.4665,N,07726.3731,W,1,07,1.13,158.3,M,-34.4,M,,*50
lng=-77.439529, lat=43.141105, altitude=158.20, speed=13.45, satellites=7, angle=298.7000, fixquality=1
$GPRMC,141327.750,A,4308.4669,N,07726.3748,W,15.39,291.06,230519,,,A*4C
$GPGGA,141328.000,4308.4671,N,07726.3764,W,1,07,1.13,158.3,M,-34.4,M,,*5F
lng=-77.439582, lat=43.141113, altitude=158.30, speed=15.39, satellites=7, angle=291.0600, fixquality=1
$GPRMC,141328.250,A,4308.4674,N,07726.3783,W,16.75,285.57,230519,,,A*47
$GPGGA,141328.500,4308.4676,N,07726.3804,W,1,07,1.13,158.4,M,-34.4,M,,*53
lng=-77.439643, lat=43.141120, altitude=158.30, speed=16.75, satellites=7, angle=285.5700, fixquality=1
$GPRMC,141328.750,A,4308.4677,N,07726.3826,W,18.23,281.63,230519,,,A*4F
$GPGGA,141329.000,4308.4678,N,07726.3847,W,1,07,1.13,158.6,M,-34.4,M,,*5C
lng=-77.439712, lat=43.141128, altitude=158.40, speed=18.23, satellites=7, angle=281.6300, fixquality=1
$GPRMC,141329.250,A,4308.4680,N,07726.3866,W,18.92,280.10,230519,,,A*48
$GPGGA,141329.500,4308.4681,N,07726.3886,W,1,08,1.08,158.6,M,-34.4,M,,*57
lng=-77.439781, lat=43.141128, altitude=158.60, speed=18.92, satellites=7, angle=280.1000, fixquality=1
$GPRMC,141329.750,A,4308.4682,N,07726.3906,W,19.45,278.49,230519,,,A*48
$GPGGA,141330.000,4308.4683,N,07726.3925,W,1,08,1.08,158.6,M,-34.4,M,,*50
lng=-77.439842, lat=43.141136, altitude=158.60, speed=19.45, satellites=8, angle=278.4900, fixquality=1
$GPRMC,141330.250,A,4308.4685,N,07726.3944,W,19.70,277.81,230519,,,A*49
$GPGGA,141330.500,4308.4686,N,07726.3964,W,1,08,1.08,158.6,M,-34.4,M,,*55
lng=-77.439910, lat=43.141136, altitude=158.60, speed=19.70, satellites=8, angle=277.8100, fixquality=1
$GPRMC,141330.750,A,4308.4688,N,07726.3983,W,19.71,277.73,230519,,,A*46
$GPGGA,141331.000,4308.4689,N,07726.4003,W,1,08,1.08,158.7,M,-34.4,M,,*50
lng=-77.439971, lat=43.141147, altitude=158.60, speed=19.71, satellites=8, angle=277.7300, fixquality=1
$GPRMC,141331.250,A,4308.4691,N,07726.4022,W,19.32,277.35,230519,,,A*4A
$GPGGA,141331.500,4308.4692,N,07726.4039,W,1,08,1.08,158.7,M,-34.4,M,,*56
lng=-77.440040, lat=43.141155, altitude=158.70, speed=19.32, satellites=8, angle=277.3500, fixquality=1
$GPRMC,141331.750,A,4308.4694,N,07726.4056,W,18.24,276.52,230519,,,A*4F
$GPGGA,141332.000,4308.4695,N,07726.4072,W,1,08,1.08,158.7,M,-34.4,M,,*58
lng=-77.440093, lat=43.141155, altitude=158.70, speed=18.24, satellites=8, angle=276.5200, fixquality=1
$GPRMC,141332.250,A,4308.4696,N,07726.4088,W,16.80,276.26,230519,,,A*4B
$GPGGA,141332.500,4308.4697,N,07726.4103,W,1,08,1.08,158.6,M,-34.4,M,,*59
lng=-77.440147, lat=43.141162, altitude=158.70, speed=16.80, satellites=8, angle=276.2600, fixquality=1
$GPRMC,141332.750,A,4308.4698,N,07726.4117,W,15.54,277.04,230519,,,A*4C
$GPGGA,141333.000,4308.4700,N,07726.4131,W,1,08,1.08,158.6,M,-34.4,M,,*53
lng=-77.440193, lat=43.141162, altitude=158.60, speed=15.54, satellites=8, angle=277.0400, fixquality=1
$GPRMC,141333.250,A,4308.4701,N,07726.4145,W,14.75,278.80,230519,,,A*4F
$GPGGA,141333.500,4308.4703,N,07726.4158,W,1,08,1.08,158.6,M,-34.4,M,,*5A
lng=-77.440238, lat=43.141170, altitude=158.60, speed=14.75, satellites=8, angle=278.8000, fixquality=1
$GPRMC,141333.750,A,4308.4705,N,07726.4171,W,13.76,281.11,230519,,,A*43
$GPGGA,141334.000,4308.4706,N,07726.4183,W,1,08,1.08,158.7,M,-34.4,M,,*5A
lng=-77.440284, lat=43.141178, altitude=158.60, speed=13.76, satellites=8, angle=281.1100, fixquality=1
$GPRMC,141334.250,A,4308.4708,N,07726.4195,W,13.19,281.85,230519,,,A*42
$GPGGA,141334.500,4308.4710,N,07726.4207,W,1,08,1.08,158.7,M,-34.4,M,,*57
lng=-77.440322, lat=43.141178, altitude=158.70, speed=13.19, satellites=8, angle=281.8500, fixquality=1
$GPRMC,141334.750,A,4308.4712,N,07726.4218,W,12.43,283.54,230519,,,A*4A
$GPGGA,141335.000,4308.4714,N,07726.4230,W,1,08,1.08,158.7,M,-34.4,M,,*53
lng=-77.440361, lat=43.141185, altitude=158.70, speed=12.43, satellites=8, angle=283.5400, fixquality=1
$GPRMC,141335.250,A,4308.4716,N,07726.4241,W,11.97,284.48,230519,,,A*46
$GPGGA,141335.500,4308.4717,N,07726.4251,W,1,08,1.08,158.7,M,-34.4,M,,*52
lng=-77.440406, lat=43.141193, altitude=158.70, speed=11.97, satellites=8, angle=284.4800, fixquality=1
$GPRMC,141335.750,A,4308.4719,N,07726.4262,W,11.50,284.02,230519,,,A*48
$GPGGA,141336.000,4308.4716,N,07726.4275,W,1,08,1.08,158.7,M,-34.4,M,,*53
lng=-77.440437, lat=43.141193, altitude=158.70, speed=11.50, satellites=8, angle=284.0200, fixquality=1
$GPRMC,141336.250,A,4308.4716,N,07726.4285,W,11.02,283.39,230519,,,A*40
$GPGGA,141336.500,4308.4717,N,07726.4295,W,1,08,1.08,158.8,M,-34.4,M,,*56
lng=-77.440475, lat=43.141193, altitude=158.70, speed=11.02, satellites=8, angle=283.3900, fixquality=1
$GPRMC,141336.750,A,4308.4718,N,07726.4304,W,10.49,284.08,230519,,,A*48
$GPGGA,141337.000,4308.4718,N,07726.4313,W,1,08,1.08,158.8,M,-34.4,M,,*52
lng=-77.440505, lat=43.141193, altitude=158.80, speed=10.49, satellites=8, angle=284.0800, fixquality=1
$GPRMC,141337.250,A,4308.4718,N,07726.4322,W,9.36,286.86,230519,,,A*7C
$GPGGA,141337.500,4308.4718,N,07726.4331,W,1,08,1.08,158.8,M,-34.4,M,,*57
lng=-77.440536, lat=43.141193, altitude=158.80, speed=9.36, satellites=8, angle=286.8600, fixquality=1
$GPRMC,141337.750,A,4308.4717,N,07726.4339,W,8.53,285.27,230519,,,A*76
$GPGGA,141338.000,4308.4716,N,07726.4344,W,1,08,1.08,158.9,M,-34.4,M,,*50
lng=-77.440567, lat=43.141193, altitude=158.80, speed=8.53, satellites=8, angle=285.2700, fixquality=1
$GPRMC,141338.250,A,4308.4717,N,07726.4351,W,7.77,283.51,230519,,,A*7C
$GPGGA,141338.500,4308.4717,N,07726.4356,W,1,08,1.08,158.9,M,-34.4,M,,*57
lng=-77.440582, lat=43.141193, altitude=158.90, speed=7.77, satellites=8, angle=283.5100, fixquality=1
$GPRMC,141338.750,A,4308.4715,N,07726.4360,W,6.40,281.67,230519,,,A*7B
$GPGGA,141339.000,4308.4716,N,07726.4365,W,1,08,1.19,159.0,M,-34.4,M,,*5A
lng=-77.440597, lat=43.141193, altitude=158.90, speed=6.40, satellites=8, angle=281.6700, fixquality=1
$GPRMC,141339.250,A,4308.4717,N,07726.4369,W,5.58,283.22,230519,,,A*7D
$GPGGA,141339.500,4308.4717,N,07726.4373,W,1,08,1.08,159.0,M,-34.4,M,,*59
lng=-77.440620, lat=43.141193, altitude=159.00, speed=5.58, satellites=8, angle=283.2200, fixquality=1
$GPRMC,141339.750,A,4308.4718,N,07726.4377,W,4.95,283.48,230519,,,A*74
$GPGGA,141340.000,4308.4719,N,07726.4379,W,1,08,1.19,159.0,M,-34.4,M,,*56
lng=-77.440628, lat=43.141193, altitude=159.00, speed=4.95, satellites=8, angle=283.4800, fixquality=1
$GPRMC,141340.250,A,4308.4720,N,07726.4382,W,4.81,285.27,230519,,,A*74
$GPGGA,141340.500,4308.4722,N,07726.4385,W,1,08,1.08,159.1,M,-34.4,M,,*59
lng=-77.440635, lat=43.141201, altitude=159.00, speed=4.81, satellites=8, angle=285.2700, fixquality=1
$GPRMC,141340.750,A,4308.4723,N,07726.4388,W,4.54,286.24,230519,,,A*70
$GPGGA,141341.000,4308.4726,N,07726.4392,W,1,08,1.08,159.2,M,-34.4,M,,*5C
lng=-77.440650, lat=43.141201, altitude=159.10, speed=4.54, satellites=8, angle=286.2400, fixquality=1
$GPRMC,141341.250,A,4308.4729,N,07726.4396,W,4.28,285.94,230519,,,A*72
$GPGGA,141341.500,4308.4732,N,07726.4400,W,1,08,1.08,159.2,M,-34.4,M,,*50
lng=-77.440658, lat=43.141212, altitude=159.20, speed=4.28, satellites=8, angle=285.9400, fixquality=1
$GPRMC,141341.750,A,4308.4734,N,07726.4403,W,3.95,285.42,230519,,,A*7A
$GPGGA,141342.000,4308.4736,N,07726.4405,W,1,08,1.08,159.3,M,-34.4,M,,*56
lng=-77.440673, lat=43.141227, altitude=159.20, speed=3.95, satellites=8, angle=285.4200, fixquality=1
$GPRMC,141342.250,A,4308.4737,N,07726.4408,W,3.46,286.90,230519,,,A*76
$GPGGA,141342.500,4308.4737,N,07726.4410,W,1,08,1.08,159.3,M,-34.4,M,,*56
lng=-77.440681, lat=43.141227, altitude=159.30, speed=3.46, satellites=8, angle=286.9000, fixquality=1
$GPRMC,141342.750,A,4308.4738,N,07726.4412,W,2.77,288.60,230519,,,A*75
$GPGGA,141343.000,4308.4738,N,07726.4413,W,1,08,1.08,159.3,M,-34.4,M,,*5E
lng=-77.440689, lat=43.141227, altitude=159.30, speed=2.77, satellites=8, angle=288.6000, fixquality=1
$GPRMC,141343.250,A,4308.4738,N,07726.4415,W,2.24,288.60,230519,,,A*70
$GPGGA,141343.500,4308.4737,N,07726.4415,W,1,08,1.08,159.4,M,-34.4,M,,*55
lng=-77.440689, lat=43.141227, altitude=159.30, speed=2.24, satellites=8, angle=288.6000, fixquality=1
$GPRMC,141343.750,A,4308.4735,N,07726.4409,W,1.09,288.60,230519,,,A*79
$GPGGA,141344.000,4308.4735,N,07726.4406,W,1,08,1.08,159.4,M,-34.4,M,,*57
lng=-77.440681, lat=43.141227, altitude=159.40, speed=1.09, satellites=8, angle=288.6000, fixquality=1
$GPRMC,141344.250,A,4308.4734,N,07726.4404,W,0.48,288.60,230519,,,A*73
$GPGGA,141344.500,4308.4734,N,07726.4402,W,1,08,1.08,159.3,M,-34.4,M,,*50
lng=-77.440673, lat=43.141227, altitude=159.40, speed=0.48, satellites=8, angle=288.6000, fixquality=1
$GPRMC,141344.750,A,4308.4733,N,07726.4399,W,0.16,288.60,230519,,,A*79
$GPGGA,141345.000,4308.4733,N,07726.4396,W,1,08,1.08,159.3,M,-34.4,M,,*59
lng=-77.440666, lat=43.141220, altitude=159.30, speed=0.16, satellites=8, angle=288.6000, fixquality=1
$GPRMC,141345.250,A,4308.4733,N,07726.4394,W,0.27,288.60,230519,,,A*72
$GPGGA,141345.500,4308.4733,N,07726.4392,W,1,08,1.08,159.3,M,-34.4,M,,*58
lng=-77.440658, lat=43.141220, altitude=159.30, speed=0.27, satellites=8, angle=288.6000, fixquality=1
$GPRMC,141345.750,A,4308.4732,N,07726.4391,W,0.36,288.60,230519,,,A*73
$GPGGA,141346.000,4308.4732,N,07726.4390,W,1,08,1.08,159.4,M,-34.4,M,,*5A
lng=-77.440650, lat=43.141220, altitude=159.30, speed=0.36, satellites=8, angle=288.6000, fixquality=1
$GPRMC,141346.250,A,4308.4732,N,07726.4389,W,0.42,288.60,230519,,,A*7F
$GPGGA,141346.500,4308.4732,N,07726.4388,W,1,08,1.08,159.4,M,-34.4,M,,*56
lng=-77.440650, lat=43.141220, altitude=159.40, speed=0.42, satellites=8, angle=288.6000, fixquality=1
$GPRMC,141346.750,A,4308.4732,N,07726.4387,W,0.38,288.60,230519,,,A*79
$GPGGA,141347.000,4308.4732,N,07726.4386,W,1,08,1.08,159.4,M,-34.4,M,,*5C
lng=-77.440643, lat=43.141220, altitude=159.40, speed=0.38, satellites=8, angle=288.6000, fixquality=1
$GPRMC,141347.250,A,4308.4732,N,07726.4386,W,0.26,95.66,230519,,,A*4B
$GPGGA,141347.500,4308.4732,N,07726.4386,W,1,08,1.08,159.4,M,-34.4,M,,*59
lng=-77.440643, lat=43.141220, altitude=159.40, speed=0.26, satellites=8, angle=95.6600, fixquality=1
$GPRMC,141347.750,A,4308.4732,N,07726.4386,W,0.21,93.47,230519,,,A*4C
$GPGGA,141348.000,4308.4732,N,07726.4386,W,1,08,1.08,159.4,M,-34.4,M,,*53
lng=-77.440643, lat=43.141220, altitude=159.40, speed=0.21, satellites=8, angle=93.4700, fixquality=1
$GPRMC,141348.250,A,4308.4732,N,07726.4385,W,0.18,87.33,230519,,,A*49
$GPGGA,141348.500,4308.4732,N,07726.4385,W,1,08,1.08,159.4,M,-34.4,M,,*55
lng=-77.440643, lat=43.141220, altitude=159.40, speed=0.18, satellites=8, angle=87.3300, fixquality=1
$GPRMC,141348.750,A,4308.4732,N,07726.4385,W,0.17,87.52,230519,,,A*44
$GPGGA,141349.000,4308.4732,N,07726.4385,W,1,08,1.08,159.5,M,-34.4,M,,*50
lng=-77.440643, lat=43.141220, altitude=159.40, speed=0.17, satellites=8, angle=87.5200, fixquality=1
$GPRMC,141349.250,A,4308.4732,N,07726.4385,W,0.08,88.50,230519,,,A*43
$GPGGA,141349.500,4308.4732,N,07726.4385,W,1,08,1.08,159.5,M,-34.4,M,,*55
lng=-77.440643, lat=43.141220, altitude=159.50, speed=0.08, satellites=8, angle=88.5000, fixquality=1
$GPRMC,141349.750,A,4308.4732,N,07726.4385,W,0.07,88.50,230519,,,A*49
$GPGGA,141350.000,4308.4732,N,07726.4385,W,1,08,1.08,159.5,M,-34.4,M,,*58
lng=-77.440643, lat=43.141220, altitude=159.50, speed=0.07, satellites=8, angle=88.5000, fixquality=1
$GPRMC,141350.250,A,4308.4732,N,07726.4385,W,0.02,88.50,230519,,,A*41
$GPGGA,141350.500,4308.4732,N,07726.4385,W,1,08,1.08,159.5,M,-34.4,M,,*5D
lng=-77.440643, lat=43.141220, altitude=159.50, speed=0.02, satellites=8, angle=88.5000, fixquality=1
$GPRMC,141350.750,A,4308.4732,N,07726.4385,W,0.04,88.50,230519,,,A*42
$GPGGA,141351.000,4308.4732,N,07726.4385,W,1,08,1.08,159.5,M,-34.4,M,,*59
lng=-77.440643, lat=43.141220, altitude=159.50, speed=0.04, satellites=8, angle=88.5000, fixquality=1
$GPRMC,141351.250,A,4308.4732,N,07726.4385,W,0.02,88.50,230519,,,A*40
$GPGGA,141351.500,4308.4732,N,07726.4385,W,1,08,1.08,159.5,M,-34.4,M,,*5C
lng=-77.440643, lat=43.141220, altitude=159.50, speed=0.02, satellites=8, angle=88.5000, fixquality=1
$GPRMC,141351.750,A,4308.4732,N,07726.4385,W,0.02,88.50,230519,,,A*45
$GPGGA,141352.000,4308.4732,N,07726.4385,W,1,08,1.08,159.5,M,-34.4,M,,*5A
lng=-77.440643, lat=43.141220, altitude=159.50, speed=0.02, satellites=8, angle=88.5000, fixquality=1
$GPRMC,141352.250,A,4308.4732,N,07726.4385,W,0.05,88.50,230519,,,A*44
$GPGGA,141352.500,4308.4732,N,07726.4385,W,1,08,1.08,159.5,M,-34.4,M,,*5F
lng=-77.440643, lat=43.141220, altitude=159.50, speed=0.05, satellites=8, angle=88.5000, fixquality=1
$GPRMC,141352.750,A,4308.4732,N,07726.4385,W,0.03,88.50,230519,,,A*47
$GPGGA,141353.000,4308.4732,N,07726.4385,W,1,08,1.08,159.5,M,-34.4,M,,*5B
lng=-77.440643, lat=43.141220, altitude=159.50, speed=0.03, satellites=8, angle=88.5000, fixquality=1
$GPRMC,141353.250,A,4308.4732,N,07726.4385,W,0.04,88.50,230519,,,A*44
$GPGGA,141353.500,4308.4732,N,07726.4385,W,1,08,1.08,159.5,M,-34.4,M,,*5E
lng=-77.440643, lat=43.141220, altitude=159.50, speed=0.04, satellites=8, angle=88.5000, fixquality=1
$GPRMC,141353.750,A,4308.4732,N,07726.4385,W,0.02,88.50,230519,,,A*47
$GPGGA,141354.000,4308.4732,N,07726.4385,W,1,08,1.08,159.5,M,-34.4,M,,*5C
lng=-77.440643, lat=43.141220, altitude=159.50, speed=0.02, satellites=8, angle=88.5000, fixquality=1
$GPRMC,141354.250,A,4308.4732,N,07726.4385,W,0.01,88.50,230519,,,A*46
$GPGGA,141354.500,4308.4732,N,07726.4385,W,1,08,1.08,159.5,M,-34.4,M,,*59
lng=-77.440643, lat=43.141220, altitude=159.50, speed=0.01, satellites=8, angle=88.5000, fixquality=1
$GPRMC,141354.750,A,4308.4732,N,07726.4385,W,0.00,88.50,230519,,,A*42
$GPGGA,141355.000,4308.4732,N,07726.4385,W,1,08,1.19,159.5,M,-34.4,M,,*5D
lng=-77.440643, lat=43.141220, altitude=159.50, speed=0.00, satellites=8, angle=88.5000, fixquality=1
$GPRMC,141355.250,A,4308.4732,N,07726.4385,W,0.00,88.50,230519,,,A*46
$GPGGA,141355.500,4308.4732,N,07726.4385,W,1,08,1.19,159.5,M,-34.4,M,,*58
lng=-77.440643, lat=43.141220, altitude=159.50, speed=0.00, satellites=8, angle=88.5000, fixquality=1
$GPRMC,141355.750,A,4308.4732,N,07726.4385,W,0.00,88.50,230519,,,A*43
$GPGGA,141356.000,4308.4732,N,07726.4385,W,1,08,1.19,159.5,M,-34.4,M,,*5E
lng=-77.440643, lat=43.141220, altitude=159.50, speed=0.00, satellites=8, angle=88.5000, fixquality=1
$GPRMC,141356.250,A,4308.4732,N,07726.4385,W,0.00,88.50,230519,,,A*45
$GPGGA,141356.500,4308.4732,N,07726.4385,W,1,08,1.08,159.5,M,-34.4,M,,*5B
lng=-77.440643, lat=43.141220, altitude=159.50, speed=0.00, satellites=8, angle=88.5000, fixquality=1
$GPRMC,141356.750,A,4308.4732,N,07726.4385,W,0.04,88.50,230519,,,A*44
$GPGGA,141357.000,4308.4732,N,07726.4385,W,1,08,1.08,159.5,M,-34.4,M,,*5F
lng=-77.440643, lat=43.141220, altitude=159.50, speed=0.04, satellites=8, angle=88.5000, fixquality=1
$GPRMC,141357.250,A,4308.4732,N,07726.4385,W,0.03,88.50,230519,,,A*47
$GPGGA,141357.500,4308.4732,N,07726.4385,W,1,08,1.19,159.5,M,-34.4,M,,*5A
lng=-77.440643, lat=43.141220, altitude=159.50, speed=0.03, satellites=8, angle=88.5000, fixquality=1
$GPRMC,141357.750,A,4308.4732,N,07726.4385,W,0.05,88.50,230519,,,A*44
$GPGGA,141358.000,4308.4732,N,07726.4385,W,1,08,1.08,159.5,M,-34.4,M,,*50
lng=-77.440643, lat=43.141220, altitude=159.50, speed=0.05, satellites=8, angle=88.5000, fixquality=1
$GPRMC,141358.250,A,4308.4732,N,07726.4385,W,0.06,88.50,230519,,,A*4D
$GPGGA,141358.500,4308.4732,N,07726.4385,W,1,08,1.08,159.5,M,-34.4,M,,*55
lng=-77.440643, lat=43.141220, altitude=159.50, speed=0.06, satellites=8, angle=88.5000, fixquality=1
$GPRMC,141358.750,A,4308.4732,N,07726.4385,W,0.08,88.50,230519,,,A*46
$GPGGA,141359.000,4308.4732,N,07726.4385,W,1,08,1.08,159.5,M,-34.4,M,,*51
lng=-77.440643, lat=43.141220, altitude=159.50, speed=0.08, satellites=8, angle=88.5000, fixquality=1
$GPRMC,141359.250,A,4308.4733,N,07726.4385,W,0.09,88.50,230519,,,A*42
$GPGGA,141359.500,4308.4733,N,07726.4385,W,1,08,1.08,159.5,M,-34.4,M,,*55
lng=-77.440643, lat=43.141220, altitude=159.50, speed=0.09, satellites=8, angle=88.5000, fixquality=1
$GPRMC,141359.750,A,4308.4733,N,07726.4385,W,0.10,88.50,230519,,,A*4F
$GPGGA,141400.000,4308.4733,N,07726.4385,W,1,08,1.08,159.5,M,-34.4,M,,*5B
lng=-77.440643, lat=43.141220, altitude=159.50, speed=0.10, satellites=8, angle=88.5000, fixquality=1
$GPRMC,141400.250,A,4308.4733,N,07726.4385,W,0.01,88.50,230519,,,A*41
$GPGGA,141400.500,4308.4733,N,07726.4385,W,1,08,1.19,159.5,M,-34.4,M,,*5E
lng=-77.440643, lat=43.141220, altitude=159.50, speed=0.01, satellites=8, angle=88.5000, fixquality=1
$GPRMC,141400.750,A,4308.4733,N,07726.4385,W,0.00,88.50,230519,,,A*45
$GPGGA,141401.000,4308.4733,N,07726.4385,W,1,08,1.19,159.5,M,-34.4,M,,*5A
lng=-77.440643, lat=43.141220, altitude=159.50, speed=0.00, satellites=8, angle=88.5000, fixquality=1
$GPRMC,141401.250,A,4308.4733,N,07726.4385,W,0.01,88.50,230519,,,A*40
$GPGGA,141401.500,4308.4733,N,07726.4385,W,1,08,1.19,159.5,M,-34.4,M,,*5F
lng=-77.440643, lat=43.141220, altitude=159.50, speed=0.01, satellites=8, angle=88.5000, fixquality=1
$GPRMC,141401.750,A,4308.4733,N,07726.4385,W,0.02,88.50,230519,,,A*46
$GPGGA,141402.000,4308.4733,N,07726.4385,W,1,08,1.19,159.5,M,-34.4,M,,*59
lng=-77.440643, lat=43.141220, altitude=159.50, speed=0.02, satellites=8, angle=88.5000, fixquality=1
$GPRMC,141402.250,A,4308.4733,N,07726.4385,W,0.02,88.50,230519,,,A*40
$GPGGA,141402.500,4308.4733,N,07726.4385,W,1,08,1.19,159.5,M,-34.4,M,,*5C
lng=-77.440643, lat=43.141220, altitude=159.50, speed=0.02, satellites=8, angle=88.5000, fixquality=1
$GPRMC,141402.750,A,4308.4733,N,07726.4385,W,0.03,88.50,230519,,,A*44
$GPGGA,141403.000,4308.4733,N,07726.4385,W,1,08,1.19,159.5,M,-34.4,M,,*58
lng=-77.440643, lat=43.141220, altitude=159.50, speed=0.03, satellites=8, angle=88.5000, fixquality=1
$GPRMC,141403.250,A,4308.4733,N,07726.4385,W,0.03,88.50,230519,,,A*40
$GPGGA,141403.500,4308.4733,N,07726.4385,W,1,08,1.19,159.5,M,-34.4,M,,*5D
lng=-77.440643, lat=43.141220, altitude=159.50, speed=0.03, satellites=8, angle=88.5000, fixquality=1
$GPRMC,141403.750,A,4308.4733,N,07726.4385,W,0.02,88.50,230519,,,A*44
$GPGGA,141404.000,4308.4732,N,07726.4385,W,1,08,1.19,159.5,M,-34.4,M,,*5E
lng=-77.440643, lat=43.141220, altitude=159.50, speed=0.02, satellites=8, angle=88.5000, fixquality=1
$GPRMC,141404.250,A,4308.4732,N,07726.4385,W,0.02,88.50,230519,,,A*47
$GPGGA,141404.500,4308.4732,N,07726.4385,W,1,08,1.19,159.5,M,-34.4,M,,*5B
lng=-77.440643, lat=43.141220, altitude=159.50, speed=0.02, satellites=8, angle=88.5000, fixquality=1
$GPRMC,141404.750,A,4308.4732,N,07726.4385,W,0.02,88.50,230519,,,A*42
$GPGGA,141405.000,4308.4732,N,07726.4385,W,1,08,1.19,159.5,M,-34.4,M,,*5F
lng=-77.440643, lat=43.141220, altitude=159.50, speed=0.02, satellites=8, angle=88.5000, fixquality=1
$GPRMC,141405.250,A,4308.4732,N,07726.4385,W,0.01,88.50,230519,,,A*45
$GPGGA,141405.500,4308.4732,N,07726.4385,W,1,08,1.19,159.5,M,-34.4,M,,*5A
lng=-77.440643, lat=43.141220, altitude=159.50, speed=0.01, satellites=8, angle=88.5000, fixquality=1
$GPRMC,141405.750,A,4308.4732,N,07726.4385,W,0.01,88.50,230519,,,A*40
$GPGGA,141406.000,4308.4732,N,07726.4385,W,1,08,1.19,159.5,M,-34.4,M,,*5C
lng=-77.440643, lat=43.141220, altitude=159.50, speed=0.01, satellites=8, angle=88.5000, fixquality=1
$GPRMC,141406.250,A,4308.4732,N,07726.4385,W,0.01,88.50,230519,,,A*46
$GPGGA,141406.500,4308.4732,N,07726.4385,W,1,08,1.19,159.5,M,-34.4,M,,*59
lng=-77.440643, lat=43.141220, altitude=159.50, speed=0.01, satellites=8, angle=88.5000, fixquality=1
$GPRMC,141406.750,A,4308.4732,N,07726.4385,W,0.00,88.50,230519,,,A*42
$GPGGA,141407.000,4308.4732,N,07726.4385,W,1,08,1.19,159.5,M,-34.4,M,,*5D
lng=-77.440643, lat=43.141220, altitude=159.50, speed=0.00, satellites=8, angle=88.5000, fixquality=1
$GPRMC,141407.250,A,4308.4732,N,07726.4385,W,0.01,88.50,230519,,,A*47
$GPGGA,141407.500,4308.4732,N,07726.4385,W,1,08,1.19,159.5,M,-34.4,M,,*58
lng=-77.440643, lat=43.141220, altitude=159.50, speed=0.01, satellites=8, angle=88.5000, fixquality=1
$GPRMC,141407.750,A,4308.4732,N,07726.4385,W,0.04,88.50,230519,,,A*47
$GPGGA,141408.000,4308.4732,N,07726.4386,W,1,08,1.19,159.5,M,-34.4,M,,*51
lng=-77.440643, lat=43.141220, altitude=159.50, speed=0.04, satellites=8, angle=88.5000, fixquality=1
$GPRMC,141408.250,A,4308.4732,N,07726.4386,W,0.08,88.50,230519,,,A*42
$GPGGA,141408.500,4308.4732,N,07726.4386,W,1,08,1.19,159.5,M,-34.4,M,,*54
lng=-77.440643, lat=43.141220, altitude=159.50, speed=0.08, satellites=8, angle=88.5000, fixquality=1
$GPRMC,141408.750,A,4308.4732,N,07726.4386,W,0.11,88.50,230519,,,A*4F
$GPGGA,141409.000,4308.4732,N,07726.4386,W,1,08,1.08,159.5,M,-34.4,M,,*50
