Vers 81
USE_SERIAL_FEEDBACK=true
DEVELOPMENT_MODE=false
USE_RMC_ONLY=false

$GPRMC,131203.750,A,4308.3042,N,07726.2601,W,0.11,129.96,060919,,,A*75
$GPGGA,131204.000,4308.3043,N,07726.2602,W,1,05,1.74,164.1,M,-34.4,M,,*59
$GPRMC,131204.250,A,4308.3044,N,07726.2603,W,0.05,141.40,060919,,,A*73
$GPGGA,131204.500,4308.3044,N,07726.2605,W,1,05,1.74,163.5,M,-34.4,M,,*5F
$GPRMC,131204.750,A,4308.3044,N,07726.2606,W,0.03,169.35,060919,,,A*7D
$GPGGA,131205.000,4308.3044,N,07726.2606,W,1,05,1.74,163.3,M,-34.4,M,,*5E
$GPRMC,131205.250,A,4308.3044,N,07726.2606,W,0.02,165.96,060919,,,A*7D
$GPGGA,131205.500,4308.3044,N,07726.2607,W,1,05,1.74,162.7,M,-34.4,M,,*5F
$GPRMC,131205.750,A,4308.3044,N,07726.2608,W,0.03,29.00,060919,,,A*41
$GPGGA,131206.000,4308.3044,N,07726.2608,W,1,05,1.74,162.2,M,-34.4,M,,*53
$GPRMC,131206.250,A,4308.3044,N,07726.2609,W,0.02,43.58,060919,,,A*46
$GPGGA,131206.500,4308.3044,N,07726.2608,W,1,05,1.74,162.3,M,-34.4,M,,*57
$GPRMC,131206.750,A,4308.3045,N,07726.2606,W,0.03,10.65,060919,,,A*44
$GPGGA,131207.000,4308.3045,N,07726.2606,W,1,05,2.99,163.1,M,-34.4,M,,*5F
$GPRMC,131207.250,A,4308.3045,N,07726.2606,W,0.03,31.46,060919,,,A*42
$GPGGA,131207.500,4308.3045,N,07726.2606,W,1,05,1.74,163.5,M,-34.4,M,,*5E
$GPRMC,131207.750,A,4308.3045,N,07726.2606,W,0.04,240.98,060919,,,A*77
$GPGGA,131208.000,4308.3046,N,07726.2606,W,1,05,1.74,163.6,M,-34.4,M,,*54
$GPRMC,131208.250,A,4308.3046,N,07726.2606,W,0.04,132.69,060919,,,A*76
$GPGGA,131208.500,4308.3046,N,07726.2605,W,1,05,1.74,163.7,M,-34.4,M,,*53
$GPRMC,131208.750,A,4308.3046,N,07726.2605,W,0.02,85.02,060919,,,A*46
$GPGGA,131209.000,4308.3047,N,07726.2605,W,1,05,1.74,163.9,M,-34.4,M,,*58
$GPRMC,131209.250,A,4308.3047,N,07726.2605,W,0.02,217.01,060919,,,A*79
$GPGGA,131209.500,4308.3047,N,07726.2604,W,1,05,1.74,164.1,M,-34.4,M,,*53
$GPRMC,131209.750,A,4308.3047,N,07726.2604,W,0.02,351.18,060919,,,A*76
$GPGGA,131210.000,4308.3048,N,07726.2604,W,1,05,2.99,164.2,M,-34.4,M,,*52
$GPRMC,131210.250,A,4308.3048,N,07726.2603,W,0.04,72.74,060919,,,A*4D
$GPGGA,131210.500,4308.3048,N,07726.2602,W,1,05,1.73,164.4,M,-34.4,M,,*50
$GPRMC,131210.750,A,4308.3048,N,07726.2601,W,0.03,277.54,060919,,,A*78
$GPGGA,131211.000,4308.3048,N,07726.2601,W,1,05,1.74,164.6,M,-34.4,M,,*52
$GPRMC,131211.250,A,4308.3049,N,07726.2600,W,0.04,98.56,060919,,,A*4A
$GPGGA,131211.500,4308.3049,N,07726.2600,W,1,05,1.74,164.8,M,-34.4,M,,*59
$GPRMC,131211.750,A,4308.3049,N,07726.2599,W,0.03,265.79,060919,,,A*76
$GPGGA,131212.000,4308.3049,N,07726.2598,W,1,05,1.73,165.2,M,-34.4,M,,*51
$GPRMC,131212.250,A,4308.3049,N,07726.2597,W,0.02,127.74,060919,,,A*77
$GPGGA,131212.500,4308.3050,N,07726.2596,W,1,05,1.74,165.8,M,-34.4,M,,*5F
$GPRMC,131212.750,A,4308.3050,N,07726.2596,W,0.04,235.73,060919,,,A*7A
$GPGGA,131213.000,4308.3050,N,07726.2595,W,1,05,1.74,165.9,M,-34.4,M,,*59
$GPRMC,131213.250,A,4308.3050,N,07726.2596,W,0.01,99.89,060919,,,A*4A
$GPGGA,131213.500,4308.3050,N,07726.2596,W,1,05,1.74,165.9,M,-34.4,M,,*5F
$GPRMC,131213.750,A,4308.3050,N,07726.2596,W,0.04,144.30,060919,,,A*79
$GPGGA,131214.000,4308.3050,N,07726.2595,W,1,05,1.74,166.2,M,-34.4,M,,*56
$GPRMC,131214.250,A,4308.3050,N,07726.2595,W,0.07,120.88,060919,,,A*7A
$GPGGA,131214.500,4308.3050,N,07726.2596,W,1,05,1.73,166.0,M,-34.4,M,,*55
$GPRMC,131214.750,A,4308.3051,N,07726.2596,W,0.03,313.11,060919,,,A*7B
$GPGGA,131215.000,4308.3051,N,07726.2596,W,1,05,1.74,166.1,M,-34.4,M,,*56
$GPRMC,131215.250,A,4308.3051,N,07726.2596,W,0.01,282.61,060919,,,A*73
$GPGGA,131215.500,4308.3051,N,07726.2596,W,1,05,1.74,166.2,M,-34.4,M,,*50
$GPRMC,131215.750,A,4308.3051,N,07726.2595,W,0.06,73.95,060919,,,A*45
$GPGGA,131216.000,4308.3051,N,07726.2595,W,1,05,1.73,166.4,M,-34.4,M,,*54
$GPRMC,131216.250,A,4308.3052,N,07726.2595,W,0.01,236.48,060919,,,A*74
$GPGGA,131216.500,4308.3052,N,07726.2595,W,1,05,1.73,166.3,M,-34.4,M,,*55
$GPRMC,131216.750,A,4308.3052,N,07726.2595,W,0.01,236.43,060919,,,A*7A
$GPGGA,131217.000,4308.3052,N,07726.2595,W,1,05,1.73,166.4,M,-34.4,M,,*56
$GPRMC,131217.250,A,4308.3052,N,07726.2595,W,0.02,334.93,060919,,,A*73
$GPGGA,131217.500,4308.3052,N,07726.2594,W,1,05,1.74,166.3,M,-34.4,M,,*52
$GPRMC,131217.750,A,4308.3052,N,07726.2594,W,0.02,170.48,060919,,,A*73
$GPGGA,131218.000,4308.3052,N,07726.2594,W,1,05,1.74,166.5,M,-34.4,M,,*5E
$GPRMC,131218.250,A,4308.3052,N,07726.2593,W,0.03,112.78,060919,,,A*78
$GPGGA,131218.500,4308.3053,N,07726.2593,W,1,05,1.73,166.7,M,-34.4,M,,*58
$GPRMC,131218.750,A,4308.3053,N,07726.2592,W,0.00,0.00,060919,,,A*73
$GPGGA,131219.000,4308.3053,N,07726.2592,W,1,05,3.00,166.8,M,-34.4,M,,*54
$GPRMC,131219.250,A,4308.3053,N,07726.2591,W,0.04,129.56,060919,,,A*79
$GPGGA,131219.500,4308.3053,N,07726.2591,W,1,05,1.73,166.8,M,-34.4,M,,*54
$GPRMC,131219.750,A,4308.3053,N,07726.2591,W,0.01,357.85,060919,,,A*7C
$GPGGA,131220.001,4308.3053,N,07726.2591,W,1,05,3.00,166.6,M,-34.4,M,,*52
$GPRMC,131220.251,A,4308.3052,N,07726.2591,W,0.05,354.26,060919,,,A*7D
$GPGGA,131220.501,4308.3052,N,07726.2591,W,1,07,2.36,166.6,M,-34.4,M,,*50
$GPRMC,131220.750,A,4308.3052,N,07726.2591,W,0.03,93.23,060919,,,A*42
$GPGGA,131221.000,4308.3051,N,07726.2592,W,1,07,1.59,166.6,M,-34.4,M,,*5F
$GPRMC,131221.250,A,4308.3051,N,07726.2592,W,0.08,161.16,060919,,,A*77
$GPGGA,131221.500,4308.3050,N,07726.2593,W,1,07,1.59,166.6,M,-34.4,M,,*5A
$GPRMC,131221.750,A,4308.3050,N,07726.2594,W,0.03,332.87,060919,,,A*72
$GPGGA,131222.000,4308.3050,N,07726.2594,W,1,07,1.59,166.5,M,-34.4,M,,*58
$GPRMC,131222.250,A,4308.3050,N,07726.2594,W,0.05,345.54,060919,,,A*7C
$GPGGA,131222.500,4308.3050,N,07726.2595,W,1,07,2.36,166.5,M,-34.4,M,,*56
$GPRMC,131222.750,A,4308.3049,N,07726.2596,W,0.03,176.49,060919,,,A*7B
$GPGGA,131223.000,4308.3049,N,07726.2597,W,1,07,1.59,166.3,M,-34.4,M,,*54
$GPRMC,131223.250,A,4308.3049,N,07726.2597,W,0.01,22.52,060919,,,A*46
$GPGGA,131223.500,4308.3049,N,07726.2597,W,1,07,1.59,166.2,M,-34.4,M,,*50
$GPRMC,131223.750,A,4308.3048,N,07726.2598,W,0.05,242.17,060919,,,A*7C
$GPGGA,131224.000,4308.3048,N,07726.2598,W,1,07,1.59,166.1,M,-34.4,M,,*5F
$GPRMC,131224.250,A,4308.3048,N,07726.2599,W,0.01,170.14,060919,,,A*7A
$GPGGA,131224.500,4308.3048,N,07726.2600,W,1,07,1.59,166.0,M,-34.4,M,,*59
$GPRMC,131224.750,A,4308.3047,N,07726.2600,W,0.07,355.95,060919,,,A*79
$GPGGA,131225.000,4308.3047,N,07726.2600,W,1,07,2.36,165.9,M,-34.4,M,,*52
$GPRMC,131225.250,A,4308.3047,N,07726.2601,W,0.03,97.04,060919,,,A*4D
$GPGGA,131225.500,4308.3046,N,07726.2601,W,1,07,1.59,165.8,M,-34.4,M,,*5C
$GPRMC,131225.750,A,4308.3046,N,07726.2602,W,0.01,245.50,060919,,,A*74
$GPGGA,131226.000,4308.3046,N,07726.2602,W,1,07,1.59,165.7,M,-34.4,M,,*56
$GPRMC,131226.250,A,4308.3045,N,07726.2602,W,0.01,346.94,060919,,,A*7B
$GPGGA,131226.500,4308.3045,N,07726.2603,W,1,07,2.36,165.5,M,-34.4,M,,*59
$GPRMC,131226.750,A,4308.3045,N,07726.2603,W,0.03,128.87,060919,,,A*75
$GPGGA,131227.000,4308.3044,N,07726.2603,W,1,07,1.59,165.4,M,-34.4,M,,*57
$GPRMC,131227.250,A,4308.3044,N,07726.2604,W,0.03,336.77,060919,,,A*75
$GPGGA,131227.500,4308.3044,N,07726.2604,W,1,07,1.59,165.3,M,-34.4,M,,*52
$GPRMC,131227.750,A,4308.3044,N,07726.2605,W,0.04,328.62,060919,,,A*7D
$GPGGA,131228.000,4308.3043,N,07726.2605,W,1,07,1.59,165.1,M,-34.4,M,,*5C
$GPRMC,131228.250,A,4308.3043,N,07726.2605,W,0.03,112.25,060919,,,A*7F
$GPGGA,131228.500,4308.3043,N,07726.2606,W,1,07,1.59,165.0,M,-34.4,M,,*5B
$GPRMC,131228.750,A,4308.3043,N,07726.2606,W,0.08,320.43,060919,,,A*71
$GPGGA,131229.000,4308.3043,N,07726.2606,W,1,07,1.59,164.9,M,-34.4,M,,*57
$GPRMC,131229.250,A,4308.3043,N,07726.2606,W,0.03,101.38,060919,,,A*73
$GPGGA,131229.500,4308.3043,N,07726.2606,W,1,07,1.59,164.9,M,-34.4,M,,*52
$GPRMC,131229.750,A,4308.3043,N,07726.2606,W,0.02,347.63,060919,,,A*79
$GPGGA,131230.000,4308.3043,N,07726.2606,W,1,07,2.36,164.8,M,-34.4,M,,*54
$GPRMC,131230.250,A,4308.3043,N,07726.2606,W,0.03,88.93,060919,,,A*4A
$GPGGA,131230.500,4308.3042,N,07726.2606,W,1,07,1.59,164.8,M,-34.4,M,,*5A
$GPRMC,131230.750,A,4308.3042,N,07726.2607,W,0.02,338.29,060919,,,A*77
$GPGGA,131231.000,4308.3042,N,07726.2607,W,1,07,1.59,164.7,M,-34.4,M,,*50
$GPRMC,131231.250,A,4308.3042,N,07726.2607,W,0.02,161.10,060919,,,A*77
$GPGGA,131231.500,4308.3042,N,07726.2607,W,1,07,1.59,164.7,M,-34.4,M,,*55
$GPRMC,131231.750,A,4308.3042,N,07726.2607,W,0.02,136.37,060919,,,A*75
$GPGGA,131232.000,4308.3042,N,07726.2607,W,1,07,1.59,164.6,M,-34.4,M,,*52
$GPRMC,131232.250,A,4308.3042,N,07726.2608,W,0.03,167.02,060919,,,A*7F
$GPGGA,131232.500,4308.3041,N,07726.2608,W,1,09,1.13,164.4,M,-34.4,M,,*59
$GPRMC,131232.750,A,4308.3041,N,07726.2609,W,0.07,274.87,060919,,,A*70
$GPGGA,131233.000,4308.3041,N,07726.2609,W,1,09,1.14,164.0,M,-34.4,M,,*5F
$GPRMC,131233.250,A,4308.3041,N,07726.2610,W,0.04,155.40,060919,,,A*74
$GPGGA,131233.500,4308.3041,N,07726.2610,W,1,09,1.14,163.8,M,-34.4,M,,*5D
$GPRMC,131233.750,A,4308.3041,N,07726.2611,W,0.04,105.00,060919,,,A*71
$GPGGA,131234.000,4308.3041,N,07726.2611,W,1,09,1.13,163.5,M,-34.4,M,,*54
$GPRMC,131234.250,A,4308.3041,N,07726.2611,W,0.07,300.27,060919,,,A*72
$GPGGA,131234.500,4308.3041,N,07726.2612,W,1,09,1.13,163.3,M,-34.4,M,,*54
$GPRMC,131234.750,A,4308.3041,N,07726.2612,W,0.03,109.96,060919,,,A*71
$GPGGA,131235.000,4308.3041,N,07726.2613,W,1,09,1.13,162.8,M,-34.4,M,,*5B
$GPRMC,131235.250,A,4308.3040,N,07726.2614,W,0.03,153.40,060919,,,A*76
$GPGGA,131235.500,4308.3041,N,07726.2614,W,1,09,1.14,162.6,M,-34.4,M,,*50
$GPRMC,131235.750,A,4308.3041,N,07726.2614,W,0.02,146.44,060919,,,A*73
$GPGGA,131236.000,4308.3041,N,07726.2614,W,1,09,1.13,162.6,M,-34.4,M,,*51
$GPRMC,131236.250,A,4308.3041,N,07726.2614,W,0.02,160.90,060919,,,A*78
$GPGGA,131236.500,4308.3041,N,07726.2614,W,1,09,1.13,162.6,M,-34.4,M,,*54
$GPRMC,131236.750,A,4308.3041,N,07726.2614,W,0.02,35.74,060919,,,A*46
$GPGGA,131237.000,4308.3041,N,07726.2614,W,1,09,1.13,162.6,M,-34.4,M,,*50
$GPRMC,131237.250,A,4308.3041,N,07726.2614,W,0.04,111.93,060919,,,A*7A
$GPGGA,131237.500,4308.3041,N,07726.2614,W,1,09,1.13,162.6,M,-34.4,M,,*55
$GPRMC,131237.750,A,4308.3041,N,07726.2614,W,0.01,258.08,060919,,,A*76
$GPGGA,131238.000,4308.3041,N,07726.2614,W,1,09,1.13,162.6,M,-34.4,M,,*5F
$GPRMC,131238.250,A,4308.3041,N,07726.2614,W,0.03,98.96,060919,,,A*47
$GPGGA,131238.500,4308.3041,N,07726.2614,W,1,09,1.13,162.6,M,-34.4,M,,*5A
$GPRMC,131238.750,A,4308.3041,N,07726.2614,W,0.01,210.51,060919,,,A*79
$GPGGA,131239.000,4308.3041,N,07726.2614,W,1,09,1.13,162.6,M,-34.4,M,,*5E
$GPRMC,131239.250,A,4308.3041,N,07726.2614,W,0.02,253.66,060919,,,A*7D
$GPGGA,131239.500,4308.3041,N,07726.2614,W,1,09,1.13,162.6,M,-34.4,M,,*5B
$GPRMC,131239.750,A,4308.3041,N,07726.2614,W,0.02,212.52,060919,,,A*7A
$GPGGA,131240.000,4308.3041,N,07726.2614,W,1,09,1.13,162.6,M,-34.4,M,,*50
$GPRMC,131240.250,A,4308.3041,N,07726.2614,W,0.03,303.15,060919,,,A*72
$GPGGA,131240.500,4308.3041,N,07726.2614,W,1,09,1.13,162.6,M,-34.4,M,,*55
$GPRMC,131240.750,A,4308.3041,N,07726.2614,W,0.02,70.36,060919,,,A*40
$GPGGA,131241.000,4308.3041,N,07726.2614,W,1,09,1.13,162.6,M,-34.4,M,,*51
$GPRMC,131241.250,A,4308.3041,N,07726.2614,W,0.01,273.36,060919,,,A*76
$GPGGA,131241.500,4308.3041,N,07726.2614,W,1,09,1.13,162.6,M,-34.4,M,,*54
$GPRMC,131241.750,A,4308.3041,N,07726.2614,W,0.01,82.78,060919,,,A*45
$GPGGA,131242.000,4308.3041,N,07726.2614,W,1,09,1.13,162.5,M,-34.4,M,,*51
$GPRMC,131242.250,A,4308.3041,N,07726.2614,W,0.00,73.17,060919,,,A*45
$GPGGA,131242.500,4308.3041,N,07726.2614,W,1,09,1.13,162.5,M,-34.4,M,,*54
$GPRMC,131242.750,A,4308.3041,N,07726.2615,W,0.02,59.60,060919,,,A*4B
$GPGGA,131243.000,4308.3041,N,07726.2615,W,1,09,1.13,162.5,M,-34.4,M,,*51
$GPRMC,131243.250,A,4308.3041,N,07726.2614,W,0.02,315.05,060919,,,A*76
$GPGGA,131243.500,4308.3041,N,07726.2615,W,1,09,1.13,162.5,M,-34.4,M,,*54
$GPRMC,131243.750,A,4308.3041,N,07726.2615,W,0.03,266.57,060919,,,A*71
$GPGGA,131244.000,4308.3041,N,07726.2615,W,1,09,1.13,162.5,M,-34.4,M,,*56
$GPRMC,131244.250,A,4308.3041,N,07726.2615,W,0.03,107.34,060919,,,A*72
$GPGGA,131244.500,4308.3041,N,07726.2615,W,1,09,1.25,162.5,M,-34.4,M,,*56
$GPRMC,131244.750,A,4308.3041,N,07726.2615,W,0.02,342.85,060919,,,A*7F
$GPGGA,131245.000,4308.3041,N,07726.2615,W,1,08,1.49,162.5,M,-34.4,M,,*59
$GPRMC,131245.250,A,4308.3041,N,07726.2615,W,0.01,219.28,060919,,,A*70
$GPGGA,131245.500,4308.3041,N,07726.2615,W,1,09,1.25,162.5,M,-34.4,M,,*57
$GPRMC,131245.750,A,4308.3041,N,07726.2615,W,0.00,333.68,060919,,,A*79
$GPGGA,131246.000,4308.3041,N,07726.2615,W,1,09,1.25,162.5,M,-34.4,M,,*51
$GPRMC,131246.250,A,4308.3041,N,07726.2615,W,0.00,196.62,060919,,,A*78
$GPGGA,131246.500,4308.3041,N,07726.2615,W,1,09,1.25,162.5,M,-34.4,M,,*54
$GPRMC,131246.750,A,4308.3041,N,07726.2615,W,0.01,101.56,060919,,,A*75
$GPGGA,131247.000,4308.3041,N,07726.2615,W,1,09,1.25,162.5,M,-34.4,M,,*50
$GPRMC,131247.250,A,4308.3041,N,07726.2615,W,0.01,154.49,060919,,,A*7F
$GPGGA,131247.500,4308.3041,N,07726.2615,W,1,09,1.25,162.5,M,-34.4,M,,*55
$GPRMC,131247.750,A,4308.3041,N,07726.2615,W,0.00,355.96,060919,,,A*7A
$GPGGA,131248.000,4308.3041,N,07726.2615,W,1,09,1.25,162.5,M,-34.4,M,,*5F
$GPRMC,131248.250,A,4308.3041,N,07726.2615,W,0.01,356.44,060919,,,A*7D
$GPGGA,131248.500,4308.3041,N,07726.2615,W,1,09,1.25,162.5,M,-34.4,M,,*5A
$GPRMC,131248.750,A,4308.3041,N,07726.2615,W,0.01,133.07,060919,,,A*7E
$GPGGA,131249.000,4308.3041,N,07726.2615,W,1,09,1.25,162.5,M,-34.4,M,,*5E
$GPRMC,131249.250,A,4308.3041,N,07726.2615,W,0.01,11.69,060919,,,A*43
$GPGGA,131249.500,4308.3041,N,07726.2615,W,1,09,1.25,162.5,M,-34.4,M,,*5B
$GPRMC,131249.750,A,4308.3041,N,07726.2615,W,0.01,225.61,060919,,,A*7B
$GPGGA,131250.000,4308.3041,N,07726.2615,W,1,09,1.25,162.5,M,-34.4,M,,*56
$GPRMC,131250.250,A,4308.3041,N,07726.2615,W,0.01,123.61,060919,,,A*73
$GPGGA,131250.500,4308.3041,N,07726.2615,W,1,09,1.25,162.5,M,-34.4,M,,*53
$GPRMC,131250.750,A,4308.3041,N,07726.2615,W,0.01,126.92,060919,,,A*7F
$GPGGA,131251.000,4308.3041,N,07726.2615,W,1,09,1.24,162.5,M,-34.4,M,,*56
$GPRMC,131251.250,A,4308.3041,N,07726.2615,W,0.01,281.97,060919,,,A*70
$GPGGA,131251.500,4308.3041,N,07726.2615,W,1,09,1.25,162.5,M,-34.4,M,,*52
$GPRMC,131251.750,A,4308.3041,N,07726.2615,W,0.00,248.92,060919,,,A*74
$GPGGA,131252.000,4308.3041,N,07726.2615,W,1,09,1.25,162.5,M,-34.4,M,,*54
$GPRMC,131252.250,A,4308.3041,N,07726.2615,W,0.01,204.48,060919,,,A*7C
$GPGGA,131252.500,4308.3041,N,07726.2615,W,1,09,1.25,162.5,M,-34.4,M,,*51
$GPRMC,131252.750,A,4308.3041,N,07726.2615,W,0.00,236.55,060919,,,A*75
$GPGGA,131253.000,4308.3041,N,07726.2615,W,1,09,1.25,162.5,M,-34.4,M,,*55
$GPRMC,131253.250,A,4308.3041,N,07726.2615,W,0.01,69.74,060919,,,A*4B
$GPGGA,131253.500,4308.3041,N,07726.2615,W,1,09,1.25,162.5,M,-34.4,M,,*50
$GPRMC,131253.750,A,4308.3041,N,07726.2615,W,0.00,301.73,060919,,,A*75
$GPGGA,131254.000,4308.3041,N,07726.2615,W,1,09,1.25,162.5,M,-34.4,M,,*52
$GPRMC,131254.250,A,4308.3041,N,07726.2615,W,0.01,84.23,060919,,,A*4D
$GPGGA,131254.500,4308.3041,N,07726.2615,W,1,09,1.25,162.5,M,-34.4,M,,*57
$GPRMC,131254.750,A,4308.3041,N,07726.2615,W,0.00,238.75,060919,,,A*7F
$GPGGA,131255.000,4308.3041,N,07726.2615,W,1,09,1.25,162.5,M,-34.4,M,,*53
$GPRMC,131255.250,A,4308.3041,N,07726.2615,W,0.00,266.47,060919,,,A*71
$GPGGA,131255.500,4308.3041,N,07726.2615,W,1,09,1.25,162.5,M,-34.4,M,,*56
$GPRMC,131255.750,A,4308.3041,N,07726.2615,W,0.00,68.92,060919,,,A*40
$GPGGA,131256.000,4308.3041,N,07726.2615,W,1,09,1.25,162.5,M,-34.4,M,,*50
$GPRMC,131256.250,A,4308.3041,N,07726.2615,W,0.00,271.21,060919,,,A*74
$GPGGA,131256.500,4308.3041,N,07726.2615,W,1,09,1.25,162.5,M,-34.4,M,,*55
$GPRMC,131256.750,A,4308.3041,N,07726.2615,W,0.01,328.53,060919,,,A*78
$GPGGA,131257.000,4308.3041,N,07726.2615,W,1,09,1.25,162.5,M,-34.4,M,,*51
$GPRMC,131257.250,A,4308.3041,N,07726.2615,W,0.01,80.71,060919,,,A*4D
$GPGGA,131257.500,4308.3041,N,07726.2615,W,1,09,1.25,162.5,M,-34.4,M,,*54
$GPRMC,131257.750,A,4308.3041,N,07726.2615,W,0.01,278.37,060919,,,A*7F
$GPGGA,131258.000,4308.3041,N,07726.2615,W,1,09,1.25,162.5,M,-34.4,M,,*5E
$GPRMC,131258.250,A,4308.3041,N,07726.2615,W,0.00,50.48,060919,,,A*44
$GPGGA,131258.500,4308.3041,N,07726.2615,W,1,09,1.25,162.5,M,-34.4,M,,*5B
$GPRMC,131258.750,A,4308.3041,N,07726.2615,W,0.00,101.57,060919,,,A*7A
$GPGGA,131259.000,4308.3041,N,07726.2615,W,1,09,1.25,162.5,M,-34.4,M,,*5F
$GPRMC,131259.250,A,4308.3041,N,07726.2615,W,0.00,23.52,060919,,,A*4A
$GPGGA,131259.500,4308.3041,N,07726.2615,W,1,09,1.25,162.5,M,-34.4,M,,*5A
$GPRMC,131259.750,A,4308.3041,N,07726.2615,W,0.00,299.59,060919,,,A*77
$GPGGA,131300.000,4308.3041,N,07726.2615,W,1,09,1.25,162.5,M,-34.4,M,,*52
$GPRMC,131300.250,A,4308.3041,N,07726.2615,W,0.01,82.19,060919,,,A*42
$GPGGA,131300.500,4308.3041,N,07726.2615,W,1,09,1.25,162.5,M,-34.4,M,,*57
$GPRMC,131300.750,A,4308.3041,N,07726.2615,W,0.01,337.52,060919,,,A*75
$GPGGA,131301.000,4308.3041,N,07726.2615,W,1,09,1.25,162.5,M,-34.4,M,,*53
$GPRMC,131301.250,A,4308.3041,N,07726.2615,W,0.01,117.46,060919,,,A*74
$GPGGA,131301.500,4308.3041,N,07726.2615,W,1,09,1.25,162.5,M,-34.4,M,,*56
$GPRMC,131301.750,A,4308.3041,N,07726.2615,W,0.01,43.57,060919,,,A*41
$GPGGA,131302.000,4308.3041,N,07726.2615,W,1,09,1.25,162.5,M,-34.4,M,,*50
$GPRMC,131302.250,A,4308.3041,N,07726.2615,W,0.00,316.39,060919,,,A*7D
$GPGGA,131302.500,4308.3041,N,07726.2615,W,1,09,1.25,162.5,M,-34.4,M,,*55
$GPRMC,131302.750,A,4308.3041,N,07726.2615,W,0.00,335.12,060919,,,A*70
$GPGGA,131303.000,4308.3041,N,07726.2615,W,1,09,1.25,162.5,M,-34.4,M,,*51
$GPRMC,131303.250,A,4308.3041,N,07726.2615,W,0.00,68.53,060919,,,A*4A
$GPGGA,131303.500,4308.3041,N,07726.2615,W,1,09,1.25,162.5,M,-34.4,M,,*54
$GPRMC,131303.750,A,4308.3041,N,07726.2615,W,0.00,189.15,060919,,,A*73
$GPGGA,131304.000,4308.3041,N,07726.2615,W,1,09,1.25,162.5,M,-34.4,M,,*56
$GPRMC,131304.250,A,4308.3041,N,07726.2615,W,0.01,169.31,060919,,,A*78
$GPGGA,131304.500,4308.3041,N,07726.2615,W,1,09,1.25,162.5,M,-34.4,M,,*53
$GPRMC,131304.750,A,4308.3041,N,07726.2615,W,0.01,359.74,060919,,,A*7D
$GPGGA,131305.000,4308.3041,N,07726.2615,W,1,09,1.25,162.5,M,-34.4,M,,*57
$GPRMC,131305.250,A,4308.3041,N,07726.2615,W,0.01,114.33,060919,,,A*71
$GPGGA,131305.500,4308.3041,N,07726.2615,W,1,09,1.25,162.5,M,-34.4,M,,*52
$GPRMC,131305.750,A,4308.3041,N,07726.2615,W,0.00,134.25,060919,,,A*70
$GPGGA,131306.000,4308.3041,N,07726.2615,W,1,09,1.25,162.5,M,-34.4,M,,*54
$GPRMC,131306.250,A,4308.3041,N,07726.2615,W,0.01,285.95,060919,,,A*75
$GPGGA,131306.500,4308.3041,N,07726.2615,W,1,09,1.25,162.5,M,-34.4,M,,*51
$GPRMC,131306.750,A,4308.3041,N,07726.2615,W,0.01,154.40,060919,,,A*77
$GPGGA,131307.000,4308.3041,N,07726.2615,W,1,09,1.24,162.5,M,-34.4,M,,*54
$GPRMC,131307.250,A,4308.3041,N,07726.2615,W,0.01,211.78,060919,,,A*7A
$GPGGA,131307.500,4308.3040,N,07726.2615,W,1,09,1.25,162.5,M,-34.4,M,,*51
$GPRMC,131307.750,A,4308.3040,N,07726.2615,W,0.01,75.72,060919,,,A*44
$GPGGA,131308.000,4308.3040,N,07726.2615,W,1,09,1.25,162.5,M,-34.4,M,,*5B
$GPRMC,131308.250,A,4308.3040,N,07726.2615,W,0.00,277.26,060919,,,A*7E
$GPGGA,131308.500,4308.3040,N,07726.2615,W,1,09,1.25,162.5,M,-34.4,M,,*5E
$GPRMC,131308.750,A,4308.3040,N,07726.2615,W,0.00,259.35,060919,,,A*75
$GPGGA,131309.000,4308.3040,N,07726.2615,W,1,09,1.24,162.5,M,-34.4,M,,*5B
$GPRMC,131309.250,A,4308.3040,N,07726.2615,W,0.01,101.12,060919,,,A*7B
$GPGGA,131309.500,4308.3040,N,07726.2615,W,1,09,1.25,162.5,M,-34.4,M,,*5F
$GPRMC,131309.750,A,4308.3040,N,07726.2615,W,0.00,130.81,060919,,,A*77
$GPGGA,131310.000,4308.3040,N,07726.2615,W,1,09,1.25,162.5,M,-34.4,M,,*52
$GPRMC,131310.250,A,4308.3040,N,07726.2615,W,0.00,247.35,060919,,,A*76
$GPGGA,131310.500,4308.3040,N,07726.2615,W,1,09,1.25,162.5,M,-34.4,M,,*57
$GPRMC,131310.750,A,4308.3040,N,07726.2615,W,0.01,220.49,060919,,,A*78
$GPGGA,131311.000,4308.3040,N,07726.2615,W,1,09,1.24,162.5,M,-34.4,M,,*52
$GPRMC,131311.250,A,4308.3040,N,07726.2615,W,0.01,218.97,060919,,,A*74
$GPGGA,131311.500,4308.3040,N,07726.2615,W,1,09,1.24,162.5,M,-34.4,M,,*57
$GPRMC,131311.750,A,4308.3040,N,07726.2615,W,0.00,7.04,060919,,,A*76
$GPGGA,131312.000,4308.3040,N,07726.2615,W,1,09,1.25,162.5,M,-34.4,M,,*50
$GPRMC,131312.250,A,4308.3040,N,07726.2615,W,0.00,178.76,060919,,,A*7C
$GPGGA,131312.500,4308.3040,N,07726.2615,W,1,09,1.24,162.5,M,-34.4,M,,*54
$GPRMC,131312.750,A,4308.3040,N,07726.2615,W,0.00,232.72,060919,,,A*70
$GPGGA,131313.000,4308.3040,N,07726.2615,W,1,09,1.24,162.5,M,-34.4,M,,*50
$GPRMC,131313.250,A,4308.3040,N,07726.2615,W,0.00,318.87,060919,,,A*77
$GPGGA,131313.500,4308.3040,N,07726.2615,W,1,09,1.25,162.5,M,-34.4,M,,*54
$GPRMC,131313.750,A,4308.3040,N,07726.2615,W,0.01,272.21,060919,,,A*72
$GPGGA,131314.000,4308.3040,N,07726.2615,W,1,09,1.25,162.5,M,-34.4,M,,*56
$GPRMC,131314.250,A,4308.3040,N,07726.2615,W,0.00,94.49,060919,,,A*45
$GPGGA,131314.500,4308.3040,N,07726.2615,W,1,09,1.25,162.5,M,-34.4,M,,*53
$GPRMC,131314.750,A,4308.3040,N,07726.2615,W,0.00,346.90,060919,,,A*78
$GPGGA,131315.000,4308.3040,N,07726.2615,W,1,09,1.24,162.5,M,-34.4,M,,*56
$GPRMC,131315.250,A,4308.3040,N,07726.2615,W,0.00,0.00,060919,,,A*74
$GPGGA,131315.500,4308.3040,N,07726.2615,W,1,09,1.24,162.5,M,-34.4,M,,*53
$GPRMC,131315.750,A,4308.3040,N,07726.2615,W,0.00,158.79,060919,,,A*73
$GPGGA,131316.000,4308.3040,N,07726.2615,W,1,09,1.25,162.5,M,-34.4,M,,*54
$GPRMC,131316.250,A,4308.3040,N,07726.2615,W,0.01,263.35,060919,,,A*77
$GPGGA,131316.500,4308.3040,N,07726.2615,W,1,09,1.24,162.5,M,-34.4,M,,*50
$GPRMC,131316.750,A,4308.3040,N,07726.2615,W,0.01,328.86,060919,,,A*74
$GPGGA,131317.000,4308.3040,N,07726.2615,W,1,09,1.25,162.5,M,-34.4,M,,*55
$GPRMC,131317.250,A,4308.3040,N,07726.2615,W,0.00,113.87,060919,,,A*7A
$GPGGA,131317.500,4308.3040,N,07726.2615,W,1,09,1.24,162.5,M,-34.4,M,,*51
$GPRMC,131317.750,A,4308.3040,N,07726.2615,W,0.01,198.86,060919,,,A*7C
$GPGGA,131318.000,4308.3040,N,07726.2615,W,1,09,1.25,162.5,M,-34.4,M,,*5A
$GPRMC,131318.250,A,4308.3040,N,07726.2615,W,0.00,292.10,060919,,,A*71
$GPGGA,131318.500,4308.3040,N,07726.2615,W,1,09,1.24,162.5,M,-34.4,M,,*5E
$GPRMC,131318.750,A,4308.3040,N,07726.2615,W,0.00,95.40,060919,,,A*44
$GPGGA,131319.000,4308.3040,N,07726.2615,W,1,09,1.25,162.5,M,-34.4,M,,*5B
$GPRMC,131319.250,A,4308.3040,N,07726.2615,W,0.00,74.23,060919,,,A*4A
$GPGGA,131319.500,4308.3040,N,07726.2615,W,1,09,1.24,162.5,M,-34.4,M,,*5F
$GPRMC,131319.750,A,4308.3040,N,07726.2615,W,0.00,342.11,060919,,,A*78
$GPGGA,131320.000,4308.3040,N,07726.2615,W,1,09,1.24,162.5,M,-34.4,M,,*50
$GPRMC,131320.250,A,4308.3040,N,07726.2615,W,0.01,107.91,060919,,,A*7D
$GPGGA,131320.500,4308.3040,N,07726.2615,W,1,09,1.24,162.5,M,-34.4,M,,*55
$GPRMC,131320.750,A,4308.3040,N,07726.2615,W,0.01,275.83,060919,,,A*7D
$GPGGA,131321.000,4308.3040,N,07726.2615,W,1,09,1.24,162.5,M,-34.4,M,,*51
$GPRMC,131321.250,A,4308.3040,N,07726.2615,W,0.01,156.84,060919,,,A*7C
$GPGGA,131321.500,4308.3040,N,07726.2615,W,1,09,1.24,162.5,M,-34.4,M,,*54
$GPRMC,131321.750,A,4308.3040,N,07726.2615,W,0.01,288.63,060919,,,A*70
$GPGGA,131322.000,4308.3040,N,07726.2615,W,1,09,1.24,162.5,M,-34.4,M,,*52
$GPRMC,131322.250,A,4308.3040,N,07726.2615,W,0.00,45.83,060919,,,A*4A
$GPGGA,131322.500,4308.3040,N,07726.2615,W,1,09,1.24,162.5,M,-34.4,M,,*57
$GPRMC,131322.750,A,4308.3040,N,07726.2615,W,0.00,192.55,060919,,,A*7F
$GPGGA,131323.000,4308.3040,N,07726.2615,W,1,09,1.24,162.5,M,-34.4,M,,*53
$GPRMC,131323.250,A,4308.3040,N,07726.2615,W,0.00,240.55,060919,,,A*77
$GPGGA,131323.500,4308.3040,N,07726.2615,W,1,09,1.25,162.5,M,-34.4,M,,*57
$GPRMC,131323.750,A,4308.3040,N,07726.2615,W,0.01,25.74,060919,,,A*41
$GPGGA,131324.000,4308.3040,N,07726.2615,W,1,09,1.24,162.4,M,-34.4,M,,*55
$GPRMC,131324.250,A,4308.3040,N,07726.2615,W,0.00,161.40,060919,,,A*74
$GPGGA,131324.500,4308.3040,N,07726.2615,W,1,09,1.24,162.4,M,-34.4,M,,*50
$GPRMC,131324.750,A,4308.3040,N,07726.2615,W,0.01,114.91,060919,,,A*7E
$GPGGA,131325.000,4308.3040,N,07726.2615,W,1,09,1.25,162.4,M,-34.4,M,,*55
$GPRMC,131325.250,A,4308.3040,N,07726.2615,W,0.00,345.97,060919,,,A*7B
$GPGGA,131325.500,4308.3040,N,07726.2615,W,1,09,1.24,162.4,M,-34.4,M,,*51
$GPRMC,131325.750,A,4308.3040,N,07726.2615,W,0.01,63.94,060919,,,A*4B
$GPGGA,131326.000,4308.3040,N,07726.2615,W,1,09,1.25,162.4,M,-34.4,M,,*56
$GPRMC,131326.250,A,4308.3040,N,07726.2615,W,0.01,28.49,060919,,,A*42
$GPGGA,131326.500,4308.3040,N,07726.2615,W,1,09,1.24,162.4,M,-34.4,M,,*52
$GPRMC,131326.750,A,4308.3040,N,07726.2615,W,0.01,105.18,060919,,,A*7D
$GPGGA,131327.000,4308.3040,N,07726.2615,W,1,09,1.24,162.4,M,-34.4,M,,*56
$GPRMC,131327.250,A,4308.3040,N,07726.2615,W,0.00,334.88,060919,,,A*71
$GPGGA,131327.500,4308.3040,N,07726.2615,W,1,09,1.24,162.4,M,-34.4,M,,*53
$GPRMC,131327.750,A,4308.3040,N,07726.2615,W,0.00,222.73,060919,,,A*76
$GPGGA,131328.000,4308.3040,N,07726.2615,W,1,09,1.24,162.4,M,-34.4,M,,*59
$GPRMC,131328.250,A,4308.3040,N,07726.2615,W,0.00,100.30,060919,,,A*78
$GPGGA,131328.500,4308.3040,N,07726.2615,W,1,09,1.24,162.4,M,-34.4,M,,*5C
$GPRMC,131328.750,A,4308.3040,N,07726.2615,W,0.01,78.52,060919,,,A*46
$GPGGA,131329.000,4308.3040,N,07726.2615,W,1,09,1.24,162.4,M,-34.4,M,,*58
$GPRMC,131329.250,A,4308.3040,N,07726.2615,W,0.01,143.57,060919,,,A*7E
$GPGGA,131329.500,4308.3040,N,07726.2615,W,1,08,1.47,162.4,M,-34.4,M,,*59
$GPRMC,131329.750,A,4308.3040,N,07726.2616,W,0.01,195.07,060919,,,A*76
$GPGGA,131330.000,4308.3040,N,07726.2616,W,1,09,1.24,162.4,M,-34.4,M,,*53
$GPRMC,131330.250,A,4308.3040,N,07726.2616,W,0.01,57.49,060919,,,A*4E
$GPGGA,131330.500,4308.3040,N,07726.2616,W,1,09,1.25,162.4,M,-34.4,M,,*57
$GPRMC,131330.750,A,4308.3040,N,07726.2616,W,0.01,217.10,060919,,,A*71
$GPGGA,131331.000,4308.3040,N,07726.2616,W,1,09,1.24,162.4,M,-34.4,M,,*52
$GPRMC,131331.250,A,4308.3040,N,07726.2616,W,0.00,219.43,060919,,,A*7C
$GPGGA,131331.500,4308.3040,N,07726.2616,W,1,09,1.24,162.4,M,-34.4,M,,*57
$GPRMC,131331.750,A,4308.3040,N,07726.2616,W,0.00,0.00,060919,,,A*74
$GPGGA,131332.000,4308.3040,N,07726.2616,W,1,09,1.24,162.4,M,-34.4,M,,*51
$GPRMC,131332.250,A,4308.3040,N,07726.2616,W,0.00,0.00,060919,,,A*72
$GPGGA,131332.500,4308.3040,N,07726.2616,W,1,09,1.25,162.4,M,-34.4,M,,*55
$GPRMC,131332.750,A,4308.3040,N,07726.2616,W,0.00,325.27,060919,,,A*76
$GPGGA,131333.000,4308.3040,N,07726.2616,W,1,09,1.24,162.4,M,-34.4,M,,*50
$GPRMC,131333.250,A,4308.3040,N,07726.2616,W,0.00,0.00,060919,,,A*73
$GPGGA,131333.500,4308.3040,N,07726.2616,W,1,09,1.24,162.4,M,-34.4,M,,*55
$GPRMC,131333.750,A,4308.3040,N,07726.2616,W,0.01,17.14,060919,,,A*44
$GPGGA,131334.000,4308.3040,N,07726.2616,W,1,09,1.24,162.4,M,-34.4,M,,*57
$GPRMC,131334.250,A,4308.3040,N,07726.2616,W,0.00,350.60,060919,,,A*74
$GPGGA,131334.500,4308.3040,N,07726.2616,W,1,09,1.24,162.4,M,-34.4,M,,*52
$GPRMC,131334.750,A,4308.3040,N,07726.2616,W,0.00,4.76,060919,,,A*74
$GPGGA,131335.000,4308.3040,N,07726.2616,W,1,09,1.24,162.4,M,-34.4,M,,*56
$GPRMC,131335.250,A,4308.3040,N,07726.2616,W,0.00,228.21,060919,,,A*7E
$GPGGA,131335.500,4308.3040,N,07726.2616,W,1,09,1.24,162.4,M,-34.4,M,,*53
$GPRMC,131335.750,A,4308.3040,N,07726.2616,W,0.01,185.75,060919,,,A*7F
$GPGGA,131336.000,4308.3040,N,07726.2616,W,1,09,1.24,162.4,M,-34.4,M,,*55
$GPRMC,131336.250,A,4308.3040,N,07726.2616,W,0.00,328.44,060919,,,A*7F
$GPGGA,131336.500,4308.3040,N,07726.2616,W,1,09,1.24,162.4,M,-34.4,M,,*50
$GPRMC,131336.750,A,4308.3040,N,07726.2616,W,0.00,318.46,060919,,,A*7B
$GPGGA,131337.000,4308.3040,N,07726.2616,W,1,09,1.24,162.4,M,-34.4,M,,*54
$GPRMC,131337.250,A,4308.3040,N,07726.2616,W,0.00,178.74,060919,,,A*7A
$GPGGA,131337.500,4308.3040,N,07726.2616,W,1,09,1.24,162.4,M,-34.4,M,,*51
$GPRMC,131337.750,A,4308.3040,N,07726.2616,W,0.01,216.79,060919,,,A*78
$GPGGA,131338.000,4308.3040,N,07726.2616,W,1,09,1.24,162.4,M,-34.4,M,,*5B
$GPRMC,131338.250,A,4308.3040,N,07726.2616,W,0.01,213.66,060919,,,A*79
$GPGGA,131338.500,4308.3040,N,07726.2616,W,1,09,1.24,162.4,M,-34.4,M,,*5E
$GPRMC,131338.750,A,4308.3040,N,07726.2616,W,0.01,15.45,060919,,,A*49
$GPGGA,131339.000,4308.3040,N,07726.2616,W,1,09,1.24,162.4,M,-34.4,M,,*5A
$GPRMC,131339.250,A,4308.3040,N,07726.2616,W,0.00,265.59,060919,,,A*74
$GPGGA,131339.500,4308.3040,N,07726.2616,W,1,09,1.24,162.4,M,-34.4,M,,*5F
$GPRMC,131339.750,A,4308.3040,N,07726.2616,W,0.01,225.69,060919,,,A*77
$GPGGA,131340.000,4308.3040,N,07726.2616,W,1,09,1.24,162.4,M,-34.4,M,,*54
$GPRMC,131340.250,A,4308.3040,N,07726.2616,W,0.00,235.85,060919,,,A*7E
$GPGGA,131340.500,4308.3040,N,07726.2616,W,1,09,1.24,162.4,M,-34.4,M,,*51
$GPRMC,131340.750,A,4308.3040,N,07726.2616,W,0.00,321.77,060919,,,A*72
$GPGGA,131341.000,4308.3040,N,07726.2616,W,1,09,1.24,162.4,M,-34.4,M,,*55
$GPRMC,131341.250,A,4308.3040,N,07726.2616,W,0.01,274.86,060919,,,A*78
$GPGGA,131341.500,4308.3040,N,07726.2616,W,1,09,1.24,162.4,M,-34.4,M,,*50
$GPRMC,131341.750,A,4308.3040,N,07726.2616,W,0.01,329.49,060919,,,A*77
$GPGGA,131342.000,4308.3040,N,07726.2616,W,1,09,1.24,162.4,M,-34.4,M,,*56
$GPRMC,131342.250,A,4308.3040,N,07726.2616,W,0.00,309.21,060919,,,A*7C
$GPGGA,131342.500,4308.3040,N,07726.2616,W,1,09,1.24,162.4,M,-34.4,M,,*53
$GPRMC,131342.750,A,4308.3040,N,07726.2616,W,0.00,290.67,060919,,,A*7A
$GPGGA,131343.000,4308.3040,N,07726.2616,W,1,09,1.24,162.4,M,-34.4,M,,*57
$GPRMC,131343.250,A,4308.3040,N,07726.2616,W,0.01,189.67,060919,,,A*74
$GPGGA,131343.500,4308.3040,N,07726.2616,W,1,09,1.24,162.4,M,-34.4,M,,*52
$GPRMC,131343.750,A,4308.3040,N,07726.2616,W,0.00,111.84,060919,,,A*7C
$GPGGA,131344.000,4308.3040,N,07726.2616,W,1,09,1.24,162.4,M,-34.4,M,,*50
$GPRMC,131344.250,A,4308.3040,N,07726.2616,W,0.01,272.58,060919,,,A*78
$GPGGA,131344.500,4308.3040,N,07726.2616,W,1,09,1.24,162.4,M,-34.4,M,,*55
$GPRMC,131344.750,A,4308.3040,N,07726.2616,W,0.00,162.69,060919,,,A*7C
$GPGGA,131345.000,4308.3040,N,07726.2616,W,1,09,1.24,162.4,M,-34.4,M,,*51
$GPRMC,131345.250,A,4308.3040,N,07726.2616,W,0.00,138.29,060919,,,A*73
$GPGGA,131345.500,4308.3040,N,07726.2616,W,1,09,1.24,162.4,M,-34.4,M,,*54
$GPRMC,131345.750,A,4308.3040,N,07726.2616,W,0.00,166.15,060919,,,A*72
$GPGGA,131346.000,4308.3040,N,07726.2616,W,1,09,1.24,162.4,M,-34.4,M,,*52
$GPRMC,131346.250,A,4308.3040,N,07726.2616,W,0.00,18.56,060919,,,A*4B
$GPGGA,131346.500,4308.3040,N,07726.2616,W,1,09,1.24,162.4,M,-34.4,M,,*57
$GPRMC,131346.750,A,4308.3040,N,07726.2616,W,0.01,24.79,060919,,,A*4D
$GPGGA,131347.000,4308.3040,N,07726.2616,W,1,09,1.24,162.3,M,-34.4,M,,*54
$GPRMC,131347.250,A,4308.3040,N,07726.2616,W,0.00,308.00,060919,,,A*7B
$GPGGA,131347.500,4308.3040,N,07726.2616,W,1,09,1.24,162.3,M,-34.4,M,,*51
$GPRMC,131347.750,A,4308.3040,N,07726.2616,W,0.00,206.17,060919,,,A*77
$GPGGA,131348.000,4308.3040,N,07726.2616,W,1,09,1.24,162.3,M,-34.4,M,,*5B
$GPRMC,131348.250,A,4308.3040,N,07726.2616,W,0.00,0.00,060919,,,A*7F
$GPGGA,131348.500,4308.3040,N,07726.2616,W,1,09,1.24,162.3,M,-34.4,M,,*5E
$GPRMC,131348.750,A,4308.3040,N,07726.2616,W,0.00,123.40,060919,,,A*7E
$GPGGA,131349.000,4308.3040,N,07726.2616,W,1,09,1.24,162.3,M,-34.4,M,,*5A
$GPRMC,131349.250,A,4308.3040,N,07726.2616,W,0.02,272.48,060919,,,A*77
$GPGGA,131349.500,4308.3040,N,07726.2616,W,1,09,1.24,162.3,M,-34.4,M,,*5F
$GPRMC,131349.750,A,4308.3040,N,07726.2616,W,0.01,109.33,060919,,,A*72
$GPGGA,131350.000,4308.3040,N,07726.2616,W,1,09,1.24,162.3,M,-34.4,M,,*52
$GPRMC,131350.250,A,4308.3040,N,07726.2616,W,0.00,148.42,060919,,,A*7D
$GPGGA,131350.500,4308.3040,N,07726.2616,W,1,09,1.24,162.3,M,-34.4,M,,*57
$GPRMC,131350.750,A,4308.3040,N,07726.2616,W,0.01,349.09,060919,,,A*75
$GPGGA,131351.000,4308.3040,N,07726.2616,W,1,09,1.24,162.3,M,-34.4,M,,*53
$GPRMC,131351.250,A,4308.3040,N,07726.2616,W,0.01,170.06,060919,,,A*76
$GPGGA,131351.500,4308.3040,N,07726.2616,W,1,09,1.24,162.3,M,-34.4,M,,*56
$GPRMC,131351.750,A,4308.3040,N,07726.2616,W,0.01,341.18,060919,,,A*7C
$GPGGA,131352.000,4308.3040,N,07726.2616,W,1,09,1.24,162.3,M,-34.4,M,,*50
$GPRMC,131352.250,A,4308.3040,N,07726.2616,W,0.01,187.72,060919,,,A*7E
$GPGGA,131352.500,4308.3040,N,07726.2616,W,1,09,1.24,162.3,M,-34.4,M,,*55
$GPRMC,131352.750,A,4308.3040,N,07726.2616,W,0.01,52.23,060919,,,A*46
$GPGGA,131353.000,4308.3040,N,07726.2616,W,1,09,1.24,162.3,M,-34.4,M,,*51
$GPRMC,131353.250,A,4308.3040,N,07726.2616,W,0.01,228.88,060919,,,A*7C
$GPGGA,131353.500,4308.3040,N,07726.2616,W,1,09,1.24,162.3,M,-34.4,M,,*54
$GPRMC,131353.750,A,4308.3040,N,07726.2616,W,0.00,234.54,060919,,,A*74
$GPGGA,131354.000,4308.3040,N,07726.2616,W,1,09,1.24,162.3,M,-34.4,M,,*56
$GPRMC,131354.250,A,4308.3040,N,07726.2616,W,0.00,20.16,060919,,,A*47
$GPGGA,131354.500,4308.3040,N,07726.2616,W,1,09,1.24,162.3,M,-34.4,M,,*53
$GPRMC,131354.750,A,4308.3040,N,07726.2616,W,0.01,341.90,060919,,,A*79
$GPGGA,131355.000,4308.3040,N,07726.2616,W,1,09,1.24,162.3,M,-34.4,M,,*57
$GPRMC,131355.250,A,4308.3040,N,07726.2616,W,0.00,173.50,060919,,,A*73
$GPGGA,131355.500,4308.3040,N,07726.2616,W,1,09,1.24,162.3,M,-34.4,M,,*52
$GPRMC,131355.750,A,4308.3040,N,07726.2616,W,0.01,270.64,060919,,,A*70
$GPGGA,131356.000,4308.3040,N,07726.2616,W,1,09,1.24,162.3,M,-34.4,M,,*54
$GPRMC,131356.250,A,4308.3040,N,07726.2616,W,0.00,86.94,060919,,,A*43
$GPGGA,131356.500,4308.3040,N,07726.2616,W,1,09,1.24,162.3,M,-34.4,M,,*51
$GPRMC,131356.750,A,4308.3040,N,07726.2616,W,0.00,130.10,060919,,,A*76
$GPGGA,131357.000,4308.3040,N,07726.2616,W,1,09,1.24,162.3,M,-34.4,M,,*55
$GPRMC,131357.250,A,4308.3040,N,07726.2616,W,0.01,253.00,060919,,,A*74
$GPGGA,131357.500,4308.3040,N,07726.2616,W,1,09,1.24,162.3,M,-34.4,M,,*50
$GPRMC,131357.750,A,4308.3040,N,07726.2616,W,0.01,30.76,060919,,,A*47
$GPGGA,131358.000,4308.3040,N,07726.2616,W,1,09,1.24,162.3,M,-34.4,M,,*5A
$GPRMC,131358.250,A,4308.3040,N,07726.2616,W,0.00,255.22,060919,,,A*7C
$GPGGA,131358.500,4308.3040,N,07726.2616,W,1,09,1.24,162.3,M,-34.4,M,,*5F
$GPRMC,131358.750,A,4308.3040,N,07726.2616,W,0.00,297.86,060919,,,A*79
$GPGGA,131359.000,4308.3040,N,07726.2616,W,1,09,1.24,162.3,M,-34.4,M,,*5B
$GPRMC,131359.250,A,4308.3040,N,07726.2616,W,0.01,10.08,060919,,,A*47
$GPGGA,131359.500,4308.3040,N,07726.2616,W,1,09,1.24,162.3,M,-34.4,M,,*5E
$GPRMC,131359.750,A,4308.3040,N,07726.2616,W,0.01,186.09,060919,,,A*7D
$GPGGA,131400.000,4308.3040,N,07726.2616,W,1,09,1.24,162.3,M,-34.4,M,,*50
$GPRMC,131400.250,A,4308.3040,N,07726.2616,W,0.01,95.22,060919,,,A*49
$GPGGA,131400.500,4308.3040,N,07726.2616,W,1,09,1.24,162.3,M,-34.4,M,,*55
$GPRMC,131400.750,A,4308.3040,N,07726.2616,W,0.00,298.69,060919,,,A*7D
$GPGGA,131401.000,4308.3040,N,07726.2616,W,1,09,1.24,162.3,M,-34.4,M,,*51
$GPRMC,131401.250,A,4308.3040,N,07726.2616,W,0.01,306.11,060919,,,A*71
$GPGGA,131401.500,4308.3040,N,07726.2616,W,1,09,1.24,162.3,M,-34.4,M,,*54
$GPRMC,131401.750,A,4308.3040,N,07726.2616,W,0.01,175.47,060919,,,A*71
$GPGGA,131402.000,4308.3040,N,07726.2616,W,1,09,1.24,162.3,M,-34.4,M,,*52
$GPRMC,131402.250,A,4308.3040,N,07726.2616,W,0.01,110.75,060919,,,A*75
$GPGGA,131402.500,4308.3040,N,07726.2616,W,1,09,1.24,162.3,M,-34.4,M,,*57
$GPRMC,131402.750,A,4308.3040,N,07726.2616,W,0.00,354.16,060919,,,A*76
$GPGGA,131403.000,4308.3040,N,07726.2616,W,1,09,1.24,162.3,M,-34.4,M,,*53
$GPRMC,131403.250,A,4308.3040,N,07726.2616,W,0.00,96.27,060919,,,A*4D
$GPGGA,131403.500,4308.3040,N,07726.2616,W,1,09,1.24,162.3,M,-34.4,M,,*56
$GPRMC,131403.750,A,4308.3040,N,07726.2616,W,0.01,308.27,060919,,,A*7D
$GPGGA,131404.000,4308.3040,N,07726.2616,W,1,09,1.24,162.3,M,-34.4,M,,*54
$GPRMC,131404.250,A,4308.3040,N,07726.2616,W,0.01,202.71,060919,,,A*77
$GPGGA,131404.500,4308.3040,N,07726.2616,W,1,09,1.24,162.3,M,-34.4,M,,*51
$GPRMC,131404.750,A,4308.3040,N,07726.2616,W,0.01,309.03,060919,,,A*7D
$GPGGA,131405.000,4308.3040,N,07726.2616,W,1,09,1.24,162.3,M,-34.4,M,,*55
$GPRMC,131405.250,A,4308.3040,N,07726.2616,W,0.00,160.00,060919,,,A*76
$GPGGA,131405.500,4308.3040,N,07726.2616,W,1,09,1.24,162.3,M,-34.4,M,,*50
$GPRMC,131405.750,A,4308.3040,N,07726.2616,W,0.01,148.75,060919,,,A*7A
$GPGGA,131406.000,4308.3040,N,07726.2616,W,1,09,1.24,162.3,M,-34.4,M,,*56
$GPRMC,131406.250,A,4308.3040,N,07726.2617,W,0.00,217.16,060919,,,A*70
$GPGGA,131406.500,4308.3040,N,07726.2617,W,1,09,1.24,162.3,M,-34.4,M,,*52
$GPRMC,131406.750,A,4308.3040,N,07726.2617,W,0.01,160.95,060919,,,A*7C
$GPGGA,131407.000,4308.3040,N,07726.2617,W,1,09,1.24,162.3,M,-34.4,M,,*56
$GPRMC,131407.250,A,4308.3040,N,07726.2617,W,0.00,146.24,060919,,,A*77
$GPGGA,131407.500,4308.3040,N,07726.2617,W,1,09,1.24,162.3,M,-34.4,M,,*53
$GPRMC,131407.750,A,4308.3040,N,07726.2617,W,0.01,156.81,060919,,,A*7D
$GPGGA,131408.000,4308.3040,N,07726.2617,W,1,09,1.24,162.3,M,-34.4,M,,*59
$GPRMC,131408.250,A,4308.3040,N,07726.2617,W,0.00,159.56,060919,,,A*73
$GPGGA,131408.500,4308.3040,N,07726.2617,W,1,09,1.24,162.3,M,-34.4,M,,*5C
$GPRMC,131408.750,A,4308.3040,N,07726.2617,W,0.00,85.63,060919,,,A*40
$GPGGA,131409.000,4308.3040,N,07726.2617,W,1,09,1.24,162.3,M,-34.4,M,,*58
$GPRMC,131409.250,A,4308.3040,N,07726.2617,W,0.00,16.96,060919,,,A*44
$GPGGA,131409.500,4308.3040,N,07726.2617,W,1,09,1.24,162.3,M,-34.4,M,,*5D
$GPRMC,131409.750,A,4308.3040,N,07726.2617,W,0.01,153.92,060919,,,A*74
$GPGGA,131410.000,4308.3040,N,07726.2617,W,1,09,1.24,162.3,M,-34.4,M,,*50
$GPRMC,131410.250,A,4308.3040,N,07726.2617,W,0.01,17.29,060919,,,A*48
$GPGGA,131410.500,4308.3040,N,07726.2617,W,1,09,1.24,162.3,M,-34.4,M,,*55
$GPRMC,131410.750,A,4308.3040,N,07726.2617,W,0.01,164.97,060919,,,A*7D
$GPGGA,131411.000,4308.3040,N,07726.2617,W,1,09,1.24,162.3,M,-34.4,M,,*51
$GPRMC,131411.250,A,4308.3040,N,07726.2617,W,0.01,113.71,060919,,,A*71
$GPGGA,131411.500,4308.3040,N,07726.2617,W,1,09,1.24,162.3,M,-34.4,M,,*54
$GPRMC,131411.750,A,4308.3040,N,07726.2617,W,0.00,133.56,060919,,,A*72
$GPGGA,131412.000,4308.3040,N,07726.2617,W,1,09,1.24,162.3,M,-34.4,M,,*52
$GPRMC,131412.250,A,4308.3040,N,07726.2617,W,0.00,234.87,060919,,,A*7C
$GPGGA,131412.500,4308.3040,N,07726.2617,W,1,09,1.24,162.3,M,-34.4,M,,*57
$GPRMC,131412.750,A,4308.3040,N,07726.2617,W,0.01,124.20,060919,,,A*77
$GPGGA,131413.000,4308.3040,N,07726.2617,W,1,09,1.24,162.3,M,-34.4,M,,*53
$GPRMC,131413.250,A,4308.3040,N,07726.2617,W,0.00,333.19,060919,,,A*7C
$GPGGA,131413.500,4308.3040,N,07726.2617,W,1,09,1.24,162.3,M,-34.4,M,,*56
$GPRMC,131413.750,A,4308.3040,N,07726.2617,W,0.01,146.82,060919,,,A*7A
$GPGGA,131414.000,4308.3040,N,07726.2617,W,1,09,1.24,162.3,M,-34.4,M,,*54
$GPRMC,131414.250,A,4308.3040,N,07726.2617,W,0.01,341.74,060919,,,A*74
$GPGGA,131414.500,4308.3040,N,07726.2617,W,1,09,1.24,162.3,M,-34.4,M,,*51
$GPRMC,131414.750,A,4308.3040,N,07726.2617,W,0.01,165.73,060919,,,A*72
$GPGGA,131415.000,4308.3040,N,07726.2617,W,1,09,1.24,162.3,M,-34.4,M,,*55
$GPRMC,131415.250,A,4308.3040,N,07726.2617,W,0.01,239.02,060919,,,A*7A
$GPGGA,131415.500,4308.3040,N,07726.2617,W,1,09,1.24,162.3,M,-34.4,M,,*50
$GPRMC,131415.750,A,4308.3040,N,07726.2617,W,0.01,55.78,060919,,,A*4A
$GPGGA,131416.000,4308.3040,N,07726.2617,W,1,09,1.24,162.3,M,-34.4,M,,*56
$GPRMC,131416.250,A,4308.3040,N,07726.2617,W,0.01,211.64,060919,,,A*73
$GPGGA,131416.500,4308.3040,N,07726.2617,W,1,09,1.24,162.3,M,-34.4,M,,*53
$GPRMC,131416.750,A,4308.3040,N,07726.2617,W,0.01,213.36,060919,,,A*73
$GPGGA,131417.000,4308.3040,N,07726.2617,W,1,09,1.24,162.3,M,-34.4,M,,*57
$GPRMC,131417.250,A,4308.3040,N,07726.2617,W,0.02,129.78,060919,,,A*74
$GPGGA,131417.500,4308.3040,N,07726.2617,W,1,09,1.24,162.3,M,-34.4,M,,*52
$GPRMC,131417.750,A,4308.3040,N,07726.2617,W,0.00,0.00,060919,,,A*76
$GPGGA,131418.000,4308.3040,N,07726.2617,W,1,09,1.24,162.3,M,-34.4,M,,*58
$GPRMC,131418.250,A,4308.3040,N,07726.2617,W,0.00,203.75,060919,,,A*7F
$GPGGA,131418.500,4308.3040,N,07726.2617,W,1,09,1.24,162.3,M,-34.4,M,,*5D
$GPRMC,131418.750,A,4308.3040,N,07726.2617,W,0.00,0.00,060919,,,A*79
$GPGGA,131419.000,4308.3040,N,07726.2617,W,1,09,1.24,162.3,M,-34.4,M,,*59
$GPRMC,131419.250,A,4308.3040,N,07726.2617,W,0.00,0.00,060919,,,A*7D
$GPGGA,131419.500,4308.3040,N,07726.2617,W,1,09,1.24,162.3,M,-34.4,M,,*5C
$GPRMC,131419.750,A,4308.3040,N,07726.2617,W,0.01,353.20,060919,,,A*7E
$GPGGA,131420.000,4308.3040,N,07726.2617,W,1,09,1.24,162.3,M,-34.4,M,,*53
$GPRMC,131420.250,A,4308.3040,N,07726.2617,W,0.01,137.38,060919,,,A*78
$GPGGA,131420.500,4308.3040,N,07726.2617,W,1,09,1.24,162.3,M,-34.4,M,,*56
$GPRMC,131420.750,A,4308.3040,N,07726.2617,W,0.02,311.94,060919,,,A*7E
$GPGGA,131421.000,4308.3040,N,07726.2617,W,1,09,1.24,162.3,M,-34.4,M,,*52
$GPRMC,131421.250,A,4308.3040,N,07726.2617,W,0.00,43.42,060919,,,A*47
$GPGGA,131421.500,4308.3040,N,07726.2617,W,1,09,1.24,162.3,M,-34.4,M,,*57
$GPRMC,131421.750,A,4308.3040,N,07726.2617,W,0.01,286.75,060919,,,A*7C
$GPGGA,131422.000,4308.3040,N,07726.2617,W,1,09,1.24,162.3,M,-34.4,M,,*51
$GPRMC,131422.250,A,4308.3040,N,07726.2617,W,0.00,120.60,060919,,,A*70
$GPGGA,131422.500,4308.3040,N,07726.2617,W,1,09,1.24,162.3,M,-34.4,M,,*54
$GPRMC,131422.750,A,4308.3040,N,07726.2617,W,0.01,315.62,060919,,,A*72
$GPGGA,131423.000,4308.3040,N,07726.2617,W,1,09,1.24,162.3,M,-34.4,M,,*50
$GPRMC,131423.250,A,4308.3040,N,07726.2617,W,0.00,101.19,060919,,,A*7C
$GPGGA,131423.500,4308.3040,N,07726.2617,W,1,09,1.24,162.3,M,-34.4,M,,*55
$GPRMC,131423.750,A,4308.3040,N,07726.2617,W,0.01,349.58,060919,,,A*73
$GPGGA,131424.000,4308.3040,N,07726.2617,W,1,09,1.24,162.3,M,-34.4,M,,*57
$GPRMC,131424.250,A,4308.3040,N,07726.2617,W,0.00,80.07,060919,,,A*4C
$GPGGA,131424.500,4308.3040,N,07726.2617,W,1,09,1.24,162.3,M,-34.4,M,,*52
$GPRMC,131424.750,A,4308.3040,N,07726.2617,W,0.01,178.91,060919,,,A*71
$GPGGA,131425.000,4308.3040,N,07726.2617,W,1,09,1.24,162.3,M,-34.4,M,,*56
$GPRMC,131425.250,A,4308.3040,N,07726.2617,W,0.00,88.26,060919,,,A*46
$GPGGA,131425.500,4308.3040,N,07726.2617,W,1,09,1.24,162.3,M,-34.4,M,,*53
$GPRMC,131425.750,A,4308.3040,N,07726.2617,W,0.01,154.16,060919,,,A*71
$GPGGA,131426.000,4308.3040,N,07726.2617,W,1,09,1.24,162.3,M,-34.4,M,,*55
$GPRMC,131426.250,A,4308.3040,N,07726.2617,W,0.01,158.25,060919,,,A*7B
$GPGGA,131426.500,4308.3040,N,07726.2617,W,1,09,1.24,162.3,M,-34.4,M,,*50
$GPRMC,131426.750,A,4308.3040,N,07726.2617,W,0.00,83.86,060919,,,A*41
$GPGGA,131427.000,4308.3040,N,07726.2617,W,1,09,1.24,162.3,M,-34.4,M,,*54
$GPRMC,131427.250,A,4308.3040,N,07726.2617,W,0.00,110.78,060919,,,A*7F
$GPGGA,131427.500,4308.3040,N,07726.2617,W,1,09,1.24,162.3,M,-34.4,M,,*51
$GPRMC,131427.750,A,4308.3040,N,07726.2617,W,0.01,5.86,060919,,,A*7F
$GPGGA,131428.000,4308.3040,N,07726.2617,W,1,09,1.24,162.3,M,-34.4,M,,*5B
$GPRMC,131428.250,A,4308.3040,N,07726.2617,W,0.01,128.34,060919,,,A*72
$GPGGA,131428.500,4308.3040,N,07726.2617,W,1,09,1.24,162.3,M,-34.4,M,,*5E
$GPRMC,131428.750,A,4308.3040,N,07726.2617,W,0.00,85.18,060919,,,A*4E
$GPGGA,131429.000,4308.3040,N,07726.2617,W,1,09,1.24,162.3,M,-34.4,M,,*5A
$GPRMC,131429.250,A,4308.3040,N,07726.2617,W,0.01,342.87,060919,,,A*75
$GPGGA,131429.500,4308.3040,N,07726.2617,W,1,09,1.24,162.3,M,-34.4,M,,*5F
$GPRMC,131429.750,A,4308.3040,N,07726.2617,W,0.01,302.23,060919,,,A*7A
$GPGGA,131430.000,4308.3040,N,07726.2617,W,1,09,1.24,162.3,M,-34.4,M,,*52
$GPRMC,131430.250,A,4308.3040,N,07726.2617,W,0.01,140.17,060919,,,A*74
$GPGGA,131430.500,4308.3040,N,07726.2617,W,1,09,1.24,162.3,M,-34.4,M,,*57
$GPRMC,131430.750,A,4308.3040,N,07726.2617,W,0.00,45.69,060919,,,A*4D
$GPGGA,131431.000,4308.3040,N,07726.2617,W,1,09,1.24,162.3,M,-34.4,M,,*53
$GPRMC,131431.250,A,4308.3040,N,07726.2617,W,0.00,204.90,060919,,,A*78
$GPGGA,131431.500,4308.3040,N,07726.2617,W,1,09,1.24,162.3,M,-34.4,M,,*56
$GPRMC,131431.750,A,4308.3040,N,07726.2617,W,0.01,150.79,060919,,,A*79
$GPGGA,131432.000,4308.3040,N,07726.2617,W,1,09,1.24,162.3,M,-34.4,M,,*50
$GPRMC,131432.250,A,4308.3040,N,07726.2617,W,0.01,137.80,060919,,,A*78
$GPGGA,131432.500,4308.3040,N,07726.2617,W,1,09,1.24,162.3,M,-34.4,M,,*55
$GPRMC,131432.750,A,4308.3040,N,07726.2617,W,0.01,100.25,060919,,,A*76
$GPGGA,131433.000,4308.3040,N,07726.2617,W,1,09,1.24,162.3,M,-34.4,M,,*51
$GPRMC,131433.250,A,4308.3040,N,07726.2617,W,0.00,0.00,060919,,,A*75
$GPGGA,131433.500,4308.3040,N,07726.2617,W,1,09,1.24,162.3,M,-34.4,M,,*54
$GPRMC,131433.750,A,4308.3040,N,07726.2617,W,0.00,156.47,060919,,,A*71
$GPGGA,131434.000,4308.3040,N,07726.2617,W,1,09,1.24,162.3,M,-34.4,M,,*56
$GPRMC,131434.250,A,4308.3040,N,07726.2617,W,0.00,65.15,060919,,,A*45
$GPGGA,131434.500,4308.3040,N,07726.2617,W,1,09,1.24,162.3,M,-34.4,M,,*53
$GPRMC,131434.750,A,4308.3040,N,07726.2617,W,0.01,294.08,060919,,,A*71
$GPGGA,131435.000,4308.3040,N,07726.2617,W,1,09,1.24,162.3,M,-34.4,M,,*57
$GPRMC,131435.250,A,4308.3040,N,07726.2617,W,0.02,167.68,060919,,,A*7F
$GPGGA,131435.500,4308.3040,N,07726.2617,W,1,09,1.24,162.3,M,-34.4,M,,*52
$GPRMC,131435.750,A,4308.3040,N,07726.2617,W,0.00,166.25,060919,,,A*70
$GPGGA,131436.000,4308.3040,N,07726.2617,W,1,09,1.24,162.3,M,-34.4,M,,*54
$GPRMC,131436.250,A,4308.3040,N,07726.2617,W,0.01,160.05,060919,,,A*73
$GPGGA,131436.500,4308.3040,N,07726.2617,W,1,09,1.24,162.3,M,-34.4,M,,*51
$GPRMC,131436.750,A,4308.3040,N,07726.2617,W,0.01,100.45,060919,,,A*74
$GPGGA,131437.000,4308.3040,N,07726.2617,W,1,09,1.24,162.3,M,-34.4,M,,*55
$GPRMC,131437.250,A,4308.3040,N,07726.2617,W,0.00,65.98,060919,,,A*43
$GPGGA,131437.500,4308.3040,N,07726.2617,W,1,09,1.24,162.3,M,-34.4,M,,*50
$GPRMC,131437.750,A,4308.3040,N,07726.2617,W,0.10,4.41,060919,,,A*74
$GPGGA,131438.000,4308.3040,N,07726.2617,W,1,09,1.24,162.3,M,-34.4,M,,*5A
$GPRMC,131438.250,A,4308.3040,N,07726.2617,W,1.26,9.83,060919,,,A*79
$GPGGA,131438.500,4308.3041,N,07726.2617,W,1,09,1.24,162.3,M,-34.4,M,,*5E
$GPRMC,131438.750,A,4308.3042,N,07726.2616,W,2.87,3.33,060919,,,A*76
$GPGGA,131439.000,4308.3045,N,07726.2616,W,1,09,1.24,162.3,M,-34.4,M,,*5F
$GPRMC,131439.250,A,4308.3047,N,07726.2616,W,3.72,359.97,060919,,,A*7E
$GPGGA,131439.500,4308.3050,N,07726.2616,W,1,09,1.24,162.3,M,-34.4,M,,*5E
$GPRMC,131439.750,A,4308.3053,N,07726.2616,W,4.39,357.73,060919,,,A*72
$GPGGA,131440.000,4308.3056,N,07726.2616,W,1,09,1.24,162.4,M,-34.4,M,,*54
$GPRMC,131440.250,A,4308.3059,N,07726.2616,W,4.32,355.24,060919,,,A*78
$GPGGA,131440.500,4308.3063,N,07726.2617,W,1,09,1.24,162.5,M,-34.4,M,,*57
$GPRMC,131440.750,A,4308.3066,N,07726.2617,W,4.93,350.70,060919,,,A*7F
$GPGGA,131441.000,4308.3070,N,07726.2618,W,1,09,1.24,162.6,M,-34.4,M,,*5D
$GPRMC,131441.250,A,4308.3073,N,07726.2619,W,4.91,347.45,060919,,,A*73
$GPGGA,131441.500,4308.3077,N,07726.2620,W,1,09,1.24,162.6,M,-34.4,M,,*54
$GPRMC,131441.750,A,4308.3080,N,07726.2621,W,5.09,348.37,060919,,,A*7B
$GPGGA,131442.000,4308.3084,N,07726.2622,W,1,09,1.24,162.6,M,-34.4,M,,*5C
$GPRMC,131442.250,A,4308.3088,N,07726.2622,W,5.18,352.49,060919,,,A*74
$GPGGA,131442.500,4308.3091,N,07726.2623,W,1,09,1.24,162.7,M,-34.4,M,,*5D
$GPRMC,131442.750,A,4308.3095,N,07726.2624,W,5.27,353.97,060919,,,A*75
$GPGGA,131443.000,4308.3099,N,07726.2624,W,1,09,1.24,162.7,M,-34.4,M,,*56
$GPRMC,131443.250,A,4308.3102,N,07726.2624,W,5.19,355.64,060919,,,A*79
$GPGGA,131443.500,4308.3107,N,07726.2625,W,1,09,1.24,162.7,M,-34.4,M,,*54
$GPRMC,131443.750,A,4308.3111,N,07726.2625,W,6.02,1.02,060919,,,A*74
$GPGGA,131444.000,4308.3115,N,07726.2624,W,1,09,1.24,162.7,M,-34.4,M,,*54
$GPRMC,131444.250,A,4308.3118,N,07726.2624,W,4.97,8.51,060919,,,A*7F
$GPGGA,131444.500,4308.3122,N,07726.2623,W,1,09,1.24,162.7,M,-34.4,M,,*52
$GPRMC,131444.750,A,4308.3124,N,07726.2622,W,4.22,15.31,060919,,,A*47
$GPGGA,131445.000,4308.3127,N,07726.2621,W,1,08,1.45,162.7,M,-34.4,M,,*57
$GPRMC,131445.250,A,4308.3129,N,07726.2620,W,3.23,21.33,060919,,,A*4F
$GPGGA,131445.500,4308.3130,N,07726.2619,W,1,09,1.14,162.6,M,-34.4,M,,*5B
$GPRMC,131445.750,A,4308.3132,N,07726.2619,W,2.61,27.65,060919,,,A*48
$GPGGA,131446.000,4308.3134,N,07726.2618,W,1,09,1.14,162.6,M,-34.4,M,,*58
$GPRMC,131446.250,A,4308.3135,N,07726.2617,W,2.47,24.33,060919,,,A*43
$GPGGA,131446.500,4308.3137,N,07726.2616,W,1,09,1.14,162.6,M,-34.4,M,,*50
$GPRMC,131446.750,A,4308.3138,N,07726.2615,W,2.73,26.76,060919,,,A*4D
$GPGGA,131447.000,4308.3140,N,07726.2614,W,1,09,1.14,162.7,M,-34.4,M,,*57
$GPRMC,131447.250,A,4308.3142,N,07726.2612,W,3.11,27.14,060919,,,A*43
$GPGGA,131447.500,4308.3144,N,07726.2611,W,1,09,1.14,162.7,M,-34.4,M,,*53
$GPRMC,131447.750,A,4308.3146,N,07726.2609,W,3.33,37.16,060919,,,A*4B
$GPGGA,131448.000,4308.3148,N,07726.2607,W,1,09,1.14,162.8,M,-34.4,M,,*5D
$GPRMC,131448.250,A,4308.3150,N,07726.2605,W,3.39,37.50,060919,,,A*42
$GPGGA,131448.500,4308.3151,N,07726.2603,W,1,09,1.14,162.8,M,-34.4,M,,*54
$GPRMC,131448.750,A,4308.3153,N,07726.2600,W,3.46,44.20,060919,,,A*4A
$GPGGA,131449.000,4308.3155,N,07726.2598,W,1,09,1.14,162.8,M,-34.4,M,,*55
$GPRMC,131449.250,A,4308.3156,N,07726.2595,W,3.53,50.22,060919,,,A*47
$GPGGA,131449.500,4308.3157,N,07726.2593,W,1,09,1.14,162.9,M,-34.4,M,,*58
$GPRMC,131449.750,A,4308.3158,N,07726.2590,W,2.83,64.33,060919,,,A*42
$GPGGA,131450.000,4308.3158,N,07726.2588,W,1,09,1.14,162.9,M,-34.4,M,,*50
$GPRMC,131450.250,A,4308.3159,N,07726.2585,W,2.98,68.50,060919,,,A*49
$GPGGA,131450.500,4308.3160,N,07726.2582,W,1,09,1.14,162.9,M,-34.4,M,,*54
$GPRMC,131450.750,A,4308.3160,N,07726.2580,W,2.36,81.86,060919,,,A*4B
$GPGGA,131451.000,4308.3160,N,07726.2580,W,1,09,1.14,162.9,M,-34.4,M,,*52
$GPRMC,131451.250,A,4308.3160,N,07726.2579,W,0.86,85.12,060919,,,A*49
$GPGGA,131451.500,4308.3160,N,07726.2579,W,1,09,1.14,162.9,M,-34.4,M,,*51
$GPRMC,131451.750,A,4308.3161,N,07726.2580,W,0.38,63.65,060919,,,A*46
$GPGGA,131452.000,4308.3161,N,07726.2581,W,1,09,1.14,162.9,M,-34.4,M,,*51
$GPRMC,131452.250,A,4308.3161,N,07726.2582,W,0.36,300.15,060919,,,A*7D
$GPGGA,131452.500,4308.3160,N,07726.2584,W,1,09,1.14,162.9,M,-34.4,M,,*50
$GPRMC,131452.750,A,4308.3160,N,07726.2588,W,1.23,262.64,060919,,,A*75
$GPGGA,131453.000,4308.3160,N,07726.2594,W,1,09,1.14,162.9,M,-34.4,M,,*55
$GPRMC,131453.250,A,4308.3160,N,07726.2598,W,3.15,264.11,060919,,,A*73
$GPGGA,131453.500,4308.3159,N,07726.2603,W,1,09,1.14,162.9,M,-34.4,M,,*57
$GPRMC,131453.750,A,4308.3160,N,07726.2609,W,5.84,265.24,060919,,,A*74
$GPGGA,131454.000,4308.3160,N,07726.2615,W,1,09,1.24,162.9,M,-34.4,M,,*5B
$GPRMC,131454.250,A,4308.3160,N,07726.2622,W,7.31,266.90,060919,,,A*7F
$GPGGA,131454.500,4308.3161,N,07726.2629,W,1,09,1.24,162.9,M,-34.4,M,,*50
$GPRMC,131454.750,A,4308.3161,N,07726.2637,W,8.35,269.66,060919,,,A*72
$GPGGA,131455.000,4308.3162,N,07726.2645,W,1,08,1.60,163.0,M,-34.4,M,,*54
$GPRMC,131455.250,A,4308.3162,N,07726.2655,W,9.41,270.78,060919,,,A*74
$GPGGA,131455.500,4308.3164,N,07726.2666,W,1,08,1.60,163.0,M,-34.4,M,,*56
$GPRMC,131455.750,A,4308.3165,N,07726.2677,W,11.11,273.71,060919,,,A*40
$GPGGA,131456.000,4308.3165,N,07726.2688,W,1,09,1.24,163.0,M,-34.4,M,,*50
$GPRMC,131456.250,A,4308.3166,N,07726.2699,W,12.02,275.47,060919,,,A*47
$GPGGA,131456.500,4308.3167,N,07726.2711,W,1,09,1.24,163.1,M,-34.4,M,,*57
$GPRMC,131456.750,A,4308.3167,N,07726.2724,W,12.78,277.23,060919,,,A*49
$GPGGA,131457.000,4308.3168,N,07726.2736,W,1,09,1.24,163.1,M,-34.4,M,,*59
$GPRMC,131457.250,A,4308.3170,N,07726.2749,W,13.43,278.36,060919,,,A*42
$GPGGA,131457.500,4308.3172,N,07726.2763,W,1,09,1.24,163.1,M,-34.4,M,,*57
$GPRMC,131457.750,A,4308.3174,N,07726.2777,W,14.16,279.64,060919,,,A*4F
$GPGGA,131458.000,4308.3176,N,07726.2791,W,1,09,1.14,163.1,M,-34.4,M,,*57
$GPRMC,131458.250,A,4308.3179,N,07726.2806,W,15.15,282.31,060919,,,A*47
$GPGGA,131458.500,4308.3183,N,07726.2822,W,1,09,1.14,163.1,M,-34.4,M,,*5F
$GPRMC,131458.750,A,4308.3187,N,07726.2838,W,16.42,285.13,060919,,,A*48
$GPGGA,131459.000,4308.3192,N,07726.2855,W,1,09,1.14,163.2,M,-34.4,M,,*58
$GPRMC,131459.250,A,4308.3197,N,07726.2872,W,17.16,287.83,060919,,,A*48
$GPGGA,131459.500,4308.3202,N,07726.2888,W,1,09,1.14,163.3,M,-34.4,M,,*56
$GPRMC,131459.750,A,4308.3208,N,07726.2905,W,17.80,290.26,060919,,,A*4F
$GPGGA,131500.000,4308.3214,N,07726.2922,W,1,09,1.14,163.3,M,-34.4,M,,*58
$GPRMC,131500.250,A,4308.3220,N,07726.2938,W,18.22,292.59,060919,,,A*4E
$GPGGA,131500.500,4308.3226,N,07726.2956,W,1,09,1.14,163.4,M,-34.4,M,,*58
$GPRMC,131500.750,A,4308.3233,N,07726.2973,W,18.80,295.00,060919,,,A*45
$GPGGA,131501.000,4308.3240,N,07726.2990,W,1,09,1.14,163.5,M,-34.4,M,,*57
$GPRMC,131501.250,A,4308.3248,N,07726.3008,W,19.52,296.66,060919,,,A*44
$GPGGA,131501.500,4308.3257,N,07726.3027,W,1,09,1.14,163.5,M,-34.4,M,,*50
$GPRMC,131501.750,A,4308.3266,N,07726.3046,W,20.75,298.83,060919,,,A*4D
$GPGGA,131502.000,4308.3275,N,07726.3066,W,1,09,1.14,163.6,M,-34.4,M,,*50
$GPRMC,131502.250,A,4308.3284,N,07726.3084,W,21.61,300.37,060919,,,A*42
$GPGGA,131502.500,4308.3293,N,07726.3103,W,1,09,1.14,163.6,M,-34.4,M,,*5F
$GPRMC,131502.750,A,4308.3302,N,07726.3122,W,22.08,301.29,060919,,,A*47
$GPGGA,131503.000,4308.3311,N,07726.3140,W,1,09,1.14,163.7,M,-34.4,M,,*56
$GPRMC,131503.250,A,4308.3320,N,07726.3159,W,22.50,302.16,060919,,,A*4D
$GPGGA,131503.500,4308.3330,N,07726.3178,W,1,09,1.14,163.8,M,-34.4,M,,*54
$GPRMC,131503.750,A,4308.3340,N,07726.3197,W,23.16,302.82,060919,,,A*42
$GPGGA,131504.000,4308.3350,N,07726.3216,W,1,09,1.14,163.8,M,-34.4,M,,*5B
$GPRMC,131504.250,A,4308.3359,N,07726.3236,W,23.72,303.35,060919,,,A*4F
$GPGGA,131504.500,4308.3369,N,07726.3256,W,1,09,1.14,163.9,M,-34.4,M,,*51
$GPRMC,131504.750,A,4308.3378,N,07726.3276,W,24.28,303.37,060919,,,A*47
$GPGGA,131505.000,4308.3389,N,07726.3297,W,1,09,1.14,163.9,M,-34.4,M,,*56
$GPRMC,131505.250,A,4308.3399,N,07726.3318,W,24.91,303.33,060919,,,A*43
$GPGGA,131505.500,4308.3409,N,07726.3338,W,1,09,1.13,163.9,M,-34.4,M,,*5F
$GPRMC,131505.750,A,4308.3420,N,07726.3359,W,25.02,303.91,060919,,,A*45
$GPGGA,131506.000,4308.3430,N,07726.3379,W,1,09,1.14,163.9,M,-34.4,M,,*51
$GPRMC,131506.250,A,4308.3441,N,07726.3399,W,24.82,304.33,060919,,,A*4E
$GPGGA,131506.500,4308.3451,N,07726.3418,W,1,09,1.14,164.0,M,-34.4,M,,*5D
$GPRMC,131506.750,A,4308.3461,N,07726.3438,W,24.36,305.14,060919,,,A*4E
$GPGGA,131507.000,4308.3471,N,07726.3456,W,1,09,1.24,164.0,M,-34.4,M,,*52
$GPRMC,131507.250,A,4308.3481,N,07726.3475,W,24.04,305.84,060919,,,A*45
$GPGGA,131507.500,4308.3492,N,07726.3491,W,1,09,1.14,164.1,M,-34.4,M,,*53
$GPRMC,131507.750,A,4308.3503,N,07726.3509,W,23.61,307.68,060919,,,A*45
$GPGGA,131508.000,4308.3513,N,07726.3526,W,1,09,1.14,164.2,M,-34.4,M,,*5F
$GPRMC,131508.250,A,4308.3522,N,07726.3543,W,23.07,307.90,060919,,,A*45
$GPGGA,131508.500,4308.3532,N,07726.3560,W,1,09,1.14,164.2,M,-34.4,M,,*5B
$GPRMC,131508.750,A,4308.3542,N,07726.3576,W,22.55,309.06,060919,,,A*47
$GPGGA,131509.000,4308.3552,N,07726.3591,W,1,09,1.14,164.3,M,-34.4,M,,*56
$GPRMC,131509.250,A,4308.3562,N,07726.3606,W,21.90,312.31,060919,,,A*41
$GPGGA,131509.500,4308.3571,N,07726.3620,W,1,09,1.24,164.4,M,-34.4,M,,*5F
$GPRMC,131509.750,A,4308.3581,N,07726.3634,W,21.18,314.56,060919,,,A*4F
$GPGGA,131510.000,4308.3591,N,07726.3646,W,1,09,1.24,164.6,M,-34.4,M,,*5E
$GPRMC,131510.250,A,4308.3601,N,07726.3659,W,20.35,317.05,060919,,,A*49
$GPGGA,131510.500,4308.3611,N,07726.3671,W,1,09,1.14,164.7,M,-34.4,M,,*56
$GPRMC,131510.750,A,4308.3622,N,07726.3682,W,19.67,320.02,060919,,,A*45
$GPGGA,131511.000,4308.3633,N,07726.3692,W,1,09,1.14,164.9,M,-34.4,M,,*51
$GPRMC,131511.250,A,4308.3644,N,07726.3702,W,19.08,323.39,060919,,,A*4A
$GPGGA,131511.500,4308.3656,N,07726.3711,W,1,09,1.14,165.0,M,-34.4,M,,*55
$GPRMC,131511.750,A,4308.3667,N,07726.3720,W,18.45,326.92,060919,,,A*42
$GPGGA,131512.000,4308.3678,N,07726.3728,W,1,09,1.14,165.1,M,-34.4,M,,*54
$GPRMC,131512.250,A,4308.3690,N,07726.3737,W,17.90,328.53,060919,,,A*4E
$GPGGA,131512.500,4308.3701,N,07726.3745,W,1,09,1.14,165.2,M,-34.4,M,,*56
$GPRMC,131512.750,A,4308.3711,N,07726.3753,W,17.20,330.43,060919,,,A*42
$GPGGA,131513.000,4308.3722,N,07726.3759,W,1,09,1.14,165.3,M,-34.4,M,,*5F
$GPRMC,131513.250,A,4308.3735,N,07726.3765,W,16.28,333.65,060919,,,A*4B
$GPGGA,131513.500,4308.3747,N,07726.3769,W,1,09,1.14,165.5,M,-34.4,M,,*5C
$GPRMC,131513.750,A,4308.3758,N,07726.3774,W,14.97,338.75,060919,,,A*49
$GPGGA,131514.000,4308.3770,N,07726.3778,W,1,09,1.14,165.6,M,-34.4,M,,*59
$GPRMC,131514.250,A,4308.3781,N,07726.3783,W,14.79,341.67,060919,,,A*4A
$GPGGA,131514.500,4308.3791,N,07726.3785,W,1,09,1.14,165.6,M,-34.4,M,,*51
$GPRMC,131514.750,A,4308.3800,N,07726.3787,W,14.11,346.10,060919,,,A*44
$GPGGA,131515.000,4308.3810,N,07726.3790,W,1,09,1.24,165.6,M,-34.4,M,,*54
$GPRMC,131515.250,A,4308.3820,N,07726.3792,W,14.12,348.64,060919,,,A*48
$GPGGA,131515.500,4308.3832,N,07726.3789,W,1,09,1.24,165.6,M,-34.4,M,,*59
$GPRMC,131515.750,A,4308.3844,N,07726.3788,W,14.93,358.97,060919,,,A*40
$GPGGA,131516.000,4308.3854,N,07726.3787,W,1,09,1.24,165.7,M,-34.4,M,,*50
$GPRMC,131516.250,A,4308.3866,N,07726.3784,W,15.90,4.23,060919,,,A*4D
$GPGGA,131516.500,4308.3878,N,07726.3781,W,1,09,1.24,165.8,M,-34.4,M,,*52
$GPRMC,131516.750,A,4308.3891,N,07726.3778,W,16.95,8.54,060919,,,A*49
$GPGGA,131517.000,4308.3904,N,07726.3774,W,1,09,1.24,165.9,M,-34.4,M,,*57
$GPRMC,131517.250,A,4308.3917,N,07726.3770,W,17.51,10.51,060919,,,A*7F
$GPGGA,131517.500,4308.3930,N,07726.3765,W,1,09,1.24,165.9,M,-34.4,M,,*55
$GPRMC,131517.750,A,4308.3944,N,07726.3761,W,17.99,11.27,060919,,,A*78
$GPGGA,131518.000,4308.3957,N,07726.3756,W,1,09,1.24,166.1,M,-34.4,M,,*55
$GPRMC,131518.250,A,4308.3971,N,07726.3752,W,18.43,12.41,060919,,,A*7F
$GPGGA,131518.500,4308.3985,N,07726.3748,W,1,09,1.24,166.1,M,-34.4,M,,*50
$GPRMC,131518.750,A,4308.3998,N,07726.3745,W,18.72,12.01,060919,,,A*7D
$GPGGA,131519.000,4308.4012,N,07726.3741,W,1,09,1.24,166.3,M,-34.4,M,,*5F
$GPRMC,131519.250,A,4308.4025,N,07726.3738,W,18.95,11.53,060919,,,A*76
$GPGGA,131519.500,4308.4039,N,07726.3734,W,1,09,1.24,166.4,M,-34.4,M,,*56
$GPRMC,131519.750,A,4308.4053,N,07726.3731,W,19.26,10.38,060919,,,A*7E
$GPGGA,131520.000,4308.4067,N,07726.3728,W,1,09,1.24,166.6,M,-34.4,M,,*5D
$GPRMC,131520.250,A,4308.4081,N,07726.3724,W,19.34,10.27,060919,,,A*77
$GPGGA,131520.500,4308.4095,N,07726.3721,W,1,09,1.24,166.8,M,-34.4,M,,*52
$GPRMC,131520.750,A,4308.4109,N,07726.3718,W,19.63,9.93,060919,,,A*49
$GPGGA,131521.000,4308.4124,N,07726.3715,W,1,09,1.24,166.9,M,-34.4,M,,*5B
$GPRMC,131521.250,A,4308.4138,N,07726.3712,W,19.91,9.33,060919,,,A*42
$GPGGA,131521.500,4308.4152,N,07726.3710,W,1,09,1.24,167.1,M,-34.4,M,,*53
$GPRMC,131521.750,A,4308.4167,N,07726.3707,W,20.27,8.59,060919,,,A*43
$GPGGA,131522.000,4308.4182,N,07726.3704,W,1,09,1.24,167.2,M,-34.4,M,,*5E
$GPRMC,131522.250,A,4308.4197,N,07726.3700,W,20.54,8.47,060919,,,A*46
$GPGGA,131522.500,4308.4213,N,07726.3697,W,1,09,1.24,167.4,M,-34.4,M,,*5D
$GPRMC,131522.750,A,4308.4228,N,07726.3695,W,21.13,8.33,060919,,,A*48
$GPGGA,131523.000,4308.4244,N,07726.3692,W,1,09,1.24,167.5,M,-34.4,M,,*5F
$GPRMC,131523.250,A,4308.4259,N,07726.3689,W,21.38,7.82,060919,,,A*4B
$GPGGA,131523.500,4308.4275,N,07726.3687,W,1,09,1.24,167.8,M,-34.4,M,,*51
$GPRMC,131523.750,A,4308.4291,N,07726.3684,W,21.97,7.55,060919,,,A*48
$GPGGA,131524.000,4308.4306,N,07726.3681,W,1,09,1.24,168.1,M,-34.4,M,,*56
$GPRMC,131524.250,A,4308.4322,N,07726.3678,W,22.35,6.73,060919,,,A*4E
$GPGGA,131524.500,4308.4337,N,07726.3676,W,1,09,1.24,168.4,M,-34.4,M,,*5C
$GPRMC,131524.750,A,4308.4353,N,07726.3674,W,22.50,5.70,060919,,,A*42
$GPGGA,131525.000,4308.4368,N,07726.3671,W,1,09,1.24,168.6,M,-34.4,M,,*57
$GPRMC,131525.250,A,4308.4383,N,07726.3668,W,22.26,5.92,060919,,,A*4B
$GPGGA,131525.500,4308.4397,N,07726.3665,W,1,09,1.24,168.8,M,-34.4,M,,*59
$GPRMC,131525.750,A,4308.4412,N,07726.3662,W,21.19,7.25,060919,,,A*4A
$GPGGA,131526.000,4308.4426,N,07726.3659,W,1,09,1.24,168.9,M,-34.4,M,,*5C
$GPRMC,131526.250,A,4308.4440,N,07726.3655,W,20.66,8.06,060919,,,A*48
$GPGGA,131526.500,4308.4454,N,07726.3652,W,1,09,1.24,169.1,M,-34.4,M,,*5E
$GPRMC,131526.750,A,4308.4467,N,07726.3649,W,19.83,9.02,060919,,,A*41
$GPGGA,131527.000,4308.4480,N,07726.3645,W,1,09,1.24,169.1,M,-34.4,M,,*55
$GPRMC,131527.250,A,4308.4493,N,07726.3641,W,18.81,10.33,060919,,,A*7F
$GPGGA,131527.500,4308.4504,N,07726.3638,W,1,08,1.29,169.2,M,-34.4,M,,*58
$GPRMC,131527.750,A,4308.4515,N,07726.3635,W,17.11,11.51,060919,,,A*75
$GPGGA,131528.000,4308.4526,N,07726.3632,W,1,08,1.29,169.2,M,-34.4,M,,*58
$GPRMC,131528.250,A,4308.4538,N,07726.3628,W,15.19,12.39,060919,,,A*7B
$GPGGA,131528.500,4308.4550,N,07726.3625,W,1,08,1.29,169.3,M,-34.4,M,,*5B
$GPRMC,131528.750,A,4308.4560,N,07726.3622,W,12.68,10.67,060919,,,A*71
$GPGGA,131529.000,4308.4567,N,07726.3618,W,1,08,1.29,169.3,M,-34.4,M,,*55
$GPRMC,131529.250,A,4308.4574,N,07726.3615,W,10.20,10.43,060919,,,A*7C
$GPGGA,131529.500,4308.4579,N,07726.3613,W,1,08,1.29,169.3,M,-34.4,M,,*54
$GPRMC,131529.750,A,4308.4583,N,07726.3610,W,7.52,10.05,060919,,,A*45
$GPGGA,131530.000,4308.4585,N,07726.3609,W,1,08,1.29,169.2,M,-34.4,M,,*50
$GPRMC,131530.250,A,4308.4588,N,07726.3608,W,5.63,13.23,060919,,,A*4D
