Vers 70
USE_SERIAL_FEEDBACK=true
DEVELOPMENT_MODE=false
USE_RMC_ONLY=false

$GPRMC,155614.000,A,4308.3047,N,07726.2715,W,1.34,317.80,120519,,,A*71
$GPGGA,155614.250,4308.3042,N,07726.2710,W,1,07,1.42,114.2,M,-34.4,M,,*59
lng=-77.437858, lat=43.138412, altitude=107.80, speed=1.34, satellites=5, angle=317.8000, fixquality=1
$GPRMC,155614.500,A,4308.3042,N,07726.2711,W,1.08,325.67,120519,,,A*72
$GPGGA,155614.750,4308.3043,N,07726.2712,W,1,07,1.42,114.2,M,-34.4,M,,*5F
lng=-77.437850, lat=43.138404, altitude=114.20, speed=1.08, satellites=7, angle=325.6700, fixquality=1
$GPRMC,155615.000,A,4308.3044,N,07726.2714,W,0.69,332.09,120519,,,A*7D
$GPGGA,155615.250,4308.3046,N,07726.2716,W,1,07,1.42,114.3,M,-34.4,M,,*5B
lng=-77.437858, lat=43.138404, altitude=114.20, speed=0.69, satellites=7, angle=332.0900, fixquality=1
$GPRMC,155615.500,A,4308.3047,N,07726.2716,W,0.51,1.80,120519,,,A*70
$GPGGA,155615.750,4308.3048,N,07726.2717,W,1,07,1.89,114.4,M,-34.4,M,,*51
lng=-77.437858, lat=43.138412, altitude=114.30, speed=0.51, satellites=7, angle=1.8000, fixquality=1
$GPRMC,155616.000,A,4308.3049,N,07726.2719,W,0.41,15.31,120519,,,A*49
$GPGGA,155616.250,4308.3049,N,07726.2721,W,1,07,1.42,115.5,M,-34.4,M,,*54
lng=-77.437866, lat=43.138412, altitude=114.40, speed=0.41, satellites=7, angle=15.3100, fixquality=1
$GPRMC,155616.500,A,4308.3050,N,07726.2722,W,0.36,2.96,120519,,,A*77
$GPGGA,155616.750,4308.3051,N,07726.2723,W,1,07,1.89,116.6,M,-34.4,M,,*5D
lng=-77.437866, lat=43.138420, altitude=115.50, speed=0.36, satellites=7, angle=2.9600, fixquality=1
$GPRMC,155617.000,A,4308.3050,N,07726.2725,W,0.37,6.86,120519,,,A*70
$GPGGA,155617.250,4308.3051,N,07726.2727,W,1,08,1.71,118.7,M,-34.4,M,,*5A
lng=-77.437873, lat=43.138420, altitude=116.60, speed=0.37, satellites=7, angle=6.8600, fixquality=1
$GPRMC,155617.500,A,4308.3047,N,07726.2721,W,0.37,21.27,120519,,,A*49
$GPGGA,155617.750,4308.3043,N,07726.2718,W,1,08,1.37,120.5,M,-34.4,M,,*5B
lng=-77.437866, lat=43.138412, altitude=118.70, speed=0.37, satellites=8, angle=21.2700, fixquality=1
$GPRMC,155618.000,A,4308.3040,N,07726.2716,W,0.28,26.78,120519,,,A*43
$GPGGA,155618.250,4308.3036,N,07726.2712,W,1,08,1.37,122.0,M,-34.4,M,,*5E
lng=-77.437858, lat=43.138404, altitude=120.50, speed=0.28, satellites=8, angle=26.7800, fixquality=1
$GPRMC,155618.500,A,4308.3032,N,07726.2709,W,0.30,15.29,120519,,,A*40
$GPGGA,155618.750,4308.3027,N,07726.2705,W,1,08,1.37,123.9,M,-34.4,M,,*55
lng=-77.437850, lat=43.138385, altitude=122.00, speed=0.30, satellites=8, angle=15.2900, fixquality=1
$GPRMC,155619.000,A,4308.3023,N,07726.2702,W,0.28,353.95,120519,,,A*70
$GPGGA,155619.250,4308.3017,N,07726.2695,W,1,08,1.71,125.3,M,-34.4,M,,*54
lng=-77.437835, lat=43.138370, altitude=123.90, speed=0.28, satellites=8, angle=353.9500, fixquality=1
$GPRMC,155619.500,A,4308.3012,N,07726.2690,W,0.28,325.70,120519,,,A*77
$GPGGA,155619.750,4308.3007,N,07726.2686,W,1,08,1.37,126.3,M,-34.4,M,,*53
lng=-77.437820, lat=43.138355, altitude=125.30, speed=0.28, satellites=8, angle=325.7000, fixquality=1
$GPRMC,155620.000,A,4308.3003,N,07726.2681,W,0.44,312.91,120519,,,A*79
$GPGGA,155620.250,4308.3000,N,07726.2678,W,1,08,1.37,127.3,M,-34.4,M,,*5B
lng=-77.437797, lat=43.138339, altitude=126.30, speed=0.44, satellites=8, angle=312.9100, fixquality=1
$GPRMC,155620.500,A,4308.2996,N,07726.2674,W,0.70,322.51,120519,,,A*7A
$GPGGA,155620.750,4308.2991,N,07726.2666,W,1,08,1.37,128.3,M,-34.4,M,,*5E
lng=-77.437789, lat=43.138328, altitude=127.30, speed=0.70, satellites=8, angle=322.5100, fixquality=1
$GPRMC,155621.000,A,4308.2984,N,07726.2658,W,0.67,323.88,120519,,,A*70
$GPGGA,155621.250,4308.2978,N,07726.2650,W,1,08,1.37,129.2,M,-34.4,M,,*58
lng=-77.437759, lat=43.138305, altitude=128.30, speed=0.67, satellites=8, angle=323.8800, fixquality=1
$GPRMC,155621.500,A,4308.2973,N,07726.2645,W,0.45,334.07,120519,,,A*70
$GPGGA,155621.750,4308.2969,N,07726.2640,W,1,08,1.37,129.9,M,-34.4,M,,*57
lng=-77.437744, lat=43.138290, altitude=129.20, speed=0.45, satellites=8, angle=334.0700, fixquality=1
$GPRMC,155622.000,A,4308.2964,N,07726.2635,W,0.34,345.03,120519,,,A*73
$GPGGA,155622.250,4308.2960,N,07726.2630,W,1,08,1.71,130.6,M,-34.4,M,,*5A
lng=-77.437728, lat=43.138271, altitude=129.90, speed=0.34, satellites=8, angle=345.0300, fixquality=1
$GPRMC,155622.500,A,4308.2955,N,07726.2626,W,0.44,352.50,120519,,,A*71
$GPGGA,155622.750,4308.2951,N,07726.2622,W,1,08,1.71,131.3,M,-34.4,M,,*5A
lng=-77.437713, lat=43.138256, altitude=130.60, speed=0.44, satellites=8, angle=352.5000, fixquality=1
$GPRMC,155623.000,A,4308.2947,N,07726.2619,W,0.44,343.14,120519,,,A*7A
$GPGGA,155623.250,4308.2946,N,07726.2618,W,1,08,1.37,131.8,M,-34.4,M,,*58
lng=-77.437698, lat=43.138248, altitude=131.30, speed=0.44, satellites=8, angle=343.1400, fixquality=1
$GPRMC,155623.500,A,4308.2946,N,07726.2617,W,0.51,339.89,120519,,,A*7D
$GPGGA,155623.750,4308.2944,N,07726.2614,W,1,08,1.37,132.3,M,-34.4,M,,*5B
lng=-77.437698, lat=43.138240, altitude=131.80, speed=0.51, satellites=8, angle=339.8900, fixquality=1
$GPRMC,155624.000,A,4308.2942,N,07726.2613,W,0.58,343.72,120519,,,A*7F
$GPGGA,155624.250,4308.2941,N,07726.2611,W,1,07,1.42,132.8,M,-34.4,M,,*5F
lng=-77.437690, lat=43.138240, altitude=132.30, speed=0.58, satellites=8, angle=343.7200, fixquality=1
$GPRMC,155624.500,A,4308.2940,N,07726.2609,W,0.64,353.00,120519,,,A*78
$GPGGA,155624.750,4308.2939,N,07726.2607,W,1,08,1.71,132.9,M,-34.4,M,,*5C
lng=-77.437675, lat=43.138233, altitude=132.80, speed=0.64, satellites=7, angle=353.0000, fixquality=1
$GPGGA,155625.750,4308.2943,N,07726.2607,W,1,08,1.71,132.5,M,-34.4,M,,*5C
$GPRMC,155625.750,A,4308.2943,N,07726.2607,W,0.62,352.09,120519,,,A*7D
lng=-77.437675, lat=43.138240, altitude=132.50, speed=0.61, satellites=8, angle=351.5300, fixquality=1
$GPGGA,155626.500,4308.2948,N,07726.2608,W,1,08,1.71,131.8,M,-34.4,M,,*52
$GPRMC,155626.500,A,4308.2948,N,07726.2608,W,0.70,2.20,120519,,,A*73
lng=-77.437675, lat=43.138248, altitude=131.80, speed=0.66, satellites=8, angle=359.9700, fixquality=1
$GPGGA,155626.750,4308.2950,N,07726.2610,W,1,08,1.71,131.6,M,-34.4,M,,*5B
$GPRMC,155626.750,A,4308.2950,N,07726.2610,W,0.71,359.53,120519,,,A*7C
lng=-77.437690, lat=43.138248, altitude=131.60, speed=0.70, satellites=8, angle=2.2000, fixquality=1
$GPGGA,155627.000,4308.2952,N,07726.2611,W,1,08,1.71,131.4,M,-34.4,M,,*59
$GPRMC,155627.000,A,4308.2952,N,07726.2611,W,0.70,354.55,120519,,,A*76
lng=-77.437690, lat=43.138256, altitude=131.40, speed=0.71, satellites=8, angle=359.5300, fixquality=1
$GPGGA,155627.750,4308.2959,N,07726.2616,W,1,08,1.37,130.9,M,-34.4,M,,*59
$GPRMC,155627.750,A,4308.2959,N,07726.2616,W,0.71,343.61,120519,,,A*78
lng=-77.437698, lat=43.138263, altitude=130.90, speed=0.72, satellites=8, angle=343.5900, fixquality=1
$GPGGA,155628.250,4308.2963,N,07726.2618,W,1,08,1.37,130.4,M,-34.4,M,,*59
$GPRMC,155628.250,A,4308.2963,N,07726.2618,W,0.73,344.54,120519,,,A*76
lng=-77.437698, lat=43.138271, altitude=130.40, speed=0.68, satellites=8, angle=340.7900, fixquality=1
$GPGGA,155628.750,4308.2967,N,07726.2620,W,1,08,1.71,130.0,M,-34.4,M,,*55
$GPRMC,155628.750,A,4308.2967,N,07726.2620,W,0.76,350.95,120519,,,A*71
lng=-77.437705, lat=43.138282, altitude=130.00, speed=0.75, satellites=8, angle=348.2400, fixquality=1
$GPGGA,155629.000,4308.2969,N,07726.2620,W,1,08,1.71,129.9,M,-34.4,M,,*59
$GPRMC,155629.000,A,4308.2969,N,07726.2620,W,0.77,354.13,120519,,,A*77
lng=-77.437705, lat=43.138282, altitude=129.90, speed=0.76, satellites=8, angle=350.9500, fixquality=1
$GPGGA,155629.250,4308.2971,N,07726.2621,W,1,08,1.71,129.8,M,-34.4,M,,*57
$GPRMC,155629.250,A,4308.2971,N,07726.2621,W,0.76,355.93,120519,,,A*70
lng=-77.437705, lat=43.138282, altitude=129.80, speed=0.77, satellites=8, angle=354.1300, fixquality=1
$GPGGA,155629.500,4308.2973,N,07726.2621,W,1,08,1.71,129.6,M,-34.4,M,,*59
$GPRMC,155629.500,A,4308.2973,N,07726.2621,W,0.73,355.40,120519,,,A*7B
lng=-77.437705, lat=43.138290, altitude=129.60, speed=0.76, satellites=8, angle=355.9300, fixquality=1
$GPGGA,155630.000,4308.2977,N,07726.2623,W,1,07,1.88,129.3,M,-34.4,M,,*5E
$GPRMC,155630.000,A,4308.2977,N,07726.2623,W,0.72,352.49,120519,,,A*7F
lng=-77.437705, lat=43.138298, altitude=129.30, speed=0.73, satellites=7, angle=353.8100, fixquality=1
$GPGGA,155630.250,4308.2976,N,07726.2621,W,1,10,0.88,129.4,M,-34.4,M,,*5A
$GPRMC,155630.250,A,4308.2976,N,07726.2621,W,0.60,351.20,120519,,,A*74
lng=-77.437705, lat=43.138290, altitude=129.40, speed=0.72, satellites=10, angle=352.4900, fixquality=1
$GPGGA,155630.500,4308.2977,N,07726.2620,W,1,10,0.88,129.7,M,-34.4,M,,*5B
$GPRMC,155630.500,A,4308.2977,N,07726.2620,W,0.61,1.16,120519,,,A*74
lng=-77.437705, lat=43.138298, altitude=129.70, speed=0.60, satellites=10, angle=351.2000, fixquality=1
$GPGGA,155630.750,4308.2978,N,07726.2619,W,1,10,0.88,129.8,M,-34.4,M,,*56
$GPRMC,155630.750,A,4308.2978,N,07726.2619,W,0.61,4.36,120519,,,A*71
lng=-77.437698, lat=43.138298, altitude=129.80, speed=0.61, satellites=10, angle=1.1600, fixquality=1
$GPGGA,155631.250,4308.2980,N,07726.2620,W,1,10,0.88,130.3,M,-34.4,M,,*5C
$GPRMC,155631.250,A,4308.2980,N,07726.2620,W,0.43,7.89,120519,,,A*7F
lng=-77.437705, lat=43.138298, altitude=130.30, speed=0.55, satellites=10, angle=4.2200, fixquality=1
$GPGGA,155631.500,4308.2981,N,07726.2620,W,1,10,0.88,130.5,M,-34.4,M,,*59
$GPRMC,155631.500,A,4308.2981,N,07726.2620,W,0.30,10.50,120519,,,A*4A
lng=-77.437705, lat=43.138305, altitude=130.50, speed=0.43, satellites=10, angle=7.8900, fixquality=1
$GPGGA,155633.250,4308.2986,N,07726.2622,W,1,10,0.88,132.0,M,-34.4,M,,*5B
$GPRMC,155633.250,A,4308.2986,N,07726.2622,W,0.14,29.89,120519,,,A*47
lng=-77.437705, lat=43.138313, altitude=132.00, speed=0.06, satellites=10, angle=347.2100, fixquality=1
$GPGGA,155634.750,4308.2985,N,07726.2622,W,1,10,0.84,132.5,M,-34.4,M,,*53
$GPRMC,155634.750,A,4308.2985,N,07726.2622,W,0.12,336.30,12051
lng=-77.437705, lat=43.138305, altitude=132.50, speed=0.14, satellites=10, angle=343.3900, fixquality=1
$GPGGA,155637.500,4308.2980,N,07726.2624,W,1,10,0.84,133.9,M,-34.4,M,,*59
$GPRMC,155637.500,A,4308.2980,N,07726.2624,W,0.24,289.25,120519,,,A*7C
lng=-77.437705, lat=43.138298, altitude=133.90, speed=0.16, satellites=10, angle=273.8500, fixquality=1
$GPGGA,155639.000,4308.2976,N,07726.2625,W,1,10,0.84,135.3,M,-34.4,M,,*56
$GPRMC,155639.000,A,4308.2976,N,07726.2625,W,0.15,268.64,120519$GPGGA,155639.250,4308.2975,N,07726.2625,W,1,09,0.92,135.5,M,-34.4,M,,*5B
lng=-77.437713, lat=43.138290, altitude=135.30, speed=0.17, satellites=10, angle=304.1900, fixquality=1
$GPGGA,155640.500,4308.2970,N,07726.2626,W,1,10,0.84,136.4,M,-34.4,M,,*5C
$GPRMC,155640.500,A,4308.2970,N,07726.2626,W,0.06,183.81,120519,,,A*76
lng=-77.437713, lat=43.138282, altitude=136.40, speed=0.05, satellites=10, angle=272.2800, fixquality=1
$GPGGA,155641.500,4308.2966,N,07726.2626,W,1,10,0.84,137.3,M,-34.4,M,,*5C
$GPRMC,155641.500,A,4308.2966,N,07726.2626,W,0.20,179.09,120519,,,A*71
lng=-77.437713, lat=43.138271, altitude=137.30, speed=0.14, satellites=10, angle=178.8400, fixquality=1
$GPGGA,155643.750,4308.2961,N,07726.2626,W,1,10,0.84,138.4,M,-34.4,M,,*56
$GPRMC,155643.750,A,4308.2961,N,07726.2626,W,0.18,162.74,120519,,,A*78
lng=-77.437713, lat=43.138263, altitude=138.40, speed=0.20, satellites=10, angle=155.1500, fixquality=1
$GPGGA,155651.750,4308.2962,N,07726.2627,W,1,10,0.84,138.2,M,-34.4,M,,*51
$GPRMC,155651.750,A,4308.2962,N,07726.2627,W,0.15,31.92,120519,,,A*4B
lng=-77.437713, lat=43.138271, altitude=138.20, speed=0.16, satellites=10, angle=42.3100, fixquality=1
$GPGGA,155654.750,4308.2967,N,07726.2628,W,1,10,0.84,137.8,M,-34.4,M,,*5B
$GPRMC,155654.750,A,4308.2967,N,07726.2628,W,0.24,14.69,120519,,,A*45
lng=-77.437713, lat=43.138282, altitude=137.80, speed=0.24, satellites=10, angle=17.1600, fixquality=1
$GPGGA,155656.250,4308.2970,N,07726.2630,W,1,10,0.84,137.4,M,-34.4,M,,*5F
$GPRMC,155656.250,A,4308.2970,N,07726.2630,W,0.16,328.53,120519$GPGGA,155656.500,4308.2971,N,07726.2630,W,1,10,0.84,137.4,M,-34.4,M,,*5C
lng=-77.437721, lat=43.138282, altitude=137.40, speed=0.09, satellites=10, angle=340.9300, fixquality=1
$GPGGA,155735.250,4308.2972,N,07726.2631,W,1,10,0.88,137.5,M,-34.4,M,,*55
$GPRMC,155735.250,A,4308.2972,N,07726.2631,W,0.01,66.09,120519,,,A*4E
lng=-77.437721, lat=43.138290, altitude=137.50, speed=0.00, satellites=10, angle=85.3100, fixquality=1
$GPGGA,155743.500,4308.2971,N,07726.2632,W,1,10,0.88,137.8,M,-34.4,M,,*5B
$GPRMC,155743.500,A,4308.2971,N,07726.2632,W,0.02,230.40,120519,,,A*72
lng=-77.437721, lat=43.138282, altitude=137.80, speed=0.02, satellites=10, angle=207.1300, fixquality=1
$GPGGA,155744.500,4308.2970,N,07726.2635,W,1,10,0.88,138.6,M,-34.4,M,,*5B
$GPRMC,155744.500,A,4308.2970,N,07726.2635,W,0.01,261.70,120519,,,A*77
lng=-77.437728, lat=43.138282, altitude=138.60, speed=0.00, satellites=10, angle=0.0000, fixquality=1
$GPGGA,155746.500,4308.2968,N,07726.2640,W,1,10,0.88,140.2,M,-34.4,M,,*59
$GPRMC,155746.500,A,4308.2968,N,07726.2640,W,0.01,242.43,120519,,,A*7F
lng=-77.437736, lat=43.138282, altitude=140.20, speed=0.00, satellites=10, angle=223.2000, fixquality=1
$GPGGA,155749.500,4308.2967,N,07726.2645,W,1,10,0.88,142.2,M,-34.4,M,,*5E
$GPRMC,155749.500,A,4308.2967,N,07726.2645,W,0.00,330.76,120519,,,A*79
lng=-77.437744, lat=43.138282, altitude=142.20, speed=0.00, satellites=10, angle=332.4500, fixquality=1
$GPGGA,155756.000,4308.2972,N,07726.2644,W,1,10,0.88,143.9,M,-34.4,M,,*5A
$GPRMC,155756.000,A,4308.2972,N,07726.2644,W,0.00,280.88,120519,,,A*7C
lng=-77.437736, lat=43.138290, altitude=143.90, speed=0.00, satellites=10, angle=42.1700, fixquality=1
$GPGGA,155759.500,4308.2977,N,07726.2642,W,1,10,0.88,143.5,M,-34.4,M,,*5F
$GPRMC,155759.500,A,4308.2977,N,07726.2642,W,0.01,96.67,120519,,,A*40
lng=-77.437736, lat=43.138298, altitude=143.50, speed=0.01, satellites=10, angle=44.0900, fixquality=1
$GPGGA,155804.500,4308.2976,N,07726.2643,W,1,10,0.88,145.1,M,-34.4,M,,*5A
$GPRMC,155804.500,A,4308.2976,N,07726.2643,W,0.00,290.10,120519$GPGGA,155804.750,4308.2976,N,07726.2643,W,1,10,0.88,145.2,M,-34.4,M,,*5E
lng=-77.437736, lat=43.138290, altitude=145.10, speed=0.00, satellites=10, angle=232.1300, fixquality=1
$GPGGA,155806.250,4308.2975,N,07726.2645,W,1,10,0.88,145.7,M,-34.4,M,,*59
$GPRMC,155806.250,A,4308.2975,N,07726.2645,W,0.00,230.42,120519,,,A*7A
lng=-77.437744, lat=43.138290, altitude=145.70, speed=0.00, satellites=10, angle=156.8100, fixquality=1
$GPGGA,155812.000,4308.2975,N,07726.2644,W,1,10,0.88,145.6,M,-34.4,M,,*5B
$GPRMC,155812.000,A,4308.2975,N,07726.2644,W,0.01,87.08,120519,,,A*48
lng=-77.437736, lat=43.138290, altitude=145.60, speed=0.01, satellites=10, angle=87.8000, fixquality=1
$GPGGA,155817.000,4308.2971,N,07726.2640,W,1,10,0.89,145.6,M,-34.4,M,,*5F
$GPRMC,155817.000,A,4308.2971,N,07726.2640,W,0.01,171.46,120519,,,A*7F
lng=-77.437736, lat=43.138282, altitude=145.60, speed=0.01, satellites=10, angle=179.7700, fixquality=1
$GPGGA,155838.500,4308.2970,N,07726.2639,W,1,10,0.84,145.7,M,-34.4,M,,*54
$GPRMC,155838.500,A,4308.2970,N,07726.2639,W,0.18,144.26,120519,,,A*70
lng=-77.437728, lat=43.138282, altitude=145.70, speed=0.17, satellites=10, angle=136.1900, fixquality=1
$GPGGA,155843.500,4308.2972,N,07726.2637,W,1,10,0.89,145.7,M,-34.4,M,,*59
$GPRMC,155843.500,A,4308.2972,N,07726.2637,W,0.87,15.16,120519,,,A*40
lng=-77.437728, lat=43.138290, altitude=145.70, speed=0.70, satellites=10, angle=11.0600, fixquality=1
$GPGGA,155843.750,4308.2974,N,07726.2637,W,1,10,0.84,145.6,M,-34.4,M,,*54
$GPRMC,155843.750,A,4308.2974,N,07726.2637,W,0.99,13.36,120519,,,A*4A
lng=-77.437728, lat=43.138290, altitude=145.60, speed=0.87, satellites=10, angle=15.1600, fixquality=1
$GPGGA,155844.000,4308.2978,N,07726.2636,W,1,10,0.89,145.6,M,-34.4,M,,*51
$GPRMC,155844.000,A,4308.2978,N,07726.2636,W,1.22,12.81,120519,,,A*4E
lng=-77.437728, lat=43.138298, altitude=145.60, speed=0.99, satellites=10, angle=13.3600, fixquality=1
$GPGGA,155844.250,4308.2981,N,07726.2636,W,1,10,0.89,145.6,M,-34.4,M,,*50
$GPRMC,155844.250,A,4308.2981,N,07726.2636,W,1.46,11.57,120519,$GPGGA,155844.500,4308.2983,N,07726.2636,W,1,10,0.89,145.6,M,-34.4,M,,*50
lng=-77.437728, lat=43.138305, altitude=145.60, speed=1.22, satellites=10, angle=12.8100, fixquality=1
$GPRMC,155844.750,A,4308.2985,N,07726.2635,W,2.29,7.16,120519,,,A*7F
$GPGGA,155845.000,4308.2987,N,07726.2635,W,1,10,0.89,145.6,M,-34.4,M,,*53
lng=-77.437728, lat=43.138305, altitude=145.60, speed=2.29, satellites=10, angle=7.1600, fixquality=1
$GPRMC,155845.250,A,4308.2989,N,07726.2635,W,2.79,4.69,120519,,,A*79
$GPGGA,155845.500,4308.2991,N,07726.2634,W,1,10,0.89,145.6,M,-34.4,M,,*50
lng=-77.437728, lat=43.138313, altitude=145.60, speed=2.79, satellites=10, angle=4.6900, fixquality=1
$GPRMC,155845.750,A,4308.2993,N,07726.2634,W,2.97,4.86,120519,,,A*77
$GPGGA,155846.000,4308.2996,N,07726.2633,W,1,10,0.89,145.6,M,-34.4,M,,*56
lng=-77.437721, lat=43.138320, altitude=145.60, speed=2.97, satellites=10, angle=4.8600, fixquality=1
$GPRMC,155846.250,A,4308.2998,N,07726.2632,W,2.94,11.58,120519,,,A*48
$GPGGA,155846.500,4308.3001,N,07726.2632,W,1,10,0.89,145.6,M,-34.4,M,,*54
lng=-77.437721, lat=43.138328, altitude=145.60, speed=2.94, satellites=10, angle=11.5800, fixquality=1
$GPRMC,155846.750,A,4308.3004,N,07726.2631,W,3.06,14.49,120519,,,A*4C
$GPGGA,155847.000,4308.3007,N,07726.2630,W,1,10,0.89,145.6,M,-34.4,M,,*54
lng=-77.437721, lat=43.138339, altitude=145.60, speed=3.06, satellites=10, angle=14.4900, fixquality=1
$GPRMC,155847.250,A,4308.3010,N,07726.2629,W,3.92,13.42,120519,,,A*45
$GPGGA,155847.500,4308.3014,N,07726.2628,W,1,10,0.89,145.5,M,-34.4,M,,*59
lng=-77.437713, lat=43.138347, altitude=145.60, speed=3.92, satellites=10, angle=13.4200, fixquality=1
$GPRMC,155847.750,A,4308.3018,N,07726.2627,W,4.40,9.68,120519,,,A*7D
$GPGGA,155848.000,4308.3023,N,07726.2626,W,1,10,0.89,145.5,M,-34.4,M,,*59
lng=-77.437713, lat=43.138362, altitude=145.50, speed=4.40, satellites=10, angle=9.6800, fixquality=1
$GPRMC,155848.250,A,4308.3027,N,07726.2625,W,4.92,9.49,120519,,,A*75
$GPGGA,155848.500,4308.3032,N,07726.2624,W,1,10,0.89,145.3,M,-34.4,M,,*58
lng=-77.437713, lat=43.138378, altitude=145.50, speed=4.92, satellites=10, angle=9.4900, fixquality=1
$GPRMC,155848.750,A,4308.3037,N,07726.2623,W,5.23,11.74,120519,,,A*4B
$GPGGA,155849.000,4308.3042,N,07726.2622,W,1,10,0.89,145.1,M,-34.4,M,,*5F
lng=-77.437705, lat=43.138393, altitude=145.30, speed=5.23, satellites=10, angle=11.7400, fixquality=1
$GPRMC,155849.250,A,4308.3047,N,07726.2621,W,5.74,9.30,120519,,,A*71
$GPGGA,155849.500,4308.3051,N,07726.2621,W,1,10,0.89,145.0,M,-34.4,M,,*5A
lng=-77.437705, lat=43.138412, altitude=145.10, speed=5.74, satellites=10, angle=9.3000, fixquality=1
$GPRMC,155849.750,A,4308.3056,N,07726.2620,W,5.81,7.11,120519,,,A*72
$GPGGA,155850.000,4308.3061,N,07726.2619,W,1,10,0.89,145.0,M,-34.4,M,,*5F
lng=-77.437705, lat=43.138427, altitude=145.00, speed=5.81, satellites=10, angle=7.1100, fixquality=1
$GPRMC,155850.250,A,4308.3065,N,07726.2618,W,5.77,8.74,120519,,,A*71
$GPGGA,155850.500,4308.3070,N,07726.2617,W,1,10,0.89,145.1,M,-34.4,M,,*55
lng=-77.437698, lat=43.138442, altitude=145.00, speed=5.77, satellites=10, angle=8.7400, fixquality=1
$GPRMC,155850.750,A,4308.3074,N,07726.2616,W,5.75,7.33,120519,,,A*74
$GPGGA,155851.000,4308.3079,N,07726.2615,W,1,10,0.89,145.2,M,-34.4,M,,*59
lng=-77.437698, lat=43.138462, altitude=145.10, speed=5.75, satellites=10, angle=7.3300, fixquality=1
$GPRMC,155851.250,A,4308.3083,N,07726.2614,W,5.75,8.53,120519,,,A*73
$GPGGA,155851.500,4308.3087,N,07726.2613,W,1,10,0.89,145.3,M,-34.4,M,,*5A
lng=-77.437690, lat=43.138469, altitude=145.20, speed=5.75, satellites=10, angle=8.5300, fixquality=1
$GPRMC,155851.750,A,4308.3092,N,07726.2612,W,5.89,9.24,120519,,,A*72
$GPGGA,155852.000,4308.3096,N,07726.2611,W,1,10,0.89,145.5,M,-34.4,M,,*58
lng=-77.437690, lat=43.138484, altitude=145.30, speed=5.89, satellites=10, angle=9.2400, fixquality=1
$GPRMC,155852.250,A,4308.3100,N,07726.2611,W,5.35,8.58,120519,,,A*70
$GPGGA,155852.500,4308.3103,N,07726.2610,W,1,10,0.89,145.6,M,-34.4,M,,*52
lng=-77.437690, lat=43.138500, altitude=145.50, speed=5.35, satellites=10, angle=8.5800, fixquality=1
$GPRMC,155852.750,A,4308.3106,N,07726.2609,W,4.64,8.54,120519,,,A*73
$GPGGA,155853.000,4308.3109,N,07726.2608,W,1,10,0.89,145.7,M,-34.4,M,,*54
lng=-77.437675, lat=43.138507, altitude=145.60, speed=4.64, satellites=10, angle=8.5400, fixquality=1
$GPRMC,155853.250,A,4308.3111,N,07726.2607,W,3.41,9.96,120519,,,A*70
$GPGGA,155853.500,4308.3113,N,07726.2607,W,1,10,0.89,145.7,M,-34.4,M,,*55
lng=-77.437675, lat=43.138515, altitude=145.70, speed=3.41, satellites=10, angle=9.9600, fixquality=1
$GPRMC,155853.750,A,4308.3116,N,07726.2607,W,2.81,7.68,120519,,,A*70
$GPGGA,155854.000,4308.3118,N,07726.2606,W,1,10,0.89,145.9,M,-34.4,M,,*53
lng=-77.437675, lat=43.138526, altitude=145.70, speed=2.81, satellites=10, angle=7.6800, fixquality=1
$GPRMC,155854.250,A,4308.3119,N,07726.2606,W,2.34,7.15,120519,,,A*78
$GPGGA,155854.500,4308.3121,N,07726.2606,W,1,10,0.89,145.9,M,-34.4,M,,*5C
lng=-77.437675, lat=43.138534, altitude=145.90, speed=2.34, satellites=10, angle=7.1500, fixquality=1
$GPRMC,155854.750,A,4308.3122,N,07726.2605,W,2.22,7.99,120519,,,A*75
$GPGGA,155855.000,4308.3124,N,07726.2605,W,1,10,0.89,146.0,M,-34.4,M,,*54
lng=-77.437675, lat=43.138534, altitude=145.90, speed=2.22, satellites=10, angle=7.9900, fixquality=1
$GPRMC,155855.250,A,4308.3126,N,07726.2604,W,2.66,20.87,120519,,,A*4E
$GPGGA,155855.500,4308.3128,N,07726.2603,W,1,10,0.84,146.1,M,-34.4,M,,*57
lng=-77.437667, lat=43.138542, altitude=146.00, speed=2.66, satellites=10, angle=20.8700, fixquality=1
$GPRMC,155855.750,A,4308.3130,N,07726.2602,W,3.14,28.49,120519,,,A*44
$GPGGA,155856.000,4308.3132,N,07726.2600,W,1,10,0.84,146.0,M,-34.4,M,,*58
lng=-77.437667, lat=43.138549, altitude=146.10, speed=3.14, satellites=10, angle=28.4900, fixquality=1
$GPRMC,155856.250,A,4308.3134,N,07726.2599,W,3.14,36.32,120519,,,A*44
$GPGGA,155856.500,4308.3136,N,07726.2597,W,1,09,0.92,146.2,M,-34.4,M,,*59
lng=-77.437660, lat=43.138557, altitude=146.00, speed=3.14, satellites=10, angle=36.3200, fixquality=1
$GPRMC,155856.750,A,4308.3138,N,07726.2596,W,2.92,44.61,120519,,,A*4E
$GPGGA,155857.000,4308.3139,N,07726.2594,W,1,10,0.84,146.3,M,-34.4,M,,*5F
lng=-77.437660, lat=43.138565, altitude=146.20, speed=2.92, satellites=9, angle=44.6100, fixquality=1
$GPRMC,155857.250,A,4308.3140,N,07726.2592,W,3.23,55.90,120519,,,A*44
$GPGGA,155857.500,4308.3141,N,07726.2589,W,1,09,0.92,146.5,M,-34.4,M,,*50
lng=-77.437652, lat=43.138565, altitude=146.30, speed=3.23, satellites=10, angle=55.9000, fixquality=1
$GPRMC,155857.750,A,4308.3142,N,07726.2587,W,3.27,64.45,120519,,,A*49
$GPGGA,155858.000,4308.3143,N,07726.2584,W,1,10,0.85,146.6,M,-34.4,M,,*58
lng=-77.437644, lat=43.138565, altitude=146.50, speed=3.27, satellites=9, angle=64.4500, fixquality=1
$GPRMC,155858.250,A,4308.3144,N,07726.2582,W,2.77,75.09,120519,,,A*4C
$GPGGA,155858.500,4308.3144,N,07726.2580,W,1,10,0.84,146.7,M,-34.4,M,,*5E
lng=-77.437637, lat=43.138572, altitude=146.60, speed=2.77, satellites=10, angle=75.0900, fixquality=1
$GPRMC,155858.750,A,4308.3144,N,07726.2578,W,2.33,79.72,120519,,,A*4C
$GPGGA,155859.000,4308.3144,N,07726.2577,W,1,09,0.92,146.9,M,-34.4,M,,*53
lng=-77.437629, lat=43.138572, altitude=146.70, speed=2.33, satellites=10, angle=79.7200, fixquality=1
$GPRMC,155859.250,A,4308.3144,N,07726.2575,W,1.61,85.16,120519,,,A*40
$GPGGA,155859.500,4308.3144,N,07726.2575,W,1,10,0.85,147.0,M,-34.4,M,,*52
lng=-77.437622, lat=43.138572, altitude=146.90, speed=1.61, satellites=9, angle=85.1600, fixquality=1
$GPGGA,155900.000,4308.3144,N,07726.2577,W,1,09,0.92,147.1,M,-34.4,M,,*57
$GPRMC,155900.000,A,4308.3144,N,07726.2577,W,0.31,277.68,120519
lng=-77.437629, lat=43.138572, altitude=147.10, speed=0.25, satellites=9, angle=64.2400, fixquality=1
$GPRMC,155900.250,A,4308.3145,N,07726.2579,W,0.79,274.97,120519,,,A*7D
$GPGGA,155900.500,4308.3145,N,07726.2582,W,1,09,0.92,147.2,M,-34.4,M,,*5A
lng=-77.437629, lat=43.138572, altitude=147.10, speed=0.79, satellites=9, angle=274.9700, fixquality=1
$GPRMC,155900.750,A,4308.3145,N,07726.2585,W,1.74,270.02,120519,,,A*7F
$GPGGA,155901.000,4308.3145,N,07726.2589,W,1,10,0.85,147.2,M,-34.4,M,,*5B
lng=-77.437637, lat=43.138572, altitude=147.20, speed=1.74, satellites=9, angle=270.0200, fixquality=1
$GPRMC,155901.250,A,4308.3145,N,07726.2594,W,4.53,269.75,120519,,,A*73
$GPGGA,155901.500,4308.3145,N,07726.2600,W,1,10,0.89,147.2,M,-34.4,M,,*50
lng=-77.437652, lat=43.138572, altitude=147.20, speed=4.53, satellites=10, angle=269.7500, fixquality=1
$GPRMC,155901.750,A,4308.3145,N,07726.2607,W,6.34,267.46,120519,,,A*72
$GPGGA,155902.000,4308.3145,N,07726.2614,W,1,10,0.89,147.1,M,-34.4,M,,*50
lng=-77.437675, lat=43.138572, altitude=147.20, speed=6.34, satellites=10, angle=267.4600, fixquality=1
$GPRMC,155902.250,A,4308.3146,N,07726.2623,W,8.23,270.19,120519,,,A*75
$GPGGA,155902.500,4308.3146,N,07726.2633,W,1,10,0.89,147.0,M,-34.4,M,,*52
lng=-77.437705, lat=43.138572, altitude=147.10, speed=8.23, satellites=10, angle=270.1900, fixquality=1
$GPRMC,155902.750,A,4308.3147,N,07726.2642,W,9.49,274.35,120519,,,A*71
$GPGGA,155903.000,4308.3148,N,07726.2653,W,1,10,0.89,146.9,M,-34.4,M,,*56
lng=-77.437736, lat=43.138584, altitude=147.00, speed=9.49, satellites=10, angle=274.3500, fixquality=1
$GPRMC,155903.250,A,4308.3150,N,07726.2665,W,11.64,281.69,120519,,,A*43
$GPGGA,155903.500,4308.3151,N,07726.2678,W,1,10,0.89,146.7,M,-34.4,M,,*5C
lng=-77.437774, lat=43.138584, altitude=146.90, speed=11.64, satellites=10, angle=281.6900, fixquality=1
$GPRMC,155903.750,A,4308.3153,N,07726.2691,W,12.81,283.71,120519,,,A*4D
$GPGGA,155904.000,4308.3155,N,07726.2705,W,1,10,0.89,146.7,M,-34.4,M,,*51
lng=-77.437820, lat=43.138591, altitude=146.70, speed=12.81, satellites=10, angle=283.7100, fixquality=1
$GPRMC,155904.250,A,4308.3158,N,07726.2717,W,13.81,286.45,120519,,,A*48
$GPGGA,155904.500,4308.3160,N,07726.2731,W,1,10,0.89,146.6,M,-34.4,M,,*54
lng=-77.437858, lat=43.138599, altitude=146.70, speed=13.81, satellites=10, angle=286.4500, fixquality=1
$GPRMC,155904.750,A,4308.3163,N,07726.2743,W,14.21,287.36,120519,,,A*4C
$GPGGA,155905.000,4308.3165,N,07726.2756,W,1,10,0.89,146.6,M,-34.4,M,,*54
lng=-77.437904, lat=43.138607, altitude=146.60, speed=14.21, satellites=10, angle=287.3600, fixquality=1
$GPRMC,155905.250,A,4308.3168,N,07726.2768,W,14.48,288.30,120519,,,A*4C
$GPGGA,155905.500,4308.3171,N,07726.2781,W,1,10,0.89,146.5,M,-34.4,M,,*5D
lng=-77.437950, lat=43.138614, altitude=146.60, speed=14.48, satellites=10, angle=288.3000, fixquality=1
$GPRMC,155905.750,A,4308.3174,N,07726.2794,W,14.72,288.99,120519,,,A*4D
$GPGGA,155906.000,4308.3176,N,07726.2806,W,1,10,0.89,146.6,M,-34.4,M,,*5F
lng=-77.437988, lat=43.138622, altitude=146.50, speed=14.72, satellites=10, angle=288.9900, fixquality=1
$GPRMC,155906.250,A,4308.3180,N,07726.2819,W,15.32,291.21,120519,,,A*44
$GPGGA,155906.500,4308.3183,N,07726.2832,W,1,10,0.89,146.6,M,-34.4,M,,*57
lng=-77.438026, lat=43.138629, altitude=146.60, speed=15.32, satellites=10, angle=291.2100, fixquality=1
$GPRMC,155906.750,A,4308.3188,N,07726.2845,W,15.77,294.14,120519,,,A*42
$GPGGA,155907.000,4308.3192,N,07726.2859,W,1,10,0.89,146.5,M,-34.4,M,,*5D
lng=-77.438079, lat=43.138648, altitude=146.60, speed=15.77, satellites=10, angle=294.1400, fixquality=1
$GPRMC,155907.250,A,4308.3198,N,07726.2873,W,16.67,295.50,120519,,,A*41
$GPGGA,155907.500,4308.3203,N,07726.2888,W,1,10,0.89,146.4,M,-34.4,M,,*5E
lng=-77.438117, lat=43.138664, altitude=146.50, speed=16.67, satellites=10, angle=295.5000, fixquality=1
$GPRMC,155907.750,A,4308.3209,N,07726.2903,W,17.63,296.16,120519,,,A*4D
$GPGGA,155908.000,4308.3215,N,07726.2920,W,1,10,0.89,146.2,M,-34.4,M,,*56
lng=-77.438179, lat=43.138679, altitude=146.40, speed=17.63, satellites=10, angle=296.1600, fixquality=1
$GPRMC,155908.250,A,4308.3222,N,07726.2936,W,18.69,297.25,120519,,,A*4C
$GPGGA,155908.500,4308.3229,N,07726.2953,W,1,10,0.89,146.1,M,-34.4,M,,*5B
lng=-77.438224, lat=43.138706, altitude=146.20, speed=18.69, satellites=10, angle=297.2500, fixquality=1
$GPRMC,155908.750,A,4308.3236,N,07726.2970,W,19.32,298.37,120519,,,A*4D
$GPGGA,155909.000,4308.3244,N,07726.2988,W,1,10,0.89,146.0,M,-34.4,M,,*53
lng=-77.438278, lat=43.138729, altitude=146.10, speed=19.32, satellites=10, angle=298.3700, fixquality=1
$GPRMC,155909.250,A,4308.3251,N,07726.3005,W,20.13,299.49,120519,,,A*43
$GPGGA,155909.500,4308.3258,N,07726.3023,W,1,10,0.89,146.1,M,-34.4,M,,*53
lng=-77.438339, lat=43.138751, altitude=146.00, speed=20.13, satellites=10, angle=299.4900, fixquality=1
$GPRMC,155909.750,A,4308.3266,N,07726.3040,W,20.62,300.83,120519,,,A*42
$GPGGA,155910.000,4308.3273,N,07726.3058,W,1,10,0.89,146.2,M,-34.4,M,,*58
lng=-77.438400, lat=43.138778, altitude=146.10, speed=20.62, satellites=10, angle=300.8300, fixquality=1
$GPRMC,155910.250,A,4308.3281,N,07726.3076,W,21.25,301.34,120519,,,A*4C
$GPGGA,155910.500,4308.3289,N,07726.3095,W,1,10,0.89,146.5,M,-34.4,M,,*5E
lng=-77.438461, lat=43.138801, altitude=146.20, speed=21.25, satellites=10, angle=301.3400, fixquality=1
$GPRMC,155910.750,A,4308.3296,N,07726.3113,W,21.60,301.35,120519,,,A*4D
$GPGGA,155911.000,4308.3305,N,07726.3131,W,1,10,0.89,146.7,M,-34.4,M,,*52
lng=-77.438522, lat=43.138828, altitude=146.50, speed=21.60, satellites=10, angle=301.3500, fixquality=1
$GPRMC,155911.250,A,4308.3313,N,07726.3149,W,22.10,302.55,120519,,,A*4B
$GPGGA,155911.500,4308.3321,N,07726.3167,W,1,10,0.89,146.8,M,-34.4,M,,*5D
lng=-77.438583, lat=43.138858, altitude=146.70, speed=22.10, satellites=10, angle=302.5500, fixquality=1
$GPRMC,155911.750,A,4308.3330,N,07726.3186,W,22.59,303.13,120519,,,A*42
$GPGGA,155912.000,4308.3339,N,07726.3205,W,1,10,0.89,146.8,M,-34.4,M,,*55
lng=-77.438636, lat=43.138881, altitude=146.80, speed=22.59, satellites=10, angle=303.1300, fixquality=1
$GPRMC,155912.250,A,4308.3349,N,07726.3223,W,23.03,303.73,120519,,,A*4E
$GPGGA,155912.500,4308.3358,N,07726.3242,W,1,10,0.89,146.8,M,-34.4,M,,*54
lng=-77.438705, lat=43.138916, altitude=146.80, speed=23.03, satellites=10, angle=303.7300, fixquality=1
$GPRMC,155912.750,A,4308.3368,N,07726.3260,W,23.43,304.24,120519,,,A*4E
$GPGGA,155913.000,4308.3377,N,07726.3279,W,1,10,0.89,146.7,M,-34.4,M,,*5A
lng=-77.438766, lat=43.138950, altitude=146.80, speed=23.43, satellites=10, angle=304.2400, fixquality=1
$GPRMC,155913.250,A,4308.3387,N,07726.3298,W,23.70,304.18,120519,,,A*43
$GPGGA,155913.500,4308.3397,N,07726.3318,W,1,10,0.89,146.6,M,-34.4,M,,*56
lng=-77.438827, lat=43.138980, altitude=146.70, speed=23.70, satellites=10, angle=304.1800, fixquality=1
$GPRMC,155913.750,A,4308.3407,N,07726.3337,W,23.93,303.59,120519,,,A*42
$GPGGA,155914.000,4308.3416,N,07726.3356,W,1,10,0.89,146.6,M,-34.4,M,,*50
lng=-77.438888, lat=43.139015, altitude=146.60, speed=23.93, satellites=10, angle=303.5900, fixquality=1
$GPRMC,155914.250,A,4308.3425,N,07726.3375,W,23.90,302.78,120519,,,A*47
$GPGGA,155914.500,4308.3434,N,07726.3395,W,1,10,0.89,146.6,M,-34.4,M,,*5A
lng=-77.438957, lat=43.139038, altitude=146.60, speed=23.90, satellites=10, angle=302.7800, fixquality=1
$GPRMC,155914.750,A,4308.3444,N,07726.3414,W,24.25,303.32,120519,,,A*43
$GPGGA,155915.000,4308.3454,N,07726.3434,W,1,10,0.89,146.7,M,-34.4,M,,*55
lng=-77.439018, lat=43.139072, altitude=146.60, speed=24.25, satellites=10, angle=303.3200, fixquality=1
$GPRMC,155915.250,A,4308.3463,N,07726.3453,W,24.39,303.87,120519,,,A*42
$GPGGA,155915.500,4308.3473,N,07726.3473,W,1,10,0.89,147.0,M,-34.4,M,,*50
lng=-77.439086, lat=43.139102, altitude=146.70, speed=24.39, satellites=10, angle=303.8700, fixquality=1
$GPRMC,155915.750,A,4308.3483,N,07726.3492,W,24.36,304.21,120519,,,A*40
$GPGGA,155916.000,4308.3493,N,07726.3512,W,1,10,0.89,147.2,M,-34.4,M,,*5C
lng=-77.439155, lat=43.139137, altitude=147.00, speed=24.36, satellites=10, angle=304.2100, fixquality=1
$GPRMC,155916.250,A,4308.3504,N,07726.3532,W,24.94,305.53,120519,,,A*4F
$GPGGA,155916.500,4308.3514,N,07726.3552,W,1,10,0.89,147.3,M,-34.4,M,,*52
lng=-77.439216, lat=43.139175, altitude=147.20, speed=24.94, satellites=10, angle=305.5300, fixquality=1
$GPRMC,155916.750,A,4308.3526,N,07726.3572,W,25.12,308.09,120519,,,A*43
$GPGGA,155917.000,4308.3538,N,07726.3590,W,1,09,0.97,147.5,M,-34.4,M,,*57
lng=-77.439292, lat=43.139209, altitude=147.30, speed=25.12, satellites=10, angle=308.0900, fixquality=1
$GPRMC,155917.250,A,4308.3550,N,07726.3608,W,25.18,311.77,120519,,,A*43
$GPGGA,155917.500,4308.3562,N,07726.3626,W,1,09,0.97,147.5,M,-34.4,M,,*53
lng=-77.439346, lat=43.139247, altitude=147.50, speed=25.18, satellites=9, angle=311.7700, fixquality=1
$GPRMC,155917.750,A,4308.3575,N,07726.3643,W,25.24,315.49,120519,,,A*48
$GPGGA,155918.000,4308.3587,N,07726.3659,W,1,10,0.89,147.4,M,-34.4,M,,*5C
lng=-77.439407, lat=43.139289, altitude=147.50, speed=25.24, satellites=9, angle=315.4900, fixquality=1
$GPRMC,155918.250,A,4308.3600,N,07726.3674,W,25.47,319.70,120519,,,A*44
$GPGGA,155918.500,4308.3614,N,07726.3689,W,1,09,0.97,147.0,M,-34.4,M,,*5E
lng=-77.439453, lat=43.139331, altitude=147.40, speed=25.47, satellites=10, angle=319.7000, fixquality=1
$GPRMC,155918.750,A,4308.3628,N,07726.3703,W,25.81,323.92,120519,,,A*45
$GPGGA,155919.000,4308.3643,N,07726.3716,W,1,10,0.89,146.8,M,-34.4,M,,*51
lng=-77.439498, lat=43.139381, altitude=147.00, speed=25.81, satellites=9, angle=323.9200, fixquality=1
$GPRMC,155919.250,A,4308.3659,N,07726.3727,W,25.93,331.76,120519,,,A*4B
$GPGGA,155919.500,4308.3675,N,07726.3737,W,1,10,0.89,146.9,M,-34.4,M,,*53
lng=-77.439544, lat=43.139427, altitude=146.80, speed=25.93, satellites=10, angle=331.7600, fixquality=1
$GPRMC,155919.750,A,4308.3692,N,07726.3747,W,26.51,336.71,120519,,,A*42
$GPGGA,155920.000,4308.3709,N,07726.3756,W,1,09,0.97,147.1,M,-34.4,M,,*5F
lng=-77.439575, lat=43.139484, altitude=146.90, speed=26.51, satellites=10, angle=336.7100, fixquality=1
$GPRMC,155920.250,A,4308.3727,N,07726.3763,W,26.74,343.17,120519,,,A*41
$GPGGA,155920.500,4308.3745,N,07726.3770,W,1,09,0.97,147.3,M,-34.4,M,,*54
lng=-77.439605, lat=43.139541, altitude=147.10, speed=26.74, satellites=9, angle=343.1700, fixquality=1
$GPRMC,155920.750,A,4308.3763,N,07726.3775,W,27.02,348.55,120519,,,A*4E
$GPGGA,155921.000,4308.3782,N,07726.3779,W,1,10,0.89,147.5,M,-34.4,M,,*53
lng=-77.439620, lat=43.139606, altitude=147.30, speed=27.02, satellites=9, angle=348.5500, fixquality=1
$GPRMC,155921.250,A,4308.3801,N,07726.3782,W,27.70,352.46,120519,,,A*45
$GPGGA,155921.500,4308.3821,N,07726.3785,W,1,10,0.89,147.8,M,-34.4,M,,*5E
lng=-77.439643, lat=43.139663, altitude=147.50, speed=27.70, satellites=10, angle=352.4600, fixquality=1
$GPRMC,155921.750,A,4308.3840,N,07726.3787,W,27.64,356.24,120519,,,A*45
$GPGGA,155922.000,4308.3860,N,07726.3787,W,1,09,0.97,148.1,M,-34.4,M,,*5E
lng=-77.439651, lat=43.139728, altitude=147.80, speed=27.64, satellites=10, angle=356.2400, fixquality=1
$GPRMC,155922.250,A,4308.3879,N,07726.3787,W,27.48,1.14,120519,,,A*45
$GPGGA,155922.500,4308.3899,N,07726.3785,W,1,09,0.97,148.3,M,-34.4,M,,*5D
lng=-77.439651, lat=43.139793, altitude=148.10, speed=27.48, satellites=9, angle=1.1400, fixquality=1
$GPRMC,155922.750,A,4308.3919,N,07726.3783,W,27.50,5.79,120519,,,A*45
$GPGGA,155923.000,4308.3938,N,07726.3780,W,1,09,0.97,148.5,M,-34.4,M,,*50
lng=-77.439643, lat=43.139869, altitude=148.30, speed=27.50, satellites=9, angle=5.7900, fixquality=1
$GPRMC,155923.250,A,4308.3958,N,07726.3777,W,27.56,8.65,120519,,,A*49
$GPGGA,155923.500,4308.3978,N,07726.3773,W,1,09,0.97,148.7,M,-34.4,M,,*5F
lng=-77.439628, lat=43.139934, altitude=148.50, speed=27.56, satellites=9, angle=8.6500, fixquality=1
$GPRMC,155923.750,A,4308.3998,N,07726.3769,W,28.47,10.72,120519,,,A*7F
$GPGGA,155924.000,4308.4018,N,07726.3764,W,1,09,0.97,148.8,M,-34.4,M,,*5C
lng=-77.439613, lat=43.139999, altitude=148.70, speed=28.47, satellites=9, angle=10.7200, fixquality=1
$GPRMC,155924.250,A,4308.4038,N,07726.3759,W,28.56,11.31,120519,,,A*7C
$GPGGA,155924.500,4308.4058,N,07726.3753,W,1,09,0.97,149.3,M,-34.4,M,,*53
lng=-77.439598, lat=43.140064, altitude=148.80, speed=28.56, satellites=9, angle=11.3100, fixquality=1
$GPRMC,155924.750,A,4308.4078,N,07726.3747,W,29.30,11.19,120519,,,A*79
$GPGGA,155925.000,4308.4098,N,07726.3742,W,1,09,0.97,149.6,M,-34.4,M,,*5E
lng=-77.439575, lat=43.140129, altitude=149.30, speed=29.30, satellites=9, angle=11.1900, fixquality=1
$GPRMC,155925.250,A,4308.4118,N,07726.3736,W,29.59,10.93,120519,,,A*70
$GPGGA,155925.500,4308.4139,N,07726.3731,W,1,09,0.97,149.9,M,-34.4,M,,*5A
lng=-77.439559, lat=43.140193, altitude=149.60, speed=29.59, satellites=9, angle=10.9300, fixquality=1
$GPRMC,155925.750,A,4308.4159,N,07726.3726,W,29.71,10.58,120519,,,A*7C
$GPGGA,155926.000,4308.4179,N,07726.3720,W,1,09,0.97,150.1,M,-34.4,M,,*58
lng=-77.439544, lat=43.140266, altitude=149.90, speed=29.71, satellites=9, angle=10.5800, fixquality=1
$GPRMC,155926.250,A,4308.4199,N,07726.3715,W,29.60,10.43,120519,,,A*7C
$GPGGA,155926.500,4308.4218,N,07726.3710,W,1,09,0.97,150.3,M,-34.4,M,,*58
lng=-77.439529, lat=43.140331, altitude=150.10, speed=29.60, satellites=9, angle=10.4300, fixquality=1
$GPRMC,155926.750,A,4308.4238,N,07726.3706,W,28.03,10.29,120519,,,A*7B
$GPGGA,155927.000,4308.4257,N,07726.3701,W,1,09,0.97,150.5,M,-34.4,M,,*51
lng=-77.439506, lat=43.140396, altitude=150.30, speed=28.03, satellites=9, angle=10.2900, fixquality=1
$GPRMC,155927.250,A,4308.4277,N,07726.3697,W,27.67,9.97,120519,,,A*4D
$GPGGA,155927.500,4308.4296,N,07726.3692,W,1,09,0.97,150.6,M,-34.4,M,,*51
lng=-77.439491, lat=43.140460, altitude=150.50, speed=27.67, satellites=9, angle=9.9700, fixquality=1
$GPRMC,155927.750,A,4308.4314,N,07726.3688,W,26.84,9.80,120519,,,A*48
$GPGGA,155928.000,4308.4333,N,07726.3683,W,1,09,0.97,150.7,M,-34.4,M,,*54
lng=-77.439476, lat=43.140525, altitude=150.60, speed=26.84, satellites=9, angle=9.8000, fixquality=1
$GPRMC,155928.250,A,4308.4351,N,07726.3679,W,26.30,9.63,120519,,,A*4F
$GPGGA,155928.500,4308.4370,N,07726.3675,W,1,09,0.97,150.6,M,-34.4,M,,*5E
lng=-77.439460, lat=43.140583, altitude=150.70, speed=26.30, satellites=9, angle=9.6300, fixquality=1
$GPRMC,155928.750,A,4308.4388,N,07726.3671,W,25.37,9.51,120519,,,A*43
$GPGGA,155929.000,4308.4405,N,07726.3667,W,1,09,0.97,150.7,M,-34.4,M,,*5D
lng=-77.439453, lat=43.140647, altitude=150.60, speed=25.37, satellites=9, angle=9.5100, fixquality=1
$GPRMC,155929.250,A,4308.4422,N,07726.3663,W,23.16,9.62,120519,,,A*46
$GPGGA,155929.500,4308.4437,N,07726.3660,W,1,09,0.97,150.9,M,-34.4,M,,*50
lng=-77.439437, lat=43.140705, altitude=150.70, speed=23.16, satellites=9, angle=9.6200, fixquality=1
$GPRMC,155929.750,A,4308.4452,N,07726.3657,W,20.42,9.53,120519,,,A*43
$GPGGA,155930.000,4308.4465,N,07726.3654,W,1,09,0.97,150.9,M,-34.4,M,,*5D
lng=-77.439430, lat=43.140754, altitude=150.90, speed=20.42, satellites=9, angle=9.5300, fixquality=1
$GPRMC,155930.250,A,4308.4478,N,07726.3652,W,17.07,9.29,120519,,,A*4B
$GPGGA,155930.500,4308.4489,N,07726.3649,W,1,09,0.97,150.8,M,-34.4,M,,*57
lng=-77.439422, lat=43.140796, altitude=150.90, speed=17.07, satellites=9, angle=9.2900, fixquality=1
$GPRMC,155930.750,A,4308.4499,N,07726.3647,W,13.41,9.98,120519,,,A*49
$GPGGA,155931.000,4308.4508,N,07726.3645,W,1,09,0.97,150.8,M,-34.4,M,,*57
lng=-77.439414, lat=43.140827, altitude=150.80, speed=13.41, satellites=9, angle=9.9800, fixquality=1
$GPRMC,155931.250,A,4308.4515,N,07726.3643,W,10.02,10.17,120519,,,A*77
$GPGGA,155931.500,4308.4522,N,07726.3642,W,1,10,0.89,150.6,M,-34.4,M,,*54
lng=-77.439407, lat=43.140861, altitude=150.80, speed=10.02, satellites=9, angle=10.1700, fixquality=1
$GPRMC,155931.750,A,4308.4528,N,07726.3642,W,6.72,10.00,120519,,,A*4B
$GPGGA,155932.000,4308.4532,N,07726.3640,W,1,09,0.97,150.6,M,-34.4,M,,*56
lng=-77.439407, lat=43.140876, altitude=150.60, speed=6.72, satellites=10, angle=10.0000, fixquality=1
$GPRMC,155932.250,A,4308.4535,N,07726.3639,W,4.14,10.83,120519,,,A*44
$GPGGA,155932.500,4308.4537,N,07726.3638,W,1,10,0.89,150.8,M,-34.4,M,,*50
lng=-77.439399, lat=43.140892, altitude=150.60, speed=4.14, satellites=9, angle=10.8300, fixquality=1
$GPRMC,155932.750,A,4308.4539,N,07726.3638,W,2.40,12.87,120519,,,A*4D
$GPGGA,155933.000,4308.4541,N,07726.3637,W,1,09,0.97,150.9,M,-34.4,M,,*5C
lng=-77.439399, lat=43.140903, altitude=150.80, speed=2.40, satellites=10, angle=12.8700, fixquality=1
$GPRMC,155933.250,A,4308.4542,N,07726.3638,W,0.94,12.87,120519,,,A*4E
$GPGGA,155933.500,4308.4543,N,07726.3637,W,1,09,0.97,151.1,M,-34.4,M,,*52
lng=-77.439399, lat=43.140903, altitude=150.90, speed=0.94, satellites=9, angle=12.8700, fixquality=1
$GPRMC,155938.000,A,4308.4543,N,07726.3639,W,4.23,6.39,120519,,,A*7A
$GPGGA,155938.250,4308.4547,N,07726.3639,W,1,09,0.97,150.7,M,-34.4,M,,*56
lng=-77.439399, lat=43.140903, altitude=150.70, speed=4.23, satellites=9, angle=6.3900, fixquality=1
$GPRMC,155938.500,A,4308.4552,N,07726.3638,W,6.68,358.14,120519,,,A*74
$GPGGA,155938.750,4308.4558,N,07726.3639,W,1,09,0.97,150.7,M,-34.4,M,,*5D
lng=-77.439399, lat=43.140918, altitude=150.70, speed=6.68, satellites=9, angle=358.1400, fixquality=1
$GPRMC,155939.000,A,4308.4563,N,07726.3639,W,8.11,350.17,120519,,,A*78
$GPGGA,155939.250,4308.4569,N,07726.3640,W,1,10,0.89,150.8,M,-34.4,M,,*5D
lng=-77.439399, lat=43.140933, altitude=150.70, speed=8.11, satellites=9, angle=350.1700, fixquality=1
$GPRMC,155939.500,A,4308.4574,N,07726.3642,W,9.33,338.76,120519,,,A*7F
$GPGGA,155939.750,4308.4580,N,07726.3644,W,1,09,0.97,151.0,M,-34.4,M,,*55
lng=-77.439407, lat=43.140956, altitude=150.80, speed=9.33, satellites=10, angle=338.7600, fixquality=1
$GPRMC,155940.000,A,4308.4586,N,07726.3648,W,10.18,331.17,120519,,,A*4C
$GPGGA,155940.250,4308.4592,N,07726.3654,W,1,10,0.89,150.9,M,-34.4,M,,*53
lng=-77.439414, lat=43.140975, altitude=151.00, speed=10.18, satellites=9, angle=331.1700, fixquality=1
$GPRMC,155940.500,A,4308.4599,N,07726.3661,W,11.66,317.85,120519,,,A*4B
$GPGGA,155940.750,4308.4604,N,07726.3670,W,1,10,0.89,150.6,M,-34.4,M,,*53
lng=-77.439437, lat=43.140998, altitude=150.90, speed=11.66, satellites=10, angle=317.8500, fixquality=1
$GPRMC,155941.000,A,4308.4609,N,07726.3680,W,12.07,304.19,120519,,,A*49
$GPGGA,155941.250,4308.4613,N,07726.3690,W,1,10,0.89,150.4,M,-34.4,M,,*5D
lng=-77.439468, lat=43.141014, altitude=150.60, speed=12.07, satellites=10, angle=304.1900, fixquality=1
$GPRMC,155941.500,A,4308.4617,N,07726.3700,W,12.69,297.59,120519,,,A*4D
$GPGGA,155941.750,4308.4622,N,07726.3712,W,1,09,0.92,150.0,M,-34.4,M,,*57
lng=-77.439498, lat=43.141033, altitude=150.40, speed=12.69, satellites=10, angle=297.5900, fixquality=1
$GPRMC,155942.000,A,4308.4625,N,07726.3723,W,12.53,294.51,120519,,,A*49
$GPGGA,155942.250,4308.4628,N,07726.3734,W,1,09,0.97,149.8,M,-34.4,M,,*5A
lng=-77.439537, lat=43.141040, altitude=150.00, speed=12.53, satellites=9, angle=294.5100, fixquality=1
$GPRMC,155942.500,A,4308.4630,N,07726.3745,W,12.22,286.79,120519,,,A*47
$GPGGA,155942.750,4308.4632,N,07726.3757,W,1,09,0.97,149.6,M,-34.4,M,,*5F
lng=-77.439575, lat=43.141048, altitude=149.80, speed=12.22, satellites=9, angle=286.7900, fixquality=1
$GPRMC,155943.000,A,4308.4634,N,07726.3769,W,12.32,280.79,120519,,,A*4E
$GPGGA,155943.250,4308.4635,N,07726.3781,W,1,09,0.97,149.4,M,-34.4,M,,*55
lng=-77.439613, lat=43.141056, altitude=149.60, speed=12.32, satellites=9, angle=280.7900, fixquality=1
$GPRMC,155943.500,A,4308.4637,N,07726.3793,W,12.59,277.28,120519,,,A*4C
$GPGGA,155943.750,4308.4638,N,07726.3805,W,1,09,0.97,149.4,M,-34.4,M,,*5E
lng=-77.439659, lat=43.141063, altitude=149.40, speed=12.59, satellites=9, angle=277.2800, fixquality=1
$GPRMC,155944.000,A,4308.4639,N,07726.3817,W,13.04,276.89,120519,,,A*40
$GPGGA,155944.250,4308.4640,N,07726.3830,W,1,09,0.97,149.3,M,-34.4,M,,*52
lng=-77.439697, lat=43.141063, altitude=149.40, speed=13.04, satellites=9, angle=276.8900, fixquality=1
$GPRMC,155944.500,A,4308.4641,N,07726.3842,W,13.28,275.73,120519,,,A*42
$GPGGA,155944.750,4308.4642,N,07726.3855,W,1,09,0.97,149.2,M,-34.4,M,,*57
lng=-77.439735, lat=43.141063, altitude=149.30, speed=13.28, satellites=9, angle=275.7300, fixquality=1
$GPRMC,155945.000,A,4308.4643,N,07726.3868,W,13.62,276.20,120519,,,A*47
$GPGGA,155945.250,4308.4644,N,07726.3881,W,1,09,0.97,149.1,M,-34.4,M,,*5F
lng=-77.439781, lat=43.141071, altitude=149.20, speed=13.62, satellites=9, angle=276.2000, fixquality=1
$GPRMC,155945.500,A,4308.4646,N,07726.3894,W,13.62,276.47,120519,,,A*45
$GPGGA,155945.750,4308.4649,N,07726.3908,W,1,09,0.97,148.8,M,-34.4,M,,*5F
lng=-77.439819, lat=43.141071, altitude=149.10, speed=13.62, satellites=9, angle=276.4700, fixquality=1
$GPRMC,155946.000,A,4308.4651,N,07726.3921,W,13.45,277.20,120519,,,A*4F
$GPGGA,155946.250,4308.4653,N,07726.3934,W,1,09,0.97,148.5,M,-34.4,M,,*50
lng=-77.439865, lat=43.141090, altitude=148.80, speed=13.45, satellites=9, angle=277.2000, fixquality=1
$GPRMC,155946.500,A,4308.4654,N,07726.3946,W,13.55,276.76,120519,,,A*4D
$GPGGA,155946.750,4308.4656,N,07726.3959,W,1,09,0.92,148.3,M,-34.4,M,,*58
lng=-77.439910, lat=43.141090, altitude=148.50, speed=13.55, satellites=9, angle=276.7600, fixquality=1
$GPRMC,155947.000,A,4308.4657,N,07726.3973,W,13.59,277.08,120519,,,A*48
$GPGGA,155947.250,4308.4658,N,07726.3986,W,1,09,0.97,148.3,M,-34.4,M,,*55
lng=-77.439956, lat=43.141098, altitude=148.30, speed=13.59, satellites=9, angle=277.0800, fixquality=1
$GPRMC,155947.500,A,4308.4660,N,07726.3998,W,13.70,277.08,120519,,,A*47
$GPGGA,155947.750,4308.4661,N,07726.4012,W,1,09,0.92,148.3,M,-34.4,M,,*5C
lng=-77.439994, lat=43.141098, altitude=148.30, speed=13.70, satellites=9, angle=277.0800, fixquality=1
$GPRMC,155948.000,A,4308.4662,N,07726.4024,W,13.77,277.58,120519,,,A*44
$GPGGA,155948.250,4308.4663,N,07726.4037,W,1,09,0.97,148.3,M,-34.4,M,,*56
lng=-77.440040, lat=43.141105, altitude=148.30, speed=13.77, satellites=9, angle=277.5800, fixquality=1
$GPRMC,155948.500,A,4308.4665,N,07726.4048,W,13.27,276.80,120519,,,A*4D
$GPGGA,155948.750,4308.4667,N,07726.4059,W,1,09,0.97,148.3,M,-34.4,M,,*5F
lng=-77.440078, lat=43.141105, altitude=148.30, speed=13.27, satellites=9, angle=276.8000, fixquality=1
$GPRMC,155949.000,A,4308.4669,N,07726.4068,W,12.51,277.06,120519,,,A*48
$GPGGA,155949.250,4308.4670,N,07726.4077,W,1,09,0.97,148.2,M,-34.4,M,,*50
lng=-77.440109, lat=43.141113, altitude=148.30, speed=12.51, satellites=9, angle=277.0600, fixquality=1
$GPRMC,155949.500,A,4308.4672,N,07726.4087,W,11.76,276.95,120519,,,A*4B
$GPGGA,155949.750,4308.4673,N,07726.4097,W,1,09,0.97,148.0,M,-34.4,M,,*5A
lng=-77.440147, lat=43.141120, altitude=148.20, speed=11.76, satellites=9, angle=276.9500, fixquality=1
$GPRMC,155950.000,A,4308.4675,N,07726.4106,W,10.62,277.64,120519,,,A*42
$GPGGA,155950.250,4308.4677,N,07726.4115,W,1,09,0.97,147.8,M,-34.4,M,,*5F
lng=-77.440177, lat=43.141120, altitude=148.00, speed=10.62, satellites=9, angle=277.6400, fixquality=1
$GPRMC,155950.500,A,4308.4678,N,07726.4123,W,9.21,276.55,120519,,,A*71
$GPGGA,155950.750,4308.4679,N,07726.4132,W,1,09,0.97,147.7,M,-34.4,M,,*5E
lng=-77.440200, lat=43.141128, altitude=147.80, speed=9.21, satellites=9, angle=276.5500, fixquality=1
$GPRMC,155951.000,A,4308.4679,N,07726.4140,W,7.93,275.65,120519,,,A*76
$GPGGA,155951.250,4308.4680,N,07726.4146,W,1,09,0.97,147.6,M,-34.4,M,,*5E
lng=-77.440231, lat=43.141128, altitude=147.70, speed=7.93, satellites=9, angle=275.6500, fixquality=1
$GPRMC,155951.500,A,4308.4680,N,07726.4151,W,6.50,273.94,120519,,,A*73
$GPGGA,155951.750,4308.4680,N,07726.4157,W,1,09,0.97,147.5,M,-34.4,M,,*58
lng=-77.440254, lat=43.141128, altitude=147.60, speed=6.50, satellites=9, angle=273.9400, fixquality=1
$GPRMC,155952.000,A,4308.4680,N,07726.4162,W,5.97,274.02,120519,,,A*75
$GPGGA,155952.250,4308.4680,N,07726.4167,W,1,09,0.97,147.6,M,-34.4,M,,*5E
lng=-77.440269, lat=43.141128, altitude=147.50, speed=5.97, satellites=9, angle=274.0200, fixquality=1
$GPRMC,155952.500,A,4308.4680,N,07726.4172,W,5.56,276.27,120519,,,A*79
$GPGGA,155952.750,4308.4680,N,07726.4177,W,1,09,0.97,147.6,M,-34.4,M,,*5A
lng=-77.440284, lat=43.141128, altitude=147.60, speed=5.56, satellites=9, angle=276.2700, fixquality=1
$GPRMC,155953.000,A,4308.4681,N,07726.4182,W,5.73,279.79,120519,,,A*70
$GPGGA,155953.250,4308.4681,N,07726.4187,W,1,09,0.97,147.7,M,-34.4,M,,*51
lng=-77.440299, lat=43.141136, altitude=147.60, speed=5.73, satellites=9, angle=279.7900, fixquality=1
$GPRMC,155953.500,A,4308.4682,N,07726.4192,W,6.62,280.18,120519,,,A*75
$GPGGA,155953.750,4308.4684,N,07726.4198,W,1,09,0.97,147.7,M,-34.4,M,,*5F
lng=-77.440322, lat=43.141136, altitude=147.70, speed=6.62, satellites=9, angle=280.1800, fixquality=1
$GPRMC,155954.000,A,4308.4685,N,07726.4206,W,7.79,280.74,120519,,,A*7F
$GPGGA,155954.250,4308.4685,N,07726.4217,W,1,09,0.97,147.7,M,-34.4,M,,*58
lng=-77.440338, lat=43.141136, altitude=147.70, speed=7.79, satellites=9, angle=280.7400, fixquality=1
$GPRMC,155954.500,A,4308.4686,N,07726.4229,W,9.78,278.39,120519,,,A*75
$GPGGA,155954.750,4308.4688,N,07726.4240,W,1,09,0.97,147.6,M,-34.4,M,,*53
lng=-77.440383, lat=43.141147, altitude=147.70, speed=9.78, satellites=9, angle=278.3900, fixquality=1
$GPRMC,155955.000,A,4308.4689,N,07726.4251,W,11.23,279.31,120519,,,A*4F
$GPGGA,155955.250,4308.4690,N,07726.4263,W,1,10,0.89,147.4,M,-34.4,M,,*5A
lng=-77.440422, lat=43.141147, altitude=147.60, speed=11.23, satellites=9, angle=279.3100, fixquality=1
$GPRMC,155955.500,A,4308.4691,N,07726.4276,W,12.48,279.21,120519,,,A*49
$GPGGA,155955.750,4308.4692,N,07726.4289,W,1,10,0.89,147.5,M,-34.4,M,,*58
lng=-77.440460, lat=43.141155, altitude=147.40, speed=12.48, satellites=10, angle=279.2100, fixquality=1
$GPRMC,155956.000,A,4308.4693,N,07726.4304,W,13.42,279.34,120519,,,A*46
$GPGGA,155956.250,4308.4693,N,07726.4319,W,1,10,0.89,147.6,M,-34.4,M,,*54
lng=-77.440505, lat=43.141155, altitude=147.50, speed=13.42, satellites=10, angle=279.3400, fixquality=1
$GPRMC,155956.500,A,4308.4694,N,07726.4334,W,14.62,278.52,120519,,,A*43
$GPGGA,155956.750,4308.4695,N,07726.4349,W,1,10,0.89,147.8,M,-34.4,M,,*5C
lng=-77.440559, lat=43.141155, altitude=147.60, speed=14.62, satellites=10, angle=278.5200, fixquality=1
$GPRMC,155957.000,A,4308.4695,N,07726.4364,W,15.62,278.34,120519,,,A*42
$GPGGA,155957.250,4308.4697,N,07726.4381,W,1,10,0.89,147.8,M,-34.4,M,,*5E
lng=-77.440605, lat=43.141162, altitude=147.80, speed=15.62, satellites=10, angle=278.3400, fixquality=1
$GPRMC,155957.500,A,4308.4698,N,07726.4398,W,17.14,278.42,120519,,,A*4B
$GPGGA,155957.750,4308.4699,N,07726.4416,W,1,10,0.89,148.0,M,-34.4,M,,*5B
lng=-77.440666, lat=43.141162, altitude=147.80, speed=17.14, satellites=10, angle=278.4200, fixquality=1
$GPRMC,155958.000,A,4308.4700,N,07726.4435,W,18.36,277.91,120519,,,A*4F
$GPGGA,155958.250,4308.4702,N,07726.4454,W,1,10,0.89,147.7,M,-34.4,M,,*5C
lng=-77.440719, lat=43.141170, altitude=148.00, speed=18.36, satellites=10, angle=277.9100, fixquality=1
$GPRMC,155958.500,A,4308.4703,N,07726.4474,W,19.50,277.86,120519,,,A*4B
$GPGGA,155958.750,4308.4705,N,07726.4494,W,1,10,0.89,147.6,M,-34.4,M,,*53
lng=-77.440788, lat=43.141170, altitude=147.70, speed=19.50, satellites=10, angle=277.8600, fixquality=1
$GPRMC,155959.000,A,4308.4707,N,07726.4514,W,20.66,277.58,120519,,,A*40
$GPGGA,155959.250,4308.4709,N,07726.4535,W,1,10,0.89,147.7,M,-34.4,M,,*50
lng=-77.440849, lat=43.141178, altitude=147.60, speed=20.66, satellites=10, angle=277.5800, fixquality=1
$GPRMC,155959.500,A,4308.4711,N,07726.4556,W,21.78,277.91,120519,,,A*4F
$GPGGA,155959.750,4308.4713,N,07726.4576,W,1,10,0.89,148.1,M,-34.4,M,,*50
lng=-77.440925, lat=43.141185, altitude=147.70, speed=21.78, satellites=10, angle=277.9100, fixquality=1
$GPRMC,160000.000,A,4308.4715,N,07726.4596,W,21.22,277.86,120519,,,A*48
$GPGGA,160000.250,4308.4717,N,07726.4620,W,1,10,0.89,148.1,M,-34.4,M,,*52
lng=-77.440994, lat=43.141193, altitude=148.10, speed=21.22, satellites=10, angle=277.8600, fixquality=1
$GPRMC,160000.500,A,4308.4719,N,07726.4643,W,23.73,277.42,120519,,,A*44
$GPGGA,160000.750,4308.4721,N,07726.4668,W,1,10,0.89,148.7,M,-34.4,M,,*58
lng=-77.441070, lat=43.141193, altitude=148.10, speed=23.73, satellites=10, angle=277.4200, fixquality=1
$GPRMC,160001.000,A,4308.4723,N,07726.4693,W,25.93,277.39,120519,,,A*40
$GPGGA,160001.250,4308.4725,N,07726.4718,W,1,10,0.89,148.8,M,-34.4,M,,*51
lng=-77.441154, lat=43.141201, altitude=148.70, speed=25.93, satellites=10, angle=277.3900, fixquality=1
$GPRMC,160001.500,A,4308.4727,N,07726.4744,W,26.88,277.42,120519,,,A*4F
$GPGGA,160001.750,4308.4729,N,07726.4770,W,1,10,0.89,149.1,M,-34.4,M,,*5E
lng=-77.441246, lat=43.141212, altitude=148.80, speed=26.88, satellites=10, angle=277.4200, fixquality=1
$GPRMC,160002.000,A,4308.4732,N,07726.4796,W,27.92,275.98,120519,,,A*4D
$GPGGA,160002.250,4308.4734,N,07726.4824,W,1,09,0.97,149.2,M,-34.4,M,,*5E
lng=-77.441322, lat=43.141220, altitude=149.10, speed=27.92, satellites=10, angle=275.9800, fixquality=1
$GPRMC,160002.500,A,4308.4736,N,07726.4851,W,28.43,276.94,120519,,,A*44
$GPGGA,160002.750,4308.4739,N,07726.4879,W,1,09,0.97,149.2,M,-34.4,M,,*5E
lng=-77.441413, lat=43.141227, altitude=149.20, speed=28.43, satellites=9, angle=276.9400, fixquality=1
$GPRMC,160003.000,A,4308.4742,N,07726.4908,W,30.16,276.41,120519,,,A*4F
$GPGGA,160003.250,4308.4744,N,07726.4936,W,1,10,0.89,149.2,M,-34.4,M,,*5D
lng=-77.441513, lat=43.141235, altitude=149.20, speed=30.16, satellites=9, angle=276.4100, fixquality=1
$GPRMC,160003.500,A,4308.4747,N,07726.4965,W,30.66,275.94,120519,,,A*48
$GPGGA,160003.750,4308.4749,N,07726.4995,W,1,09,0.97,149.5,M,-34.4,M,,*5C
lng=-77.441612, lat=43.141242, altitude=149.20, speed=30.66, satellites=10, angle=275.9400, fixquality=1
$GPRMC,160004.000,A,4308.4751,N,07726.5024,W,31.78,275.50,120519,,,A*46
$GPGGA,160004.250,4308.4753,N,07726.5054,W,1,09,0.97,149.7,M,-34.4,M,,*52
lng=-77.441703, lat=43.141250, altitude=149.50, speed=31.78, satellites=9, angle=275.5000, fixquality=1
$GPRMC,160004.500,A,4308.4755,N,07726.5084,W,32.40,275.12,120519,,,A*43
$GPGGA,160004.750,4308.4756,N,07726.5115,W,1,09,0.97,149.9,M,-34.4,M,,*58
lng=-77.441802, lat=43.141258, altitude=149.70, speed=32.40, satellites=9, angle=275.1200, fixquality=1
$GPRMC,160005.000,A,4308.4758,N,07726.5146,W,33.14,274.97,120519,,,A*49
$GPGGA,160005.250,4308.4760,N,07726.5178,W,1,09,0.97,150.1,M,-34.4,M,,*52
lng=-77.441909, lat=43.141258, altitude=149.90, speed=33.14, satellites=9, angle=274.9700, fixquality=1
$GPRMC,160005.500,A,4308.4762,N,07726.5209,W,33.91,274.78,120519,,,A*41
$GPGGA,160005.750,4308.4764,N,07726.5242,W,1,09,0.97,150.2,M,-34.4,M,,*5A
lng=-77.442016, lat=43.141269, altitude=150.10, speed=33.91, satellites=9, angle=274.7800, fixquality=1
$GPRMC,160006.000,A,4308.4766,N,07726.5274,W,34.14,274.65,120519,,,A*4F
$GPGGA,160006.250,4308.4768,N,07726.5307,W,1,09,0.97,150.3,M,-34.4,M,,*51
lng=-77.442123, lat=43.141277, altitude=150.20, speed=34.14, satellites=9, angle=274.6500, fixquality=1
$GPRMC,160006.500,A,4308.4770,N,07726.5340,W,34.46,274.53,120519,,,A*49
$GPGGA,160006.750,4308.4772,N,07726.5374,W,1,09,0.97,150.2,M,-34.4,M,,*5A
lng=-77.442237, lat=43.141284, altitude=150.30, speed=34.46, satellites=9, angle=274.5300, fixquality=1
$GPRMC,160007.000,A,4308.4774,N,07726.5408,W,35.77,273.84,120519,,,A*4C
$GPGGA,160007.250,4308.4775,N,07726.5442,W,1,09,0.97,150.2,M,-34.4,M,,*5B
lng=-77.442352, lat=43.141292, altitude=150.20, speed=35.77, satellites=9, angle=273.8400, fixquality=1
$GPRMC,160007.500,A,4308.4777,N,07726.5476,W,35.64,273.38,120519,,,A*46
$GPGGA,160007.750,4308.4779,N,07726.5511,W,1,09,0.97,150.3,M,-34.4,M,,*54
lng=-77.442459, lat=43.141292, altitude=150.20, speed=35.64, satellites=9, angle=273.3800, fixquality=1
$GPRMC,160008.000,A,4308.4780,N,07726.5546,W,36.12,273.07,120519,,,A*48
$GPGGA,160008.250,4308.4782,N,07726.5581,W,1,09,0.97,150.4,M,-34.4,M,,*54
lng=-77.442581, lat=43.141300, altitude=150.30, speed=36.12, satellites=9, angle=273.0700, fixquality=1
$GPRMC,160008.500,A,4308.4783,N,07726.5616,W,37.95,273.14,120519,,,A*44
$GPGGA,160008.750,4308.4784,N,07726.5652,W,1,09,0.97,150.5,M,-34.4,M,,*5B
lng=-77.442695, lat=43.141307, altitude=150.40, speed=37.95, satellites=9, angle=273.1400, fixquality=1
$GPRMC,160009.000,A,4308.4786,N,07726.5688,W,38.40,273.21,120519,,,A*43
$GPGGA,160009.250,4308.4787,N,07726.5725,W,1,09,0.97,150.6,M,-34.4,M,,*5E
lng=-77.442817, lat=43.141307, altitude=150.50, speed=38.40, satellites=9, angle=273.2100, fixquality=1
$GPRMC,160009.500,A,4308.4789,N,07726.5762,W,39.01,273.10,120519,,,A*4A
$GPGGA,160009.750,4308.4790,N,07726.5800,W,1,09,0.97,150.6,M,-34.4,M,,*55
lng=-77.442939, lat=43.141315, altitude=150.60, speed=39.01, satellites=9, angle=273.1000, fixquality=1
$GPRMC,160010.000,A,4308.4792,N,07726.5837,W,39.96,272.90,120519,,,A*45
$GPGGA,160010.250,4308.4794,N,07726.5875,W,1,09,0.97,150.6,M,-34.4,M,,*5E
lng=-77.443061, lat=43.141315, altitude=150.60, speed=39.96, satellites=9, angle=272.9000, fixquality=1
$GPRMC,160010.500,A,4308.4795,N,07726.5914,W,40.53,272.58,120519,,,A*44
$GPGGA,160010.750,4308.4797,N,07726.5952,W,1,09,0.97,150.7,M,-34.4,M,,*5D
lng=-77.443191, lat=43.141323, altitude=150.60, speed=40.53, satellites=9, angle=272.5800, fixquality=1
$GPRMC,160011.000,A,4308.4798,N,07726.5991,W,41.14,272.58,120519,,,A*42
$GPGGA,160011.250,4308.4800,N,07726.6030,W,1,09,0.97,150.8,M,-34.4,M,,*59
lng=-77.443321, lat=43.141334, altitude=150.70, speed=41.14, satellites=9, angle=272.5800, fixquality=1
$GPRMC,160011.500,A,4308.4801,N,07726.6069,W,41.25,272.00,120519,,,A*4A
$GPGGA,160011.750,4308.4802,N,07726.6108,W,1,09,0.92,150.9,M,-34.4,M,,*50
lng=-77.443450, lat=43.141334, altitude=150.80, speed=41.25, satellites=9, angle=272.0000, fixquality=1
$GPRMC,160012.000,A,4308.4803,N,07726.6147,W,41.52,271.98,120519,,,A*41
$GPGGA,160012.250,4308.4805,N,07726.6186,W,1,09,0.97,151.0,M,-34.4,M,,*5A
lng=-77.443580, lat=43.141342, altitude=150.90, speed=41.52, satellites=9, angle=271.9800, fixquality=1
$GPRMC,160012.500,A,4308.4806,N,07726.6225,W,41.92,271.46,120519,,,A*49
$GPGGA,160012.750,4308.4807,N,07726.6264,W,1,09,0.92,151.0,M,-34.4,M,,*57
lng=-77.443710, lat=43.141342, altitude=151.00, speed=41.92, satellites=9, angle=271.4600, fixquality=1
$GPRMC,160013.000,A,4308.4807,N,07726.6303,W,41.89,270.62,120519,,,A*44
$GPGGA,160013.250,4308.4808,N,07726.6343,W,1,09,0.97,150.9,M,-34.4,M,,*55
lng=-77.443840, lat=43.141342, altitude=151.00, speed=41.89, satellites=9, angle=270.6200, fixquality=1
$GPRMC,160013.500,A,4308.4808,N,07726.6384,W,42.13,269.73,120519,,,A*49
$GPGGA,160013.750,4308.4808,N,07726.6424,W,1,09,0.92,150.9,M,-34.4,M,,*53
lng=-77.443969, lat=43.141349, altitude=150.90, speed=42.13, satellites=9, angle=269.7300, fixquality=1
$GPRMC,160014.000,A,4308.4808,N,07726.6465,W,42.35,268.64,120519,,,A*40
$GPGGA,160014.250,4308.4807,N,07726.6505,W,1,09,0.97,150.9,M,-34.4,M,,*59
lng=-77.444107, lat=43.141349, altitude=150.90, speed=42.35, satellites=9, angle=268.6400, fixquality=1
$GPRMC,160014.500,A,4308.4806,N,07726.6545,W,42.68,267.58,120519,,,A*40
$GPGGA,160014.750,4308.4805,N,07726.6585,W,1,08,0.97,150.9,M,-34.4,M,,*57
lng=-77.444236, lat=43.141342, altitude=150.90, speed=42.68, satellites=9, angle=267.5800, fixquality=1
$GPRMC,160015.000,A,4308.4804,N,07726.6626,W,43.00,266.99,120519,,,A*43
$GPGGA,160015.250,4308.4802,N,07726.6666,W,1,09,0.97,151.0,M,-34.4,M,,*53
lng=-77.444374, lat=43.141342, altitude=150.90, speed=43.00, satellites=8, angle=266.9900, fixquality=1
$GPRMC,160015.500,A,4308.4801,N,07726.6706,W,43.13,266.38,120519,,,A*49
$GPGGA,160015.750,4308.4799,N,07726.6746,W,1,09,0.92,151.1,M,-34.4,M,,*5C
lng=-77.444503, lat=43.141334, altitude=151.00, speed=43.13, satellites=9, angle=266.3800, fixquality=1
$GPRMC,160016.000,A,4308.4797,N,07726.6786,W,43.23,266.01,120519,,,A*4E
$GPGGA,160016.250,4308.4795,N,07726.6826,W,1,09,0.97,151.3,M,-34.4,M,,*58
lng=-77.444648, lat=43.141323, altitude=151.10, speed=43.23, satellites=9, angle=266.0100, fixquality=1
$GPRMC,160016.500,A,4308.4793,N,07726.6867,W,43.28,265.86,120519,,,A*48
$GPGGA,160016.750,4308.4791,N,07726.6907,W,1,09,0.97,151.5,M,-34.4,M,,*5D
lng=-77.444778, lat=43.141323, altitude=151.30, speed=43.28, satellites=9, angle=265.8600, fixquality=1
