Vers 57
USE_SERIAL_FEEDBACK=false
DEVELOPMENT_MODE=false
USE_RMC_ONLY=false

$GPRMC,142841.000,A,4308.5747,N,07729.6040,W,16.93,207.99,020519,,,D*43
$GPGGA,142841.200,4308.5738,N,07729.6044,W,2,07,1.16,139.6,M,-34.4,M,0000,0000*5C
lng=-77.493400, lat=43.142910, altitude=139.50, speed=16.93, satellites=8, angle=207.9900, fixquality=2
$GPRMC,142841.400,A,4308.5729,N,07729.6047,W,17.52,207.09,020519,,,D*4D
$GPGGA,142841.600,4308.5718,N,07729.6051,W,2,08,1.05,139.5,M,-34.4,M,0000,0000*50
lng=-77.493408, lat=43.142879, altitude=139.60, speed=17.52, satellites=7, angle=207.0900, fixquality=2
$GPRMC,142841.800,A,4308.5708,N,07729.6055,W,18.85,206.20,020519,,,D*4E
$GPGGA,142842.000,4308.5699,N,07729.6062,W,2,08,1.06,139.4,M,-34.4,M,0000,0000*5F
lng=-77.493423, lat=43.142845, altitude=139.50, speed=18.85, satellites=8, angle=206.2000, fixquality=2
$GPRMC,142842.200,A,4308.5689,N,07729.6070,W,19.59,206.90,020519,,,D*43
$GPGGA,142842.400,4308.5679,N,07729.6078,W,2,07,1.09,139.3,M,-34.4,M,0000,0000*59
lng=-77.493446, lat=43.142814, altitude=139.40, speed=19.59, satellites=8, angle=206.9000, fixquality=2
$GPRMC,142842.600,A,4308.5669,N,07729.6086,W,20.11,207.47,020519,,,D*4D
$GPGGA,142842.800,4308.5658,N,07729.6094,W,2,08,1.06,139.3,M,-34.4,M,0000,0000*54
lng=-77.493476, lat=43.142780, altitude=139.30, speed=20.11, satellites=7, angle=207.4700, fixquality=2
$GPRMC,142843.000,A,4308.5648,N,07729.6101,W,20.69,207.69,020519,,,D*44
$GPGGA,142843.200,4308.5637,N,07729.6108,W,2,08,1.05,139.3,M,-34.4,M,0000,0000*51
lng=-77.493499, lat=43.142749, altitude=139.30, speed=20.69, satellites=8, angle=207.6900, fixquality=2
$GPRMC,142843.400,A,4308.5627,N,07729.6116,W,20.99,208.06,020519,,,D*46
$GPGGA,142843.600,4308.5616,N,07729.6124,W,2,07,1.20,139.3,M,-34.4,M,0000,0000*50
lng=-77.493530, lat=43.142707, altitude=139.30, speed=20.99, satellites=8, angle=208.0600, fixquality=2
$GPRMC,142843.800,A,4308.5605,N,07729.6132,W,21.54,207.98,020519,,,D*44
$GPGGA,142844.000,4308.5594,N,07729.6139,W,2,08,1.06,139.4,M,-34.4,M,0000,0000*58
lng=-77.493553, lat=43.142677, altitude=139.30, speed=21.54, satellites=7, angle=207.9800, fixquality=2
$GPRMC,142844.200,A,4308.5583,N,07729.6147,W,21.67,207.94,020519,,,D*4A
$GPGGA,142844.400,4308.5572,N,07729.6155,W,2,07,1.09,139.4,M,-34.4,M,0000,0000*5E
lng=-77.493576, lat=43.142635, altitude=139.40, speed=21.67, satellites=8, angle=207.9400, fixquality=2
$GPRMC,142844.600,A,4308.5561,N,07729.6163,W,21.67,208.24,020519,,,D*40
$GPGGA,142844.800,4308.5551,N,07729.6170,W,2,07,1.09,139.4,M,-34.4,M,0000,0000*54
lng=-77.493606, lat=43.142601, altitude=139.40, speed=21.67, satellites=7, angle=208.2400, fixquality=2
$GPRMC,142845.000,A,4308.5540,N,07729.6178,W,21.27,208.24,020519,,,D*4A
$GPGGA,142845.200,4308.5530,N,07729.6184,W,2,07,1.16,139.3,M,-34.4,M,0000,0000*5A
lng=-77.493629, lat=43.142570, altitude=139.40, speed=21.27, satellites=7, angle=208.2400, fixquality=2
$GPRMC,142845.400,A,4308.5520,N,07729.6191,W,21.13,208.66,020519,,,D*4E
$GPGGA,142845.600,4308.5510,N,07729.6196,W,2,07,1.09,139.2,M,-34.4,M,0000,0000*50
lng=-77.493652, lat=43.142528, altitude=139.30, speed=21.13, satellites=7, angle=208.6600, fixquality=2
$GPRMC,142845.800,A,4308.5500,N,07729.6203,W,20.80,208.74,020519,,,D*40
$GPGGA,142846.000,4308.5490,N,07729.6209,W,2,08,1.06,139.1,M,-34.4,M,0000,0000*5A
lng=-77.493667, lat=43.142498, altitude=139.20, speed=20.80, satellites=7, angle=208.7400, fixquality=2
$GPRMC,142846.200,A,4308.5480,N,07729.6215,W,20.46,208.41,020519,,,D*4B
$GPGGA,142846.400,4308.5470,N,07729.6221,W,2,07,1.09,139.1,M,-34.4,M,0000,0000*5A
lng=-77.493690, lat=43.142463, altitude=139.10, speed=20.46, satellites=8, angle=208.4100, fixquality=2
$GPRMC,142846.600,A,4308.5461,N,07729.6229,W,20.09,208.23,020519,,,D*40
$GPGGA,142846.800,4308.5452,N,07729.6236,W,2,07,1.16,138.9,M,-34.4,M,0000,0000*57
lng=-77.493721, lat=43.142433, altitude=139.10, speed=20.09, satellites=7, angle=208.2300, fixquality=2
$GPRMC,142847.000,A,4308.5442,N,07729.6243,W,19.67,207.77,020519,,,D*46
$GPGGA,142847.200,4308.5433,N,07729.6251,W,2,07,1.16,138.7,M,-34.4,M,0000,0000*54
lng=-77.493743, lat=43.142406, altitude=138.90, speed=19.67, satellites=7, angle=207.7700, fixquality=2
$GPRMC,142847.400,A,4308.5424,N,07729.6258,W,19.45,207.74,020519,,,D*4B
$GPGGA,142847.600,4308.5415,N,07729.6265,W,2,08,1.05,138.6,M,-34.4,M,0000,0000*5F
lng=-77.493766, lat=43.142375, altitude=138.70, speed=19.45, satellites=7, angle=207.7400, fixquality=2
$GPRMC,142847.800,A,4308.5406,N,07729.6272,W,19.20,207.26,020519,,,D*4B
$GPGGA,142848.000,4308.5397,N,07729.6279,W,2,08,1.05,138.4,M,-34.4,M,0000,0000*54
lng=-77.493782, lat=43.142341, altitude=138.60, speed=19.20, satellites=8, angle=207.2600, fixquality=2
$GPRMC,142848.200,A,4308.5388,N,07729.6286,W,19.02,206.67,020519,,,D*40
$GPGGA,142848.400,4308.5380,N,07729.6293,W,2,08,1.02,138.2,M,-34.4,M,0000,0000*53
lng=-77.493804, lat=43.142311, altitude=138.40, speed=19.02, satellites=8, angle=206.6700, fixquality=2
$GPRMC,142848.600,A,4308.5371,N,07729.6299,W,18.61,206.82,020519,,,D*43
$GPGGA,142848.800,4308.5362,N,07729.6305,W,2,07,1.30,138.1,M,-34.4,M,0000,0000*50
lng=-77.493827, lat=43.142284, altitude=138.20, speed=18.61, satellites=8, angle=206.8200, fixquality=2
$GPRMC,142849.000,A,4308.5353,N,07729.6312,W,18.52,206.89,020519,,,D*4D
$GPGGA,142849.200,4308.5344,N,07729.6318,W,2,06,1.41,138.0,M,-34.4,M,0000,0000*55
lng=-77.493858, lat=43.142253, altitude=138.10, speed=18.52, satellites=7, angle=206.8900, fixquality=2
$GPRMC,142849.400,A,4308.5335,N,07729.6324,W,18.41,207.49,020519,,,D*43
$GPGGA,142849.600,4308.5327,N,07729.6331,W,2,07,1.29,138.1,M,-34.4,M,0000,0000*51
lng=-77.493873, lat=43.142227, altitude=138.00, speed=18.41, satellites=6, angle=207.4900, fixquality=2
$GPRMC,142849.800,A,4308.5318,N,07729.6337,W,18.32,207.35,020519,,,D*4D
$GPGGA,142850.000,4308.5309,N,07729.6344,W,2,08,1.05,138.2,M,-34.4,M,0000,0000*53
lng=-77.493896, lat=43.142196, altitude=138.10, speed=18.32, satellites=7, angle=207.3500, fixquality=2
$GPRMC,142850.200,A,4308.5300,N,07729.6351,W,18.28,208.04,020519,,,D*40
$GPGGA,142850.400,4308.5291,N,07729.6357,W,2,08,1.02,138.2,M,-34.4,M,0000,0000*52
lng=-77.493919, lat=43.142162, altitude=138.20, speed=18.28, satellites=8, angle=208.0400, fixquality=2
$GPRMC,142850.600,A,4308.5282,N,07729.6364,W,18.58,209.00,020519,,,D*4B
$GPGGA,142850.800,4308.5273,N,07729.6370,W,2,08,1.06,138.2,M,-34.4,M,0000,0000*53
lng=-77.493934, lat=43.142139, altitude=138.20, speed=18.58, satellites=8, angle=209.0000, fixquality=2
$GPRMC,142851.000,A,4308.5263,N,07729.6376,W,18.94,209.17,020519,,,D*46
$GPGGA,142851.200,4308.5254,N,07729.6383,W,2,08,1.06,138.2,M,-34.4,M,0000,0000*51
lng=-77.493965, lat=43.142105, altitude=138.20, speed=18.94, satellites=8, angle=209.1700, fixquality=2
$GPRMC,142851.400,A,4308.5245,N,07729.6389,W,19.01,208.78,020519,,,D*43
$GPGGA,142851.600,4308.5236,N,07729.6395,W,2,08,1.06,138.2,M,-34.4,M,0000,0000*56
lng=-77.493980, lat=43.142074, altitude=138.20, speed=19.01, satellites=8, angle=208.7800, fixquality=2
$GPRMC,142851.800,A,4308.5227,N,07729.6401,W,19.27,209.05,020519,,,D*43
$GPGGA,142852.000,4308.5217,N,07729.6408,W,2,08,1.05,138.3,M,-34.4,M,0000,0000*51
lng=-77.494003, lat=43.142040, altitude=138.20, speed=19.27, satellites=8, angle=209.0500, fixquality=2
$GPRMC,142852.200,A,4308.5208,N,07729.6415,W,19.31,209.08,020519,,,D*48
$GPGGA,142852.400,4308.5199,N,07729.6422,W,2,08,1.02,138.3,M,-34.4,M,0000,0000*5F
lng=-77.494026, lat=43.142017, altitude=138.30, speed=19.31, satellites=8, angle=209.0800, fixquality=2
$GPRMC,142852.600,A,4308.5189,N,07729.6428,W,19.23,208.07,020519,,,D*45
$GPGGA,142852.800,4308.5180,N,07729.6435,W,2,08,1.06,138.4,M,-34.4,M,0000,0000*5E
lng=-77.494041, lat=43.141983, altitude=138.30, speed=19.23, satellites=8, angle=208.0700, fixquality=2
$GPRMC,142853.000,A,4308.5170,N,07729.6442,W,19.54,207.14,020519,,,D*45
$GPGGA,142853.200,4308.5159,N,07729.6448,W,2,08,1.06,138.4,M,-34.4,M,0000,0000*5B
lng=-77.494064, lat=43.141952, altitude=138.40, speed=19.54, satellites=8, angle=207.1400, fixquality=2
$GPRMC,142853.400,A,4308.5149,N,07729.6455,W,19.92,206.15,020519,,,D*47
$GPGGA,142853.600,4308.5140,N,07729.6461,W,2,08,1.05,138.5,M,-34.4,M,0000,0000*5E
lng=-77.494094, lat=43.141918, altitude=138.40, speed=19.92, satellites=8, angle=206.1500, fixquality=2
$GPRMC,142853.800,A,4308.5130,N,07729.6467,W,19.82,205.22,020519,,,D*42
$GPGGA,142854.000,4308.5120,N,07729.6473,W,2,08,1.06,138.5,M,-34.4,M,0000,0000*59
lng=-77.494110, lat=43.141887, altitude=138.50, speed=19.82, satellites=8, angle=205.2200, fixquality=2
$GPRMC,142854.200,A,4308.5110,N,07729.6480,W,19.60,204.81,020519,,,D*40
$GPGGA,142854.400,4308.5100,N,07729.6486,W,2,08,1.06,138.6,M,-34.4,M,0000,0000*56
lng=-77.494132, lat=43.141853, altitude=138.50, speed=19.60, satellites=8, angle=204.8100, fixquality=2
$GPRMC,142854.600,A,4308.5091,N,07729.6493,W,19.38,204.55,020519,,,D*4A
$GPGGA,142854.800,4308.5080,N,07729.6498,W,2,08,1.02,138.7,M,-34.4,M,0000,0000*59
lng=-77.494155, lat=43.141822, altitude=138.60, speed=19.38, satellites=8, angle=204.5500, fixquality=2
$GPRMC,142855.000,A,4308.5070,N,07729.6503,W,19.42,202.34,020519,,,D*46
$GPGGA,142855.200,4308.5060,N,07729.6507,W,2,08,1.02,138.7,M,-34.4,M,0000,0000*5B
lng=-77.494171, lat=43.141780, altitude=138.70, speed=19.42, satellites=8, angle=202.3400, fixquality=2
$GPRMC,142855.400,A,4308.5051,N,07729.6511,W,19.09,199.77,020519,,,D*4B
$GPGGA,142855.600,4308.5039,N,07729.6514,W,2,08,1.02,138.7,M,-34.4,M,0000,0000*51
lng=-77.494178, lat=43.141746, altitude=138.70, speed=19.09, satellites=8, angle=199.7700, fixquality=2
$GPRMC,142855.800,A,4308.5026,N,07729.6517,W,20.20,195.75,020519,,,D*4E
$GPGGA,142856.000,4308.5012,N,07729.6519,W,2,08,1.06,138.7,M,-34.4,M,0000,0000*54
lng=-77.494194, lat=43.141708, altitude=138.70, speed=20.20, satellites=8, angle=195.7500, fixquality=2
$GPRMC,142856.200,A,4308.4998,N,07729.6521,W,22.22,191.01,020519,,,D*48
$GPGGA,142856.400,4308.4986,N,07729.6522,W,2,08,1.02,138.6,M,-34.4,M,0000,0000*58
lng=-77.494194, lat=43.141666, altitude=138.70, speed=22.22, satellites=8, angle=191.0100, fixquality=2
$GPRMC,142856.600,A,4308.4974,N,07729.6524,W,22.87,188.74,020519,,,D*4E
$GPGGA,142856.800,4308.4962,N,07729.6526,W,2,08,1.06,138.2,M,-34.4,M,0000,0000*5A
lng=-77.494209, lat=43.141624, altitude=138.60, speed=22.87, satellites=8, angle=188.7400, fixquality=2
$GPRMC,142857.000,A,4308.4949,N,07729.6528,W,23.72,187.12,020519,,,D*4F
$GPGGA,142857.200,4308.4936,N,07729.6531,W,2,08,1.05,138.0,M,-34.4,M,0000,0000*57
lng=-77.494216, lat=43.141586, altitude=138.20, speed=23.72, satellites=8, angle=187.1200, fixquality=2
$GPRMC,142857.400,A,4308.4923,N,07729.6532,W,24.44,185.47,020519,,,D*4C
$GPGGA,142857.600,4308.4909,N,07729.6534,W,2,08,1.06,137.9,M,-34.4,M,0000,0000*5F
lng=-77.494224, lat=43.141536, altitude=138.00, speed=24.44, satellites=8, angle=185.4700, fixquality=2
$GPRMC,142857.800,A,4308.4895,N,07729.6535,W,24.84,183.51,020519,,,D*46
$GPGGA,142858.000,4308.4881,N,07729.6536,W,2,08,1.05,137.8,M,-34.4,M,0000,0000*57
lng=-77.494224, lat=43.141487, altitude=137.90, speed=24.84, satellites=8, angle=183.5100, fixquality=2
$GPRMC,142858.200,A,4308.4867,N,07729.6537,W,25.13,182.42,020519,,,D*40
$GPGGA,142858.400,4308.4854,N,07729.6538,W,2,08,1.02,137.8,M,-34.4,M,0000,0000*52
lng=-77.494232, lat=43.141445, altitude=137.80, speed=25.13, satellites=8, angle=182.4200, fixquality=2
$GPRMC,142858.600,A,4308.4840,N,07729.6538,W,24.92,181.83,020519,,,D*48
$GPGGA,142858.800,4308.4826,N,07729.6539,W,2,08,1.06,137.7,M,-34.4,M,0000,0000*51
lng=-77.494232, lat=43.141399, altitude=137.80, speed=24.92, satellites=8, angle=181.8300, fixquality=2
$GPRMC,142859.000,A,4308.4813,N,07729.6539,W,24.31,181.18,020519,,,D*43
$GPGGA,142859.200,4308.4800,N,07729.6539,W,2,08,1.05,137.7,M,-34.4,M,0000,0000*5D
lng=-77.494232, lat=43.141357, altitude=137.70, speed=24.31, satellites=8, angle=181.1800, fixquality=2
$GPRMC,142859.400,A,4308.4786,N,07729.6539,W,24.05,180.97,020519,,,D*45
$GPGGA,142859.600,4308.4773,N,07729.6539,W,2,08,1.02,137.6,M,-34.4,M,0000,0000*54
lng=-77.494232, lat=43.141307, altitude=137.70, speed=24.05, satellites=8, angle=180.9700, fixquality=2
$GPRMC,142859.800,A,4308.4760,N,07729.6540,W,23.50,181.34,020519,,,D*40
$GPGGA,142900.000,4308.4747,N,07729.6540,W,2,08,1.02,137.5,M,-34.4,M,0000,0000*55
lng=-77.494232, lat=43.141269, altitude=137.60, speed=23.50, satellites=8, angle=181.3400, fixquality=2
$GPRMC,142900.200,A,4308.4734,N,07729.6539,W,23.45,180.71,020519,,,D*4C
$GPGGA,142900.400,4308.4721,N,07729.6539,W,2,08,1.02,137.5,M,-34.4,M,0000,0000*5F
lng=-77.494232, lat=43.141227, altitude=137.50, speed=23.45, satellites=8, angle=180.7100, fixquality=2
$GPRMC,142900.600,A,4308.4708,N,07729.6539,W,23.46,180.79,020519,,,D*4C
$GPGGA,142900.800,4308.4694,N,07729.6540,W,2,08,1.02,137.4,M,-34.4,M,0000,0000*53
lng=-77.494232, lat=43.141178, altitude=137.50, speed=23.46, satellites=8, angle=180.7900, fixquality=2
$GPRMC,142901.000,A,4308.4681,N,07729.6540,W,23.78,180.69,020519,,,D*49
$GPGGA,142901.200,4308.4668,N,07729.6539,W,2,08,1.02,137.3,M,-34.4,M,0000,0000*52
lng=-77.494232, lat=43.141136, altitude=137.40, speed=23.78, satellites=8, angle=180.6900, fixquality=2
$GPRMC,142901.400,A,4308.4654,N,07729.6539,W,23.83,180.68,020519,,,D*4E
$GPGGA,142901.600,4308.4641,N,07729.6539,W,2,08,1.02,137.1,M,-34.4,M,0000,0000*5F
lng=-77.494232, lat=43.141090, altitude=137.30, speed=23.83, satellites=8, angle=180.6800, fixquality=2
$GPRMC,142901.800,A,4308.4628,N,07729.6538,W,23.91,179.79,020519,,,D*4D
$GPGGA,142902.000,4308.4615,N,07729.6536,W,2,08,1.02,136.9,M,-34.4,M,0000,0000*5D
lng=-77.494232, lat=43.141048, altitude=137.10, speed=23.91, satellites=8, angle=179.7900, fixquality=2
$GPRMC,142902.200,A,4308.4602,N,07729.6537,W,23.72,180.02,020519,,,D*44
$GPGGA,142902.400,4308.4589,N,07729.6537,W,2,08,1.02,136.8,M,-34.4,M,0000,0000*5F
lng=-77.494232, lat=43.140998, altitude=136.90, speed=23.72, satellites=8, angle=180.0200, fixquality=2
$GPRMC,142902.600,A,4308.4576,N,07729.6537,W,23.66,180.67,020519,,,D*46
$GPGGA,142902.800,4308.4563,N,07729.6537,W,2,08,1.06,136.7,M,-34.4,M,0000,0000*5C
lng=-77.494232, lat=43.140956, altitude=136.80, speed=23.66, satellites=8, angle=180.6700, fixquality=2
$GPRMC,142903.000,A,4308.4551,N,07729.6537,W,23.34,180.69,020519,,,D*4D
$GPGGA,142903.200,4308.4538,N,07729.6538,W,2,08,1.02,136.5,M,-34.4,M,0000,0000*50
lng=-77.494232, lat=43.140918, altitude=136.70, speed=23.34, satellites=8, angle=180.6900, fixquality=2
$GPRMC,142903.400,A,4308.4526,N,07729.6540,W,22.83,181.95,020519,,,D*46
$GPGGA,142903.600,4308.4514,N,07729.6541,W,2,08,1.02,136.4,M,-34.4,M,0000,0000*55
lng=-77.494232, lat=43.140876, altitude=136.50, speed=22.83, satellites=8, angle=181.9500, fixquality=2
$GPRMC,142903.800,A,4308.4502,N,07729.6542,W,22.24,182.81,020519,,,D*45
$GPGGA,142904.000,4308.4490,N,07729.6542,W,2,08,1.02,136.2,M,-34.4,M,0000,0000*5C
lng=-77.494239, lat=43.140834, altitude=136.40, speed=22.24, satellites=8, angle=182.8100, fixquality=2
$GPRMC,142904.200,A,4308.4478,N,07729.6543,W,22.11,183.06,020519,,,D*4D
$GPGGA,142904.400,4308.4465,N,07729.6544,W,2,08,1.02,136.1,M,-34.4,M,0000,0000*57
lng=-77.494239, lat=43.140796, altitude=136.20, speed=22.11, satellites=8, angle=183.0600, fixquality=2
$GPRMC,142904.600,A,4308.4455,N,07729.6545,W,21.30,183.60,020519,,,D*40
$GPGGA,142904.800,4308.4444,N,07729.6545,W,2,08,1.02,135.9,M,-34.4,M,0000,0000*52
lng=-77.494239, lat=43.140754, altitude=136.10, speed=21.30, satellites=8, angle=183.6000, fixquality=2
$GPRMC,142905.000,A,4308.4435,N,07729.6546,W,19.84,183.92,020519,,,D*4B
$GPGGA,142905.200,4308.4425,N,07729.6548,W,2,08,1.06,135.8,M,-34.4,M,0000,0000*56
lng=-77.494247, lat=43.140724, altitude=135.90, speed=19.84, satellites=8, angle=183.9200, fixquality=2
$GPRMC,142905.400,A,4308.4416,N,07729.6549,W,18.68,185.63,020519,,,D*4A
$GPGGA,142905.600,4308.4407,N,07729.6551,W,2,08,1.02,135.6,M,-34.4,M,0000,0000*50
lng=-77.494247, lat=43.140689, altitude=135.80, speed=18.68, satellites=8, angle=185.6300, fixquality=2
$GPRMC,142905.800,A,4308.4402,N,07729.6552,W,15.86,187.44,020519,,,D*43
$GPGGA,142906.000,4308.4401,N,07729.6554,W,2,07,1.29,135.2,M,-34.4,M,0000,0000*54
lng=-77.494255, lat=43.140674, altitude=135.60, speed=15.86, satellites=8, angle=187.4400, fixquality=2
$GPRMC,142906.200,A,4308.4398,N,07729.6564,W,10.85,188.64,020519,,,D*40
$GPGGA,142906.400,4308.4393,N,07729.6574,W,2,08,1.02,134.7,M,-34.4,M,0000,0000*5C
lng=-77.494270, lat=43.140666, altitude=135.20, speed=10.85, satellites=7, angle=188.6400, fixquality=2
$GPRMC,142906.600,A,4308.4389,N,07729.6581,W,9.15,196.49,020519,,,D*7E
$GPGGA,142906.800,4308.4384,N,07729.6585,W,2,07,1.30,134.4,M,-34.4,M,0000,0000*55
lng=-77.494300, lat=43.140647, altitude=134.70, speed=9.15, satellites=8, angle=196.4900, fixquality=2
$GPRMC,142907.000,A,4308.4381,N,07729.6585,W,6.67,198.74,020519,,,D*7F
$GPGGA,142907.200,4308.4378,N,07729.6586,W,2,07,1.30,134.2,M,-34.4,M,0000,0000*58
lng=-77.494308, lat=43.140632, altitude=134.40, speed=6.67, satellites=7, angle=198.7400, fixquality=2
$GPRMC,142907.400,A,4308.4375,N,07729.6588,W,5.64,201.02,020519,,,D*7F
$GPGGA,142907.600,4308.4374,N,07729.6590,W,2,08,1.06,134.0,M,-34.4,M,0000,0000*5F
lng=-77.494308, lat=43.140625, altitude=134.20, speed=5.64, satellites=7, angle=201.0200, fixquality=2
$GPRMC,142907.800,A,4308.4374,N,07729.6591,W,3.47,200.92,020519,,,D*75
$GPGGA,142908.000,4308.4375,N,07729.6595,W,2,07,1.29,133.5,M,-34.4,M,0000,0000*52
lng=-77.494316, lat=43.140625, altitude=134.00, speed=3.47, satellites=8, angle=200.9200, fixquality=2
$GPRMC,142908.200,A,4308.4375,N,07729.6600,W,2.36,200.92,020519,,,D*7D
$GPGGA,142908.400,4308.4375,N,07729.6603,W,2,07,1.29,133.2,M,-34.4,M,0000,0000*5D
lng=-77.494338, lat=43.140625, altitude=133.50, speed=2.36, satellites=7, angle=200.9200, fixquality=2
$GPRMC,142908.600,A,4308.4375,N,07729.6605,W,1.44,200.92,020519,,,D*7A
$GPGGA,142908.800,4308.4376,N,07729.6606,W,2,07,1.29,132.9,M,-34.4,M,0000,0000*5D
lng=-77.494346, lat=43.140625, altitude=133.20, speed=1.44, satellites=7, angle=200.9200, fixquality=2
$GPRMC,142909.000,A,4308.4376,N,07729.6607,W,0.78,200.92,020519,,,D*72
$GPGGA,142909.200,4308.4376,N,07729.6607,W,2,07,1.29,132.7,M,-34.4,M,0000,0000*59
lng=-77.494346, lat=43.140625, altitude=132.90, speed=0.78, satellites=7, angle=200.9200, fixquality=2
$GPRMC,142909.400,A,4308.4377,N,07729.6608,W,0.55,200.92,020519,,,D*77
$GPGGA,142909.600,4308.4377,N,07729.6608,W,2,07,1.29,132.5,M,-34.4,M,0000,0000*51
lng=-77.494346, lat=43.140625, altitude=132.70, speed=0.55, satellites=7, angle=200.9200, fixquality=2
$GPRMC,142909.800,A,4308.4377,N,07729.6608,W,0.35,200.92,020519,,,D*7D
$GPGGA,142910.000,4308.4376,N,07729.6608,W,2,07,1.29,132.3,M,-34.4,M,0000,0000*58
lng=-77.494346, lat=43.140625, altitude=132.50, speed=0.35, satellites=7, angle=200.9200, fixquality=2
$GPRMC,142910.200,A,4308.4376,N,07729.6607,W,0.23,200.92,020519,,,D*76
$GPGGA,142910.400,4308.4377,N,07729.6607,W,2,07,1.29,132.1,M,-34.4,M,0000,0000*50
lng=-77.494346, lat=43.140625, altitude=132.30, speed=0.23, satellites=7, angle=200.9200, fixquality=2
$GPRMC,142910.600,A,4308.4378,N,07729.6608,W,0.14,200.92,020519,,,D*77
$GPGGA,142910.800,4308.4378,N,07729.6608,W,2,08,1.02,132.0,M,-34.4,M,0000,0000*5B
lng=-77.494346, lat=43.140632, altitude=132.10, speed=0.14, satellites=7, angle=200.9200, fixquality=2
$GPRMC,142911.000,A,4308.4378,N,07729.6608,W,0.11,200.92,020519,,,D*75
$GPGGA,142911.200,4308.4377,N,07729.6608,W,2,08,1.02,131.8,M,-34.4,M,0000,0000*54
lng=-77.494346, lat=43.140632, altitude=132.00, speed=0.11, satellites=8, angle=200.9200, fixquality=2
$GPRMC,142911.400,A,4308.4377,N,07729.6608,W,0.35,200.92,020519,,,D*78
$GPGGA,142911.600,4308.4375,N,07729.6609,W,2,07,1.29,131.8,M,-34.4,M,0000,0000*55
lng=-77.494346, lat=43.140625, altitude=131.80, speed=0.35, satellites=8, angle=200.9200, fixquality=2
$GPRMC,142911.800,A,4308.4373,N,07729.6610,W,0.88,200.92,020519,,,D*7F
$GPGGA,142912.000,4308.4373,N,07729.6612,W,2,07,1.29,131.7,M,-34.4,M,0000,0000*53
lng=-77.494354, lat=43.140625, altitude=131.80, speed=0.88, satellites=7, angle=200.9200, fixquality=2
$GPRMC,142912.200,A,4308.4370,N,07729.6613,W,2.64,198.06,020519,,,D*79
$GPGGA,142912.400,4308.4368,N,07729.6605,W,2,08,1.02,131.5,M,-34.4,M,0000,0000*5F
lng=-77.494354, lat=43.140617, altitude=131.70, speed=2.64, satellites=7, angle=198.0600, fixquality=2
$GPRMC,142912.600,A,4308.4359,N,07729.6594,W,3.76,178.01,020519,,,D*71
$GPGGA,142912.800,4308.4352,N,07729.6587,W,2,08,1.02,131.3,M,-34.4,M,0000,0000*55
lng=-77.494316, lat=43.140602, altitude=131.50, speed=3.76, satellites=8, angle=178.0100, fixquality=2
$GPRMC,142913.000,A,4308.4347,N,07729.6581,W,4.27,170.09,020519,,,D*7E
$GPGGA,142913.200,4308.4341,N,07729.6575,W,2,08,1.02,131.2,M,-34.4,M,0000,0000*50
lng=-77.494300, lat=43.140575, altitude=131.30, speed=4.27, satellites=8, angle=170.0900, fixquality=2
$GPRMC,142913.400,A,4308.4337,N,07729.6571,W,5.08,156.19,020519,,,D*7B
$GPGGA,142913.600,4308.4334,N,07729.6567,W,2,08,1.02,131.1,M,-34.4,M,0000,0000*56
lng=-77.494285, lat=43.140560, altitude=131.20, speed=5.08, satellites=8, angle=156.1900, fixquality=2
$GPRMC,142913.800,A,4308.4329,N,07729.6564,W,6.31,155.07,020519,,,D*79
$GPGGA,142914.000,4308.4322,N,07729.6557,W,2,08,1.02,131.1,M,-34.4,M,0000,0000*53
lng=-77.494270, lat=43.140552, altitude=131.10, speed=6.31, satellites=8, angle=155.0700, fixquality=2
$GPRMC,142914.200,A,4308.4314,N,07729.6547,W,10.28,140.86,020519,,,D*49
$GPGGA,142914.400,4308.4309,N,07729.6541,W,2,08,1.02,131.0,M,-34.4,M,0000,0000*58
lng=-77.494247, lat=43.140525, altitude=131.10, speed=10.28, satellites=8, angle=140.8600, fixquality=2
$GPRMC,142914.600,A,4308.4302,N,07729.6534,W,10.48,141.13,020519,,,D*45
$GPGGA,142914.800,4308.4298,N,07729.6527,W,2,08,1.02,130.9,M,-34.4,M,0000,0000*55
lng=-77.494224, lat=43.140502, altitude=131.00, speed=10.48, satellites=8, angle=141.1300, fixquality=2
$GPRMC,142915.000,A,4308.4293,N,07729.6518,W,11.47,134.54,020519,,,D*4A
$GPGGA,142915.200,4308.4287,N,07729.6506,W,2,08,1.02,130.8,M,-34.4,M,0000,0000*52
lng=-77.494194, lat=43.140487, altitude=130.90, speed=11.47, satellites=8, angle=134.5400, fixquality=2
$GPRMC,142915.400,A,4308.4283,N,07729.6498,W,11.76,129.90,020519,,,D*40
$GPGGA,142915.600,4308.4278,N,07729.6489,W,2,08,1.02,130.7,M,-34.4,M,0000,0000*5F
lng=-77.494163, lat=43.140468, altitude=130.80, speed=11.76, satellites=8, angle=129.9000, fixquality=2
$GPRMC,142915.800,A,4308.4273,N,07729.6479,W,12.19,128.38,020519,,,D*45
$GPGGA,142916.000,4308.4268,N,07729.6468,W,2,08,1.02,130.6,M,-34.4,M,0000,0000*55
lng=-77.494132, lat=43.140453, altitude=130.70, speed=12.19, satellites=8, angle=128.3800, fixquality=2
$GPRMC,142916.200,A,4308.4262,N,07729.6457,W,12.73,126.54,020519,,,D*48
$GPGGA,142916.400,4308.4257,N,07729.6447,W,2,08,1.02,130.4,M,-34.4,M,0000,0000*52
lng=-77.494094, lat=43.140438, altitude=130.60, speed=12.73, satellites=8, angle=126.5400, fixquality=2
$GPRMC,142916.600,A,4308.4250,N,07729.6433,W,13.39,125.49,020519,,,D*4F
$GPGGA,142916.800,4308.4246,N,07729.6419,W,2,08,1.02,130.3,M,-34.4,M,0000,0000*52
lng=-77.494049, lat=43.140415, altitude=130.40, speed=13.39, satellites=8, angle=125.4900, fixquality=2
$GPRMC,142917.000,A,4308.4238,N,07729.6404,W,14.46,122.29,020519,,,D*4C
$GPGGA,142917.200,4308.4230,N,07729.6390,W,2,08,1.02,130.1,M,-34.4,M,0000,0000*5C
lng=-77.494010, lat=43.140396, altitude=130.30, speed=14.46, satellites=8, angle=122.2900, fixquality=2
$GPRMC,142917.400,A,4308.4222,N,07729.6375,W,15.36,123.66,020519,,,D*4E
$GPGGA,142917.600,4308.4206,N,07729.6353,W,2,08,1.02,129.9,M,-34.4,M,0000,0000*52
lng=-77.493965, lat=43.140373, altitude=130.10, speed=15.36, satellites=8, angle=123.6600, fixquality=2
$GPRMC,142917.800,A,4308.4197,N,07729.6334,W,17.10,125.87,020519,,,D*45
$GPGGA,142918.000,4308.4181,N,07729.6314,W,2,08,1.02,129.6,M,-34.4,M,0000,0000*5B
lng=-77.493888, lat=43.140331, altitude=129.90, speed=17.10, satellites=8, angle=125.8700, fixquality=2
$GPRMC,142918.200,A,4308.4165,N,07729.6294,W,19.03,127.91,020519,,,D*4F
$GPGGA,142918.400,4308.4149,N,07729.6272,W,2,08,1.02,129.4,M,-34.4,M,0000,0000*58
lng=-77.493820, lat=43.140274, altitude=129.60, speed=19.03, satellites=8, angle=127.9100, fixquality=2
$GPRMC,142918.600,A,4308.4132,N,07729.6248,W,21.11,128.81,020519,,,D*4E
$GPGGA,142918.800,4308.4120,N,07729.6227,W,2,08,1.02,129.2,M,-34.4,M,0000,0000*5D
lng=-77.493751, lat=43.140216, altitude=129.40, speed=21.11, satellites=8, angle=128.8100, fixquality=2
$GPRMC,142919.000,A,4308.4108,N,07729.6206,W,22.81,128.48,020519,,,D*45
$GPGGA,142919.200,4308.4078,N,07729.6151,W,2,08,1.02,129.1,M,-34.4,M,0000,0000*5B
lng=-77.493675, lat=43.140178, altitude=129.20, speed=22.81, satellites=8, angle=128.4800, fixquality=2
$GPRMC,142919.400,A,4308.4052,N,07729.6115,W,31.31,128.86,020519,,,D*45
$GPGGA,142919.600,4308.4028,N,07729.6088,W,2,07,1.09,129.0,M,-34.4,M,0000,0000*5A
lng=-77.493522, lat=43.140087, altitude=129.10, speed=31.31, satellites=8, angle=128.8600, fixquality=2
$GPRMC,142919.800,A,4308.4007,N,07729.6067,W,34.24,133.02,020519,,,D*4A
$GPGGA,142920.000,4308.3987,N,07729.6041,W,2,08,1.06,128.9,M,-34.4,M,0000,0000*50
lng=-77.493446, lat=43.140014, altitude=129.00, speed=34.24, satellites=7, angle=133.0200, fixquality=2
$GPRMC,142920.200,A,4308.3962,N,07729.6015,W,36.52,135.55,020519,,,D*45
$GPGGA,142920.400,4308.3943,N,07729.5993,W,2,07,1.09,128.7,M,-34.4,M,0000,0000*57
lng=-77.493362, lat=43.139934, altitude=128.90, speed=36.52, satellites=8, angle=135.5500, fixquality=2
$GPRMC,142920.600,A,4308.3924,N,07729.5972,W,37.12,137.11,020519,,,D*4F
$GPGGA,142920.800,4308.3901,N,07729.5953,W,2,07,1.16,128.5,M,-34.4,M,0000,0000*5D
lng=-77.493286, lat=43.139877, altitude=128.70, speed=37.12, satellites=7, angle=137.1100, fixquality=2
$GPRMC,142921.000,A,4308.3881,N,07729.5931,W,37.80,143.14,020519,,,D*4C
$GPGGA,142921.200,4308.3861,N,07729.5911,W,2,07,1.16,128.2,M,-34.4,M,0000,0000*50
lng=-77.493217, lat=43.139804, altitude=128.50, speed=37.80, satellites=7, angle=143.1400, fixquality=2
$GPRMC,142921.400,A,4308.3842,N,07729.5893,W,38.33,144.22,020519,,,D*4B
$GPGGA,142921.600,4308.3821,N,07729.5875,W,2,07,1.09,128.0,M,-34.4,M,0000,0000*5F
lng=-77.493156, lat=43.139736, altitude=128.20, speed=38.33, satellites=7, angle=144.2200, fixquality=2
$GPRMC,142921.800,A,4308.3800,N,07729.5857,W,39.32,145.38,020519,,,D*43
$GPGGA,142922.000,4308.3779,N,07729.5838,W,2,07,1.09,127.8,M,-34.4,M,0000,0000*56
lng=-77.493095, lat=43.139663, altitude=128.00, speed=39.32, satellites=7, angle=145.3800, fixquality=2
$GPRMC,142922.200,A,4308.3756,N,07729.5823,W,39.53,148.64,020519,,,D*46
$GPGGA,142922.400,4308.3735,N,07729.5808,W,2,07,1.09,127.6,M,-34.4,M,0000,0000*57
lng=-77.493041, lat=43.139591, altitude=127.80, speed=39.53, satellites=7, angle=148.6400, fixquality=2
$GPRMC,142922.600,A,4308.3713,N,07729.5791,W,39.62,149.80,020519,,,D*4C
$GPGGA,142922.800,4308.3690,N,07729.5776,W,2,08,1.02,127.4,M,-34.4,M,0000,0000*55
lng=-77.492988, lat=43.139518, altitude=127.60, speed=39.62, satellites=7, angle=149.8000, fixquality=2
$GPRMC,142923.000,A,4308.3668,N,07729.5762,W,39.93,152.27,020519,,,D*43
$GPGGA,142923.200,4308.3645,N,07729.5748,W,2,08,1.05,127.3,M,-34.4,M,0000,0000*5B
lng=-77.492935, lat=43.139446, altitude=127.40, speed=39.93, satellites=8, angle=152.2700, fixquality=2
$GPRMC,142923.400,A,4308.3622,N,07729.5734,W,40.03,154.35,020519,,,D*48
$GPGGA,142923.600,4308.3599,N,07729.5720,W,2,08,1.02,127.2,M,-34.4,M,0000,0000*55
lng=-77.492889, lat=43.139369, altitude=127.30, speed=40.03, satellites=8, angle=154.3500, fixquality=2
$GPRMC,142923.800,A,4308.3575,N,07729.5708,W,40.17,157.27,020519,,,D*4F
$GPGGA,142924.000,4308.3551,N,07729.5693,W,2,07,1.16,126.9,M,-34.4,M,0000,0000*59
lng=-77.492843, lat=43.139289, altitude=127.20, speed=40.17, satellites=8, angle=157.2700, fixquality=2
$GPRMC,142924.200,A,4308.3527,N,07729.5680,W,40.64,159.16,020519,,,D*4C
$GPGGA,142924.400,4308.3504,N,07729.5668,W,2,06,1.38,126.5,M,-34.4,M,0000,0000*58
lng=-77.492797, lat=43.139209, altitude=126.90, speed=40.64, satellites=7, angle=159.1600, fixquality=2
$GPRMC,142924.600,A,4308.3481,N,07729.5656,W,40.87,160.66,020519,,,D*4E
$GPGGA,142924.800,4308.3458,N,07729.5645,W,2,07,1.16,126.1,M,-34.4,M,0000,0000*5A
lng=-77.492759, lat=43.139137, altitude=126.50, speed=40.87, satellites=6, angle=160.6600, fixquality=2
$GPRMC,142925.000,A,4308.3435,N,07729.5635,W,41.00,162.77,020519,,,D*4F
$GPGGA,142925.200,4308.3411,N,07729.5627,W,2,07,1.16,125.8,M,-34.4,M,0000,0000*52
lng=-77.492721, lat=43.139053, altitude=126.10, speed=41.00, satellites=7, angle=162.7700, fixquality=2
$GPRMC,142925.400,A,4308.3388,N,07729.5619,W,41.02,164.68,020519,,,D*4E
$GPGGA,142925.600,4308.3364,N,07729.5612,W,2,07,1.09,125.6,M,-34.4,M,0000,0000*55
lng=-77.492698, lat=43.138980, altitude=125.80, speed=41.02, satellites=7, angle=164.6800, fixquality=2
$GPRMC,142925.800,A,4308.3341,N,07729.5605,W,41.06,166.37,020519,,,D*46
$GPGGA,142926.000,4308.3318,N,07729.5597,W,2,06,1.28,125.4,M,-34.4,M,0000,0000*55
lng=-77.492675, lat=43.138900, altitude=125.60, speed=41.06, satellites=7, angle=166.3700, fixquality=2
$GPRMC,142926.200,A,4308.3294,N,07729.5590,W,41.08,166.68,020519,,,D*4D
$GPGGA,142926.400,4308.3271,N,07729.5583,W,2,06,1.28,125.1,M,-34.4,M,0000,0000*5F
lng=-77.492652, lat=43.138828, altitude=125.40, speed=41.08, satellites=6, angle=166.6800, fixquality=2
$GPRMC,142926.600,A,4308.3248,N,07729.5576,W,41.03,166.66,020519,,,D*45
$GPGGA,142926.800,4308.3225,N,07729.5569,W,2,06,1.28,124.9,M,-34.4,M,0000,0000*5F
lng=-77.492630, lat=43.138744, altitude=125.10, speed=41.03, satellites=6, angle=166.6600, fixquality=2
$GPRMC,142927.000,A,4308.3202,N,07729.5562,W,40.99,167.14,020519,,,D*4F
$GPGGA,142927.200,4308.3179,N,07729.5555,W,2,07,1.19,124.6,M,-34.4,M,0000,0000*5D
lng=-77.492599, lat=43.138671, altitude=124.90, speed=40.99, satellites=6, angle=167.1400, fixquality=2
$GPRMC,142927.400,A,4308.3156,N,07729.5549,W,40.97,167.36,020519,,,D*4E
$GPGGA,142927.600,4308.3133,N,07729.5543,W,2,07,1.19,124.3,M,-34.4,M,0000,0000*55
lng=-77.492576, lat=43.138591, altitude=124.60, speed=40.97, satellites=7, angle=167.3600, fixquality=2
$GPRMC,142927.800,A,4308.3110,N,07729.5536,W,41.15,167.42,020519,,,D*40
$GPGGA,142928.000,4308.3087,N,07729.5528,W,2,07,1.19,124.1,M,-34.4,M,0000,0000*5D
lng=-77.492561, lat=43.138515, altitude=124.30, speed=41.15, satellites=7, angle=167.4200, fixquality=2
$GPRMC,142928.200,A,4308.3065,N,07729.5521,W,41.10,166.89,020519,,,D*43
$GPGGA,142928.400,4308.3042,N,07729.5514,W,2,06,1.28,123.8,M,-34.4,M,0000,0000*52
lng=-77.492538, lat=43.138442, altitude=124.10, speed=41.10, satellites=7, angle=166.8900, fixquality=2
$GPRMC,142928.600,A,4308.3019,N,07729.5506,W,41.13,166.79,020519,,,D*45
$GPGGA,142928.800,4308.2996,N,07729.5499,W,2,06,1.28,123.5,M,-34.4,M,0000,0000*56
lng=-77.492515, lat=43.138362, altitude=123.80, speed=41.13, satellites=6, angle=166.7900, fixquality=2
$GPRMC,142929.000,A,4308.2973,N,07729.5492,W,41.28,166.92,020519,,,D*47
$GPGGA,142929.200,4308.2950,N,07729.5486,W,2,06,1.28,123.1,M,-34.4,M,0000,0000*5D
lng=-77.492485, lat=43.138290, altitude=123.50, speed=41.28, satellites=6, angle=166.9200, fixquality=2
$GPRMC,142929.400,A,4308.2927,N,07729.5478,W,41.45,166.94,020519,,,D*4B
$GPGGA,142929.600,4308.2904,N,07729.5470,W,2,08,1.02,122.7,M,-34.4,M,0000,0000*50
lng=-77.492462, lat=43.138206, altitude=123.10, speed=41.45, satellites=6, angle=166.9400, fixquality=2
$GPRMC,142929.800,A,4308.2880,N,07729.5462,W,41.64,166.97,020519,,,D*40
$GPGGA,142930.000,4308.2857,N,07729.5454,W,2,08,1.02,122.3,M,-34.4,M,0000,0000*5B
lng=-77.492439, lat=43.138134, altitude=122.70, speed=41.64, satellites=8, angle=166.9700, fixquality=2
$GPRMC,142930.200,A,4308.2833,N,07729.5446,W,43.30,166.58,020519,,,D*4C
$GPGGA,142930.400,4308.2809,N,07729.5438,W,2,08,1.02,121.9,M,-34.4,M,0000,0000*57
lng=-77.492408, lat=43.138053, altitude=122.30, speed=43.30, satellites=8, angle=166.5800, fixquality=2
$GPRMC,142930.600,A,4308.2785,N,07729.5429,W,43.71,166.31,020519,,,D*49
$GPGGA,142930.800,4308.2761,N,07729.5420,W,2,08,1.02,121.6,M,-34.4,M,0000,0000*5C
lng=-77.492385, lat=43.137973, altitude=121.90, speed=43.71, satellites=8, angle=166.3100, fixquality=2
$GPRMC,142931.000,A,4308.2737,N,07729.5412,W,44.11,166.20,020519,,,D*4E
$GPGGA,142931.200,4308.2713,N,07729.5405,W,2,08,1.02,121.3,M,-34.4,M,0000,0000*50
lng=-77.492347, lat=43.137897, altitude=121.60, speed=44.11, satellites=8, angle=166.2000, fixquality=2
$GPRMC,142931.400,A,4308.2689,N,07729.5399,W,44.42,167.00,020519,,,D*4F
$GPGGA,142931.600,4308.2664,N,07729.5392,W,2,08,1.02,121.0,M,-34.4,M,0000,0000*5F
lng=-77.492332, lat=43.137817, altitude=121.30, speed=44.42, satellites=8, angle=167.0000, fixquality=2
$GPRMC,142931.800,A,4308.2639,N,07729.5385,W,45.24,167.39,020519,,,D*4E
$GPGGA,142932.000,4308.2615,N,07729.5378,W,2,08,1.02,120.7,M,-34.4,M,0000,0000*5E
lng=-77.492309, lat=43.137729, altitude=121.00, speed=45.24, satellites=8, angle=167.3900, fixquality=2
$GPRMC,142932.200,A,4308.2590,N,07729.5370,W,45.22,167.01,020519,,,D*40
$GPGGA,142932.400,4308.2565,N,07729.5363,W,2,07,1.09,120.5,M,-34.4,M,0000,0000*52
lng=-77.492286, lat=43.137645, altitude=120.70, speed=45.22, satellites=8, angle=167.0100, fixquality=2
$GPRMC,142932.600,A,4308.2540,N,07729.5356,W,45.94,166.95,020519,,,D*4C
$GPGGA,142932.800,4308.2515,N,07729.5349,W,2,07,1.09,120.2,M,-34.4,M,0000,0000*56
lng=-77.492263, lat=43.137565, altitude=120.50, speed=45.94, satellites=7, angle=166.9500, fixquality=2
$GPRMC,142933.000,A,4308.2491,N,07729.5341,W,45.99,166.73,020519,,,D*45
$GPGGA,142933.200,4308.2467,N,07729.5333,W,2,08,1.02,120.0,M,-34.4,M,0000,0000*52
lng=-77.492233, lat=43.137485, altitude=120.20, speed=45.99, satellites=7, angle=166.7300, fixquality=2
$GPRMC,142933.400,A,4308.2442,N,07729.5325,W,45.56,166.50,020519,,,D*4F
$GPGGA,142933.600,4308.2418,N,07729.5317,W,2,08,1.02,119.9,M,-34.4,M,0000,0000*5B
lng=-77.492210, lat=43.137401, altitude=120.00, speed=45.56, satellites=8, angle=166.5000, fixquality=2
$GPRMC,142933.800,A,4308.2394,N,07729.5309,W,45.36,166.23,020519,,,D*43
$GPGGA,142934.000,4308.2370,N,07729.5302,W,2,08,1.02,119.7,M,-34.4,M,0000,0000*59
lng=-77.492179, lat=43.137321, altitude=119.90, speed=45.36, satellites=8, angle=166.2300, fixquality=2
$GPRMC,142934.200,A,4308.2346,N,07729.5295,W,44.04,166.49,020519,,,D*49
$GPGGA,142934.400,4308.2323,N,07729.5287,W,2,07,1.09,119.6,M,-34.4,M,0000,0000*52
lng=-77.492156, lat=43.137241, altitude=119.70, speed=44.04, satellites=8, angle=166.4900, fixquality=2
$GPRMC,142934.600,A,4308.2299,N,07729.5280,W,43.63,166.45,020519,,,D*40
$GPGGA,142934.800,4308.2275,N,07729.5273,W,2,07,1.09,119.5,M,-34.4,M,0000,0000*54
lng=-77.492134, lat=43.137165, altitude=119.60, speed=43.63, satellites=7, angle=166.4500, fixquality=2
$GPRMC,142935.000,A,4308.2252,N,07729.5266,W,43.20,167.01,020519,,,D*4E
$GPGGA,142935.200,4308.2229,N,07729.5260,W,2,07,1.16,119.5,M,-34.4,M,0000,0000*5A
lng=-77.492103, lat=43.137084, altitude=119.50, speed=43.20, satellites=7, angle=167.0100, fixquality=2
$GPRMC,142935.400,A,4308.2205,N,07729.5253,W,42.73,167.25,020519,,,D*4F
$GPGGA,142935.600,4308.2182,N,07729.5246,W,2,07,1.19,119.4,M,-34.4,M,0000,0000*56
lng=-77.492088, lat=43.137012, altitude=119.50, speed=42.73, satellites=7, angle=167.2500, fixquality=2
$GPRMC,142935.800,A,4308.2159,N,07729.5240,W,42.39,167.40,020519,,,D*46
$GPGGA,142936.000,4308.2137,N,07729.5232,W,2,06,1.28,119.4,M,-34.4,M,0000,0000*5D
lng=-77.492065, lat=43.136928, altitude=119.40, speed=42.39, satellites=7, angle=167.4000, fixquality=2
$GPRMC,142936.200,A,4308.2114,N,07729.5225,W,42.05,166.79,020519,,,D*41
$GPGGA,142936.400,4308.2091,N,07729.5218,W,2,06,1.28,119.3,M,-34.4,M,0000,0000*5B
lng=-77.492042, lat=43.136856, altitude=119.40, speed=42.05, satellites=6, angle=166.7900, fixquality=2
$GPRMC,142936.600,A,4308.2068,N,07729.5212,W,41.61,166.85,020519,,,D*49
$GPGGA,142936.800,4308.2046,N,07729.5205,W,2,06,1.28,119.3,M,-34.4,M,0000,0000*51
lng=-77.492019, lat=43.136783, altitude=119.30, speed=41.61, satellites=6, angle=166.8500, fixquality=2
$GPRMC,142937.000,A,4308.2023,N,07729.5198,W,41.41,167.34,020519,,,D*49
$GPGGA,142937.200,4308.2000,N,07729.5192,W,2,06,1.28,119.3,M,-34.4,M,0000,0000*55
lng=-77.491996, lat=43.136703, altitude=119.30, speed=41.41, satellites=6, angle=167.3400, fixquality=2
$GPRMC,142937.400,A,4308.1978,N,07729.5185,W,41.37,167.48,020519,,,D*4F
$GPGGA,142937.600,4308.1955,N,07729.5178,W,2,06,1.28,119.2,M,-34.4,M,0000,0000*5E
lng=-77.491973, lat=43.136631, altitude=119.30, speed=41.37, satellites=6, angle=167.4800, fixquality=2
$GPRMC,142937.800,A,4308.1933,N,07729.5171,W,41.24,167.47,020519,,,D*4A
$GPGGA,142938.000,4308.1910,N,07729.5164,W,2,06,1.28,119.2,M,-34.4,M,0000,0000*5B
lng=-77.491950, lat=43.136554, altitude=119.20, speed=41.24, satellites=6, angle=167.4700, fixquality=2
$GPRMC,142938.200,A,4308.1888,N,07729.5157,W,41.18,167.37,020519,,,D*42
$GPGGA,142938.400,4308.1865,N,07729.5150,W,2,07,1.19,119.1,M,-34.4,M,0000,0000*5B
lng=-77.491928, lat=43.136482, altitude=119.20, speed=41.18, satellites=6, angle=167.3700, fixquality=2
$GPRMC,142938.600,A,4308.1843,N,07729.5144,W,41.12,167.39,020519,,,D*47
$GPGGA,142938.800,4308.1821,N,07729.5137,W,2,07,1.19,119.1,M,-34.4,M,0000,0000*56
lng=-77.491905, lat=43.136402, altitude=119.10, speed=41.12, satellites=7, angle=167.3900, fixquality=2
$GPRMC,142939.000,A,4308.1799,N,07729.5129,W,40.48,167.13,020519,,,D*45
$GPGGA,142939.200,4308.1777,N,07729.5122,W,2,07,1.19,119.0,M,-34.4,M,0000,0000*54
lng=-77.491874, lat=43.136329, altitude=119.10, speed=40.48, satellites=7, angle=167.1300, fixquality=2
$GPRMC,142939.400,A,4308.1755,N,07729.5115,W,40.44,167.30,020519,,,D*43
$GPGGA,142939.600,4308.1733,N,07729.5108,W,2,07,1.19,119.0,M,-34.4,M,0000,0000*58
lng=-77.491859, lat=43.136253, altitude=119.00, speed=40.44, satellites=7, angle=167.3000, fixquality=2
$GPRMC,142939.800,A,4308.1711,N,07729.5101,W,40.36,167.20,020519,,,D*4E
$GPGGA,142940.000,4308.1689,N,07729.5094,W,2,07,1.44,118.8,M,-34.4,M,0000,0000*55
lng=-77.491836, lat=43.136180, altitude=119.00, speed=40.36, satellites=7, angle=167.2000, fixquality=2
$GPRMC,142940.200,A,4308.1668,N,07729.5089,W,40.57,167.00,020519,,,D*41
$GPGGA,142940.400,4308.1646,N,07729.5082,W,2,07,1.19,118.7,M,-34.4,M,0000,0000*52
lng=-77.491813, lat=43.136116, altitude=118.80, speed=40.57, satellites=7, angle=167.0000, fixquality=2
$GPRMC,142940.600,A,4308.1624,N,07729.5077,W,40.52,166.87,020519,,,D*47
$GPGGA,142940.800,4308.1603,N,07729.5070,W,2,07,1.44,118.5,M,-34.4,M,0000,0000*58
lng=-77.491798, lat=43.136043, altitude=118.70, speed=40.52, satellites=7, angle=166.8700, fixquality=2
$GPRMC,142941.000,A,4308.1581,N,07729.5064,W,40.46,166.60,020519,,,D*42
$GPGGA,142941.200,4308.1560,N,07729.5058,W,2,07,1.44,118.3,M,-34.4,M,0000,0000*59
lng=-77.491775, lat=43.135971, altitude=118.50, speed=40.46, satellites=7, angle=166.6000, fixquality=2
$GPRMC,142941.400,A,4308.1538,N,07729.5052,W,40.21,166.52,020519,,,D*41
$GPGGA,142941.600,4308.1517,N,07729.5045,W,2,07,1.19,118.2,M,-34.4,M,0000,0000*58
lng=-77.491752, lat=43.135898, altitude=118.30, speed=40.21, satellites=7, angle=166.5200, fixquality=2
$GPRMC,142941.800,A,4308.1495,N,07729.5038,W,39.42,166.28,020519,,,D*41
$GPGGA,142942.000,4308.1475,N,07729.5032,W,2,07,1.19,118.0,M,-34.4,M,0000,0000*5A
lng=-77.491729, lat=43.135822, altitude=118.20, speed=39.42, satellites=7, angle=166.2800, fixquality=2
$GPRMC,142942.200,A,4308.1454,N,07729.5025,W,38.47,166.06,020519,,,D*41
$GPGGA,142942.400,4308.1433,N,07729.5018,W,2,07,1.19,117.9,M,-34.4,M,0000,0000*52
lng=-77.491706, lat=43.135757, altitude=118.00, speed=38.47, satellites=7, angle=166.0600, fixquality=2
$GPRMC,142942.600,A,4308.1413,N,07729.5012,W,37.30,166.00,020519,,,D*4B
$GPGGA,142942.800,4308.1393,N,07729.5006,W,2,07,1.19,117.7,M,-34.4,M,0000,0000*52
lng=-77.491683, lat=43.135684, altitude=117.90, speed=37.30, satellites=7, angle=166.0000, fixquality=2
$GPRMC,142943.000,A,4308.1373,N,07729.5000,W,35.86,166.37,020519,,,D*45
$GPGGA,142943.200,4308.1354,N,07729.4994,W,2,06,1.53,117.5,M,-34.4,M,0000,0000*5C
lng=-77.491668, lat=43.135620, altitude=117.70, speed=35.86, satellites=7, angle=166.3700, fixquality=2
$GPRMC,142943.400,A,4308.1335,N,07729.4988,W,35.03,166.55,020519,,,D*42
$GPGGA,142943.600,4308.1316,N,07729.4983,W,2,06,1.28,117.3,M,-34.4,M,0000,0000*52
lng=-77.491653, lat=43.135555, altitude=117.50, speed=35.03, satellites=6, angle=166.5500, fixquality=2
$GPRMC,142943.800,A,4308.1297,N,07729.4977,W,33.86,167.07,020519,,,D*4A
$GPGGA,142944.000,4308.1279,N,07729.4972,W,2,07,1.44,117.1,M,-34.4,M,0000,0000*5C
lng=-77.491622, lat=43.135498, altitude=117.30, speed=33.86, satellites=6, angle=167.0700, fixquality=2
$GPRMC,142944.200,A,4308.1261,N,07729.4967,W,33.13,167.81,020519,,,D*4D
$GPGGA,142944.400,4308.1242,N,07729.4963,W,2,07,1.19,116.7,M,-34.4,M,0000,0000*5F
lng=-77.491607, lat=43.135433, altitude=117.10, speed=33.13, satellites=7, angle=167.8100, fixquality=2
$GPRMC,142944.600,A,4308.1224,N,07729.4958,W,32.98,169.10,020519,,,D*40
$GPGGA,142944.800,4308.1206,N,07729.4955,W,2,07,1.44,116.3,M,-34.4,M,0000,0000*5A
lng=-77.491592, lat=43.135375, altitude=116.70, speed=32.98, satellites=7, angle=169.1000, fixquality=2
$GPRMC,142945.000,A,4308.1188,N,07729.4950,W,32.70,169.86,020519,,,D*43
$GPGGA,142945.200,4308.1170,N,07729.4946,W,2,08,1.06,116.0,M,-34.4,M,0000,0000*5B
lng=-77.491584, lat=43.135311, altitude=116.30, speed=32.70, satellites=7, angle=169.8600, fixquality=2
$GPRMC,142945.400,A,4308.1152,N,07729.4942,W,32.77,169.79,020519,,,D*44
$GPGGA,142945.600,4308.1134,N,07729.4938,W,2,08,1.05,115.7,M,-34.4,M,0000,0000*51
lng=-77.491569, lat=43.135253, altitude=116.00, speed=32.77, satellites=8, angle=169.7900, fixquality=2
$GPRMC,142945.800,A,4308.1115,N,07729.4934,W,33.04,172.09,020519,,,D*42
$GPGGA,142946.000,4308.1097,N,07729.4931,W,2,08,1.06,115.3,M,-34.4,M,0000,0000*52
lng=-77.491554, lat=43.135189, altitude=115.70, speed=33.04, satellites=8, angle=172.0900, fixquality=2
$GPRMC,142946.200,A,4308.1079,N,07729.4928,W,33.16,173.74,020519,,,D*45
$GPGGA,142946.400,4308.1061,N,07729.4926,W,2,08,1.05,114.9,M,-34.4,M,0000,0000*51
lng=-77.491546, lat=43.135131, altitude=115.30, speed=33.16, satellites=8, angle=173.7400, fixquality=2
$GPRMC,142946.600,A,4308.1042,N,07729.4926,W,33.51,175.54,020519,,,D*40
$GPGGA,142946.800,4308.1025,N,07729.4927,W,2,08,1.05,114.3,M,-34.4,M,0000,0000*56
lng=-77.491546, lat=43.135066, altitude=114.90, speed=33.51, satellites=8, angle=175.5400, fixquality=2
$GPRMC,142947.000,A,4308.1006,N,07729.4929,W,33.54,177.61,020519,,,D*49
$GPGGA,142947.200,4308.0988,N,07729.4930,W,2,08,1.06,113.7,M,-34.4,M,0000,0000*54
lng=-77.491546, lat=43.135009, altitude=114.30, speed=33.54, satellites=8, angle=177.6100, fixquality=2
$GPRMC,142947.400,A,4308.0969,N,07729.4930,W,33.73,178.82,020519,,,D*43
$GPGGA,142947.600,4308.0950,N,07729.4930,W,2,07,1.16,113.3,M,-34.4,M,0000,0000*5F
lng=-77.491554, lat=43.134944, altitude=113.70, speed=33.73, satellites=8, angle=178.8200, fixquality=2
$GPRMC,142947.800,A,4308.0931,N,07729.4931,W,33.93,179.62,020519,,,D*42
$GPGGA,142948.000,4308.0913,N,07729.4932,W,2,08,1.05,112.9,M,-34.4,M,0000,0000*55
lng=-77.491554, lat=43.134887, altitude=113.30, speed=33.93, satellites=7, angle=179.6200, fixquality=2
$GPRMC,142948.200,A,4308.0894,N,07729.4933,W,34.02,181.02,020519,,,D*45
$GPGGA,142948.400,4308.0875,N,07729.4935,W,2,08,1.02,112.6,M,-34.4,M,0000,0000*5F
lng=-77.491554, lat=43.134822, altitude=112.90, speed=34.02, satellites=8, angle=181.0200, fixquality=2
$GPRMC,142948.600,A,4308.0856,N,07729.4938,W,34.07,182.94,020519,,,D*4D
$GPGGA,142948.800,4308.0837,N,07729.4941,W,2,08,1.05,112.1,M,-34.4,M,0000,0000*56
lng=-77.491561, lat=43.134757, altitude=112.60, speed=34.07, satellites=8, angle=182.9400, fixquality=2
$GPRMC,142949.000,A,4308.0818,N,07729.4944,W,34.15,184.11,020519,,,D*43
$GPGGA,142949.200,4308.0799,N,07729.4948,W,2,08,1.05,111.8,M,-34.4,M,0000,0000*55
lng=-77.491577, lat=43.134700, altitude=112.10, speed=34.15, satellites=8, angle=184.1100, fixquality=2
$GPRMC,142949.400,A,4308.0780,N,07729.4952,W,34.24,185.58,020519,,,D*40
$GPGGA,142949.600,4308.0761,N,07729.4956,W,2,07,1.44,111.4,M,-34.4,M,0000,0000*5F
lng=-77.491584, lat=43.134635, altitude=111.80, speed=34.24, satellites=8, angle=185.5800, fixquality=2
$GPRMC,142949.800,A,4308.0742,N,07729.4961,W,34.25,187.73,020519,,,D*48
$GPGGA,142950.000,4308.0723,N,07729.4965,W,2,07,1.44,111.1,M,-34.4,M,0000,0000*52
lng=-77.491600, lat=43.134571, altitude=111.40, speed=34.25, satellites=7, angle=187.7300, fixquality=2
$GPRMC,142950.200,A,4308.0704,N,07729.4971,W,34.25,189.31,020519,,,D*41
$GPGGA,142950.400,4308.0685,N,07729.4977,W,2,07,1.19,110.8,M,-34.4,M,0000,0000*58
lng=-77.491615, lat=43.134506, altitude=111.10, speed=34.25, satellites=7, angle=189.3100, fixquality=2
$GPRMC,142950.600,A,4308.0666,N,07729.4983,W,34.05,190.31,020519,,,D*47
$GPGGA,142950.800,4308.0648,N,07729.4989,W,2,08,1.05,110.5,M,-34.4,M,0000,0000*5B
lng=-77.491645, lat=43.134441, altitude=110.80, speed=34.05, satellites=7, angle=190.3100, fixquality=2
$GPRMC,142951.000,A,4308.0629,N,07729.4995,W,33.74,191.86,020519,,,D*40
$GPGGA,142951.200,4308.0611,N,07729.5001,W,2,08,1.05,110.3,M,-34.4,M,0000,0000*52
lng=-77.491661, lat=43.134384, altitude=110.50, speed=33.74, satellites=8, angle=191.8600, fixquality=2
$GPRMC,142951.400,A,4308.0593,N,07729.5007,W,33.64,192.63,020519,,,D*4C
$GPGGA,142951.600,4308.0575,N,07729.5013,W,2,07,1.10,110.1,M,-34.4,M,0000,0000*5D
lng=-77.491676, lat=43.134319, altitude=110.30, speed=33.64, satellites=8, angle=192.6300, fixquality=2
$GPRMC,142951.800,A,4308.0557,N,07729.5019,W,33.50,193.41,020519,,,D*41
$GPGGA,142952.000,4308.0539,N,07729.5024,W,2,07,1.10,109.5,M,-34.4,M,0000,0000*58
lng=-77.491699, lat=43.134262, altitude=110.10, speed=33.50, satellites=7, angle=193.4100, fixquality=2
$GPRMC,142952.200,A,4308.0521,N,07729.5030,W,33.08,194.13,020519,,,D*4F
$GPGGA,142952.400,4308.0504,N,07729.5037,W,2,08,1.02,109.0,M,-34.4,M,0000,0000*59
lng=-77.491714, lat=43.134204, altitude=109.50, speed=33.08, satellites=7, angle=194.1300, fixquality=2
$GPRMC,142952.600,A,4308.0486,N,07729.5043,W,32.99,194.54,020519,,,D*49
$GPGGA,142952.800,4308.0469,N,07729.5050,W,2,08,1.05,108.5,M,-34.4,M,0000,0000*5D
lng=-77.491737, lat=43.134147, altitude=109.00, speed=32.99, satellites=8, angle=194.5400, fixquality=2
$GPRMC,142953.000,A,4308.0452,N,07729.5056,W,32.62,196.11,020519,,,D*44
$GPGGA,142953.200,4308.0435,N,07729.5063,W,2,08,1.05,108.1,M,-34.4,M,0000,0000*5B
lng=-77.491752, lat=43.134090, altitude=108.50, speed=32.62, satellites=8, angle=196.1100, fixquality=2
$GPRMC,142953.400,A,4308.0418,N,07729.5070,W,32.12,198.03,020519,,,D*40
$GPGGA,142953.600,4308.0402,N,07729.5078,W,2,08,1.05,107.4,M,-34.4,M,0000,0000*5B
lng=-77.491783, lat=43.134033, altitude=108.10, speed=32.12, satellites=8, angle=198.0300, fixquality=2
$GPRMC,142953.800,A,4308.0385,N,07729.5086,W,32.03,199.93,020519,,,D*4E
$GPGGA,142954.000,4308.0368,N,07729.5094,W,2,08,1.05,106.8,M,-34.4,M,0000,0000*5E
lng=-77.491813, lat=43.133975, altitude=107.40, speed=32.03, satellites=8, angle=199.9300, fixquality=2
$GPRMC,142954.200,A,4308.0352,N,07729.5103,W,31.92,201.21,020519,,,D*45
$GPGGA,142954.400,4308.0336,N,07729.5112,W,2,08,1.05,106.4,M,-34.4,M,0000,0000*52
lng=-77.491836, lat=43.133918, altitude=106.80, speed=31.92, satellites=8, angle=201.2100, fixquality=2
$GPRMC,142954.600,A,4308.0320,N,07729.5121,W,31.85,202.88,020519,,,D*42
$GPGGA,142954.800,4308.0304,N,07729.5130,W,2,08,1.05,106.2,M,-34.4,M,0000,0000*59
lng=-77.491867, lat=43.133869, altitude=106.40, speed=31.85, satellites=8, angle=202.8800, fixquality=2
$GPRMC,142955.000,A,4308.0288,N,07729.5139,W,31.72,203.83,020519,,,D*4D
$GPGGA,142955.200,4308.0272,N,07729.5148,W,2,08,1.05,106.0,M,-34.4,M,0000,0000*5F
lng=-77.491897, lat=43.133811, altitude=106.20, speed=31.72, satellites=8, angle=203.8300, fixquality=2
$GPRMC,142955.400,A,4308.0257,N,07729.5157,W,30.80,204.95,020519,,,D*4F
$GPGGA,142955.600,4308.0242,N,07729.5167,W,2,08,1.05,105.7,M,-34.4,M,0000,0000*51
lng=-77.491928, lat=43.133766, altitude=106.00, speed=30.80, satellites=8, angle=204.9500, fixquality=2
$GPRMC,142955.800,A,4308.0227,N,07729.5177,W,29.95,206.32,020519,,,D*45
$GPGGA,142956.000,4308.0213,N,07729.5187,W,2,08,1.05,105.7,M,-34.4,M,0000,0000*5E
lng=-77.491958, lat=43.133708, altitude=105.70, speed=29.95, satellites=8, angle=206.3200, fixquality=2
$GPRMC,142956.200,A,4308.0198,N,07729.5197,W,28.94,207.73,020519,,,D*41
$GPGGA,142956.400,4308.0184,N,07729.5207,W,2,08,1.02,105.7,M,-34.4,M,0000,0000*5B
lng=-77.491989, lat=43.133666, altitude=105.70, speed=28.94, satellites=8, angle=207.7300, fixquality=2
$GPRMC,142956.600,A,4308.0171,N,07729.5216,W,27.52,208.34,020519,,,D*41
$GPGGA,142956.800,4308.0158,N,07729.5226,W,2,08,1.06,105.5,M,-34.4,M,0000,0000*53
lng=-77.492027, lat=43.133617, altitude=105.70, speed=27.52, satellites=8, angle=208.3400, fixquality=2
$GPRMC,142957.000,A,4308.0147,N,07729.5235,W,25.39,208.72,020519,,,D*4F
$GPGGA,142957.200,4308.0135,N,07729.5244,W,2,08,1.05,105.1,M,-34.4,M,0000,0000*50
lng=-77.492057, lat=43.133579, altitude=105.50, speed=25.39, satellites=8, angle=208.7200, fixquality=2
$GPRMC,142957.400,A,4308.0123,N,07729.5252,W,24.09,209.14,020519,,,D*4B
$GPGGA,142957.600,4308.0112,N,07729.5260,W,2,08,1.05,105.0,M,-34.4,M,0000,0000*56
lng=-77.492088, lat=43.133537, altitude=105.10, speed=24.09, satellites=8, angle=209.1400, fixquality=2
$GPRMC,142957.800,A,4308.0102,N,07729.5267,W,22.32,209.87,020519,,,D*46
$GPGGA,142958.000,4308.0092,N,07729.5274,W,2,08,1.05,104.7,M,-34.4,M,0000,0000*55
lng=-77.492111, lat=43.133502, altitude=105.00, speed=22.32, satellites=8, angle=209.8700, fixquality=2
$GPRMC,142958.200,A,4308.0083,N,07729.5281,W,20.59,210.88,020519,,,D*4B
$GPGGA,142958.400,4308.0073,N,07729.5288,W,2,08,1.02,104.5,M,-34.4,M,0000,0000*58
lng=-77.492141, lat=43.133472, altitude=104.70, speed=20.59, satellites=8, angle=210.8800, fixquality=2
$GPRMC,142958.600,A,4308.0064,N,07729.5295,W,19.75,211.04,020519,,,D*42
$GPGGA,142958.800,4308.0055,N,07729.5302,W,2,08,1.05,104.3,M,-34.4,M,0000,0000*52
lng=-77.492156, lat=43.133438, altitude=104.50, speed=19.75, satellites=8, angle=211.0400, fixquality=2
$GPRMC,142959.000,A,4308.0046,N,07729.5309,W,18.96,211.06,020519,,,D*4F
$GPGGA,142959.200,4308.0038,N,07729.5315,W,2,08,1.05,104.0,M,-34.4,M,0000,0000*57
lng=-77.492179, lat=43.133407, altitude=104.30, speed=18.96, satellites=8, angle=211.0600, fixquality=2
$GPRMC,142959.400,A,4308.0029,N,07729.5321,W,18.46,211.09,020519,,,D*4A
$GPGGA,142959.600,4308.0021,N,07729.5328,W,2,08,1.06,103.7,M,-34.4,M,0000,0000*56
lng=-77.492202, lat=43.133380, altitude=104.00, speed=18.46, satellites=8, angle=211.0900, fixquality=2
$GPRMC,142959.800,A,4308.0013,N,07729.5333,W,17.53,210.91,020519,,,D*47
$GPGGA,143000.000,4308.0006,N,07729.5339,W,2,08,1.06,103.3,M,-34.4,M,0000,0000*55
lng=-77.492218, lat=43.133358, altitude=103.70, speed=17.53, satellites=8, angle=210.9100, fixquality=2
$GPRMC,143000.200,A,4307.9998,N,07729.5345,W,16.95,211.43,020519,,,D*41
$GPGGA,143000.400,4307.9990,N,07729.5349,W,2,08,1.06,102.9,M,-34.4,M,0000,0000*5D
lng=-77.492240, lat=43.133335, altitude=103.30, speed=16.95, satellites=8, angle=211.4300, fixquality=2
$GPRMC,143000.600,A,4307.9982,N,07729.5353,W,16.55,212.17,020519,,,D*47
$GPGGA,143000.800,4307.9974,N,07729.5360,W,2,08,1.05,102.6,M,-34.4,M,0000,0000*5C
lng=-77.492256, lat=43.133300, altitude=102.90, speed=16.55, satellites=8, angle=212.1700, fixquality=2
$GPRMC,143001.000,A,4307.9967,N,07729.5366,W,15.65,212.03,020519,,,D*48
$GPGGA,143001.200,4307.9962,N,07729.5374,W,2,08,1.05,102.2,M,-34.4,M,0000,0000*51
lng=-77.492279, lat=43.133277, altitude=102.60, speed=15.65, satellites=8, angle=212.0300, fixquality=2
$GPRMC,143001.400,A,4307.9956,N,07729.5378,W,15.22,216.88,020519,,,D*45
$GPGGA,143001.600,4307.9951,N,07729.5384,W,2,08,1.05,101.8,M,-34.4,M,0000,0000*53
lng=-77.492294, lat=43.133258, altitude=102.20, speed=15.22, satellites=8, angle=216.8800, fixquality=2
$GPRMC,143001.800,A,4307.9947,N,07729.5392,W,13.94,225.36,020519,,,D*43
$GPGGA,143002.000,4307.9942,N,07729.5400,W,2,08,1.05,101.5,M,-34.4,M,0000,0000*52
lng=-77.492317, lat=43.133243, altitude=101.80, speed=13.94, satellites=8, angle=225.3600, fixquality=2
$GPRMC,143002.200,A,4307.9938,N,07729.5406,W,13.20,228.77,020519,,,D*4F
$GPGGA,143002.400,4307.9934,N,07729.5412,W,2,08,1.02,101.2,M,-34.4,M,0000,0000*54
lng=-77.492340, lat=43.133228, altitude=101.50, speed=13.20, satellites=8, angle=228.7700, fixquality=2
$GPRMC,143002.600,A,4307.9930,N,07729.5420,W,12.96,233.40,020519,,,D*45
$GPGGA,143002.800,4307.9927,N,07729.5428,W,2,08,1.05,101.2,M,-34.4,M,0000,0000*54
lng=-77.492362, lat=43.133220, altitude=101.20, speed=12.96, satellites=8, angle=233.4000, fixquality=2
$GPRMC,143003.000,A,4307.9924,N,07729.5436,W,12.85,242.28,020519,,,D*4A
$GPGGA,143003.200,4307.9923,N,07729.5444,W,2,08,1.06,100.9,M,-34.4,M,0000,0000*58
lng=-77.492393, lat=43.133201, altitude=101.20, speed=12.85, satellites=8, angle=242.2800, fixquality=2
$GPRMC,143003.400,A,4307.9923,N,07729.5456,W,12.58,249.08,020519,,,D*46
$GPGGA,143003.600,4307.9923,N,07729.5466,W,2,08,1.05,100.4,M,-34.4,M,0000,0000*52
lng=-77.492424, lat=43.133201, altitude=100.90, speed=12.58, satellites=8, angle=249.0800, fixquality=2
$GPRMC,143003.800,A,4307.9924,N,07729.5475,W,11.80,256.44,020519,,,D*4C
$GPGGA,143004.000,4307.9927,N,07729.5486,W,2,08,1.05,99.9,M,-34.4,M,0000,0000*65
lng=-77.492454, lat=43.133201, altitude=100.40, speed=11.80, satellites=8, angle=256.4400, fixquality=2
$GPRMC,143004.200,A,4307.9929,N,07729.5496,W,12.32,270.70,020519,,,D*48
$GPGGA,143004.400,4307.9931,N,07729.5504,W,2,08,1.02,99.2,M,-34.4,M,0000,0000*61
lng=-77.492500, lat=43.133213, altitude=99.90, speed=12.32, satellites=8, angle=270.7000, fixquality=2
$GPRMC,143004.600,A,4307.9936,N,07729.5512,W,11.84,281.85,020519,,,D*45
$GPGGA,143004.800,4307.9940,N,07729.5520,W,2,08,1.05,98.5,M,-34.4,M,0000,0000*6C
lng=-77.492523, lat=43.133228, altitude=99.20, speed=11.84, satellites=8, angle=281.8500, fixquality=2
$GPRMC,143005.000,A,4307.9945,N,07729.5529,W,12.79,293.14,020519,,,D*44
$GPGGA,143005.200,4307.9950,N,07729.5538,W,2,08,1.05,98.1,M,-34.4,M,0000,0000*6B
lng=-77.492546, lat=43.133243, altitude=98.50, speed=12.79, satellites=8, angle=293.1400, fixquality=2
$GPRMC,143005.400,A,4307.9954,N,07729.5547,W,13.88,297.57,020519,,,D*44
$GPGGA,143005.600,4307.9960,N,07729.5555,W,2,08,1.05,97.7,M,-34.4,M,0000,0000*6E
lng=-77.492576, lat=43.133258, altitude=98.10, speed=13.88, satellites=8, angle=297.5700, fixquality=2
$GPRMC,143005.800,A,4307.9966,N,07729.5565,W,15.76,302.24,020519,,,D*47
$GPGGA,143006.000,4307.9973,N,07729.5576,W,2,08,1.06,97.0,M,-34.4,M,0000,0000*6C
lng=-77.492607, lat=43.133277, altitude=97.70, speed=15.76, satellites=8, angle=302.2400, fixquality=2
$GPRMC,143006.200,A,4307.9981,N,07729.5586,W,17.92,305.79,020519,,,D*4D
$GPGGA,143006.400,4307.9988,N,07729.5597,W,2,08,1.02,96.6,M,-34.4,M,0000,0000*60
lng=-77.492645, lat=43.133300, altitude=97.00, speed=17.92, satellites=8, angle=305.7900, fixquality=2
$GPRMC,143006.600,A,4307.9995,N,07729.5609,W,19.67,306.59,020519,,,D*4D
$GPGGA,143006.800,4308.0004,N,07729.5622,W,2,08,1.05,96.1,M,-34.4,M,0000,0000*6A
lng=-77.492683, lat=43.133323, altitude=96.60, speed=19.67, satellites=8, angle=306.5900, fixquality=2
$GPRMC,143007.000,A,4308.0013,N,07729.5635,W,22.06,307.91,020519,,,D*4E
$GPGGA,143007.200,4308.0023,N,07729.5650,W,2,08,1.05,95.6,M,-34.4,M,0000,0000*65
lng=-77.492721, lat=43.133358, altitude=96.10, speed=22.06, satellites=8, angle=307.9100, fixquality=2
$GPRMC,143007.400,A,4308.0032,N,07729.5664,W,23.65,308.06,020519,,,D*48
$GPGGA,143007.600,4308.0041,N,07729.5679,W,2,08,1.05,95.3,M,-34.4,M,0000,0000*6B
lng=-77.492774, lat=43.133388, altitude=95.60, speed=23.65, satellites=8, angle=308.0600, fixquality=2
$GPRMC,143007.800,A,4308.0051,N,07729.5696,W,25.91,307.87,020519,,,D*47
$GPGGA,143008.000,4308.0061,N,07729.5712,W,2,08,1.05,95.0,M,-34.4,M,0000,0000*6F
lng=-77.492828, lat=43.133415, altitude=95.30, speed=25.91, satellites=8, angle=307.8700, fixquality=2
$GPRMC,143008.200,A,4308.0071,N,07729.5730,W,28.06,306.77,020519,,,D*40
$GPGGA,143008.400,4308.0081,N,07729.5748,W,2,08,1.02,94.8,M,-34.4,M,0000,0000*64
lng=-77.492889, lat=43.133457, altitude=95.00, speed=28.06, satellites=8, angle=306.7700, fixquality=2
$GPRMC,143008.600,A,4308.0090,N,07729.5767,W,29.20,304.96,020519,,,D*41
$GPGGA,143008.800,4308.0100,N,07729.5786,W,2,08,1.05,94.8,M,-34.4,M,0000,0000*65
lng=-77.492942, lat=43.133480, altitude=94.80, speed=29.20, satellites=8, angle=304.9600, fixquality=2
$GPRMC,143009.000,A,4308.0111,N,07729.5805,W,30.80,304.85,020519,,,D*45
$GPGGA,143009.200,4308.0122,N,07729.5825,W,2,08,1.06,94.8,M,-34.4,M,0000,0000*6B
lng=-77.493011, lat=43.133522, altitude=94.80, speed=30.80, satellites=8, angle=304.8500, fixquality=2
$GPRMC,143009.400,A,4308.0132,N,07729.5846,W,31.69,304.16,020519,,,D*4B
$GPGGA,143009.600,4308.0143,N,07729.5867,W,2,08,1.06,94.3,M,-34.4,M,0000,0000*65
lng=-77.493072, lat=43.133552, altitude=94.80, speed=31.69, satellites=8, angle=304.1600, fixquality=2
$GPRMC,143009.800,A,4308.0154,N,07729.5889,W,33.03,304.07,020519,,,D*4A
$GPGGA,143010.000,4308.0166,N,07729.5911,W,2,08,1.05,93.8,M,-34.4,M,0000,0000*63
lng=-77.493148, lat=43.133594, altitude=94.30, speed=33.03, satellites=8, angle=304.0700, fixquality=2
$GPRMC,143010.200,A,4308.0177,N,07729.5933,W,34.03,304.38,020519,,,D*42
$GPGGA,143010.400,4308.0189,N,07729.5955,W,2,08,1.02,93.3,M,-34.4,M,0000,0000*6A
lng=-77.493217, lat=43.133625, altitude=93.80, speed=34.03, satellites=8, angle=304.3800, fixquality=2
$GPRMC,143010.600,A,4308.0200,N,07729.5978,W,34.63,304.46,020519,,,D*45
$GPGGA,143010.800,4308.0212,N,07729.6001,W,2,08,1.06,92.7,M,-34.4,M,0000,0000*6D
lng=-77.493293, lat=43.133666, altitude=93.30, speed=34.63, satellites=8, angle=304.4600, fixquality=2
$GPRMC,143011.000,A,4308.0224,N,07729.6024,W,36.06,304.23,020519,,,D*45
$GPGGA,143011.200,4308.0236,N,07729.6047,W,2,08,1.05,92.2,M,-34.4,M,0000,0000*64
lng=-77.493377, lat=43.133708, altitude=92.70, speed=36.06, satellites=8, angle=304.2300, fixquality=2
$GPRMC,143011.400,A,4308.0249,N,07729.6070,W,37.02,304.41,020519,,,D*4A
$GPGGA,143011.600,4308.0261,N,07729.6094,W,2,08,1.05,91.8,M,-34.4,M,0000,0000*65
lng=-77.493446, lat=43.133747, altitude=92.20, speed=37.02, satellites=8, angle=304.4100, fixquality=2
$GPRMC,143011.800,A,4308.0274,N,07729.6118,W,37.81,304.70,020519,,,D*4E
$GPGGA,143012.000,4308.0287,N,07729.6142,W,2,08,1.05,91.6,M,-34.4,M,0000,0000*6C
lng=-77.493530, lat=43.133789, altitude=91.80, speed=37.81, satellites=8, angle=304.7000, fixquality=2
$GPRMC,143012.200,A,4308.0299,N,07729.6166,W,38.63,304.62,020519,,,D*4D
$GPGGA,143012.400,4308.0312,N,07729.6191,W,2,08,1.05,91.4,M,-34.4,M,0000,0000*69
lng=-77.493614, lat=43.133831, altitude=91.60, speed=38.63, satellites=8, angle=304.6200, fixquality=2
$GPRMC,143012.600,A,4308.0325,N,07729.6215,W,39.53,304.91,020519,,,D*46
$GPGGA,143012.800,4308.0338,N,07729.6240,W,2,08,1.06,91.2,M,-34.4,M,0000,0000*67
lng=-77.493690, lat=43.133876, altitude=91.40, speed=39.53, satellites=8, angle=304.9100, fixquality=2
$GPRMC,143013.000,A,4308.0352,N,07729.6266,W,40.38,305.29,020519,,,D*44
$GPGGA,143013.200,4308.0365,N,07729.6291,W,2,08,1.05,91.1,M,-34.4,M,0000,0000*68
lng=-77.493774, lat=43.133918, altitude=91.20, speed=40.38, satellites=8, angle=305.2900, fixquality=2
$GPRMC,143013.400,A,4308.0378,N,07729.6317,W,40.79,304.69,020519,,,D*4F
$GPGGA,143013.600,4308.0392,N,07729.6343,W,2,08,1.06,90.9,M,-34.4,M,0000,0000*60
lng=-77.493865, lat=43.133960, altitude=91.10, speed=40.79, satellites=8, angle=304.6900, fixquality=2
$GPRMC,143013.800,A,4308.0406,N,07729.6369,W,41.15,304.84,020519,,,D*4C
$GPGGA,143014.000,4308.0419,N,07729.6396,W,2,08,1.05,90.6,M,-34.4,M,0000,0000*61
