Vers 57
USE_SERIAL_FEEDBACK=false
DEVELOPMENT_MODE=false
USE_RMC_ONLY=false

$GPRMC,133758.800,A,4308.6012,N,07729.5806,W,15.04,207.80,120419,,,D*42
$GPGGA,133759.000,4308.6004,N,07729.5812,W,2,08,1.09,139.2,M,-34.4,M,0000,0000*58
lng=-77.493011, lat=43.143352, altitude=139.30, speed=15.04, satellites=8, angle=207.8000, fixquality=2
$GPRMC,133759.200,A,4308.5997,N,07729.5817,W,15.02,207.95,120419,,,D*4C
$GPGGA,133759.400,4308.5990,N,07729.5824,W,2,08,1.09,139.1,M,-34.4,M,0000,0000*5D
lng=-77.493026, lat=43.143325, altitude=139.20, speed=15.02, satellites=8, angle=207.9500, fixquality=2
$GPRMC,133759.600,A,4308.5982,N,07729.5830,W,15.00,207.87,120419,,,D*48
$GPGGA,133759.800,4308.5975,N,07729.5835,W,2,07,1.41,139.0,M,-34.4,M,0000,0000*58
lng=-77.493049, lat=43.143302, altitude=139.10, speed=15.00, satellites=8, angle=207.8700, fixquality=2
$GPRMC,133800.000,A,4308.5968,N,07729.5840,W,14.65,207.84,120419,,,D*4F
$GPGGA,133800.200,4308.5960,N,07729.5846,W,2,07,1.22,138.9,M,-34.4,M,0000,0000*5C
lng=-77.493064, lat=43.143276, altitude=139.00, speed=14.65, satellites=7, angle=207.8400, fixquality=2
$GPRMC,133800.400,A,4308.5953,N,07729.5851,W,14.54,207.81,120419,,,D*44
$GPGGA,133800.600,4308.5945,N,07729.5857,W,2,07,1.22,138.8,M,-34.4,M,0000,0000*5E
lng=-77.493080, lat=43.143253, altitude=138.90, speed=14.54, satellites=7, angle=207.8100, fixquality=2
$GPRMC,133800.800,A,4308.5938,N,07729.5862,W,14.32,208.26,120419,,,D*47
$GPGGA,133801.000,4308.5931,N,07729.5867,W,2,07,1.41,138.8,M,-34.4,M,0000,0000*5C
lng=-77.493110, lat=43.143230, altitude=138.80, speed=14.32, satellites=7, angle=208.2600, fixquality=2
$GPRMC,133801.200,A,4308.5924,N,07729.5871,W,13.98,208.32,120419,,,D*41
$GPGGA,133801.400,4308.5918,N,07729.5876,W,2,07,1.22,138.7,M,-34.4,M,0000,0000*59
lng=-77.493118, lat=43.143203, altitude=138.80, speed=13.98, satellites=7, angle=208.3200, fixquality=2
$GPRMC,133801.600,A,4308.5911,N,07729.5882,W,13.80,208.11,120419,,,D*47
$GPGGA,133801.800,4308.5905,N,07729.5888,W,2,07,1.41,138.7,M,-34.4,M,0000,0000*5D
lng=-77.493141, lat=43.143188, altitude=138.70, speed=13.80, satellites=7, angle=208.1100, fixquality=2
$GPRMC,133802.000,A,4308.5899,N,07729.5893,W,13.32,207.28,120419,,,D*4F
$GPGGA,133802.200,4308.5892,N,07729.5898,W,2,07,1.22,138.6,M,-34.4,M,0000,0000*5E
lng=-77.493156, lat=43.143165, altitude=138.70, speed=13.32, satellites=7, angle=207.2800, fixquality=2
$GPRMC,133802.400,A,4308.5885,N,07729.5903,W,13.34,208.45,120419,,,D*4C
$GPGGA,133802.600,4308.5878,N,07729.5908,W,2,07,1.41,138.5,M,-34.4,M,0000,0000*50
lng=-77.493171, lat=43.143138, altitude=138.60, speed=13.34, satellites=7, angle=208.4500, fixquality=2
$GPRMC,133802.800,A,4308.5872,N,07729.5913,W,13.85,208.15,120419,,,D*46
$GPGGA,133803.000,4308.5865,N,07729.5919,W,2,07,1.41,138.4,M,-34.4,M,0000,0000*5A
lng=-77.493186, lat=43.143123, altitude=138.50, speed=13.85, satellites=7, angle=208.1500, fixquality=2
$GPRMC,133803.200,A,4308.5858,N,07729.5924,W,14.31,207.93,120419,,,D*48
$GPGGA,133803.400,4308.5850,N,07729.5930,W,2,07,1.22,138.3,M,-34.4,M,0000,0000*51
lng=-77.493202, lat=43.143100, altitude=138.40, speed=14.31, satellites=7, angle=207.9300, fixquality=2
$GPRMC,133803.600,A,4308.5843,N,07729.5934,W,14.96,207.26,120419,,,D*44
$GPGGA,133803.800,4308.5835,N,07729.5942,W,2,07,1.22,138.2,M,-34.4,M,0000,0000*5A
lng=-77.493217, lat=43.143074, altitude=138.30, speed=14.96, satellites=7, angle=207.2600, fixquality=2
$GPRMC,133804.000,A,4308.5826,N,07729.5947,W,16.15,208.86,120419,,,D*4E
$GPGGA,133804.200,4308.5819,N,07729.5953,W,2,07,1.22,138.0,M,-34.4,M,0000,0000*5B
lng=-77.493247, lat=43.143043, altitude=138.20, speed=16.15, satellites=7, angle=208.8600, fixquality=2
$GPRMC,133804.400,A,4308.5810,N,07729.5960,W,16.66,209.31,120419,,,D*43
$GPGGA,133804.600,4308.5802,N,07729.5966,W,2,08,1.09,137.8,M,-34.4,M,0000,0000*52
lng=-77.493270, lat=43.143016, altitude=138.00, speed=16.66, satellites=7, angle=209.3100, fixquality=2
$GPRMC,133804.800,A,4308.5794,N,07729.5972,W,17.24,208.15,120419,,,D*4F
$GPGGA,133805.000,4308.5785,N,07729.5978,W,2,08,1.09,137.7,M,-34.4,M,0000,0000*55
lng=-77.493286, lat=43.142993, altitude=137.80, speed=17.24, satellites=8, angle=208.1500, fixquality=2
$GPRMC,133805.200,A,4308.5777,N,07729.5985,W,17.56,208.20,120419,,,D*42
$GPGGA,133805.400,4308.5768,N,07729.5991,W,2,08,1.09,137.7,M,-34.4,M,0000,0000*55
lng=-77.493309, lat=43.142959, altitude=137.70, speed=17.56, satellites=8, angle=208.2000, fixquality=2
$GPRMC,133805.600,A,4308.5760,N,07729.5997,W,17.84,207.38,120419,,,D*4A
$GPGGA,133805.800,4308.5751,N,07729.6004,W,2,08,1.26,137.6,M,-34.4,M,0000,0000*59
lng=-77.493324, lat=43.142936, altitude=137.70, speed=17.84, satellites=8, angle=207.3800, fixquality=2
$GPRMC,133806.000,A,4308.5741,N,07729.6009,W,18.09,206.56,120419,,,D*42
$GPGGA,133806.200,4308.5732,N,07729.6015,W,2,08,1.09,137.6,M,-34.4,M,0000,0000*58
lng=-77.493354, lat=43.142902, altitude=137.60, speed=18.09, satellites=8, angle=206.5600, fixquality=2
$GPRMC,133806.400,A,4308.5722,N,07729.6021,W,18.46,206.53,120419,,,D*47
$GPGGA,133806.600,4308.5712,N,07729.6026,W,2,07,1.41,137.5,M,-34.4,M,0000,0000*5E
lng=-77.493370, lat=43.142871, altitude=137.60, speed=18.46, satellites=8, angle=206.5300, fixquality=2
$GPRMC,133806.800,A,4308.5702,N,07729.6032,W,18.49,207.37,120419,,,D*47
$GPGGA,133807.000,4308.5692,N,07729.6038,W,2,07,1.41,137.5,M,-34.4,M,0000,0000*5F
lng=-77.493385, lat=43.142837, altitude=137.50, speed=18.49, satellites=7, angle=207.3700, fixquality=2
$GPRMC,133807.200,A,4308.5682,N,07729.6044,W,18.56,207.77,120419,,,D*4E
$GPGGA,133807.400,4308.5673,N,07729.6050,W,2,08,1.09,137.5,M,-34.4,M,0000,0000*59
lng=-77.493408, lat=43.142807, altitude=137.50, speed=18.56, satellites=7, angle=207.7700, fixquality=2
$GPRMC,133807.600,A,4308.5663,N,07729.6057,W,18.56,208.40,120419,,,D*4C
$GPGGA,133807.800,4308.5654,N,07729.6063,W,2,07,1.41,137.5,M,-34.4,M,0000,0000*53
lng=-77.493423, lat=43.142772, altitude=137.50, speed=18.56, satellites=8, angle=208.4000, fixquality=2
$GPRMC,133808.000,A,4308.5645,N,07729.6070,W,18.24,208.07,120419,,,D*42
$GPGGA,133808.200,4308.5636,N,07729.6077,W,2,07,1.22,137.5,M,-34.4,M,0000,0000*52
lng=-77.493446, lat=43.142742, altitude=137.50, speed=18.24, satellites=7, angle=208.0700, fixquality=2
$GPRMC,133808.400,A,4308.5627,N,07729.6083,W,17.96,207.98,120419,,,D*41
$GPGGA,133808.600,4308.5618,N,07729.6090,W,2,07,1.22,137.5,M,-34.4,M,0000,0000*53
lng=-77.493476, lat=43.142707, altitude=137.50, speed=17.96, satellites=7, angle=207.9800, fixquality=2
$GPRMC,133808.800,A,4308.5609,N,07729.6097,W,17.84,208.07,120419,,,D*4E
$GPGGA,133809.000,4308.5600,N,07729.6103,W,2,07,1.41,137.5,M,-34.4,M,0000,0000*53
lng=-77.493499, lat=43.142684, altitude=137.50, speed=17.84, satellites=7, angle=208.0700, fixquality=2
$GPRMC,133809.200,A,4308.5592,N,07729.6109,W,17.62,207.75,120419,,,D*40
$GPGGA,133809.400,4308.5583,N,07729.6115,W,2,07,1.22,137.5,M,-34.4,M,0000,0000*5D
lng=-77.493515, lat=43.142650, altitude=137.50, speed=17.62, satellites=7, angle=207.7500, fixquality=2
$GPRMC,133809.600,A,4308.5575,N,07729.6122,W,17.62,210.79,120419,,,D*4E
$GPGGA,133809.800,4308.5567,N,07729.6129,W,2,08,1.26,137.5,M,-34.4,M,0000,0000*5F
lng=-77.493537, lat=43.142627, altitude=137.50, speed=17.62, satellites=7, angle=210.7900, fixquality=2
$GPRMC,133810.000,A,4308.5559,N,07729.6136,W,17.12,207.53,120419,,,D*42
$GPGGA,133810.200,4308.5551,N,07729.6142,W,2,08,1.09,137.5,M,-34.4,M,0000,0000*58
lng=-77.493560, lat=43.142593, altitude=137.50, speed=17.12, satellites=8, angle=207.5300, fixquality=2
$GPRMC,133810.400,A,4308.5543,N,07729.6149,W,16.90,207.60,120419,,,D*4E
$GPGGA,133810.600,4308.5535,N,07729.6157,W,2,07,1.22,137.5,M,-34.4,M,0000,0000*5C
lng=-77.493576, lat=43.142570, altitude=137.50, speed=16.90, satellites=8, angle=207.6000, fixquality=2
$GPRMC,133810.800,A,4308.5527,N,07729.6164,W,16.19,207.88,120419,,,D*48
$GPGGA,133811.000,4308.5519,N,07729.6170,W,2,08,1.26,137.5,M,-34.4,M,0000,0000*5B
lng=-77.493606, lat=43.142543, altitude=137.50, speed=16.19, satellites=7, angle=207.8800, fixquality=2
$GPRMC,133811.200,A,4308.5511,N,07729.6176,W,16.64,208.06,120419,,,D*46
$GPGGA,133811.400,4308.5502,N,07729.6182,W,2,08,1.26,137.5,M,-34.4,M,0000,0000*58
lng=-77.493629, lat=43.142520, altitude=137.50, speed=16.64, satellites=8, angle=208.0600, fixquality=2
$GPRMC,133811.600,A,4308.5494,N,07729.6189,W,17.16,207.57,120419,,,D*41
$GPGGA,133811.800,4308.5485,N,07729.6195,W,2,08,1.26,137.5,M,-34.4,M,0000,0000*5C
lng=-77.493652, lat=43.142490, altitude=137.50, speed=17.16, satellites=8, angle=207.5700, fixquality=2
$GPRMC,133812.000,A,4308.5477,N,07729.6202,W,17.39,209.29,120419,,,D*43
$GPGGA,133812.200,4308.5468,N,07729.6209,W,2,08,1.09,137.6,M,-34.4,M,0000,0000*5E
lng=-77.493667, lat=43.142463, altitude=137.50, speed=17.39, satellites=8, angle=209.2900, fixquality=2
$GPRMC,133812.400,A,4308.5460,N,07729.6216,W,17.81,208.36,120419,,,D*48
$GPGGA,133812.600,4308.5452,N,07729.6223,W,2,07,1.22,137.6,M,-34.4,M,0000,0000*5D
lng=-77.493690, lat=43.142433, altitude=137.60, speed=17.81, satellites=8, angle=208.3600, fixquality=2
$GPRMC,133812.800,A,4308.5443,N,07729.6230,W,17.91,208.26,120419,,,D*41
$GPGGA,133813.000,4308.5435,N,07729.6237,W,2,08,1.26,137.4,M,-34.4,M,0000,0000*57
lng=-77.493721, lat=43.142406, altitude=137.60, speed=17.91, satellites=7, angle=208.2600, fixquality=2
$GPRMC,133813.200,A,4308.5426,N,07729.6243,W,18.57,208.13,120419,,,D*4E
$GPGGA,133813.400,4308.5417,N,07729.6250,W,2,08,1.26,137.2,M,-34.4,M,0000,0000*54
lng=-77.493743, lat=43.142375, altitude=137.40, speed=18.57, satellites=8, angle=208.1300, fixquality=2
$GPRMC,133813.600,A,4308.5408,N,07729.6256,W,19.05,207.78,120419,,,D*46
$GPGGA,133813.800,4308.5399,N,07729.6262,W,2,08,1.26,137.2,M,-34.4,M,0000,0000*58
lng=-77.493759, lat=43.142349, altitude=137.20, speed=19.05, satellites=8, angle=207.7800, fixquality=2
$GPRMC,133814.000,A,4308.5389,N,07729.6270,W,18.99,208.22,120419,,,D*49
$GPGGA,133814.200,4308.5380,N,07729.6276,W,2,08,1.26,137.0,M,-34.4,M,0000,0000*5A
lng=-77.493782, lat=43.142318, altitude=137.20, speed=18.99, satellites=8, angle=208.2200, fixquality=2
$GPRMC,133814.400,A,4308.5371,N,07729.6283,W,18.71,208.22,120419,,,D*40
$GPGGA,133814.600,4308.5362,N,07729.6289,W,2,08,1.26,136.9,M,-34.4,M,0000,0000*5A
lng=-77.493804, lat=43.142284, altitude=137.00, speed=18.71, satellites=8, angle=208.2200, fixquality=2
$GPRMC,133814.800,A,4308.5353,N,07729.6296,W,18.53,208.97,120419,,,D*46
$GPGGA,133815.000,4308.5344,N,07729.6303,W,2,08,1.26,136.9,M,-34.4,M,0000,0000*5A
lng=-77.493820, lat=43.142253, altitude=136.90, speed=18.53, satellites=8, angle=208.9700, fixquality=2
$GPRMC,133815.200,A,4308.5335,N,07729.6310,W,18.35,208.99,120419,,,D*4C
$GPGGA,133815.400,4308.5326,N,07729.6316,W,2,08,1.26,136.8,M,-34.4,M,0000,0000*5F
lng=-77.493850, lat=43.142227, altitude=136.90, speed=18.35, satellites=8, angle=208.9900, fixquality=2
$GPRMC,133815.600,A,4308.5317,N,07729.6323,W,18.13,208.35,120419,,,D*4A
$GPGGA,133815.800,4308.5308,N,07729.6329,W,2,08,1.26,136.7,M,-34.4,M,0000,0000*5C
lng=-77.493873, lat=43.142196, altitude=136.80, speed=18.13, satellites=8, angle=208.3500, fixquality=2
$GPRMC,133816.000,A,4308.5300,N,07729.6335,W,17.83,208.18,120419,,,D*47
$GPGGA,133816.200,4308.5291,N,07729.6341,W,2,08,1.09,136.7,M,-34.4,M,0000,0000*57
lng=-77.493888, lat=43.142162, altitude=136.70, speed=17.83, satellites=8, angle=208.1800, fixquality=2
$GPRMC,133816.400,A,4308.5283,N,07729.6347,W,17.24,205.72,120419,,,D*40
$GPGGA,133816.600,4308.5274,N,07729.6353,W,2,08,1.26,136.7,M,-34.4,M,0000,0000*56
lng=-77.493911, lat=43.142139, altitude=136.70, speed=17.24, satellites=8, angle=205.7200, fixquality=2
$GPRMC,133816.800,A,4308.5267,N,07729.6359,W,16.99,214.28,120419,,,D*41
$GPGGA,133817.000,4308.5259,N,07729.6366,W,2,08,1.26,136.6,M,-34.4,M,0000,0000*59
lng=-77.493927, lat=43.142112, altitude=136.70, speed=16.99, satellites=8, angle=214.2800, fixquality=2
$GPRMC,133817.200,A,4308.5250,N,07729.6372,W,16.93,204.39,120419,,,D*4C
$GPGGA,133817.400,4308.5241,N,07729.6377,W,2,08,1.26,136.6,M,-34.4,M,0000,0000*54
lng=-77.493949, lat=43.142082, altitude=136.60, speed=16.93, satellites=8, angle=204.3900, fixquality=2
$GPRMC,133817.600,A,4308.5232,N,07729.6382,W,17.01,204.99,120419,,,D*43
$GPGGA,133817.800,4308.5224,N,07729.6388,W,2,08,1.26,136.6,M,-34.4,M,0000,0000*5B
lng=-77.493972, lat=43.142055, altitude=136.60, speed=17.01, satellites=8, angle=204.9900, fixquality=2
$GPRMC,133818.000,A,4308.5215,N,07729.6393,W,17.56,204.85,120419,,,D*40
$GPGGA,133818.200,4308.5207,N,07729.6399,W,2,08,1.09,136.6,M,-34.4,M,0000,0000*52
lng=-77.493988, lat=43.142024, altitude=136.60, speed=17.56, satellites=8, angle=204.8500, fixquality=2
$GPRMC,133818.400,A,4308.5198,N,07729.6404,W,17.80,204.88,120419,,,D*4D
$GPGGA,133818.600,4308.5189,N,07729.6409,W,2,08,1.09,136.6,M,-34.4,M,0000,0000*5D
lng=-77.494010, lat=43.142002, altitude=136.60, speed=17.80, satellites=8, angle=204.8800, fixquality=2
$GPRMC,133818.800,A,4308.5180,N,07729.6415,W,17.88,203.88,120419,,,D*47
$GPGGA,133819.000,4308.5170,N,07729.6418,W,2,08,1.26,136.5,M,-34.4,M,0000,0000*52
lng=-77.494026, lat=43.141967, altitude=136.60, speed=17.88, satellites=8, angle=203.8800, fixquality=2
$GPRMC,133819.200,A,4308.5160,N,07729.6423,W,18.37,201.52,120419,,,D*49
$GPGGA,133819.400,4308.5150,N,07729.6428,W,2,08,1.09,136.5,M,-34.4,M,0000,0000*5A
lng=-77.494033, lat=43.141933, altitude=136.50, speed=18.37, satellites=8, angle=201.5200, fixquality=2
$GPRMC,133819.600,A,4308.5141,N,07729.6432,W,18.40,199.87,120419,,,D*44
$GPGGA,133819.800,4308.5131,N,07729.6436,W,2,08,1.09,136.5,M,-34.4,M,0000,0000*5E
lng=-77.494049, lat=43.141902, altitude=136.50, speed=18.40, satellites=8, angle=199.8700, fixquality=2
$GPRMC,133820.000,A,4308.5121,N,07729.6440,W,18.37,197.73,120419,,,D*4E
$GPGGA,133820.200,4308.5111,N,07729.6444,W,2,08,1.09,136.4,M,-34.4,M,0000,0000*58
lng=-77.494064, lat=43.141868, altitude=136.50, speed=18.37, satellites=8, angle=197.7300, fixquality=2
$GPRMC,133820.400,A,4308.5100,N,07729.6446,W,19.05,193.47,120419,,,D*4C
$GPGGA,133820.600,4308.5088,N,07729.6448,W,2,08,1.09,136.3,M,-34.4,M,0000,0000*56
lng=-77.494071, lat=43.141830, altitude=136.40, speed=19.05, satellites=8, angle=193.4700, fixquality=2
$GPRMC,133820.800,A,4308.5077,N,07729.6450,W,19.67,189.28,120419,,,D*40
$GPGGA,133821.000,4308.5066,N,07729.6452,W,2,08,1.09,136.3,M,-34.4,M,0000,0000*5A
lng=-77.494087, lat=43.141796, altitude=136.30, speed=19.67, satellites=8, angle=189.2800, fixquality=2
$GPRMC,133821.200,A,4308.5055,N,07729.6454,W,19.92,187.25,120419,,,D*46
$GPGGA,133821.400,4308.5043,N,07729.6456,W,2,08,1.09,136.2,M,-34.4,M,0000,0000*5C
lng=-77.494094, lat=43.141757, altitude=136.30, speed=19.92, satellites=8, angle=187.2500, fixquality=2
$GPRMC,133821.600,A,4308.5032,N,07729.6457,W,20.61,184.64,120419,,,D*40
$GPGGA,133821.800,4308.5021,N,07729.6458,W,2,08,1.09,136.1,M,-34.4,M,0000,0000*59
lng=-77.494094, lat=43.141723, altitude=136.20, speed=20.61, satellites=8, angle=184.6400, fixquality=2
$GPRMC,133822.000,A,4308.5010,N,07729.6459,W,20.93,182.88,120419,,,D*42
$GPGGA,133822.200,4308.4999,N,07729.6459,W,2,08,1.09,136.1,M,-34.4,M,0000,0000*5A
lng=-77.494102, lat=43.141681, altitude=136.10, speed=20.93, satellites=8, angle=182.8800, fixquality=2
$GPRMC,133822.400,A,4308.4987,N,07729.6459,W,20.85,182.20,120419,,,D*45
$GPGGA,133822.600,4308.4976,N,07729.6459,W,2,08,1.09,136.0,M,-34.4,M,0000,0000*5E
lng=-77.494102, lat=43.141643, altitude=136.10, speed=20.85, satellites=8, angle=182.2000, fixquality=2
$GPRMC,133822.800,A,4308.4966,N,07729.6459,W,20.56,181.66,120419,,,D*49
$GPGGA,133823.000,4308.4955,N,07729.6459,W,2,08,1.26,135.9,M,-34.4,M,0000,0000*5F
lng=-77.494102, lat=43.141609, altitude=136.00, speed=20.56, satellites=8, angle=181.6600, fixquality=2
$GPRMC,133823.200,A,4308.4943,N,07729.6459,W,20.52,181.85,120419,,,D*4C
$GPGGA,133823.400,4308.4932,N,07729.6459,W,2,08,1.09,135.9,M,-34.4,M,0000,0000*57
lng=-77.494102, lat=43.141567, altitude=135.90, speed=20.52, satellites=8, angle=181.8500, fixquality=2
$GPRMC,133823.600,A,4308.4920,N,07729.6460,W,20.54,182.24,120419,,,D*49
$GPGGA,133823.800,4308.4909,N,07729.6460,W,2,08,1.09,135.8,M,-34.4,M,0000,0000*58
lng=-77.494102, lat=43.141536, altitude=135.90, speed=20.54, satellites=8, angle=182.2400, fixquality=2
$GPRMC,133824.000,A,4308.4897,N,07729.6460,W,20.59,182.88,120419,,,D*4E
$GPGGA,133824.200,4308.4886,N,07729.6461,W,2,08,1.09,135.8,M,-34.4,M,0000,0000*52
lng=-77.494102, lat=43.141494, altitude=135.80, speed=20.59, satellites=8, angle=182.8800, fixquality=2
$GPRMC,133824.400,A,4308.4874,N,07729.6462,W,20.68,183.55,120419,,,D*46
$GPGGA,133824.600,4308.4863,N,07729.6463,W,2,08,1.09,135.7,M,-34.4,M,0000,0000*50
lng=-77.494102, lat=43.141456, altitude=135.80, speed=20.68, satellites=8, angle=183.5500, fixquality=2
$GPRMC,133824.800,A,4308.4852,N,07729.6464,W,20.44,183.76,120419,,,D*47
$GPGGA,133825.000,4308.4841,N,07729.6464,W,2,08,1.26,135.7,M,-34.4,M,0000,0000*5D
lng=-77.494110, lat=43.141422, altitude=135.70, speed=20.44, satellites=8, angle=183.7600, fixquality=2
$GPRMC,133825.200,A,4308.4830,N,07729.6465,W,20.21,184.03,120419,,,D*4F
$GPGGA,133825.400,4308.4819,N,07729.6466,W,2,08,1.09,135.7,M,-34.4,M,0000,0000*5B
lng=-77.494110, lat=43.141380, altitude=135.70, speed=20.21, satellites=8, angle=184.0300, fixquality=2
$GPRMC,133825.600,A,4308.4808,N,07729.6467,W,19.85,185.33,120419,,,D*44
$GPGGA,133825.800,4308.4797,N,07729.6468,W,2,08,1.26,135.7,M,-34.4,M,0000,0000*5D
lng=-77.494110, lat=43.141349, altitude=135.70, speed=19.85, satellites=8, angle=185.3300, fixquality=2
$GPRMC,133826.000,A,4308.4785,N,07729.6468,W,20.02,185.26,120419,,,D*45
$GPGGA,133826.200,4308.4773,N,07729.6469,W,2,08,1.09,135.6,M,-34.4,M,0000,0000*53
lng=-77.494117, lat=43.141307, altitude=135.70, speed=20.02, satellites=8, angle=185.2600, fixquality=2
$GPRMC,133826.400,A,4308.4762,N,07729.6471,W,20.03,185.27,120419,,,D*40
$GPGGA,133826.600,4308.4751,N,07729.6472,W,2,08,1.09,135.5,M,-34.4,M,0000,0000*5E
lng=-77.494117, lat=43.141269, altitude=135.60, speed=20.03, satellites=8, angle=185.2700, fixquality=2
$GPRMC,133826.800,A,4308.4740,N,07729.6473,W,20.01,185.78,120419,,,D*46
$GPGGA,133827.000,4308.4728,N,07729.6474,W,2,08,1.09,135.5,M,-34.4,M,0000,0000*51
lng=-77.494125, lat=43.141235, altitude=135.50, speed=20.01, satellites=8, angle=185.7800, fixquality=2
$GPRMC,133827.200,A,4308.4716,N,07729.6475,W,20.09,185.72,120419,,,D*4A
$GPGGA,133827.400,4308.4705,N,07729.6477,W,2,08,1.09,135.4,M,-34.4,M,0000,0000*58
lng=-77.494125, lat=43.141193, altitude=135.50, speed=20.09, satellites=8, angle=185.7200, fixquality=2
$GPRMC,133827.600,A,4308.4694,N,07729.6478,W,20.16,185.67,120419,,,D*42
$GPGGA,133827.800,4308.4682,N,07729.6479,W,2,08,1.09,135.4,M,-34.4,M,0000,0000*54
lng=-77.494132, lat=43.141155, altitude=135.40, speed=20.16, satellites=8, angle=185.6700, fixquality=2
$GPRMC,133828.000,A,4308.4671,N,07729.6480,W,20.35,185.37,120419,,,D*43
$GPGGA,133828.200,4308.4659,N,07729.6481,W,2,08,1.09,135.3,M,-34.4,M,0000,0000*57
lng=-77.494132, lat=43.141120, altitude=135.40, speed=20.35, satellites=8, angle=185.3700, fixquality=2
$GPRMC,133828.400,A,4308.4648,N,07729.6482,W,20.37,185.19,120419,,,D*41
$GPGGA,133828.600,4308.4637,N,07729.6483,W,2,08,1.09,135.3,M,-34.4,M,0000,0000*59
lng=-77.494140, lat=43.141078, altitude=135.30, speed=20.37, satellites=8, angle=185.1900, fixquality=2
$GPRMC,133828.800,A,4308.4627,N,07729.6483,W,19.81,184.08,120419,,,D*43
$GPGGA,133829.000,4308.4617,N,07729.6484,W,2,08,1.09,135.2,M,-34.4,M,0000,0000*5A
lng=-77.494140, lat=43.141048, altitude=135.30, speed=19.81, satellites=8, angle=184.0800, fixquality=2
$GPRMC,133829.200,A,4308.4606,N,07729.6485,W,19.45,183.74,120419,,,D*49
$GPGGA,133829.400,4308.4596,N,07729.6485,W,2,08,1.09,135.1,M,-34.4,M,0000,0000*56
lng=-77.494140, lat=43.141006, altitude=135.20, speed=19.45, satellites=8, angle=183.7400, fixquality=2
$GPRMC,133829.600,A,4308.4586,N,07729.6486,W,18.72,183.10,120419,,,D*42
$GPGGA,133829.800,4308.4576,N,07729.6488,W,2,07,1.16,135.0,M,-34.4,M,0000,0000*59
lng=-77.494140, lat=43.140975, altitude=135.10, speed=18.72, satellites=8, angle=183.1000, fixquality=2
$GPRMC,133830.000,A,4308.4570,N,07729.6489,W,16.95,182.82,120419,,,D*47
$GPGGA,133830.200,4308.4561,N,07729.6491,W,2,07,1.16,134.8,M,-34.4,M,0000,0000*5C
lng=-77.494148, lat=43.140949, altitude=135.00, speed=16.95, satellites=7, angle=182.8200, fixquality=2
$GPRMC,133830.400,A,4308.4552,N,07729.6493,W,16.18,184.14,120419,,,D*44
$GPGGA,133830.600,4308.4543,N,07729.6494,W,2,07,1.16,134.7,M,-34.4,M,0000,0000*52
lng=-77.494155, lat=43.140918, altitude=134.80, speed=16.18, satellites=7, angle=184.1400, fixquality=2
$GPRMC,133830.800,A,4308.4537,N,07729.6496,W,14.15,185.19,120419,,,D*4D
$GPGGA,133831.000,4308.4532,N,07729.6495,W,2,08,1.09,134.5,M,-34.4,M,0000,0000*51
lng=-77.494155, lat=43.140892, altitude=134.70, speed=14.15, satellites=7, angle=185.1900, fixquality=2
$GPRMC,133831.200,A,4308.4525,N,07729.6496,W,12.54,185.45,120419,,,D*4F
$GPGGA,133831.400,4308.4519,N,07729.6497,W,2,07,1.16,134.4,M,-34.4,M,0000,0000*5E
lng=-77.494155, lat=43.140876, altitude=134.50, speed=12.54, satellites=8, angle=185.4500, fixquality=2
$GPRMC,133831.600,A,4308.4514,N,07729.6499,W,10.86,188.13,120419,,,D*45
$GPGGA,133831.800,4308.4510,N,07729.6500,W,2,07,1.16,134.2,M,-34.4,M,0000,0000*52
lng=-77.494163, lat=43.140853, altitude=134.40, speed=10.86, satellites=7, angle=188.1300, fixquality=2
$GPRMC,133832.000,A,4308.4506,N,07729.6500,W,9.16,189.64,120419,,,D*72
$GPGGA,133832.200,4308.4502,N,07729.6501,W,2,08,1.09,134.2,M,-34.4,M,0000,0000*58
lng=-77.494163, lat=43.140846, altitude=134.20, speed=9.16, satellites=7, angle=189.6400, fixquality=2
$GPRMC,133832.400,A,4308.4498,N,07729.6501,W,7.86,189.92,120419,,,D*7F
$GPGGA,133832.600,4308.4495,N,07729.6503,W,2,08,1.09,134.1,M,-34.4,M,0000,0000*52
lng=-77.494163, lat=43.140827, altitude=134.20, speed=7.86, satellites=8, angle=189.9200, fixquality=2
$GPRMC,133832.800,A,4308.4492,N,07729.6502,W,7.09,192.10,120419,,,D*7D
$GPGGA,133833.000,4308.4490,N,07729.6502,W,2,08,1.09,134.0,M,-34.4,M,0000,0000*50
lng=-77.494171, lat=43.140819, altitude=134.10, speed=7.09, satellites=8, angle=192.1000, fixquality=2
$GPRMC,133833.200,A,4308.4487,N,07729.6502,W,6.53,194.01,120419,,,D*7A
$GPGGA,133833.400,4308.4484,N,07729.6503,W,2,08,1.09,133.9,M,-34.4,M,0000,0000*5E
lng=-77.494171, lat=43.140811, altitude=134.00, speed=6.53, satellites=8, angle=194.0100, fixquality=2
$GPRMC,133833.600,A,4308.4481,N,07729.6504,W,6.20,195.92,120419,,,D*71
$GPGGA,133833.800,4308.4479,N,07729.6505,W,2,07,1.16,133.8,M,-34.4,M,0000,0000*56
lng=-77.494171, lat=43.140804, altitude=133.90, speed=6.20, satellites=8, angle=195.9200, fixquality=2
$GPRMC,133834.000,A,4308.4477,N,07729.6505,W,5.60,197.36,120419,,,D*73
$GPGGA,133834.200,4308.4475,N,07729.6505,W,2,08,1.09,133.8,M,-34.4,M,0000,0000*56
lng=-77.494171, lat=43.140796, altitude=133.80, speed=5.60, satellites=7, angle=197.3600, fixquality=2
$GPRMC,133834.400,A,4308.4474,N,07729.6505,W,4.87,196.64,120419,,,D*7A
$GPGGA,133834.600,4308.4472,N,07729.6506,W,2,07,1.16,133.7,M,-34.4,M,0000,0000*58
lng=-77.494171, lat=43.140789, altitude=133.80, speed=4.87, satellites=8, angle=196.6400, fixquality=2
$GPRMC,133834.800,A,4308.4472,N,07729.6506,W,4.32,193.57,120419,,,D*78
$GPGGA,133835.000,4308.4474,N,07729.6504,W,2,07,1.16,133.6,M,-34.4,M,0000,0000*5A
lng=-77.494171, lat=43.140789, altitude=133.70, speed=4.32, satellites=7, angle=193.5700, fixquality=2
$GPRMC,133835.200,A,4308.4474,N,07729.6503,W,3.03,184.64,120419,,,D*73
$GPGGA,133835.400,4308.4474,N,07729.6503,W,2,07,1.16,133.6,M,-34.4,M,0000,0000*59
lng=-77.494171, lat=43.140789, altitude=133.60, speed=3.03, satellites=7, angle=184.6400, fixquality=2
$GPRMC,133835.600,A,4308.4473,N,07729.6502,W,3.07,179.33,120419,,,D*75
$GPGGA,133835.800,4308.4471,N,07729.6502,W,2,07,1.16,133.5,M,-34.4,M,0000,0000*52
lng=-77.494171, lat=43.140789, altitude=133.60, speed=3.07, satellites=7, angle=179.3300, fixquality=2
$GPRMC,133836.000,A,4308.4471,N,07729.6501,W,3.29,176.09,120419,,,D*7B
$GPGGA,133836.200,4308.4469,N,07729.6501,W,2,07,1.16,133.4,M,-34.4,M,0000,0000*50
lng=-77.494163, lat=43.140789, altitude=133.50, speed=3.29, satellites=7, angle=176.0900, fixquality=2
$GPRMC,133836.400,A,4308.4467,N,07729.6501,W,3.70,177.08,120419,,,D*74
$GPGGA,133836.600,4308.4465,N,07729.6502,W,2,07,1.16,133.4,M,-34.4,M,0000,0000*5B
lng=-77.494163, lat=43.140781, altitude=133.40, speed=3.70, satellites=7, angle=177.0800, fixquality=2
$GPRMC,133836.800,A,4308.4463,N,07729.6503,W,4.42,180.89,120419,,,D*79
$GPGGA,133837.000,4308.4462,N,07729.6503,W,2,08,1.09,133.4,M,-34.4,M,0000,0000*5B
lng=-77.494171, lat=43.140769, altitude=133.40, speed=4.42, satellites=7, angle=180.8900, fixquality=2
$GPRMC,133837.200,A,4308.4462,N,07729.6502,W,4.81,183.09,120419,,,D*76
$GPGGA,133837.400,4308.4462,N,07729.6499,W,2,08,1.09,133.3,M,-34.4,M,0000,0000*5A
lng=-77.494171, lat=43.140769, altitude=133.40, speed=4.81, satellites=8, angle=183.0900, fixquality=2
$GPRMC,133837.600,A,4308.4463,N,07729.6497,W,4.99,186.21,120419,,,D*78
$GPGGA,133837.800,4308.4464,N,07729.6494,W,2,08,1.09,133.2,M,-34.4,M,0000,0000*5C
lng=-77.494163, lat=43.140769, altitude=133.30, speed=4.99, satellites=8, angle=186.2100, fixquality=2
$GPRMC,133838.000,A,4308.4465,N,07729.6493,W,4.79,188.64,120419,,,D*72
$GPGGA,133838.200,4308.4462,N,07729.6494,W,2,08,1.09,133.2,M,-34.4,M,0000,0000*5F
lng=-77.494155, lat=43.140769, altitude=133.20, speed=4.79, satellites=8, angle=188.6400, fixquality=2
$GPRMC,133838.400,A,4308.4462,N,07729.6494,W,4.22,186.92,120419,,,D*7F
$GPGGA,133838.600,4308.4461,N,07729.6494,W,2,08,1.09,133.2,M,-34.4,M,0000,0000*58
lng=-77.494155, lat=43.140769, altitude=133.20, speed=4.22, satellites=8, angle=186.9200, fixquality=2
$GPRMC,133838.800,A,4308.4460,N,07729.6495,W,3.46,184.44,120419,,,D*7C
$GPGGA,133839.000,4308.4460,N,07729.6495,W,2,07,1.16,133.2,M,-34.4,M,0000,0000*5E
lng=-77.494155, lat=43.140762, altitude=133.20, speed=3.46, satellites=8, angle=184.4400, fixquality=2
$GPRMC,133839.200,A,4308.4459,N,07729.6495,W,2.95,184.57,120419,,,D*70
$GPGGA,133839.400,4308.4458,N,07729.6496,W,2,08,1.09,133.2,M,-34.4,M,0000,0000*53
lng=-77.494155, lat=43.140762, altitude=133.20, speed=2.95, satellites=7, angle=184.5700, fixquality=2
$GPRMC,133839.600,A,4308.4457,N,07729.6497,W,2.71,184.57,120419,,,D*72
$GPGGA,133839.800,4308.4456,N,07729.6497,W,2,07,1.16,133.2,M,-34.4,M,0000,0000*51
lng=-77.494163, lat=43.140762, altitude=133.20, speed=2.71, satellites=8, angle=184.5700, fixquality=2
$GPRMC,133840.000,A,4308.4455,N,07729.6497,W,2.72,184.57,120419,,,D*7B
$GPGGA,133840.200,4308.4454,N,07729.6497,W,2,08,1.09,133.2,M,-34.4,M,0000,0000*56
lng=-77.494163, lat=43.140754, altitude=133.20, speed=2.72, satellites=7, angle=184.5700, fixquality=2
$GPRMC,133840.400,A,4308.4452,N,07729.6497,W,3.08,172.96,120419,,,D*70
$GPGGA,133840.600,4308.4450,N,07729.6497,W,2,08,1.09,133.2,M,-34.4,M,0000,0000*56
lng=-77.494163, lat=43.140754, altitude=133.20, speed=3.08, satellites=8, angle=172.9600, fixquality=2
$GPRMC,133840.800,A,4308.4447,N,07729.6497,W,4.05,166.57,120419,,,D*7A
$GPGGA,133841.000,4308.4443,N,07729.6496,W,2,08,1.09,133.2,M,-34.4,M,0000,0000*52
lng=-77.494163, lat=43.140747, altitude=133.20, speed=4.05, satellites=8, angle=166.5700, fixquality=2
$GPRMC,133841.200,A,4308.4438,N,07729.6495,W,5.69,168.24,120419,,,D*7A
$GPGGA,133841.400,4308.4432,N,07729.6494,W,2,08,1.09,133.2,M,-34.4,M,0000,0000*52
lng=-77.494155, lat=43.140731, altitude=133.20, speed=5.69, satellites=8, angle=168.2400, fixquality=2
$GPRMC,133841.600,A,4308.4424,N,07729.6493,W,8.36,166.50,120419,,,D*7F
$GPGGA,133841.800,4308.4417,N,07729.6492,W,2,08,1.09,133.1,M,-34.4,M,0000,0000*5C
lng=-77.494155, lat=43.140705, altitude=133.20, speed=8.36, satellites=8, angle=166.5000, fixquality=2
$GPRMC,133842.000,A,4308.4411,N,07729.6490,W,9.01,162.70,120419,,,D*7C
$GPGGA,133842.200,4308.4407,N,07729.6488,W,2,08,1.09,133.1,M,-34.4,M,0000,0000*5F
lng=-77.494148, lat=43.140682, altitude=133.10, speed=9.01, satellites=8, angle=162.7000, fixquality=2
$GPRMC,133842.400,A,4308.4402,N,07729.6485,W,9.13,159.02,120419,,,D*70
$GPGGA,133842.600,4308.4397,N,07729.6481,W,2,08,1.09,133.1,M,-34.4,M,0000,0000*5C
lng=-77.494140, lat=43.140674, altitude=133.10, speed=9.13, satellites=8, angle=159.0200, fixquality=2
$GPRMC,133842.800,A,4308.4394,N,07729.6475,W,9.35,148.30,120419,,,D*7E
$GPGGA,133843.000,4308.4387,N,07729.6465,W,2,08,1.09,133.1,M,-34.4,M,0000,0000*50
lng=-77.494125, lat=43.140659, altitude=133.10, speed=9.35, satellites=8, angle=148.3000, fixquality=2
$GPRMC,133843.200,A,4308.4381,N,07729.6458,W,10.40,141.80,120419,,,D*46
$GPGGA,133843.400,4308.4375,N,07729.6449,W,2,08,1.09,133.1,M,-34.4,M,0000,0000*57
lng=-77.494102, lat=43.140632, altitude=133.10, speed=10.40, satellites=8, angle=141.8000, fixquality=2
$GPRMC,133843.600,A,4308.4367,N,07729.6439,W,12.54,136.85,120419,,,D*4F
$GPGGA,133843.800,4308.4360,N,07729.6429,W,2,08,1.09,133.0,M,-34.4,M,0000,0000*58
lng=-77.494064, lat=43.140609, altitude=133.10, speed=12.54, satellites=8, angle=136.8500, fixquality=2
$GPRMC,133844.000,A,4308.4354,N,07729.6416,W,14.12,132.86,120419,,,D*40
$GPGGA,133844.200,4308.4347,N,07729.6405,W,2,08,1.09,133.0,M,-34.4,M,0000,0000*5E
lng=-77.494026, lat=43.140590, altitude=133.00, speed=14.12, satellites=8, angle=132.8600, fixquality=2
$GPRMC,133844.400,A,4308.4340,N,07729.6395,W,15.75,130.09,120419,,,D*48
$GPGGA,133844.600,4308.4333,N,07729.6383,W,2,08,1.09,132.9,M,-34.4,M,0000,0000*58
lng=-77.493995, lat=43.140567, altitude=133.00, speed=15.75, satellites=8, angle=130.0900, fixquality=2
$GPRMC,133844.800,A,4308.4324,N,07729.6371,W,17.58,129.53,120419,,,D*46
$GPGGA,133845.000,4308.4317,N,07729.6359,W,2,08,1.09,132.9,M,-34.4,M,0000,0000*5E
lng=-77.493949, lat=43.140544, altitude=132.90, speed=17.58, satellites=8, angle=129.5300, fixquality=2
$GPRMC,133845.200,A,4308.4310,N,07729.6348,W,18.53,129.00,120419,,,D*42
$GPGGA,133845.400,4308.4303,N,07729.6333,W,2,08,1.09,132.8,M,-34.4,M,0000,0000*52
lng=-77.493911, lat=43.140518, altitude=132.90, speed=18.53, satellites=8, angle=129.0000, fixquality=2
$GPRMC,133845.600,A,4308.4295,N,07729.6319,W,19.55,129.05,120419,,,D*4C
$GPGGA,133845.800,4308.4288,N,07729.6305,W,2,08,1.09,132.8,M,-34.4,M,0000,0000*59
lng=-77.493865, lat=43.140495, altitude=132.80, speed=19.55, satellites=8, angle=129.0500, fixquality=2
$GPRMC,133846.000,A,4308.4280,N,07729.6292,W,19.81,129.58,120419,,,D*4E
$GPGGA,133846.200,4308.4272,N,07729.6280,W,2,08,1.09,132.8,M,-34.4,M,0000,0000*59
lng=-77.493820, lat=43.140468, altitude=132.80, speed=19.81, satellites=8, angle=129.5800, fixquality=2
$GPRMC,133846.400,A,4308.4262,N,07729.6266,W,20.97,130.07,120419,,,D*42
$GPGGA,133846.600,4308.4252,N,07729.6250,W,2,08,1.09,132.7,M,-34.4,M,0000,0000*5D
lng=-77.493774, lat=43.140438, altitude=132.80, speed=20.97, satellites=8, angle=130.0700, fixquality=2
$GPRMC,133846.800,A,4308.4243,N,07729.6236,W,21.77,130.56,120419,,,D*43
$GPGGA,133847.000,4308.4234,N,07729.6221,W,2,08,1.09,132.7,M,-34.4,M,0000,0000*5C
lng=-77.493728, lat=43.140403, altitude=132.70, speed=21.77, satellites=8, angle=130.5600, fixquality=2
$GPRMC,133847.200,A,4308.4225,N,07729.6207,W,22.26,131.19,120419,,,D*47
$GPGGA,133847.400,4308.4213,N,07729.6192,W,2,08,1.09,132.6,M,-34.4,M,0000,0000*57
lng=-77.493675, lat=43.140373, altitude=132.70, speed=22.26, satellites=8, angle=131.1900, fixquality=2
$GPRMC,133847.600,A,4308.4203,N,07729.6177,W,23.44,132.68,120419,,,D*43
$GPGGA,133847.800,4308.4192,N,07729.6162,W,2,08,1.09,132.6,M,-34.4,M,0000,0000*5E
lng=-77.493629, lat=43.140338, altitude=132.60, speed=23.44, satellites=8, angle=132.6800, fixquality=2
$GPRMC,133848.000,A,4308.4180,N,07729.6146,W,24.55,134.22,120419,,,D*4F
$GPGGA,133848.200,4308.4168,N,07729.6132,W,2,08,1.09,132.6,M,-34.4,M,0000,0000*5B
lng=-77.493576, lat=43.140300, altitude=132.60, speed=24.55, satellites=8, angle=134.2200, fixquality=2
$GPRMC,133848.400,A,4308.4155,N,07729.6117,W,25.68,135.87,120419,,,D*46
$GPGGA,133848.600,4308.4142,N,07729.6102,W,2,08,1.09,132.5,M,-34.4,M,0000,0000*57
lng=-77.493530, lat=43.140258, altitude=132.60, speed=25.68, satellites=8, angle=135.8700, fixquality=2
$GPRMC,133848.800,A,4308.4129,N,07729.6087,W,27.07,137.25,120419,,,D*48
$GPGGA,133849.000,4308.4115,N,07729.6071,W,2,08,1.09,132.5,M,-34.4,M,0000,0000*57
lng=-77.493484, lat=43.140216, altitude=132.50, speed=27.07, satellites=8, angle=137.2500, fixquality=2
$GPRMC,133849.200,A,4308.4103,N,07729.6056,W,28.10,138.51,120419,,,D*42
$GPGGA,133849.400,4308.4088,N,07729.6042,W,2,08,1.09,132.4,M,-34.4,M,0000,0000*57
lng=-77.493423, lat=43.140171, altitude=132.50, speed=28.10, satellites=8, angle=138.5100, fixquality=2
$GPRMC,133849.600,A,4308.4073,N,07729.6027,W,29.30,141.82,120419,,,D*45
$GPGGA,133849.800,4308.4058,N,07729.6013,W,2,08,1.09,132.4,M,-34.4,M,0000,0000*52
lng=-77.493377, lat=43.140121, altitude=132.40, speed=29.30, satellites=8, angle=141.8200, fixquality=2
$GPRMC,133850.000,A,4308.4044,N,07729.5998,W,29.70,142.90,120419,,,D*45
$GPGGA,133850.200,4308.4029,N,07729.5984,W,2,08,1.09,132.3,M,-34.4,M,0000,0000*55
lng=-77.493324, lat=43.140071, altitude=132.40, speed=29.70, satellites=8, angle=142.9000, fixquality=2
$GPRMC,133850.400,A,4308.4013,N,07729.5971,W,30.12,144.84,120419,,,D*4B
$GPGGA,133850.600,4308.3997,N,07729.5956,W,2,08,1.09,132.2,M,-34.4,M,0000,0000*54
lng=-77.493286, lat=43.140022, altitude=132.30, speed=30.12, satellites=8, angle=144.8400, fixquality=2
$GPRMC,133850.800,A,4308.3982,N,07729.5940,W,31.25,145.02,120419,,,D*49
$GPGGA,133851.000,4308.3968,N,07729.5924,W,2,08,1.09,132.0,M,-34.4,M,0000,0000*54
lng=-77.493240, lat=43.139972, altitude=132.20, speed=31.25, satellites=8, angle=145.0200, fixquality=2
$GPRMC,133851.200,A,4308.3954,N,07729.5908,W,31.47,143.96,120419,,,D*4A
$GPGGA,133851.400,4308.3941,N,07729.5890,W,2,08,1.09,131.9,M,-34.4,M,0000,0000*5F
lng=-77.493179, lat=43.139926, altitude=132.00, speed=31.47, satellites=8, angle=143.9600, fixquality=2
$GPRMC,133851.600,A,4308.3926,N,07729.5870,W,31.74,142.66,120419,,,D*4B
$GPGGA,133851.800,4308.3911,N,07729.5849,W,2,08,1.09,131.6,M,-34.4,M,0000,0000*5D
lng=-77.493118, lat=43.139877, altitude=131.90, speed=31.74, satellites=8, angle=142.6600, fixquality=2
$GPRMC,133852.000,A,4308.3895,N,07729.5829,W,31.90,145.08,120419,,,D*4E
$GPGGA,133852.200,4308.3880,N,07729.5812,W,2,08,1.09,131.2,M,-34.4,M,0000,0000*57
lng=-77.493049, lat=43.139827, altitude=131.60, speed=31.90, satellites=8, angle=145.0800, fixquality=2
$GPRMC,133852.400,A,4308.3865,N,07729.5796,W,32.66,145.37,120419,,,D*48
$GPGGA,133852.600,4308.3851,N,07729.5778,W,2,08,1.09,130.9,M,-34.4,M,0000,0000*56
lng=-77.492996, lat=43.139778, altitude=131.20, speed=32.66, satellites=8, angle=145.3700, fixquality=2
$GPRMC,133852.800,A,4308.3835,N,07729.5758,W,33.60,147.94,120419,,,D*4F
$GPGGA,133853.000,4308.3822,N,07729.5736,W,2,08,1.09,130.5,M,-34.4,M,0000,0000*53
lng=-77.492927, lat=43.139720, altitude=130.90, speed=33.60, satellites=8, angle=147.9400, fixquality=2
$GPRMC,133853.200,A,4308.3807,N,07729.5725,W,33.50,147.87,120419,,,D*4E
$GPGGA,133853.400,4308.3791,N,07729.5712,W,2,08,1.09,130.0,M,-34.4,M,0000,0000*53
lng=-77.492874, lat=43.139682, altitude=130.50, speed=33.50, satellites=8, angle=147.8700, fixquality=2
$GPRMC,133853.600,A,4308.3777,N,07729.5693,W,33.68,148.56,120419,,,D*46
$GPGGA,133853.800,4308.3761,N,07729.5681,W,2,08,1.09,129.5,M,-34.4,M,0000,0000*56
lng=-77.492820, lat=43.139633, altitude=130.00, speed=33.68, satellites=8, angle=148.5600, fixquality=2
$GPRMC,133854.000,A,4308.3745,N,07729.5665,W,33.75,150.68,120419,,,D*47
$GPGGA,133854.200,4308.3728,N,07729.5651,W,2,08,1.09,129.3,M,-34.4,M,0000,0000*5D
lng=-77.492774, lat=43.139575, altitude=129.50, speed=33.75, satellites=8, angle=150.6800, fixquality=2
$GPRMC,133854.400,A,4308.3710,N,07729.5639,W,34.23,151.98,120419,,,D*40
$GPGGA,133854.600,4308.3692,N,07729.5626,W,2,08,1.09,128.9,M,-34.4,M,0000,0000*52
lng=-77.492729, lat=43.139518, altitude=129.30, speed=34.23, satellites=8, angle=151.9800, fixquality=2
$GPRMC,133854.800,A,4308.3674,N,07729.5614,W,34.56,153.27,120419,,,D*44
$GPGGA,133855.000,4308.3656,N,07729.5601,W,2,08,1.09,128.6,M,-34.4,M,0000,0000*57
lng=-77.492691, lat=43.139453, altitude=128.90, speed=34.56, satellites=8, angle=153.2700, fixquality=2
$GPRMC,133855.200,A,4308.3639,N,07729.5589,W,34.55,155.52,120419,,,D*46
$GPGGA,133855.400,4308.3621,N,07729.5577,W,2,08,1.09,128.2,M,-34.4,M,0000,0000*55
lng=-77.492652, lat=43.139396, altitude=128.60, speed=34.55, satellites=8, angle=155.5200, fixquality=2
$GPRMC,133855.600,A,4308.3603,N,07729.5566,W,34.47,157.18,120419,,,D*45
$GPGGA,133855.800,4308.3585,N,07729.5555,W,2,08,1.09,127.7,M,-34.4,M,0000,0000*5E
lng=-77.492607, lat=43.139339, altitude=128.20, speed=34.47, satellites=8, angle=157.1800, fixquality=2
$GPRMC,133856.000,A,4308.3567,N,07729.5545,W,34.46,158.69,120419,,,D*48
$GPGGA,133856.200,4308.3550,N,07729.5537,W,2,08,1.09,127.1,M,-34.4,M,0000,0000*5D
lng=-77.492576, lat=43.139282, altitude=127.70, speed=34.46, satellites=8, angle=158.6900, fixquality=2
$GPRMC,133856.400,A,4308.3532,N,07729.5531,W,34.16,159.54,120419,,,D*45
$GPGGA,133856.600,4308.3513,N,07729.5523,W,2,08,1.09,126.3,M,-34.4,M,0000,0000*58
lng=-77.492553, lat=43.139217, altitude=127.10, speed=34.16, satellites=8, angle=159.5400, fixquality=2
$GPRMC,133856.800,A,4308.3494,N,07729.5515,W,34.35,161.11,120419,,,D*49
$GPGGA,133857.000,4308.3476,N,07729.5507,W,2,08,1.09,125.8,M,-34.4,M,0000,0000*53
lng=-77.492523, lat=43.139160, altitude=126.30, speed=34.35, satellites=8, angle=161.1100, fixquality=2
$GPRMC,133857.200,A,4308.3457,N,07729.5501,W,34.45,162.24,120419,,,D*4A
$GPGGA,133857.400,4308.3438,N,07729.5499,W,2,08,1.09,124.9,M,-34.4,M,0000,0000*5B
lng=-77.492507, lat=43.139095, altitude=125.80, speed=34.45, satellites=8, angle=162.2400, fixquality=2
$GPRMC,133857.600,A,4308.3418,N,07729.5493,W,35.86,163.82,120419,,,D*4C
$GPGGA,133857.800,4308.3398,N,07729.5486,W,2,08,1.09,124.3,M,-34.4,M,0000,0000*5E
lng=-77.492485, lat=43.139030, altitude=124.90, speed=35.86, satellites=8, angle=163.8200, fixquality=2
$GPRMC,133858.000,A,4308.3377,N,07729.5480,W,37.24,164.78,120419,,,D*41
$GPGGA,133858.200,4308.3356,N,07729.5474,W,2,08,1.09,123.7,M,-34.4,M,0000,0000*57
lng=-77.492462, lat=43.138965, altitude=124.30, speed=37.24, satellites=8, angle=164.7800, fixquality=2
$GPRMC,133858.400,A,4308.3336,N,07729.5468,W,37.25,165.36,120419,,,D*4C
$GPGGA,133858.600,4308.3316,N,07729.5468,W,2,08,1.09,122.8,M,-34.4,M,0000,0000*54
lng=-77.492446, lat=43.138893, altitude=123.70, speed=37.25, satellites=8, angle=165.3600, fixquality=2
$GPRMC,133858.800,A,4308.3295,N,07729.5462,W,37.15,166.74,120419,,,D*44
$GPGGA,133859.000,4308.3275,N,07729.5456,W,2,08,1.09,122.3,M,-34.4,M,0000,0000*51
lng=-77.492439, lat=43.138828, altitude=122.80, speed=37.15, satellites=8, angle=166.7400, fixquality=2
$GPRMC,133859.200,A,4308.3254,N,07729.5450,W,37.48,166.90,120419,,,D*41
$GPGGA,133859.400,4308.3234,N,07729.5443,W,2,08,1.09,121.9,M,-34.4,M,0000,0000*5D
lng=-77.492416, lat=43.138751, altitude=122.30, speed=37.48, satellites=8, angle=166.9000, fixquality=2
$GPRMC,133859.600,A,4308.3212,N,07729.5436,W,38.23,167.54,120419,,,D*4C
$GPGGA,133859.800,4308.3191,N,07729.5430,W,2,08,1.09,121.6,M,-34.4,M,0000,0000*56
lng=-77.492393, lat=43.138687, altitude=121.90, speed=38.23, satellites=8, angle=167.5400, fixquality=2
$GPRMC,133900.000,A,4308.3169,N,07729.5424,W,38.80,168.65,120419,,,D*4F
$GPGGA,133900.200,4308.3147,N,07729.5418,W,2,07,1.20,121.2,M,-34.4,M,0000,0000*50
lng=-77.492378, lat=43.138614, altitude=121.60, speed=38.80, satellites=8, angle=168.6500, fixquality=2
$GPRMC,133900.400,A,4308.3125,N,07729.5412,W,39.38,169.16,120419,,,D*41
$GPGGA,133900.600,4308.3102,N,07729.5407,W,2,08,1.09,121.0,M,-34.4,M,0000,0000*5D
lng=-77.492347, lat=43.138542, altitude=121.20, speed=39.38, satellites=7, angle=169.1600, fixquality=2
$GPRMC,133900.800,A,4308.3079,N,07729.5402,W,40.31,169.94,120419,,,D*49
$GPGGA,133901.000,4308.3057,N,07729.5396,W,2,08,1.09,120.6,M,-34.4,M,0000,0000*53
lng=-77.492332, lat=43.138469, altitude=121.00, speed=40.31, satellites=8, angle=169.9400, fixquality=2
$GPRMC,133901.200,A,4308.3035,N,07729.5390,W,40.62,169.73,120419,,,D*49
$GPGGA,133901.400,4308.3012,N,07729.5384,W,2,07,1.29,120.2,M,-34.4,M,0000,0000*5C
lng=-77.492317, lat=43.138393, altitude=120.60, speed=40.62, satellites=8, angle=169.7300, fixquality=2
$GPRMC,133901.600,A,4308.2990,N,07729.5378,W,40.81,169.37,120419,,,D*41
$GPGGA,133901.800,4308.2967,N,07729.5372,W,2,07,1.29,119.9,M,-34.4,M,0000,0000*52
lng=-77.492294, lat=43.138313, altitude=120.20, speed=40.81, satellites=7, angle=169.3700, fixquality=2
$GPRMC,133902.000,A,4308.2944,N,07729.5366,W,41.10,169.27,120419,,,D*4A
$GPGGA,133902.200,4308.2922,N,07729.5360,W,2,07,1.29,119.5,M,-34.4,M,0000,0000*55
lng=-77.492279, lat=43.138240, altitude=119.90, speed=41.10, satellites=7, angle=169.2700, fixquality=2
$GPRMC,133902.400,A,4308.2898,N,07729.5354,W,41.27,169.32,120419,,,D*4F
$GPGGA,133902.600,4308.2875,N,07729.5349,W,2,07,1.29,119.2,M,-34.4,M,0000,0000*5E
lng=-77.492256, lat=43.138168, altitude=119.50, speed=41.27, satellites=7, angle=169.3200, fixquality=2
$GPRMC,133902.800,A,4308.2853,N,07729.5345,W,41.22,169.60,120419,,,D*46
$GPGGA,133903.000,4308.2830,N,07729.5340,W,2,07,1.29,118.8,M,-34.4,M,0000,0000*5A
lng=-77.492240, lat=43.138084, altitude=119.20, speed=41.22, satellites=7, angle=169.6000, fixquality=2
$GPRMC,133903.200,A,4308.2807,N,07729.5333,W,41.46,169.22,120419,,,D*49
$GPGGA,133903.400,4308.2784,N,07729.5328,W,2,07,1.29,118.5,M,-34.4,M,0000,0000*5D
lng=-77.492218, lat=43.138011, altitude=118.80, speed=41.46, satellites=7, angle=169.2200, fixquality=2
$GPRMC,133903.600,A,4308.2762,N,07729.5322,W,41.35,168.39,120419,,,D*4E
$GPGGA,133903.800,4308.2741,N,07729.5317,W,2,07,1.29,118.0,M,-34.4,M,0000,0000*51
lng=-77.492202, lat=43.137939, altitude=118.50, speed=41.35, satellites=7, angle=168.3900, fixquality=2
$GPRMC,133904.000,A,4308.2720,N,07729.5310,W,39.75,166.89,120419,,,D*46
$GPGGA,133904.200,4308.2697,N,07729.5303,W,2,08,1.09,117.7,M,-34.4,M,0000,0000*56
lng=-77.492179, lat=43.137866, altitude=118.00, speed=39.75, satellites=7, angle=166.8900, fixquality=2
$GPRMC,133904.400,A,4308.2675,N,07729.5296,W,39.88,166.35,120419,,,D*49
$GPGGA,133904.600,4308.2653,N,07729.5289,W,2,07,1.29,117.4,M,-34.4,M,0000,0000*57
lng=-77.492164, lat=43.137794, altitude=117.70, speed=39.88, satellites=8, angle=166.3500, fixquality=2
$GPRMC,133904.800,A,4308.2631,N,07729.5282,W,39.88,166.11,120419,,,D*46
$GPGGA,133905.000,4308.2610,N,07729.5275,W,2,08,1.09,117.2,M,-34.4,M,0000,0000*5F
lng=-77.492141, lat=43.137718, altitude=117.40, speed=39.88, satellites=7, angle=166.1100, fixquality=2
$GPRMC,133905.200,A,4308.2588,N,07729.5268,W,39.53,166.23,120419,,,D*4F
$GPGGA,133905.400,4308.2566,N,07729.5261,W,2,08,1.09,117.0,M,-34.4,M,0000,0000*5E
lng=-77.492111, lat=43.137645, altitude=117.20, speed=39.53, satellites=8, angle=166.2300, fixquality=2
$GPRMC,133905.600,A,4308.2545,N,07729.5254,W,39.21,165.78,120419,,,D*4D
$GPGGA,133905.800,4308.2524,N,07729.5247,W,2,08,1.09,116.8,M,-34.4,M,0000,0000*59
lng=-77.492088, lat=43.137573, altitude=117.00, speed=39.21, satellites=8, angle=165.7800, fixquality=2
$GPRMC,133906.000,A,4308.2503,N,07729.5239,W,38.87,166.11,120419,,,D*40
$GPGGA,133906.200,4308.2482,N,07729.5231,W,2,08,1.09,116.5,M,-34.4,M,0000,0000*51
lng=-77.492065, lat=43.137508, altitude=116.80, speed=38.87, satellites=8, angle=166.1100, fixquality=2
$GPRMC,133906.400,A,4308.2462,N,07729.5221,W,38.50,165.45,120419,,,D*43
$GPGGA,133906.600,4308.2442,N,07729.5211,W,2,08,1.09,115.9,M,-34.4,M,0000,0000*54
lng=-77.492034, lat=43.137435, altitude=116.50, speed=38.50, satellites=8, angle=165.4500, fixquality=2
$GPRMC,133906.800,A,4308.2421,N,07729.5203,W,38.27,165.35,120419,,,D*4F
$GPGGA,133907.000,4308.2400,N,07729.5194,W,2,08,1.09,115.6,M,-34.4,M,0000,0000*54
lng=-77.492012, lat=43.137371, altitude=115.90, speed=38.27, satellites=8, angle=165.3500, fixquality=2
$GPRMC,133907.200,A,4308.2380,N,07729.5185,W,37.99,165.87,120419,,,D*46
$GPGGA,133907.400,4308.2360,N,07729.5177,W,2,08,1.09,115.2,M,-34.4,M,0000,0000*58
lng=-77.491973, lat=43.137294, altitude=115.60, speed=37.99, satellites=8, angle=165.8700, fixquality=2
$GPRMC,133907.600,A,4308.2339,N,07729.5169,W,37.94,166.41,120419,,,D*46
$GPGGA,133907.800,4308.2318,N,07729.5162,W,2,08,1.09,114.9,M,-34.4,M,0000,0000*55
lng=-77.491950, lat=43.137229, altitude=115.20, speed=37.94, satellites=8, angle=166.4100, fixquality=2
$GPRMC,133908.000,A,4308.2296,N,07729.5155,W,37.88,166.54,120419,,,D*4D
$GPGGA,133908.200,4308.2274,N,07729.5147,W,2,08,1.09,114.7,M,-34.4,M,0000,0000*52
lng=-77.491928, lat=43.137157, altitude=114.90, speed=37.88, satellites=8, angle=166.5400, fixquality=2
$GPRMC,133908.400,A,4308.2252,N,07729.5140,W,37.95,166.63,120419,,,D*4D
$GPGGA,133908.600,4308.2231,N,07729.5132,W,2,08,1.09,114.6,M,-34.4,M,0000,0000*54
lng=-77.491905, lat=43.137084, altitude=114.70, speed=37.95, satellites=8, angle=166.6300, fixquality=2
$GPRMC,133908.800,A,4308.2209,N,07729.5125,W,38.06,166.70,120419,,,D*4B
$GPGGA,133909.000,4308.2188,N,07729.5118,W,2,08,1.09,114.5,M,-34.4,M,0000,0000*59
lng=-77.491874, lat=43.137012, altitude=114.60, speed=38.06, satellites=8, angle=166.7000, fixquality=2
$GPRMC,133909.200,A,4308.2166,N,07729.5111,W,38.74,166.87,120419,,,D*40
$GPGGA,133909.400,4308.2144,N,07729.5105,W,2,08,1.09,114.5,M,-34.4,M,0000,0000*51
lng=-77.491851, lat=43.136947, altitude=114.50, speed=38.74, satellites=8, angle=166.8700, fixquality=2
$GPRMC,133909.600,A,4308.2123,N,07729.5098,W,38.51,167.29,120419,,,D*47
$GPGGA,133909.800,4308.2102,N,07729.5091,W,2,08,1.09,114.4,M,-34.4,M,0000,0000*52
lng=-77.491828, lat=43.136875, altitude=114.50, speed=38.51, satellites=8, angle=167.2900, fixquality=2
$GPRMC,133910.000,A,4308.2080,N,07729.5085,W,38.54,167.78,120419,,,D*4C
$GPGGA,133910.200,4308.2058,N,07729.5079,W,2,08,1.09,114.4,M,-34.4,M,0000,0000*58
lng=-77.491806, lat=43.136798, altitude=114.40, speed=38.54, satellites=8, angle=167.7800, fixquality=2
$GPRMC,133910.400,A,4308.2037,N,07729.5072,W,38.62,167.95,120419,,,D*4A
$GPGGA,133910.600,4308.2015,N,07729.5066,W,2,07,1.29,114.3,M,-34.4,M,0000,0000*51
lng=-77.491790, lat=43.136726, altitude=114.40, speed=38.62, satellites=8, angle=167.9500, fixquality=2
$GPRMC,133910.800,A,4308.1994,N,07729.5059,W,38.67,167.78,120419,,,D*4A
$GPGGA,133911.000,4308.1972,N,07729.5054,W,2,07,1.29,114.2,M,-34.4,M,0000,0000*5D
lng=-77.491767, lat=43.136653, altitude=114.30, speed=38.67, satellites=7, angle=167.7800, fixquality=2
$GPRMC,133911.200,A,4308.1951,N,07729.5047,W,38.46,167.19,120419,,,D*43
$GPGGA,133911.400,4308.1930,N,07729.5040,W,2,08,1.09,114.1,M,-34.4,M,0000,0000*54
lng=-77.491744, lat=43.136589, altitude=114.20, speed=38.46, satellites=7, angle=167.1900, fixquality=2
$GPRMC,133911.600,A,4308.1908,N,07729.5035,W,38.29,166.72,120419,,,D*4B
$GPGGA,133911.800,4308.1887,N,07729.5030,W,2,07,1.29,114.0,M,-34.4,M,0000,0000*5E
lng=-77.491722, lat=43.136516, altitude=114.10, speed=38.29, satellites=8, angle=166.7200, fixquality=2
$GPRMC,133912.000,A,4308.1866,N,07729.5024,W,37.95,166.63,120419,,,D*4F
$GPGGA,133912.200,4308.1845,N,07729.5016,W,2,07,1.29,113.9,M,-34.4,M,0000,0000*53
lng=-77.491706, lat=43.136440, altitude=114.00, speed=37.95, satellites=7, angle=166.6300, fixquality=2
$GPRMC,133912.400,A,4308.1825,N,07729.5009,W,37.98,165.96,120419,,,D*47
$GPGGA,133912.600,4308.1804,N,07729.5004,W,2,08,1.09,113.8,M,-34.4,M,0000,0000*5D
lng=-77.491683, lat=43.136375, altitude=113.90, speed=37.98, satellites=7, angle=165.9600, fixquality=2
$GPRMC,133912.800,A,4308.1783,N,07729.5000,W,37.80,165.93,120419,,,D*4D
$GPGGA,133913.000,4308.1762,N,07729.4994,W,2,08,1.09,113.6,M,-34.4,M,0000,0000*5A
lng=-77.491668, lat=43.136302, altitude=113.80, speed=37.80, satellites=8, angle=165.9300, fixquality=2
$GPRMC,133913.200,A,4308.1742,N,07729.4989,W,37.70,165.90,120419,,,D*4E
$GPGGA,133913.400,4308.1721,N,07729.4984,W,2,07,1.29,113.5,M,-34.4,M,0000,0000*56
lng=-77.491653, lat=43.136238, altitude=113.60, speed=37.70, satellites=8, angle=165.9000, fixquality=2
$GPRMC,133913.600,A,4308.1700,N,07729.4978,W,37.80,165.72,120419,,,D*41
$GPGGA,133913.800,4308.1679,N,07729.4972,W,2,07,1.29,113.4,M,-34.4,M,0000,0000*5E
lng=-77.491622, lat=43.136165, altitude=113.50, speed=37.80, satellites=7, angle=165.7200, fixquality=2
$GPRMC,133914.000,A,4308.1659,N,07729.4966,W,37.81,165.81,120419,,,D*4F
$GPGGA,133914.200,4308.1638,N,07729.4960,W,2,08,1.09,113.3,M,-34.4,M,0000,0000*5F
lng=-77.491607, lat=43.136100, altitude=113.40, speed=37.81, satellites=7, angle=165.8100, fixquality=2
$GPRMC,133914.400,A,4308.1618,N,07729.4955,W,37.59,166.12,120419,,,D*42
$GPGGA,133914.600,4308.1597,N,07729.4949,W,2,08,1.09,113.2,M,-34.4,M,0000,0000*57
lng=-77.491592, lat=43.136028, altitude=113.30, speed=37.59, satellites=8, angle=166.1200, fixquality=2
$GPRMC,133914.800,A,4308.1577,N,07729.4943,W,37.60,166.17,120419,,,D*4C
$GPGGA,133915.000,4308.1556,N,07729.4937,W,2,08,1.09,113.1,M,-34.4,M,0000,0000*57
lng=-77.491569, lat=43.135963, altitude=113.20, speed=37.60, satellites=8, angle=166.1700, fixquality=2
$GPRMC,133915.200,A,4308.1536,N,07729.4930,W,37.69,166.12,120419,,,D*4A
$GPGGA,133915.400,4308.1515,N,07729.4923,W,2,07,1.29,113.0,M,-34.4,M,0000,0000*5D
lng=-77.491554, lat=43.135898, altitude=113.10, speed=37.69, satellites=8, angle=166.1200, fixquality=2
$GPRMC,133915.600,A,4308.1494,N,07729.4916,W,37.78,166.46,120419,,,D*42
$GPGGA,133915.800,4308.1473,N,07729.4909,W,2,07,1.29,112.8,M,-34.4,M,0000,0000*51
lng=-77.491531, lat=43.135822, altitude=113.00, speed=37.78, satellites=7, angle=166.4600, fixquality=2
$GPRMC,133916.000,A,4308.1452,N,07729.4902,W,37.99,166.50,120419,,,D*40
$GPGGA,133916.200,4308.1431,N,07729.4895,W,2,07,1.29,112.7,M,-34.4,M,0000,0000*55
lng=-77.491500, lat=43.135749, altitude=112.80, speed=37.99, satellites=7, angle=166.5000, fixquality=2
$GPRMC,133916.400,A,4308.1410,N,07729.4889,W,38.07,167.00,120419,,,D*4C
$GPGGA,133916.600,4308.1389,N,07729.4883,W,2,07,1.29,112.6,M,-34.4,M,0000,0000*53
lng=-77.491477, lat=43.135684, altitude=112.70, speed=38.07, satellites=7, angle=167.0000, fixquality=2
$GPRMC,133916.800,A,4308.1368,N,07729.4877,W,38.13,168.09,120419,,,D*4A
$GPGGA,133917.000,4308.1346,N,07729.4871,W,2,07,1.29,112.4,M,-34.4,M,0000,0000*58
lng=-77.491462, lat=43.135612, altitude=112.60, speed=38.13, satellites=7, angle=168.0900, fixquality=2
$GPRMC,133917.200,A,4308.1325,N,07729.4865,W,38.27,168.83,120419,,,D*4E
$GPGGA,133917.400,4308.1304,N,07729.4860,W,2,06,1.39,112.3,M,-34.4,M,0000,0000*5D
lng=-77.491439, lat=43.135540, altitude=112.40, speed=38.27, satellites=7, angle=168.8300, fixquality=2
$GPRMC,133917.600,A,4308.1282,N,07729.4855,W,37.94,170.36,120419,,,D*45
$GPGGA,133917.800,4308.1261,N,07729.4850,W,2,07,1.29,112.1,M,-34.4,M,0000,0000*52
lng=-77.491424, lat=43.135475, altitude=112.30, speed=37.94, satellites=6, angle=170.3600, fixquality=2
$GPRMC,133918.000,A,4308.1239,N,07729.4846,W,37.88,172.21,120419,,,D*47
$GPGGA,133918.200,4308.1217,N,07729.4841,W,2,07,1.29,111.9,M,-34.4,M,0000,0000*5D
lng=-77.491409, lat=43.135398, altitude=112.10, speed=37.88, satellites=7, angle=172.2100, fixquality=2
$GPRMC,133918.400,A,4308.1196,N,07729.4838,W,37.59,173.96,120419,,,D*4D
$GPGGA,133918.600,4308.1175,N,07729.4837,W,2,07,1.29,111.6,M,-34.4,M,0000,0000*50
lng=-77.491401, lat=43.135326, altitude=111.90, speed=37.59, satellites=7, angle=173.9600, fixquality=2
$GPRMC,133918.800,A,4308.1154,N,07729.4835,W,37.57,176.47,120419,,,D*45
$GPGGA,133919.000,4308.1133,N,07729.4834,W,2,07,1.29,111.3,M,-34.4,M,0000,0000*53
lng=-77.491386, lat=43.135253, altitude=111.60, speed=37.57, satellites=7, angle=176.4700, fixquality=2
$GPRMC,133919.200,A,4308.1111,N,07729.4833,W,37.08,177.38,120419,,,D*4A
$GPGGA,133919.400,4308.1090,N,07729.4833,W,2,07,1.29,111.0,M,-34.4,M,0000,0000*5B
lng=-77.491386, lat=43.135189, altitude=111.30, speed=37.08, satellites=7, angle=177.3800, fixquality=2
$GPRMC,133919.600,A,4308.1069,N,07729.4832,W,37.17,178.68,120419,,,D*45
$GPGGA,133919.800,4308.1047,N,07729.4832,W,2,07,1.29,110.8,M,-34.4,M,0000,0000*55
lng=-77.491386, lat=43.135116, altitude=111.00, speed=37.17, satellites=7, angle=178.6800, fixquality=2
$GPRMC,133920.000,A,4308.1026,N,07729.4831,W,37.25,179.81,120419,,,D*46
$GPGGA,133920.200,4308.1005,N,07729.4830,W,2,07,1.29,110.4,M,-34.4,M,0000,0000*5D
lng=-77.491378, lat=43.135044, altitude=110.80, speed=37.25, satellites=7, angle=179.8100, fixquality=2
$GPRMC,133920.400,A,4308.0984,N,07729.4829,W,37.51,179.69,120419,,,D*4E
$GPGGA,133920.600,4308.0962,N,07729.4828,W,2,07,1.29,109.9,M,-34.4,M,0000,0000*5C
lng=-77.491378, lat=43.134975, altitude=110.40, speed=37.51, satellites=7, angle=179.6900, fixquality=2
$GPRMC,133920.800,A,4308.0941,N,07729.4827,W,37.60,180.95,120419,,,D*42
$GPGGA,133921.000,4308.0919,N,07729.4828,W,2,08,1.09,109.4,M,-34.4,M,0000,0000*57
lng=-77.491378, lat=43.134902, altitude=109.90, speed=37.60, satellites=7, angle=180.9500, fixquality=2
$GPRMC,133921.200,A,4308.0898,N,07729.4829,W,37.60,182.23,120419,,,D*4D
$GPGGA,133921.400,4308.0877,N,07729.4831,W,2,07,1.29,109.0,M,-34.4,M,0000,0000*5B
lng=-77.491378, lat=43.134830, altitude=109.40, speed=37.60, satellites=8, angle=182.2300, fixquality=2
$GPRMC,133921.600,A,4308.0855,N,07729.4835,W,37.39,183.94,120419,,,D*44
$GPGGA,133921.800,4308.0834,N,07729.4839,W,2,07,1.29,108.4,M,-34.4,M,0000,0000*5D
lng=-77.491386, lat=43.134757, altitude=109.00, speed=37.39, satellites=7, angle=183.9400, fixquality=2
$GPRMC,133922.000,A,4308.0814,N,07729.4844,W,37.07,185.47,120419,,,D*47
$GPGGA,133922.200,4308.0793,N,07729.4847,W,2,07,1.29,108.0,M,-34.4,M,0000,0000*5B
lng=-77.491409, lat=43.134693, altitude=108.40, speed=37.07, satellites=7, angle=185.4700, fixquality=2
$GPRMC,133922.400,A,4308.0773,N,07729.4853,W,36.88,186.95,120419,,,D*41
$GPGGA,133922.600,4308.0754,N,07729.4860,W,2,07,1.42,107.2,M,-34.4,M,0000,0000*51
lng=-77.491424, lat=43.134620, altitude=108.00, speed=36.88, satellites=7, angle=186.9500, fixquality=2
$GPRMC,133922.800,A,4308.0735,N,07729.4867,W,36.59,188.91,120419,,,D*4E
$GPGGA,133923.000,4308.0716,N,07729.4875,W,2,08,1.26,106.5,M,-34.4,M,0000,0000*5F
lng=-77.491447, lat=43.134563, altitude=107.20, speed=36.59, satellites=7, angle=188.9100, fixquality=2
$GPRMC,133923.200,A,4308.0696,N,07729.4879,W,35.44,190.05,120419,,,D*49
$GPGGA,133923.400,4308.0677,N,07729.4885,W,2,08,1.09,106.2,M,-34.4,M,0000,0000*58
lng=-77.491462, lat=43.134498, altitude=106.50, speed=35.44, satellites=8, angle=190.0500, fixquality=2
$GPRMC,133923.600,A,4308.0657,N,07729.4890,W,35.36,191.44,120419,,,D*46
$GPGGA,133923.800,4308.0637,N,07729.4897,W,2,08,1.09,106.0,M,-34.4,M,0000,0000*51
lng=-77.491477, lat=43.134433, altitude=106.20, speed=35.36, satellites=8, angle=191.4400, fixquality=2
$GPRMC,133924.000,A,4308.0618,N,07729.4903,W,35.45,192.39,120419,,,D*4A
$GPGGA,133924.200,4308.0599,N,07729.4908,W,2,07,1.29,105.8,M,-34.4,M,0000,0000*5A
lng=-77.491500, lat=43.134365, altitude=106.00, speed=35.45, satellites=8, angle=192.3900, fixquality=2
$GPRMC,133924.400,A,4308.0581,N,07729.4913,W,35.37,192.98,120419,,,D*42
$GPGGA,133924.600,4308.0563,N,07729.4920,W,2,06,1.36,105.4,M,-34.4,M,0000,0000*52
lng=-77.491523, lat=43.134300, altitude=105.80, speed=35.37, satellites=7, angle=192.9800, fixquality=2
$GPRMC,133924.800,A,4308.0545,N,07729.4928,W,34.50,193.96,120419,,,D*41
$GPGGA,133925.000,4308.0527,N,07729.4936,W,2,08,1.09,105.0,M,-34.4,M,0000,0000*54
lng=-77.491546, lat=43.134243, altitude=105.40, speed=34.50, satellites=6, angle=193.9600, fixquality=2
$GPRMC,133925.200,A,4308.0509,N,07729.4942,W,34.35,195.19,120419,,,D*4C
$GPGGA,133925.400,4308.0491,N,07729.4949,W,2,08,1.09,104.8,M,-34.4,M,0000,0000*5D
lng=-77.491569, lat=43.134178, altitude=105.00, speed=34.35, satellites=8, angle=195.1900, fixquality=2
$GPRMC,133925.600,A,4308.0475,N,07729.4957,W,33.26,196.98,120419,,,D*49
$GPGGA,133925.800,4308.0457,N,07729.4966,W,2,08,1.09,104.6,M,-34.4,M,0000,0000*58
lng=-77.491592, lat=43.134120, altitude=104.80, speed=33.26, satellites=8, angle=196.9800, fixquality=2
$GPRMC,133926.000,A,4308.0440,N,07729.4976,W,32.63,199.07,120419,,,D*40
$GPGGA,133926.200,4308.0423,N,07729.4987,W,2,08,1.09,104.2,M,-34.4,M,0000,0000*59
lng=-77.491622, lat=43.134067, altitude=104.60, speed=32.63, satellites=8, angle=199.0700, fixquality=2
$GPRMC,133926.400,A,4308.0407,N,07729.4996,W,32.96,200.91,120419,,,D*4F
$GPGGA,133926.600,4308.0391,N,07729.5009,W,2,08,1.09,103.5,M,-34.4,M,0000,0000*5D
lng=-77.491661, lat=43.134010, altitude=104.20, speed=32.96, satellites=8, angle=200.9100, fixquality=2
$GPRMC,133926.800,A,4308.0375,N,07729.5020,W,33.19,202.74,120419,,,D*4B
$GPGGA,133927.000,4308.0359,N,07729.5033,W,2,08,1.27,103.0,M,-34.4,M,0000,0000*5E
lng=-77.491699, lat=43.133960, altitude=103.50, speed=33.19, satellites=8, angle=202.7400, fixquality=2
$GPRMC,133927.200,A,4308.0343,N,07729.5045,W,33.23,203.96,120419,,,D*42
$GPGGA,133927.400,4308.0326,N,07729.5058,W,2,08,1.09,102.6,M,-34.4,M,0000,0000*54
lng=-77.491737, lat=43.133903, altitude=103.00, speed=33.23, satellites=8, angle=203.9600, fixquality=2
$GPRMC,133927.600,A,4308.0310,N,07729.5070,W,33.14,205.17,120419,,,D*4D
$GPGGA,133927.800,4308.0294,N,07729.5083,W,2,08,1.27,102.2,M,-34.4,M,0000,0000*5E
lng=-77.491783, lat=43.133846, altitude=102.60, speed=33.14, satellites=8, angle=205.1700, fixquality=2
$GPRMC,133928.000,A,4308.0277,N,07729.5096,W,32.87,206.17,120419,,,D*44
$GPGGA,133928.200,4308.0261,N,07729.5109,W,2,08,1.09,101.9,M,-34.4,M,0000,0000*56
lng=-77.491828, lat=43.133796, altitude=102.20, speed=32.87, satellites=8, angle=206.1700, fixquality=2
$GPRMC,133928.400,A,4308.0245,N,07729.5121,W,32.86,206.83,120419,,,D*40
$GPGGA,133928.600,4308.0229,N,07729.5134,W,2,08,1.26,101.8,M,-34.4,M,0000,0000*5C
lng=-77.491867, lat=43.133739, altitude=101.90, speed=32.86, satellites=8, angle=206.8300, fixquality=2
$GPRMC,133928.800,A,4308.0212,N,07729.5145,W,32.75,207.41,120419,,,D*4F
$GPGGA,133929.000,4308.0196,N,07729.5157,W,2,08,1.09,101.7,M,-34.4,M,0000,0000*5B
lng=-77.491912, lat=43.133682, altitude=101.80, speed=32.75, satellites=8, angle=207.4100, fixquality=2
$GPRMC,133929.200,A,4308.0181,N,07729.5169,W,32.36,207.82,120419,,,D*4B
$GPGGA,133929.400,4308.0166,N,07729.5180,W,2,08,1.09,101.7,M,-34.4,M,0000,0000*5A
lng=-77.491950, lat=43.133632, altitude=101.70, speed=32.36, satellites=8, angle=207.8200, fixquality=2
$GPRMC,133929.600,A,4308.0152,N,07729.5191,W,28.63,210.43,120419,,,D*46
$GPGGA,133929.800,4308.0138,N,07729.5203,W,2,08,1.09,101.7,M,-34.4,M,0000,0000*55
lng=-77.491981, lat=43.133586, altitude=101.70, speed=28.63, satellites=8, angle=210.4300, fixquality=2
$GPRMC,133930.000,A,4308.0126,N,07729.5214,W,26.80,212.65,120419,,,D*40
$GPGGA,133930.200,4308.0114,N,07729.5225,W,2,08,1.09,101.8,M,-34.4,M,0000,0000*52
lng=-77.492027, lat=43.133544, altitude=101.70, speed=26.80, satellites=8, angle=212.6500, fixquality=2
$GPRMC,133930.400,A,4308.0103,N,07729.5235,W,23.89,214.97,120419,,,D*47
$GPGGA,133930.600,4308.0093,N,07729.5246,W,2,08,1.09,101.8,M,-34.4,M,0000,0000*5D
lng=-77.492057, lat=43.133502, altitude=101.80, speed=23.89, satellites=8, angle=214.9700, fixquality=2
$GPRMC,133930.800,A,4308.0083,N,07729.5257,W,22.46,218.29,120419,,,D*4D
$GPGGA,133931.000,4308.0074,N,07729.5267,W,2,08,1.09,101.8,M,-34.4,M,0000,0000*50
lng=-77.492095, lat=43.133472, altitude=101.80, speed=22.46, satellites=8, angle=218.2900, fixquality=2
$GPRMC,133931.200,A,4308.0066,N,07729.5278,W,20.75,222.56,120419,,,D*43
$GPGGA,133931.400,4308.0063,N,07729.5279,W,2,08,1.09,101.9,M,-34.4,M,0000,0000*5C
lng=-77.492134, lat=43.133445, altitude=101.80, speed=20.75, satellites=8, angle=222.5600, fixquality=2
$GPRMC,133931.600,A,4308.0059,N,07729.5291,W,14.14,234.62,120419,,,D*4C
