Vers 81
USE_SERIAL_FEEDBACK=true
DEVELOPMENT_MODE=false
USE_RMC_ONLY=false

$GPRMC,141735.500,A,4308.3070,N,07726.2599,W,0.46,311.61,100919,,,A*72
$GPGGA,141735.750,4308.3070,N,07726.2602,W,1,05,2.47,156.5,M,-34.4,M,,*5D
$GPRMC,141736.000,A,4308.3070,N,07726.2603,W,0.53,329.44,100919,,,A*7C
$GPGGA,141736.250,4308.3070,N,07726.2602,W,1,05,2.47,156.6,M,-34.4,M,,*58
$GPRMC,141736.500,A,4308.3071,N,07726.2602,W,0.52,327.70,100919,,,A*71
$GPGGA,141736.750,4308.3072,N,07726.2602,W,1,05,2.47,157.1,M,-34.4,M,,*59
$GPRMC,141737.000,A,4308.3074,N,07726.2602,W,0.45,334.61,100919,,,A*74
$GPGGA,141737.250,4308.3076,N,07726.2601,W,1,05,2.46,157.7,M,-34.4,M,,*5D
$GPRMC,141737.500,A,4308.3077,N,07726.2601,W,0.43,346.40,100919,,,A*71
$GPGGA,141737.750,4308.3079,N,07726.2599,W,1,05,4.19,158.3,M,-34.4,M,,*52
$GPRMC,141738.000,A,4308.3082,N,07726.2595,W,0.36,344.89,100919,,,A*7A
$GPGGA,141738.250,4308.3085,N,07726.2593,W,1,05,2.47,159.7,M,-34.4,M,,*59
$GPRMC,141738.500,A,4308.3087,N,07726.2589,W,0.36,341.13,100919,,,A*71
$GPGGA,141738.750,4308.3090,N,07726.2586,W,1,05,2.47,160.9,M,-34.4,M,,*58
$GPRMC,141739.000,A,4308.3092,N,07726.2585,W,0.33,340.31,100919,,,A*79
$GPGGA,141739.250,4308.3094,N,07726.2584,W,1,05,2.47,161.6,M,-34.4,M,,*54
$GPRMC,141739.500,A,4308.3097,N,07726.2580,W,0.33,356.56,100919,,,A*7A
$GPGGA,141739.750,4308.3099,N,07726.2577,W,1,05,4.19,162.6,M,-34.4,M,,*5E
$GPRMC,141740.000,A,4308.3100,N,07726.2576,W,0.29,5.70,100919,,,A*7D
$GPGGA,141740.250,4308.3103,N,07726.2573,W,1,05,4.19,163.4,M,-34.4,M,,*50
$GPRMC,141740.500,A,4308.3104,N,07726.2572,W,0.29,15.99,100919,,,A*4E
$GPGGA,141740.750,4308.3107,N,07726.2570,W,1,05,2.47,164.0,M,-34.4,M,,*5C
$GPRMC,141741.000,A,4308.3109,N,07726.2567,W,0.35,21.36,100919,,,A*4C
$GPGGA,141741.250,4308.3111,N,07726.2565,W,1,05,2.46,164.9,M,-34.4,M,,*53
$GPRMC,141741.500,A,4308.3114,N,07726.2564,W,0.34,20.98,100919,,,A*42
$GPGGA,141741.750,4308.3115,N,07726.2563,W,1,05,2.47,165.6,M,-34.4,M,,*5B
$GPRMC,141742.000,A,4308.3118,N,07726.2561,W,0.35,9.60,100919,,,A*70
$GPGGA,141742.250,4308.3119,N,07726.2560,W,1,05,4.20,166.2,M,-34.4,M,,*52
$GPRMC,141742.500,A,4308.3121,N,07726.2559,W,0.34,7.90,100919,,,A*74
$GPGGA,141742.750,4308.3123,N,07726.2557,W,1,05,4.20,167.0,M,-34.4,M,,*59
$GPRMC,141743.000,A,4308.3126,N,07726.2555,W,0.40,357.11,100919,,,A*77
$GPGGA,141743.250,4308.3128,N,07726.2552,W,1,05,4.20,167.8,M,-34.4,M,,*5B
$GPRMC,141743.500,A,4308.3132,N,07726.2549,W,0.54,11.83,100919,,,A*45
$GPGGA,141743.750,4308.3133,N,07726.2548,W,1,05,4.20,168.5,M,-34.4,M,,*5D
$GPRMC,141744.000,A,4308.3134,N,07726.2546,W,0.56,11.47,100919,,,A*44
$GPGGA,141744.250,4308.3136,N,07726.2544,W,1,05,4.20,169.1,M,-34.4,M,,*53
$GPRMC,141744.500,A,4308.3138,N,07726.2542,W,0.59,7.59,100919,,,A*7E
$GPGGA,141744.750,4308.3140,N,07726.2541,W,1,05,4.20,169.8,M,-34.4,M,,*5B
$GPRMC,141745.000,A,4308.3140,N,07726.2539,W,0.49,5.04,100919,,,A*72
$GPGGA,141745.250,4308.3141,N,07726.2537,W,1,05,4.20,170.4,M,-34.4,M,,*5B
$GPRMC,141745.500,A,4308.3141,N,07726.2536,W,0.41,7.39,100919,,,A*7D
$GPGGA,141745.750,4308.3142,N,07726.2534,W,1,05,4.20,171.0,M,-34.4,M,,*5B
$GPRMC,141746.000,A,4308.3143,N,07726.2532,W,0.35,4.51,100919,,,A*73
$GPGGA,141746.250,4308.3144,N,07726.2530,W,1,05,4.20,171.6,M,-34.4,M,,*59
$GPRMC,141746.500,A,4308.3145,N,07726.2528,W,0.37,9.43,100919,,,A*77
$GPGGA,141746.750,4308.3146,N,07726.2527,W,1,05,4.21,172.1,M,-34.4,M,,*5D
$GPRMC,141747.000,A,4308.3147,N,07726.2526,W,0.41,6.93,100919,,,A*7C
$GPGGA,141747.250,4308.3147,N,07726.2525,W,1,05,4.21,172.6,M,-34.4,M,,*5D
$GPRMC,141747.500,A,4308.3147,N,07726.2524,W,0.36,352.59,100919,,,A*7F
$GPGGA,141747.750,4308.3147,N,07726.2524,W,1,05,4.21,172.7,M,-34.4,M,,*58
$GPRMC,141748.000,A,4308.3147,N,07726.2524,W,0.34,340.82,100919,,,A*72
$GPGGA,141748.250,4308.3147,N,07726.2523,W,1,05,2.47,172.9,M,-34.4,M,,*5D
$GPRMC,141748.500,A,4308.3146,N,07726.2523,W,0.24,329.91,100919,,,A*7D
$GPGGA,141748.750,4308.3146,N,07726.2522,W,1,05,2.46,172.9,M,-34.4,M,,*59
$GPRMC,141749.000,A,4308.3145,N,07726.2521,W,0.13,352.11,100919,,,A*78
$GPGGA,141749.250,4308.3145,N,07726.2520,W,1,05,4.21,173.0,M,-34.4,M,,*53
$GPRMC,141749.500,A,4308.3144,N,07726.2519,W,0.13,27.78,100919,,,A*49
$GPGGA,141749.750,4308.3143,N,07726.2519,W,1,05,2.46,173.1,M,-34.4,M,,*5C
$GPRMC,141750.000,A,4308.3142,N,07726.2519,W,0.08,201.20,100919,,,A*73
$GPGGA,141750.250,4308.3140,N,07726.2518,W,1,05,2.46,173.2,M,-34.4,M,,*50
$GPRMC,141750.500,A,4308.3139,N,07726.2518,W,0.20,179.68,100919,,,A*71
$GPGGA,141750.750,4308.3139,N,07726.2517,W,1,05,2.46,173.2,M,-34.4,M,,*54
$GPRMC,141751.000,A,4308.3139,N,07726.2516,W,0.14,160.36,100919,,,A*7F
$GPGGA,141751.250,4308.3139,N,07726.2515,W,1,05,2.46,173.3,M,-34.4,M,,*53
$GPRMC,141751.500,A,4308.3138,N,07726.2515,W,0.16,149.37,100919,,,A*70
$GPGGA,141751.750,4308.3138,N,07726.2514,W,1,05,2.46,173.5,M,-34.4,M,,*50
$GPRMC,141752.000,A,4308.3139,N,07726.2514,W,0.09,156.45,100919,,,A*73
$GPGGA,141752.250,4308.3138,N,07726.2513,W,1,05,2.46,173.7,M,-34.4,M,,*53
$GPRMC,141752.500,A,4308.3138,N,07726.2512,W,0.18,160.71,100919,,,A*73
$GPGGA,141752.750,4308.3138,N,07726.2511,W,1,05,2.46,173.9,M,-34.4,M,,*5A
$GPRMC,141753.000,A,4308.3138,N,07726.2510,W,0.15,173.98,100919,,,A*7D
$GPGGA,141753.250,4308.3138,N,07726.2510,W,1,05,2.46,174.1,M,-34.4,M,,*50
$GPRMC,141753.500,A,4308.3139,N,07726.2509,W,0.14,167.78,100919,,,A*7B
$GPGGA,141753.750,4308.3139,N,07726.2508,W,1,05,2.46,174.3,M,-34.4,M,,*5F
$GPRMC,141754.000,A,4308.3139,N,07726.2507,W,0.14,161.23,100919,,,A*7F
$GPGGA,141754.250,4308.3139,N,07726.2506,W,1,05,2.46,174.4,M,-34.4,M,,*54
$GPRMC,141754.500,A,4308.3139,N,07726.2506,W,0.12,163.64,100919,,,A*7C
$GPGGA,141754.750,4308.3140,N,07726.2505,W,1,05,2.46,174.4,M,-34.4,M,,*5C
$GPRMC,141755.000,A,4308.3140,N,07726.2505,W,0.04,18.73,100919,,,A*49
$GPGGA,141755.250,4308.3139,N,07726.2504,W,1,05,2.46,174.4,M,-34.4,M,,*57
$GPRMC,141755.500,A,4308.3139,N,07726.2503,W,0.10,43.40,100919,,,A*4F
$GPGGA,141755.750,4308.3140,N,07726.2503,W,1,05,2.46,174.5,M,-34.4,M,,*5A
$GPRMC,141756.000,A,4308.3141,N,07726.2502,W,0.58,14.61,100919,,,A*4A
$GPGGA,141756.250,4308.3142,N,07726.2501,W,1,05,4.23,174.6,M,-34.4,M,,*5A
$GPRMC,141756.500,A,4308.3144,N,07726.2500,W,2.57,11.06,100919,,,A*41
$GPGGA,141756.750,4308.3146,N,07726.2498,W,1,05,4.23,174.7,M,-34.4,M,,*5B
$GPRMC,141757.000,A,4308.3149,N,07726.2497,W,4.03,8.31,100919,,,A*7C
$GPGGA,141757.250,4308.3152,N,07726.2496,W,1,05,4.23,174.8,M,-34.4,M,,*5B
$GPRMC,141757.500,A,4308.3155,N,07726.2494,W,4.56,9.34,100919,,,A*73
$GPGGA,141757.750,4308.3159,N,07726.2492,W,1,05,4.23,174.9,M,-34.4,M,,*50
$GPRMC,141758.000,A,4308.3163,N,07726.2490,W,6.16,12.01,100919,,,A*42
$GPGGA,141758.250,4308.3168,N,07726.2487,W,1,05,4.23,175.1,M,-34.4,M,,*55
$GPRMC,141758.500,A,4308.3171,N,07726.2485,W,6.04,19.46,100919,,,A*4B
$GPGGA,141758.750,4308.3175,N,07726.2482,W,1,05,4.23,175.2,M,-34.4,M,,*5A
$GPRMC,141759.000,A,4308.3179,N,07726.2480,W,5.71,29.62,100919,,,A*46
$GPGGA,141759.250,4308.3182,N,07726.2477,W,1,05,2.46,175.2,M,-34.4,M,,*59
$GPRMC,141759.500,A,4308.3185,N,07726.2474,W,4.91,30.62,100919,,,A*4C
$GPGGA,141759.750,4308.3187,N,07726.2471,W,1,05,4.23,175.2,M,-34.4,M,,*5A
$GPRMC,141800.000,A,4308.3189,N,07726.2468,W,4.20,46.30,100919,,,A*47
$GPGGA,141800.250,4308.3191,N,07726.2465,W,1,05,4.23,175.2,M,-34.4,M,,*5E
$GPRMC,141800.500,A,4308.3193,N,07726.2461,W,3.91,47.84,100919,,,A*43
$GPGGA,141800.750,4308.3194,N,07726.2458,W,1,05,4.23,175.2,M,-34.4,M,,*50
$GPRMC,141801.000,A,4308.3195,N,07726.2452,W,4.08,66.22,100919,,,A*49
$GPGGA,141801.250,4308.3195,N,07726.2449,W,1,05,2.46,175.2,M,-34.4,M,,*50
$GPRMC,141801.500,A,4308.3196,N,07726.2446,W,3.24,68.90,100919,,,A*44
$GPGGA,141801.750,4308.3196,N,07726.2444,W,1,05,2.46,175.2,M,-34.4,M,,*5B
$GPRMC,141802.000,A,4308.3197,N,07726.2443,W,1.98,59.53,100919,,,A*4E
$GPGGA,141802.250,4308.3197,N,07726.2441,W,1,05,2.46,175.1,M,-34.4,M,,*5A
$GPRMC,141802.500,A,4308.3197,N,07726.2442,W,0.49,43.67,100919,,,A*4B
$GPGGA,141802.750,4308.3197,N,07726.2443,W,1,05,2.46,175.0,M,-34.4,M,,*5C
$GPRMC,141803.000,A,4308.3195,N,07726.2446,W,0.88,260.14,100919,,,A*73
$GPGGA,141803.250,4308.3194,N,07726.2449,W,1,05,2.46,174.9,M,-34.4,M,,*59
$GPRMC,141803.500,A,4308.3194,N,07726.2453,W,1.89,259.15,100919,,,A*78
$GPGGA,141803.750,4308.3194,N,07726.2458,W,1,05,2.46,174.7,M,-34.4,M,,*52
$GPRMC,141804.000,A,4308.3193,N,07726.2463,W,3.23,261.13,100919,,,A*71
$GPGGA,141804.250,4308.3191,N,07726.2468,W,1,05,2.46,174.5,M,-34.4,M,,*54
$GPRMC,141804.500,A,4308.3191,N,07726.2475,W,4.92,260.77,100919,,,A*7F
$GPGGA,141804.750,4308.3190,N,07726.2482,W,1,05,4.24,174.3,M,-34.4,M,,*50
$GPRMC,141805.000,A,4308.3190,N,07726.2490,W,6.52,267.81,100919,,,A*71
$GPGGA,141805.250,4308.3190,N,07726.2500,W,1,05,4.25,174.2,M,-34.4,M,,*5F
$GPRMC,141805.500,A,4308.3190,N,07726.2511,W,8.96,269.62,100919,,,A*79
$GPGGA,141805.750,4308.3190,N,07726.2522,W,1,05,4.25,174.0,M,-34.4,M,,*58
$GPRMC,141806.000,A,4308.3191,N,07726.2533,W,10.16,273.18,100919,,,A*49
$GPGGA,141806.250,4308.3191,N,07726.2543,W,1,05,2.46,174.0,M,-34.4,M,,*5B
$GPRMC,141806.500,A,4308.3192,N,07726.2554,W,10.69,273.93,100919,,,A*45
$GPGGA,141806.750,4308.3193,N,07726.2565,W,1,05,2.46,174.0,M,-34.4,M,,*58
$GPRMC,141807.000,A,4308.3194,N,07726.2576,W,11.13,276.03,100919,,,A*47
$GPGGA,141807.250,4308.3195,N,07726.2587,W,1,05,2.46,173.9,M,-34.4,M,,*58
$GPRMC,141807.500,A,4308.3196,N,07726.2599,W,11.81,277.54,100919,,,A*49
$GPGGA,141807.750,4308.3198,N,07726.2612,W,1,05,2.46,173.9,M,-34.4,M,,*5F
$GPRMC,141808.000,A,4308.3200,N,07726.2625,W,12.69,279.04,100919,,,A*45
$GPGGA,141808.250,4308.3202,N,07726.2638,W,1,05,2.46,173.9,M,-34.4,M,,*5D
$GPRMC,141808.500,A,4308.3204,N,07726.2652,W,13.39,280.04,100919,,,A*46
$GPGGA,141808.750,4308.3207,N,07726.2666,W,1,05,2.46,173.9,M,-34.4,M,,*56
$GPRMC,141809.000,A,4308.3210,N,07726.2682,W,14.22,281.41,100919,,,A*47
$GPGGA,141809.250,4308.3213,N,07726.2697,W,1,05,2.46,173.9,M,-34.4,M,,*59
$GPRMC,141809.500,A,4308.3216,N,07726.2713,W,14.90,283.35,100919,,,A*45
$GPGGA,141809.750,4308.3219,N,07726.2728,W,1,05,2.46,173.8,M,-34.4,M,,*52
$GPRMC,141810.000,A,4308.3224,N,07726.2746,W,15.76,284.95,100919,,,A*4D
$GPGGA,141810.250,4308.3230,N,07726.2763,W,1,05,2.46,173.8,M,-34.4,M,,*5B
$GPRMC,141810.500,A,4308.3235,N,07726.2782,W,16.78,287.92,100919,,,A*49
$GPGGA,141810.750,4308.3241,N,07726.2800,W,1,05,2.46,173.7,M,-34.4,M,,*5D
$GPRMC,141811.000,A,4308.3248,N,07726.2820,W,17.89,290.57,100919,,,A*40
$GPGGA,141811.250,4308.3257,N,07726.2842,W,1,05,2.46,173.6,M,-34.4,M,,*59
$GPRMC,141811.500,A,4308.3265,N,07726.2862,W,19.27,292.75,100919,,,A*44
$GPGGA,141811.750,4308.3273,N,07726.2882,W,1,05,2.46,173.5,M,-34.4,M,,*55
$GPRMC,141812.000,A,4308.3281,N,07726.2902,W,20.15,294.70,100919,,,A*47
$GPGGA,141812.250,4308.3291,N,07726.2923,W,1,05,2.46,173.4,M,-34.4,M,,*54
$GPRMC,141812.500,A,4308.3300,N,07726.2944,W,21.22,297.37,100919,,,A*4D
$GPGGA,141812.750,4308.3309,N,07726.2964,W,1,05,2.46,173.3,M,-34.4,M,,*55
$GPRMC,141813.000,A,4308.3318,N,07726.2985,W,21.86,298.51,100919,,,A*4C
$GPGGA,141813.250,4308.3326,N,07726.3006,W,1,05,2.46,173.2,M,-34.4,M,,*51
$GPRMC,141813.500,A,4308.3336,N,07726.3028,W,22.62,298.99,100919,,,A*47
$GPGGA,141813.750,4308.3346,N,07726.3049,W,1,05,2.46,173.1,M,-34.4,M,,*5A
$GPRMC,141814.000,A,4308.3356,N,07726.3070,W,23.17,300.53,100919,,,A*4B
$GPGGA,141814.250,4308.3366,N,07726.3090,W,1,05,2.46,173.0,M,-34.4,M,,*5F
$GPRMC,141814.500,A,4308.3375,N,07726.3111,W,23.56,300.69,100919,,,A*45
$GPGGA,141814.750,4308.3385,N,07726.3132,W,1,05,2.46,172.9,M,-34.4,M,,*56
$GPRMC,141815.000,A,4308.3394,N,07726.3154,W,23.82,300.38,100919,,,A*42
$GPGGA,141815.250,4308.3402,N,07726.3175,W,1,05,2.46,172.9,M,-34.4,M,,*59
$GPRMC,141815.500,A,4308.3410,N,07726.3197,W,23.89,299.43,100919,,,A*45
$GPGGA,141815.750,4308.3419,N,07726.3217,W,1,05,2.46,172.8,M,-34.4,M,,*50
$GPRMC,141816.000,A,4308.3428,N,07726.3237,W,23.78,299.59,100919,,,A*44
$GPGGA,141816.250,4308.3437,N,07726.3257,W,1,05,2.46,172.8,M,-34.4,M,,*5E
$GPRMC,141816.500,A,4308.3445,N,07726.3276,W,23.33,300.03,100919,,,A*4E
$GPGGA,141816.750,4308.3454,N,07726.3294,W,1,05,2.46,172.7,M,-34.4,M,,*5E
$GPRMC,141817.000,A,4308.3463,N,07726.3312,W,22.77,300.83,100919,,,A*44
$GPGGA,141817.250,4308.3472,N,07726.3331,W,1,05,2.46,172.7,M,-34.4,M,,*50
$GPRMC,141817.500,A,4308.3482,N,07726.3349,W,22.38,301.98,100919,,,A*40
$GPGGA,141817.750,4308.3491,N,07726.3367,W,1,05,2.46,172.7,M,-34.4,M,,*5B
$GPRMC,141818.000,A,4308.3500,N,07726.3385,W,21.82,303.27,100919,,,A*45
$GPGGA,141818.250,4308.3508,N,07726.3402,W,1,05,2.46,172.6,M,-34.4,M,,*55
$GPRMC,141818.500,A,4308.3517,N,07726.3419,W,21.32,304.03,100919,,,A*4E
$GPGGA,141818.750,4308.3525,N,07726.3436,W,1,05,2.46,172.6,M,-34.4,M,,*58
$GPRMC,141819.000,A,4308.3534,N,07726.3451,W,20.63,305.01,100919,,,A*41
$GPGGA,141819.250,4308.3543,N,07726.3468,W,1,05,2.46,172.6,M,-34.4,M,,*57
$GPRMC,141819.500,A,4308.3551,N,07726.3483,W,20.31,305.84,100919,,,A*42
$GPGGA,141819.750,4308.3562,N,07726.3498,W,1,05,2.46,172.6,M,-34.4,M,,*5E
$GPRMC,141820.000,A,4308.3573,N,07726.3513,W,20.35,309.79,100919,,,A*4F
$GPGGA,141820.250,4308.3584,N,07726.3527,W,1,05,2.46,172.6,M,-34.4,M,,*5C
$GPRMC,141820.500,A,4308.3593,N,07726.3541,W,20.29,311.61,100919,,,A*4E
$GPGGA,141820.750,4308.3603,N,07726.3555,W,1,05,2.46,172.6,M,-34.4,M,,*50
$GPRMC,141821.000,A,4308.3613,N,07726.3567,W,19.75,313.57,100919,,,A*41
$GPGGA,141821.250,4308.3623,N,07726.3581,W,1,05,2.46,172.6,M,-34.4,M,,*5F
$GPRMC,141821.500,A,4308.3633,N,07726.3593,W,19.51,314.98,100919,,,A*4F
$GPGGA,141821.750,4308.3644,N,07726.3605,W,1,05,2.46,172.6,M,-34.4,M,,*54
$GPRMC,141822.000,A,4308.3654,N,07726.3617,W,19.30,317.41,100919,,,A*47
$GPGGA,141822.250,4308.3666,N,07726.3628,W,1,05,2.46,172.6,M,-34.4,M,,*5D
$GPRMC,141822.500,A,4308.3678,N,07726.3639,W,19.30,319.66,100919,,,A*4B
$GPGGA,141822.750,4308.3689,N,07726.3650,W,1,05,2.46,172.6,M,-34.4,M,,*56
$GPRMC,141823.000,A,4308.3700,N,07726.3659,W,18.99,322.42,100919,,,A*4B
$GPGGA,141823.250,4308.3710,N,07726.3668,W,1,05,2.46,172.6,M,-34.4,M,,*58
$GPRMC,141823.500,A,4308.3722,N,07726.3677,W,18.76,324.79,100919,,,A*4D
$GPGGA,141823.750,4308.3734,N,07726.3685,W,1,05,2.46,172.7,M,-34.4,M,,*59
$GPRMC,141824.000,A,4308.3745,N,07726.3692,W,18.42,327.99,100919,,,A*4F
$GPGGA,141824.250,4308.3757,N,07726.3699,W,1,05,2.46,172.7,M,-34.4,M,,*53
$GPRMC,141824.500,A,4308.3769,N,07726.3705,W,18.14,331.84,100919,,,A*43
$GPGGA,141824.750,4308.3782,N,07726.3711,W,1,05,2.46,172.7,M,-34.4,M,,*5F
$GPRMC,141825.000,A,4308.3801,N,07726.3715,W,18.77,337.70,100919,,,A*4F
$GPGGA,141825.250,4308.3830,N,07726.3715,W,1,05,2.46,172.7,M,-34.4,M,,*59
$GPRMC,141825.500,A,4308.3853,N,07726.3717,W,21.78,347.81,100919,,,A*43
$GPGGA,141825.750,4308.3872,N,07726.3720,W,1,05,4.29,172.7,M,-34.4,M,,*53
$GPRMC,141826.000,A,4308.3889,N,07726.3722,W,22.66,351.45,100919,,,A*47
$GPGGA,141826.250,4308.3905,N,07726.3724,W,1,05,4.29,172.7,M,-34.4,M,,*50
$GPRMC,141826.500,A,4308.3923,N,07726.3724,W,23.18,354.95,100919,,,A*45
$GPGGA,141826.750,4308.3940,N,07726.3725,W,1,05,4.29,172.8,M,-34.4,M,,*5A
$GPRMC,141827.000,A,4308.3956,N,07726.3725,W,23.38,356.70,100919,,,A*49
$GPGGA,141827.250,4308.3973,N,07726.3726,W,1,05,4.29,172.8,M,-34.4,M,,*5D
$GPRMC,141827.500,A,4308.3989,N,07726.3726,W,23.35,357.62,100919,,,A*42
$GPGGA,141827.750,4308.4005,N,07726.3726,W,1,05,4.30,172.8,M,-34.4,M,,*5F
$GPRMC,141828.000,A,4308.4021,N,07726.3725,W,23.37,359.31,100919,,,A*4D
$GPGGA,141828.250,4308.4038,N,07726.3724,W,1,05,4.29,172.8,M,-34.4,M,,*51
$GPRMC,141828.500,A,4308.4054,N,07726.3723,W,23.40,0.45,100919,,,A*40
$GPGGA,141828.750,4308.4071,N,07726.3721,W,1,05,4.30,172.8,M,-34.4,M,,*54
$GPRMC,141829.000,A,4308.4088,N,07726.3720,W,23.73,1.80,100919,,,A*4E
$GPGGA,141829.250,4308.4105,N,07726.3718,W,1,05,4.30,172.8,M,-34.4,M,,*58
$GPRMC,141829.500,A,4308.4122,N,07726.3716,W,23.84,3.13,100919,,,A*4F
$GPGGA,141829.750,4308.4139,N,07726.3712,W,1,05,4.30,172.8,M,-34.4,M,,*58
$GPRMC,141830.000,A,4308.4158,N,07726.3709,W,24.46,5.00,100919,,,A*4C
$GPGGA,141830.250,4308.4174,N,07726.3705,W,1,05,4.30,172.8,M,-34.4,M,,*5A
$GPRMC,141830.500,A,4308.4190,N,07726.3701,W,24.40,6.47,100919,,,A*43
$GPGGA,141830.750,4308.4207,N,07726.3697,W,1,05,4.30,172.8,M,-34.4,M,,*52
$GPRMC,141831.000,A,4308.4224,N,07726.3693,W,24.42,8.10,100919,,,A*4F
$GPGGA,141831.250,4308.4241,N,07726.3689,W,1,05,4.30,172.8,M,-34.4,M,,*5B
$GPRMC,141831.500,A,4308.4257,N,07726.3685,W,24.45,8.96,100919,,,A*40
$GPGGA,141831.750,4308.4274,N,07726.3681,W,1,05,4.31,172.8,M,-34.4,M,,*51
$GPRMC,141832.000,A,4308.4290,N,07726.3677,W,24.44,9.45,100919,,,A*4E
$GPGGA,141832.250,4308.4307,N,07726.3673,W,1,05,4.30,172.8,M,-34.4,M,,*5E
$GPRMC,141832.500,A,4308.4324,N,07726.3669,W,24.36,9.62,100919,,,A*4A
$GPGGA,141832.750,4308.4340,N,07726.3665,W,1,05,4.31,172.8,M,-34.4,M,,*5E
$GPRMC,141833.000,A,4308.4356,N,07726.3661,W,24.24,9.81,100919,,,A*4D
$GPGGA,141833.250,4308.4372,N,07726.3656,W,1,05,4.31,172.8,M,-34.4,M,,*5B
$GPRMC,141833.500,A,4308.4387,N,07726.3652,W,23.98,10.17,100919,,,A*73
$GPGGA,141833.750,4308.4402,N,07726.3646,W,1,05,4.31,172.7,M,-34.4,M,,*50
$GPRMC,141834.000,A,4308.4417,N,07726.3642,W,23.72,11.09,100919,,,A*74
$GPGGA,141834.250,4308.4431,N,07726.3637,W,1,05,4.31,172.6,M,-34.4,M,,*55
$GPRMC,141834.500,A,4308.4445,N,07726.3632,W,23.36,11.74,100919,,,A*7B
$GPGGA,141834.750,4308.4458,N,07726.3627,W,1,05,4.31,172.5,M,-34.4,M,,*5D
$GPRMC,141835.000,A,4308.4471,N,07726.3623,W,22.85,11.97,100919,,,A*7C
$GPGGA,141835.250,4308.4484,N,07726.3618,W,1,05,4.31,172.4,M,-34.4,M,,*55
$GPRMC,141835.500,A,4308.4496,N,07726.3614,W,22.32,12.14,100919,,,A*70
$GPGGA,141835.750,4308.4509,N,07726.3610,W,1,05,4.31,172.3,M,-34.4,M,,*5B
$GPRMC,141836.000,A,4308.4520,N,07726.3606,W,21.52,12.10,100919,,,A*78
$GPGGA,141836.250,4308.4530,N,07726.3602,W,1,05,4.31,172.3,M,-34.4,M,,*54
$GPRMC,141836.500,A,4308.4539,N,07726.3598,W,20.55,11.92,100919,,,A*7E
$GPGGA,141836.750,4308.4548,N,07726.3594,W,1,05,4.32,172.2,M,-34.4,M,,*50
$GPRMC,141837.000,A,4308.4557,N,07726.3591,W,19.55,11.32,100919,,,A*7B
$GPGGA,141837.250,4308.4567,N,07726.3588,W,1,05,4.32,172.1,M,-34.4,M,,*57
$GPRMC,141837.500,A,4308.4575,N,07726.3585,W,18.60,10.94,100919,,,A*71
$GPGGA,141837.750,4308.4585,N,07726.3581,W,1,05,4.32,172.0,M,-34.4,M,,*56
$GPRMC,141838.000,A,4308.4590,N,07726.3580,W,17.03,10.12,100919,,,A*71
$GPGGA,141838.250,4308.4598,N,07726.3577,W,1,05,4.32,172.0,M,-34.4,M,,*59
$GPRMC,141838.500,A,4308.4605,N,07726.3575,W,16.02,10.53,100919,,,A*74
$GPGGA,141838.750,4308.4611,N,07726.3573,W,1,05,4.32,171.9,M,-34.4,M,,*50
$GPRMC,141839.000,A,4308.4615,N,07726.3570,W,14.60,11.19,100919,,,A*7D
$GPGGA,141839.250,4308.4620,N,07726.3568,W,1,05,4.32,171.8,M,-34.4,M,,*5D
$GPRMC,141839.500,A,4308.4623,N,07726.3566,W,13.26,11.98,100919,,,A*76
$GPGGA,141839.750,4308.4626,N,07726.3565,W,1,05,4.32,171.6,M,-34.4,M,,*5D
$GPRMC,141840.000,A,4308.4629,N,07726.3563,W,11.92,12.49,100919,,,A*70
$GPGGA,141840.250,4308.4631,N,07726.3562,W,1,05,4.32,171.6,M,-34.4,M,,*57
$GPRMC,141840.500,A,4308.4632,N,07726.3561,W,10.45,12.20,100919,,,A*79
$GPGGA,141840.750,4308.4633,N,07726.3561,W,1,05,4.32,171.6,M,-34.4,M,,*53
$GPRMC,141841.000,A,4308.4633,N,07726.3561,W,8.83,11.29,100919,,,A*45
$GPGGA,141841.250,4308.4634,N,07726.3561,W,1,05,4.32,171.6,M,-34.4,M,,*50
$GPRMC,141841.500,A,4308.4634,N,07726.3561,W,7.74,11.07,100919,,,A*4C
$GPGGA,141841.750,4308.4635,N,07726.3562,W,1,05,4.33,171.5,M,-34.4,M,,*55
$GPRMC,141842.000,A,4308.4635,N,07726.3562,W,6.71,10.91,100919,,,A*42
$GPGGA,141842.250,4308.4635,N,07726.3562,W,1,05,4.33,171.5,M,-34.4,M,,*53
$GPRMC,141842.500,A,4308.4633,N,07726.3563,W,5.69,10.48,100919,,,A*4E
$GPGGA,141842.750,4308.4631,N,07726.3564,W,1,05,4.33,171.4,M,-34.4,M,,*55
$GPRMC,141843.000,A,4308.4619,N,07726.3568,W,3.18,7.41,100919,,,A*76
$GPGGA,141843.250,4308.4617,N,07726.3568,W,1,05,4.33,171.3,M,-34.4,M,,*5E
$GPRMC,141843.500,A,4308.4618,N,07726.3569,W,2.58,7.41,100919,,,A*76
$GPGGA,141843.750,4308.4619,N,07726.3568,W,1,05,4.33,171.3,M,-34.4,M,,*55
$GPRMC,141844.000,A,4308.4620,N,07726.3568,W,2.58,7.41,100919,,,A*7E
$GPGGA,141844.250,4308.4624,N,07726.3567,W,1,05,4.33,171.3,M,-34.4,M,,*56
$GPRMC,141844.500,A,4308.4629,N,07726.3566,W,3.68,9.79,100919,,,A*7B
$GPGGA,141844.750,4308.4632,N,07726.3566,W,1,05,4.33,171.4,M,-34.4,M,,*52
$GPRMC,141845.000,A,4308.4636,N,07726.3566,W,4.46,8.47,100919,,,A*76
$GPGGA,141845.250,4308.4639,N,07726.3566,W,1,05,4.33,171.3,M,-34.4,M,,*5A
$GPRMC,141845.500,A,4308.4643,N,07726.3568,W,4.69,0.89,100919,,,A*78
$GPGGA,141845.750,4308.4647,N,07726.3569,W,1,05,4.34,171.3,M,-34.4,M,,*5E
$GPRMC,141846.000,A,4308.4651,N,07726.3570,W,4.79,352.69,100919,,,A*7F
$GPGGA,141846.250,4308.4658,N,07726.3576,W,1,05,4.34,171.3,M,-34.4,M,,*58
$GPRMC,141846.500,A,4308.4665,N,07726.3584,W,6.61,331.84,100919,,,A*7B
$GPGGA,141846.750,4308.4671,N,07726.3590,W,1,05,2.46,171.3,M,-34.4,M,,*5D
$GPRMC,141847.000,A,4308.4676,N,07726.3599,W,8.04,320.93,100919,,,A*7A
$GPGGA,141847.250,4308.4686,N,07726.3613,W,1,05,2.46,171.3,M,-34.4,M,,*59
$GPRMC,141847.500,A,4308.4696,N,07726.3628,W,12.79,308.46,100919,,,A*4B
$GPGGA,141847.750,4308.4704,N,07726.3641,W,1,05,2.46,171.3,M,-34.4,M,,*50
$GPRMC,141848.000,A,4308.4712,N,07726.3654,W,15.52,306.31,100919,,,A*47
$GPGGA,141848.250,4308.4719,N,07726.3667,W,1,05,2.46,171.3,M,-34.4,M,,*52
$GPRMC,141848.500,A,4308.4728,N,07726.3682,W,17.66,304.87,100919,,,A*4A
$GPGGA,141848.750,4308.4736,N,07726.3697,W,1,05,2.46,171.2,M,-34.4,M,,*54
$GPRMC,141849.000,A,4308.4744,N,07726.3712,W,19.12,304.01,100919,,,A*4F
$GPGGA,141849.250,4308.4751,N,07726.3728,W,1,05,2.46,171.2,M,-34.4,M,,*54
$GPRMC,141849.500,A,4308.4756,N,07726.3745,W,20.10,301.94,100919,,,A*4A
$GPGGA,141849.750,4308.4762,N,07726.3762,W,1,05,2.46,171.1,M,-34.4,M,,*5C
$GPRMC,141850.000,A,4308.4768,N,07726.3779,W,20.83,300.35,100919,,,A*45
$GPGGA,141850.250,4308.4774,N,07726.3797,W,1,05,2.46,171.0,M,-34.4,M,,*5D
$GPRMC,141850.500,A,4308.4780,N,07726.3815,W,21.33,299.32,100919,,,A*4F
$GPGGA,141850.750,4308.4786,N,07726.3833,W,1,05,2.46,171.0,M,-34.4,M,,*54
$GPRMC,141851.000,A,4308.4793,N,07726.3853,W,22.05,298.28,100919,,,A*47
$GPGGA,141851.250,4308.4799,N,07726.3872,W,1,05,2.46,170.9,M,-34.4,M,,*53
$GPRMC,141851.500,A,4308.4805,N,07726.3891,W,22.33,297.80,100919,,,A*44
$GPGGA,141851.750,4308.4811,N,07726.3911,W,1,05,2.46,170.9,M,-34.4,M,,*5D
$GPRMC,141852.000,A,4308.4800,N,07726.3937,W,22.24,292.70,100919,,,A*46
$GPGGA,141852.250,4308.4789,N,07726.3962,W,1,05,2.46,170.9,M,-34.4,M,,*51
$GPRMC,141852.500,A,4308.4783,N,07726.3985,W,22.27,288.17,100919,,,A*47
$GPGGA,141852.750,4308.4785,N,07726.4006,W,1,05,2.46,170.9,M,-34.4,M,,*54
$GPRMC,141853.000,A,4308.4786,N,07726.4028,W,22.23,287.19,100919,,,A*4A
$GPGGA,141853.250,4308.4789,N,07726.4048,W,1,05,2.46,170.9,M,-34.4,M,,*56
$GPRMC,141853.500,A,4308.4792,N,07726.4068,W,21.77,286.85,100919,,,A*48
$GPGGA,141853.750,4308.4795,N,07726.4088,W,1,05,2.46,170.9,M,-34.4,M,,*52
$GPRMC,141854.000,A,4308.4798,N,07726.4108,W,21.00,286.91,100919,,,A*42
$GPGGA,141854.250,4308.4800,N,07726.4127,W,1,05,2.46,170.9,M,-34.4,M,,*57
$GPRMC,141854.500,A,4308.4797,N,07726.4147,W,20.00,284.87,100919,,,A*47
$GPGGA,141854.750,4308.4789,N,07726.4167,W,1,05,2.46,170.9,M,-34.4,M,,*58
$GPRMC,141855.000,A,4308.4788,N,07726.4185,W,18.44,281.07,100919,,,A*45
$GPGGA,141855.250,4308.4788,N,07726.4202,W,1,05,2.46,170.9,M,-34.4,M,,*5D
$GPRMC,141855.500,A,4308.4786,N,07726.4217,W,16.98,280.02,100919,,,A*4D
$GPGGA,141855.750,4308.4785,N,07726.4231,W,1,05,2.46,170.9,M,-34.4,M,,*55
$GPRMC,141856.000,A,4308.4782,N,07726.4245,W,14.95,277.71,100919,,,A*4B
$GPGGA,141856.250,4308.4780,N,07726.4258,W,1,05,2.46,171.0,M,-34.4,M,,*51
$GPRMC,141856.500,A,4308.4778,N,07726.4268,W,12.60,276.17,100919,,,A*49
$GPGGA,141856.750,4308.4777,N,07726.4276,W,1,05,4.36,171.0,M,-34.4,M,,*51
$GPRMC,141857.000,A,4308.4776,N,07726.4284,W,9.63,275.80,100919,,,A*75
$GPGGA,141857.250,4308.4775,N,07726.4291,W,1,05,2.46,171.0,M,-34.4,M,,*5F
$GPRMC,141857.500,A,4308.4774,N,07726.4296,W,7.62,273.07,100919,,,A*77
$GPGGA,141857.750,4308.4773,N,07726.4300,W,1,05,2.46,171.1,M,-34.4,M,,*54
$GPRMC,141858.000,A,4308.4773,N,07726.4304,W,5.35,267.89,100919,,,A*73
$GPGGA,141858.250,4308.4772,N,07726.4306,W,1,05,2.46,171.1,M,-34.4,M,,*59
$GPRMC,141858.500,A,4308.4771,N,07726.4307,W,3.34,261.09,100919,,,A*7E
$GPGGA,141858.750,4308.4769,N,07726.4308,W,1,05,2.46,171.2,M,-34.4,M,,*5B
$GPRMC,141859.000,A,4308.4768,N,07726.4308,W,1.71,261.09,100919,,,A*7E
$GPGGA,141859.250,4308.4766,N,07726.4307,W,1,05,2.46,171.3,M,-34.4,M,,*5E
$GPRMC,141859.500,A,4308.4763,N,07726.4306,W,1.34,261.09,100919,,,A*7F
$GPGGA,141859.750,4308.4760,N,07726.4305,W,1,05,2.46,171.4,M,-34.4,M,,*58
$GPRMC,141900.000,A,4308.4759,N,07726.4303,W,1.40,261.09,100919,,,A*78
$GPGGA,141900.250,4308.4757,N,07726.4302,W,1,05,2.45,171.4,M,-34.4,M,,*50
$GPRMC,141900.500,A,4308.4756,N,07726.4300,W,1.40,261.09,100919,,,A*71
$GPGGA,141900.750,4308.4754,N,07726.4299,W,1,05,2.45,171.5,M,-34.4,M,,*54
$GPRMC,141901.000,A,4308.4751,N,07726.4298,W,1.44,261.09,100919,,,A*76
$GPGGA,141901.250,4308.4749,N,07726.4297,W,1,05,2.45,171.5,M,-34.4,M,,*52
$GPRMC,141901.500,A,4308.4747,N,07726.4296,W,1.46,261.09,100919,,,A*78
$GPGGA,141901.750,4308.4745,N,07726.4296,W,1,05,2.45,171.5,M,-34.4,M,,*5A
$GPRMC,141902.000,A,4308.4744,N,07726.4295,W,1.39,261.09,100919,,,A*76
$GPGGA,141902.250,4308.4742,N,07726.4296,W,1,05,2.45,171.5,M,-34.4,M,,*5B
$GPRMC,141902.500,A,4308.4741,N,07726.4296,W,1.14,261.09,100919,,,A*7A
$GPGGA,141902.750,4308.4740,N,07726.4298,W,1,05,2.45,171.5,M,-34.4,M,,*52
$GPRMC,141903.000,A,4308.4739,N,07726.4301,W,0.90,261.09,100919,,,A*73
$GPGGA,141903.250,4308.4738,N,07726.4303,W,1,05,2.45,171.5,M,-34.4,M,,*5A
$GPRMC,141903.500,A,4308.4738,N,07726.4306,W,0.97,261.09,100919,,,A*77
$GPGGA,141903.750,4308.4739,N,07726.4311,W,1,05,2.45,171.5,M,-34.4,M,,*5D
$GPRMC,141904.000,A,4308.4740,N,07726.4316,W,4.13,266.26,100919,,,A*79
$GPGGA,141904.250,4308.4740,N,07726.4323,W,1,05,2.45,171.6,M,-34.4,M,,*53
$GPRMC,141904.500,A,4308.4741,N,07726.4330,W,6.68,269.27,100919,,,A*79
$GPGGA,141904.750,4308.4742,N,07726.4340,W,1,05,4.38,171.6,M,-34.4,M,,*5D
$GPRMC,141905.000,A,4308.4742,N,07726.4350,W,8.97,272.28,100919,,,A*73
$GPGGA,141905.250,4308.4743,N,07726.4360,W,1,05,2.45,171.5,M,-34.4,M,,*55
$GPRMC,141905.500,A,4308.4745,N,07726.4372,W,10.77,274.38,100919,,,A*41
$GPGGA,141905.750,4308.4748,N,07726.4385,W,1,05,4.38,171.5,M,-34.4,M,,*5C
$GPRMC,141906.000,A,4308.4752,N,07726.4405,W,13.34,281.04,100919,,,A*47
$GPGGA,141906.250,4308.4754,N,07726.4422,W,1,05,4.39,171.4,M,-34.4,M,,*5D
$GPRMC,141906.500,A,4308.4758,N,07726.4438,W,15.83,282.38,100919,,,A*40
$GPGGA,141906.750,4308.4760,N,07726.4456,W,1,05,4.39,171.3,M,-34.4,M,,*5B
$GPRMC,141907.000,A,4308.4764,N,07726.4475,W,18.30,283.23,100919,,,A*4C
$GPGGA,141907.250,4308.4766,N,07726.4493,W,1,05,2.45,171.3,M,-34.4,M,,*5D
$GPRMC,141907.500,A,4308.4769,N,07726.4512,W,19.82,282.41,100919,,,A*49
$GPGGA,141907.750,4308.4772,N,07726.4533,W,1,05,4.39,171.3,M,-34.4,M,,*5B
$GPRMC,141908.000,A,4308.4776,N,07726.4554,W,21.48,282.87,100919,,,A*48
$GPGGA,141908.250,4308.4779,N,07726.4574,W,1,05,2.45,171.3,M,-34.4,M,,*54
$GPRMC,141908.500,A,4308.4783,N,07726.4596,W,22.39,282.68,100919,,,A*4D
$GPGGA,141908.750,4308.4785,N,07726.4619,W,1,05,2.45,171.3,M,-34.4,M,,*5A
$GPRMC,141909.000,A,4308.4788,N,07726.4642,W,23.59,281.32,100919,,,A*43
$GPGGA,141909.250,4308.4790,N,07726.4665,W,1,05,2.45,171.3,M,-34.4,M,,*51
$GPRMC,141909.500,A,4308.4792,N,07726.4689,W,24.43,280.47,100919,,,A*45
$GPGGA,141909.750,4308.4795,N,07726.4715,W,1,05,2.45,171.3,M,-34.4,M,,*57
$GPRMC,141910.000,A,4308.4798,N,07726.4741,W,25.78,280.24,100919,,,A*4B
$GPGGA,141910.250,4308.4801,N,07726.4766,W,1,05,2.45,171.3,M,-34.4,M,,*5C
$GPRMC,141910.500,A,4308.4805,N,07726.4793,W,27.05,280.00,100919,,,A*44
$GPGGA,141910.750,4308.4808,N,07726.4821,W,1,05,2.45,171.4,M,-34.4,M,,*5B
$GPRMC,141911.000,A,4308.4812,N,07726.4850,W,28.46,280.46,100919,,,A*4C
$GPGGA,141911.250,4308.4813,N,07726.4879,W,1,05,2.45,171.4,M,-34.4,M,,*58
$GPRMC,141911.500,A,4308.4818,N,07726.4909,W,29.79,280.28,100919,,,A*4B
$GPGGA,141911.750,4308.4822,N,07726.4939,W,1,05,4.40,171.3,M,-34.4,M,,*5E
$GPRMC,141912.000,A,4308.4827,N,07726.4969,W,31.23,280.72,100919,,,A*4E
$GPGGA,141912.250,4308.4830,N,07726.4999,W,1,05,2.45,171.5,M,-34.4,M,,*54
$GPRMC,141912.500,A,4308.4834,N,07726.5030,W,32.22,280.12,100919,,,A*49
$GPGGA,141912.750,4308.4838,N,07726.5061,W,1,05,2.45,171.6,M,-34.4,M,,*55
$GPRMC,141913.000,A,4308.4842,N,07726.5093,W,33.25,279.60,100919,,,A*40
$GPGGA,141913.250,4308.4846,N,07726.5124,W,1,05,2.45,171.6,M,-34.4,M,,*58
$GPRMC,141913.500,A,4308.4850,N,07726.5156,W,33.90,279.35,100919,,,A*40
$GPGGA,141913.750,4308.4854,N,07726.5188,W,1,05,2.45,171.7,M,-34.4,M,,*59
$GPRMC,141914.000,A,4308.4857,N,07726.5221,W,34.82,279.04,100919,,,A*40
$GPGGA,141914.250,4308.4862,N,07726.5254,W,1,05,2.45,171.8,M,-34.4,M,,*53
$GPRMC,141914.500,A,4308.4866,N,07726.5287,W,35.49,278.96,100919,,,A*47
$GPGGA,141914.750,4308.4871,N,07726.5320,W,1,04,6.19,171.8,M,-34.4,M,,*5A
$GPRMC,141915.250,A,4308.4880,N,07726.5387,W,36.54,279.26,100919,,,A*48
$GPGGA,141915.500,4308.4885,N,07726.5422,W,1,04,6.19,171.7,M,-34.4,M,,*5D
$GPRMC,141916.000,A,4308.4895,N,07726.5491,W,37.79,279.34,100919,,,A*45
$GPGGA,141916.250,4308.4900,N,07726.5527,W,1,04,6.19,171.5,M,-34.4,M,,*56
$GPRMC,141916.750,A,4308.4911,N,07726.5599,W,38.96,280.26,100919,,,A*48
$GPGGA,141917.000,4308.4917,N,07726.5635,W,1,04,6.18,171.5,M,-34.4,M,,*57
$GPRMC,141917.250,A,4308.4924,N,07726.5672,W,39.45,281.30,100919,,,A*45
$GPGGA,141917.500,4308.4931,N,07726.5709,W,1,04,6.19,171.5,M,-34.4,M,,*59
$GPRMC,141917.750,A,4308.4936,N,07726.5746,W,39.84,281.75,100919,,,A*49
$GPGGA,141918.000,4308.4941,N,07726.5785,W,1,05,2.45,171.5,M,-34.4,M,,*5C
$GPRMC,141918.250,A,4308.4944,N,07726.5823,W,40.29,281.52,100919,,,A*46
$GPGGA,141918.500,4308.4944,N,07726.5863,W,1,05,2.45,171.5,M,-34.4,M,,*5B
$GPRMC,141918.750,A,4308.4945,N,07726.5902,W,40.83,279.91,100919,,,A*48
$GPGGA,141919.000,4308.4945,N,07726.5942,W,1,05,2.45,171.5,M,-34.4,M,,*5C
$GPRMC,141919.250,A,4308.4944,N,07726.5983,W,41.08,278.21,100919,,,A*4C
$GPGGA,141919.500,4308.4945,N,07726.6023,W,1,05,2.45,171.5,M,-34.4,M,,*54
$GPRMC,141919.750,A,4308.4946,N,07726.6064,W,41.88,276.93,100919,,,A*47
$GPGGA,141920.000,4308.4950,N,07726.6104,W,1,05,2.45,171.4,M,-34.4,M,,*5A
$GPRMC,141920.250,A,4308.4952,N,07726.6145,W,42.61,276.53,100919,,,A*47
$GPGGA,141920.500,4308.4954,N,07726.6186,W,1,05,2.45,171.3,M,-34.4,M,,*56
$GPRMC,141920.750,A,4308.4956,N,07726.6227,W,43.20,275.90,100919,,,A*49
$GPGGA,141921.000,4308.4955,N,07726.6269,W,1,05,2.45,171.3,M,-34.4,M,,*51
$GPRMC,141921.250,A,4308.4951,N,07726.6312,W,43.45,273.92,100919,,,A*4A
$GPGGA,141921.500,4308.4944,N,07726.6356,W,1,05,2.45,171.3,M,-34.4,M,,*59
$GPRMC,141921.750,A,4308.4941,N,07726.6399,W,43.70,271.71,100919,,,A*44
$GPGGA,141922.000,4308.4941,N,07726.6441,W,1,05,4.42,171.3,M,-34.4,M,,*5A
$GPRMC,141922.250,A,4308.4940,N,07726.6483,W,44.06,271.18,100919,,,A*46
$GPGGA,141922.500,4308.4940,N,07726.6525,W,1,05,2.45,171.4,M,-34.4,M,,*5B
$GPRMC,141922.750,A,4308.4940,N,07726.6567,W,44.09,271.03,100919,,,A*4D
$GPGGA,141923.000,4308.4939,N,07726.6609,W,1,05,2.45,171.5,M,-34.4,M,,*5D
$GPRMC,141923.250,A,4308.4939,N,07726.6651,W,44.04,270.64,100919,,,A*4C
$GPGGA,141923.500,4308.4938,N,07726.6693,W,1,05,2.45,171.6,M,-34.4,M,,*59
$GPRMC,141923.750,A,4308.4938,N,07726.6736,W,43.99,270.71,100919,,,A*4F
$GPGGA,141924.000,4308.4936,N,07726.6779,W,1,05,2.45,171.7,M,-34.4,M,,*51
$GPRMC,141924.250,A,4308.4936,N,07726.6821,W,44.04,270.63,100919,,,A*4A
$GPGGA,141924.500,4308.4936,N,07726.6863,W,1,05,2.45,171.8,M,-34.4,M,,*5F
$GPRMC,141924.750,A,4308.4935,N,07726.6906,W,44.08,270.43,100919,,,A*46
$GPGGA,141925.000,4308.4935,N,07726.6948,W,1,05,2.45,171.7,M,-34.4,M,,*5F
$GPRMC,141925.250,A,4308.4930,N,07726.6992,W,44.18,269.54,100919,,,A*45
$GPGGA,141925.500,4308.4927,N,07726.7036,W,1,05,2.45,172.2,M,-34.4,M,,*5E
$GPRMC,141925.750,A,4308.4924,N,07726.7080,W,44.85,268.65,100919,,,A*49
$GPGGA,141926.000,4308.4920,N,07726.7124,W,1,05,4.43,172.5,M,-34.4,M,,*5A
$GPRMC,141926.250,A,4308.4918,N,07726.7167,W,44.96,267.99,100919,,,A*46
$GPGGA,141926.500,4308.4916,N,07726.7211,W,1,05,2.45,172.9,M,-34.4,M,,*53
$GPRMC,141926.750,A,4308.4912,N,07726.7255,W,45.19,267.40,100919,,,A*49
$GPGGA,141927.000,4308.4908,N,07726.7299,W,1,05,4.44,173.2,M,-34.4,M,,*55
$GPRMC,141927.250,A,4308.4906,N,07726.7342,W,45.26,266.99,100919,,,A*46
$GPGGA,141927.500,4308.4904,N,07726.7386,W,1,05,2.45,173.5,M,-34.4,M,,*53
$GPRMC,141927.750,A,4308.4902,N,07726.7429,W,45.12,267.12,100919,,,A*48
$GPGGA,141928.000,4308.4900,N,07726.7472,W,1,05,2.45,173.8,M,-34.4,M,,*5C
$GPRMC,141928.250,A,4308.4898,N,07726.7515,W,45.07,266.97,100919,,,A*46
$GPGGA,141928.500,4308.4896,N,07726.7558,W,1,04,6.13,174.2,M,-34.4,M,,*55
$GPRMC,141928.750,A,4308.4893,N,07726.7601,W,45.20,266.37,100919,,,A*41
$GPGGA,141929.000,4308.4890,N,07726.7644,W,1,05,2.45,174.6,M,-34.4,M,,*5B
$GPRMC,141929.250,A,4308.4886,N,07726.7688,W,45.98,265.49,100919,,,A*49
$GPGGA,141929.500,4308.4883,N,07726.7731,W,1,05,2.45,174.9,M,-34.4,M,,*50
$GPRMC,141929.750,A,4308.4880,N,07726.7774,W,46.24,265.12,100919,,,A*42
$GPGGA,141930.000,4308.4877,N,07726.7816,W,1,05,4.44,175.1,M,-34.4,M,,*52
$GPRMC,141930.250,A,4308.4873,N,07726.7860,W,46.15,264.45,100919,,,A*48
$GPGGA,141930.500,4308.4870,N,07726.7903,W,1,05,2.45,175.2,M,-34.4,M,,*51
$GPRMC,141930.750,A,4308.4867,N,07726.7946,W,46.40,264.61,100919,,,A*4B
$GPGGA,141931.000,4308.4865,N,07726.7989,W,1,05,2.45,175.3,M,-34.4,M,,*52
$GPRMC,141931.250,A,4308.4861,N,07726.8031,W,46.62,264.25,100919,,,A*4F
$GPGGA,141931.500,4308.4857,N,07726.8074,W,1,05,2.45,175.4,M,-34.4,M,,*55
$GPRMC,141931.750,A,4308.4853,N,07726.8118,W,46.60,264.33,100919,,,A*44
$GPGGA,141932.000,4308.4849,N,07726.8161,W,1,05,2.45,175.5,M,-34.4,M,,*58
$GPRMC,141932.250,A,4308.4846,N,07726.8205,W,46.68,264.62,100919,,,A*45
$GPGGA,141932.500,4308.4842,N,07726.8249,W,1,05,2.45,175.5,M,-34.4,M,,*5F
$GPRMC,141932.750,A,4308.4838,N,07726.8294,W,47.11,264.74,100919,,,A*49
$GPGGA,141933.000,4308.4833,N,07726.8338,W,1,05,2.45,175.4,M,-34.4,M,,*5B
$GPRMC,141933.250,A,4308.4829,N,07726.8383,W,47.18,264.72,100919,,,A*45
$GPGGA,141933.500,4308.4825,N,07726.8428,W,1,05,2.45,175.4,M,-34.4,M,,*5F
$GPRMC,141933.750,A,4308.4820,N,07726.8473,W,47.19,264.75,100919,,,A*47
$GPGGA,141934.000,4308.4816,N,07726.8517,W,1,05,2.45,175.3,M,-34.4,M,,*57
$GPRMC,141934.250,A,4308.4811,N,07726.8562,W,47.19,264.78,100919,,,A*4B
$GPGGA,141934.500,4308.4807,N,07726.8607,W,1,05,4.45,175.2,M,-34.4,M,,*57
$GPRMC,141934.750,A,4308.4802,N,07726.8652,W,47.38,264.57,100919,,,A*42
$GPGGA,141935.000,4308.4797,N,07726.8697,W,1,05,2.45,175.1,M,-34.4,M,,*59
$GPRMC,141935.250,A,4308.4792,N,07726.8741,W,47.33,264.18,100919,,,A*43
$GPGGA,141935.500,4308.4788,N,07726.8786,W,1,05,2.45,174.9,M,-34.4,M,,*5A
$GPRMC,141935.750,A,4308.4783,N,07726.8831,W,46.96,264.38,100919,,,A*42
$GPGGA,141936.000,4308.4779,N,07726.8876,W,1,05,4.46,174.8,M,-34.4,M,,*56
$GPRMC,141936.250,A,4308.4774,N,07726.8921,W,46.98,264.38,100919,,,A*42
$GPGGA,141936.500,4308.4769,N,07726.8966,W,1,05,2.45,174.7,M,-34.4,M,,*58
$GPRMC,141936.750,A,4308.4764,N,07726.9012,W,47.04,264.46,100919,,,A*43
$GPGGA,141937.000,4308.4761,N,07726.9057,W,1,05,4.46,174.6,M,-34.4,M,,*5A
$GPRMC,141937.250,A,4308.4757,N,07726.9102,W,47.06,265.03,100919,,,A*45
$GPGGA,141937.500,4308.4753,N,07726.9147,W,1,05,2.45,174.5,M,-34.4,M,,*58
$GPRMC,141937.750,A,4308.4748,N,07726.9192,W,47.07,265.10,100919,,,A*44
$GPGGA,141938.000,4308.4745,N,07726.9237,W,1,05,4.46,174.3,M,-34.4,M,,*52
$GPRMC,141938.250,A,4308.4740,N,07726.9281,W,47.11,265.03,100919,,,A*42
$GPGGA,141938.500,4308.4736,N,07726.9326,W,1,05,2.45,174.1,M,-34.4,M,,*55
$GPRMC,141938.750,A,4308.4733,N,07726.9371,W,47.19,265.15,100919,,,A*42
$GPGGA,141939.000,4308.4731,N,07726.9415,W,1,05,4.47,173.8,M,-34.4,M,,*5B
$GPRMC,141939.250,A,4308.4727,N,07726.9459,W,47.26,265.29,100919,,,A*4D
$GPGGA,141939.500,4308.4724,N,07726.9505,W,1,05,2.45,173.6,M,-34.4,M,,*50
$GPRMC,141939.750,A,4308.4720,N,07726.9550,W,47.61,265.27,100919,,,A*4A
$GPGGA,141940.000,4308.4716,N,07726.9595,W,1,05,4.47,173.4,M,-34.4,M,,*55
$GPRMC,141940.250,A,4308.4713,N,07726.9639,W,47.50,265.27,100919,,,A*4F
$GPGGA,141940.500,4308.4710,N,07726.9684,W,1,05,2.45,173.2,M,-34.4,M,,*57
$GPRMC,141940.750,A,4308.4706,N,07726.9729,W,47.47,265.36,100919,,,A*48
$GPGGA,141941.000,4308.4702,N,07726.9773,W,1,05,4.47,172.9,M,-34.4,M,,*57
$GPRMC,141941.250,A,4308.4697,N,07726.9818,W,46.31,265.58,100919,,,A*40
$GPGGA,141941.500,4308.4692,N,07726.9862,W,1,05,2.45,172.7,M,-34.4,M,,*5F
$GPRMC,141941.750,A,4308.4687,N,07726.9907,W,46.16,265.23,100919,,,A*42
$GPGGA,141942.000,4308.4680,N,07726.9952,W,1,05,4.47,172.5,M,-34.4,M,,*5E
$GPRMC,141942.250,A,4308.4673,N,07726.9998,W,45.80,265.28,100919,,,A*4E
$GPGGA,141942.500,4308.4668,N,07727.0043,W,1,05,4.47,172.2,M,-34.4,M,,*5B
$GPRMC,141942.750,A,4308.4663,N,07727.0087,W,45.76,265.57,100919,,,A*44
$GPGGA,141943.000,4308.4659,N,07727.0131,W,1,05,4.47,172.0,M,-34.4,M,,*5B
$GPRMC,141943.250,A,4308.4655,N,07727.0176,W,45.78,265.92,100919,,,A*4D
$GPGGA,141943.500,4308.4651,N,07727.0221,W,1,05,2.45,171.8,M,-34.4,M,,*5B
$GPRMC,141943.750,A,4308.4648,N,07727.0265,W,45.97,266.70,100919,,,A*4B
$GPGGA,141944.000,4308.4646,N,07727.0310,W,1,05,4.48,171.6,M,-34.4,M,,*59
$GPRMC,141944.250,A,4308.4643,N,07727.0355,W,46.09,267.27,100919,,,A*47
$GPGGA,141944.500,4308.4641,N,07727.0399,W,1,05,2.45,171.4,M,-34.4,M,,*53
$GPRMC,141944.750,A,4308.4640,N,07727.0444,W,46.19,267.57,100919,,,A*40
$GPGGA,141945.000,4308.4639,N,07727.0488,W,1,05,2.45,171.3,M,-34.4,M,,*58
$GPRMC,141945.250,A,4308.4637,N,07727.0533,W,46.31,268.10,100919,,,A*43
$GPGGA,141945.500,4308.4636,N,07727.0577,W,1,05,2.45,171.2,M,-34.4,M,,*52
$GPRMC,141945.750,A,4308.4636,N,07727.0622,W,46.98,268.72,100919,,,A*43
$GPGGA,141946.000,4308.4636,N,07727.0667,W,1,05,2.45,171.0,M,-34.4,M,,*54
$GPRMC,141946.250,A,4308.4636,N,07727.0711,W,46.92,269.59,100919,,,A*46
$GPGGA,141946.500,4308.4637,N,07727.0755,W,1,05,4.48,170.9,M,-34.4,M,,*53
$GPRMC,141946.750,A,4308.4638,N,07727.0800,W,46.55,270.96,100919,,,A*42
$GPGGA,141947.000,4308.4639,N,07727.0845,W,1,05,4.49,170.8,M,-34.4,M,,*57
$GPRMC,141947.250,A,4308.4640,N,07727.0889,W,46.26,272.63,100919,,,A*44
$GPGGA,141947.500,4308.4641,N,07727.0934,W,1,05,2.45,170.6,M,-34.4,M,,*5E
$GPRMC,141947.750,A,4308.4641,N,07727.0979,W,45.59,275.55,100919,,,A*47
$GPGGA,141948.000,4308.4641,N,07727.1023,W,1,05,4.49,170.5,M,-34.4,M,,*53
$GPRMC,141948.250,A,4308.4644,N,07727.1067,W,45.30,277.19,100919,,,A*4A
$GPGGA,141948.500,4308.4647,N,07727.1110,W,1,05,4.49,170.5,M,-34.4,M,,*51
$GPRMC,141948.750,A,4308.4651,N,07727.1154,W,45.11,277.93,100919,,,A*4B
$GPGGA,141949.000,4308.4655,N,07727.1196,W,1,05,4.49,170.7,M,-34.4,M,,*5A
$GPRMC,141949.250,A,4308.4659,N,07727.1238,W,44.85,278.15,100919,,,A*43
$GPGGA,141949.500,4308.4663,N,07727.1282,W,1,05,4.50,170.8,M,-34.4,M,,*5B
$GPRMC,141949.750,A,4308.4668,N,07727.1324,W,45.08,278.81,100919,,,A*41
$GPGGA,141950.000,4308.4674,N,07727.1366,W,1,05,4.49,171.0,M,-34.4,M,,*5A
$GPRMC,141950.250,A,4308.4679,N,07727.1409,W,45.37,278.89,100919,,,A*40
$GPGGA,141950.500,4308.4684,N,07727.1451,W,1,05,4.50,171.2,M,-34.4,M,,*59
$GPRMC,141950.750,A,4308.4688,N,07727.1493,W,45.39,278.42,100919,,,A*41
$GPGGA,141951.000,4308.4693,N,07727.1536,W,1,05,4.49,171.3,M,-34.4,M,,*52
$GPRMC,141951.250,A,4308.4698,N,07727.1578,W,45.56,278.19,100919,,,A*47
$GPGGA,141951.500,4308.4703,N,07727.1621,W,1,05,2.45,171.4,M,-34.4,M,,*57
$GPRMC,141951.750,A,4308.4707,N,07727.1663,W,45.74,277.75,100919,,,A*49
$GPGGA,141952.000,4308.4711,N,07727.1706,W,1,05,4.50,171.5,M,-34.4,M,,*55
$GPRMC,141952.250,A,4308.4716,N,07727.1748,W,45.48,277.56,100919,,,A*49
$GPGGA,141952.500,4308.4719,N,07727.1791,W,1,05,2.45,171.5,M,-34.4,M,,*54
$GPRMC,141952.750,A,4308.4724,N,07727.1833,W,45.38,277.31,100919,,,A*48
$GPGGA,141953.000,4308.4728,N,07727.1875,W,1,05,4.50,171.5,M,-34.4,M,,*55
$GPRMC,141953.250,A,4308.4732,N,07727.1918,W,45.18,277.22,100919,,,A*43
$GPGGA,141953.500,4308.4736,N,07727.1960,W,1,04,6.00,171.5,M,-34.4,M,,*5C
$GPRMC,141953.750,A,4308.4740,N,07727.2003,W,45.25,276.98,100919,,,A*4D
$GPGGA,141954.000,4308.4744,N,07727.2046,W,1,04,6.00,171.5,M,-34.4,M,,*55
$GPRMC,141954.250,A,4308.4748,N,07727.2088,W,45.28,276.89,100919,,,A*49
$GPGGA,141954.500,4308.4752,N,07727.2130,W,1,05,2.45,171.4,M,-34.4,M,,*52
$GPRMC,141954.750,A,4308.4755,N,07727.2173,W,45.29,276.87,100919,,,A*4A
$GPGGA,141955.000,4308.4759,N,07727.2216,W,1,04,11.92,171.4,M,-34.4,M,,*63
$GPRMC,141955.250,A,4308.4764,N,07727.2258,W,45.23,277.12,100919,,,A*41
$GPGGA,141955.500,4308.4768,N,07727.2300,W,1,04,6.00,171.3,M,-34.4,M,,*58
$GPRMC,141955.750,A,4308.4773,N,07727.2342,W,45.17,277.24,100919,,,A*4A
$GPGGA,141956.000,4308.4777,N,07727.2384,W,1,04,11.93,171.3,M,-34.4,M,,*60
$GPRMC,141956.250,A,4308.4782,N,07727.2426,W,45.18,277.39,100919,,,A*44
$GPGGA,141956.500,4308.4788,N,07727.2468,W,1,05,2.45,171.2,M,-34.4,M,,*59
$GPRMC,141956.750,A,4308.4792,N,07727.2510,W,44.93,277.69,100919,,,A*43
$GPGGA,141957.000,4308.4796,N,07727.2552,W,1,05,4.51,171.2,M,-34.4,M,,*59
$GPRMC,141957.250,A,4308.4801,N,07727.2594,W,44.67,277.74,100919,,,A*49
$GPGGA,141957.500,4308.4805,N,07727.2636,W,1,05,2.45,171.1,M,-34.4,M,,*58
$GPRMC,141957.750,A,4308.4809,N,07727.2678,W,44.41,277.76,100919,,,A*43
$GPGGA,141958.000,4308.4814,N,07727.2719,W,1,05,4.51,171.0,M,-34.4,M,,*5C
$GPRMC,141958.250,A,4308.4821,N,07727.2760,W,44.34,278.14,100919,,,A*42
$GPGGA,141958.500,4308.4828,N,07727.2801,W,1,05,2.45,171.0,M,-34.4,M,,*53
$GPRMC,141958.750,A,4308.4833,N,07727.2843,W,44.27,278.60,100919,,,A*4B
$GPGGA,141959.000,4308.4839,N,07727.2884,W,1,05,4.52,170.8,M,-34.4,M,,*53
$GPRMC,141959.250,A,4308.4845,N,07727.2926,W,44.39,279.07,100919,,,A*43
$GPGGA,141959.500,4308.4851,N,07727.2968,W,1,05,4.52,170.9,M,-34.4,M,,*5A
$GPRMC,141959.750,A,4308.4859,N,07727.3009,W,44.57,279.64,100919,,,A*43
$GPGGA,142000.000,4308.4864,N,07727.3051,W,1,05,4.52,171.0,M,-34.4,M,,*55
$GPRMC,142000.250,A,4308.4871,N,07727.3092,W,44.77,279.57,100919,,,A*4A
$GPGGA,142000.500,4308.4878,N,07727.3134,W,1,05,4.52,170.9,M,-34.4,M,,*57
$GPRMC,142000.750,A,4308.4886,N,07727.3175,W,44.80,279.47,100919,,,A*46
$GPGGA,142001.000,4308.4893,N,07727.3216,W,1,05,4.52,170.9,M,-34.4,M,,*55
$GPRMC,142001.250,A,4308.4901,N,07727.3257,W,44.80,279.57,100919,,,A*4E
$GPGGA,142001.500,4308.4908,N,07727.3298,W,1,05,4.52,170.9,M,-34.4,M,,*55
$GPRMC,142001.750,A,4308.4916,N,07727.3339,W,44.77,279.28,100919,,,A*44
$GPGGA,142002.000,4308.4923,N,07727.3380,W,1,05,4.52,170.8,M,-34.4,M,,*53
$GPRMC,142002.250,A,4308.4929,N,07727.3422,W,44.48,279.43,100919,,,A*42
$GPGGA,142002.500,4308.4935,N,07727.3463,W,1,05,4.53,170.7,M,-34.4,M,,*55
$GPRMC,142002.750,A,4308.4941,N,07727.3505,W,44.49,279.84,100919,,,A*47
$GPGGA,142003.000,4308.4949,N,07727.3546,W,1,05,4.53,170.6,M,-34.4,M,,*5D
$GPRMC,142003.250,A,4308.4954,N,07727.3588,W,44.65,279.87,100919,,,A*4F
$GPGGA,142003.500,4308.4960,N,07727.3629,W,1,05,2.45,170.5,M,-34.4,M,,*5B
$GPRMC,142003.750,A,4308.4966,N,07727.3671,W,44.68,279.40,100919,,,A*48
$GPGGA,142004.000,4308.4971,N,07727.3713,W,1,05,4.53,170.4,M,-34.4,M,,*51
$GPRMC,142004.250,A,4308.4977,N,07727.3755,W,44.75,279.15,100919,,,A*41
$GPGGA,142004.500,4308.4982,N,07727.3796,W,1,05,4.53,170.3,M,-34.4,M,,*52
$GPRMC,142004.750,A,4308.4987,N,07727.3838,W,44.79,278.95,100919,,,A*4A
$GPGGA,142005.000,4308.4992,N,07727.3880,W,1,05,4.53,170.1,M,-34.4,M,,*5D
$GPRMC,142005.250,A,4308.4998,N,07727.3922,W,44.64,279.08,100919,,,A*43
$GPGGA,142005.500,4308.5003,N,07727.3963,W,1,04,5.95,169.9,M,-34.4,M,,*5E
$GPRMC,142005.750,A,4308.5007,N,07727.4005,W,44.43,279.08,100919,,,A*46
$GPGGA,142006.000,4308.5014,N,07727.4046,W,1,05,4.54,169.8,M,-34.4,M,,*5B
$GPRMC,142006.250,A,4308.5023,N,07727.4086,W,44.28,280.05,100919,,,A*4B
$GPGGA,142006.500,4308.5030,N,07727.4128,W,1,05,4.54,169.7,M,-34.4,M,,*5E
$GPRMC,142006.750,A,4308.5035,N,07727.4170,W,44.34,280.16,100919,,,A*4E
$GPGGA,142007.000,4308.5041,N,07727.4212,W,1,05,4.54,169.7,M,-34.4,M,,*56
$GPRMC,142007.250,A,4308.5046,N,07727.4253,W,44.30,280.44,100919,,,A*4F
$GPGGA,142007.500,4308.5051,N,07727.4296,W,1,05,2.45,169.6,M,-34.4,M,,*59
$GPRMC,142007.750,A,4308.5056,N,07727.4338,W,44.31,280.82,100919,,,A*4C
$GPGGA,142008.000,4308.5061,N,07727.4380,W,1,05,4.54,169.6,M,-34.4,M,,*50
$GPRMC,142008.250,A,4308.5066,N,07727.4421,W,44.27,280.38,100919,,,A*4C
$GPGGA,142008.500,4308.5072,N,07727.4463,W,1,05,2.45,169.7,M,-34.4,M,,*5A
$GPRMC,142008.750,A,4308.5077,N,07727.4504,W,44.20,280.46,100919,,,A*41
$GPGGA,142009.000,4308.5082,N,07727.4545,W,1,05,4.54,169.7,M,-34.4,M,,*52
$GPRMC,142009.250,A,4308.5087,N,07727.4587,W,44.18,280.12,100919,,,A*4B
$GPGGA,142009.500,4308.5092,N,07727.4628,W,1,05,2.45,169.8,M,-34.4,M,,*57
$GPRMC,142009.750,A,4308.5094,N,07727.4670,W,44.19,278.46,100919,,,A*40
$GPGGA,142010.000,4308.5098,N,07727.4712,W,1,05,4.55,169.9,M,-34.4,M,,*5E
$GPRMC,142010.250,A,4308.5102,N,07727.4753,W,43.86,277.72,100919,,,A*4A
$GPGGA,142010.500,4308.5106,N,07727.4793,W,1,05,2.45,170.0,M,-34.4,M,,*52
$GPRMC,142010.750,A,4308.5111,N,07727.4833,W,43.53,277.14,100919,,,A*4C
$GPGGA,142011.000,4308.5115,N,07727.4874,W,1,05,4.55,170.0,M,-34.4,M,,*55
$GPRMC,142011.250,A,4308.5120,N,07727.4914,W,43.27,277.25,100919,,,A*4F
$GPGGA,142011.500,4308.5124,N,07727.4955,W,1,04,5.92,170.0,M,-34.4,M,,*5B
$GPRMC,142011.750,A,4308.5128,N,07727.4995,W,43.17,277.46,100919,,,A*4D
$GPGGA,142012.000,4308.5133,N,07727.5035,W,1,04,11.97,169.9,M,-34.4,M,,*64
$GPRMC,142012.250,A,4308.5137,N,07727.5075,W,43.00,278.04,100919,,,A*4C
$GPGGA,142012.500,4308.5142,N,07727.5114,W,1,04,5.91,169.9,M,-34.4,M,,*56
$GPRMC,142012.750,A,4308.5146,N,07727.5153,W,41.62,278.59,100919,,,A*44
$GPGGA,142013.000,4308.5151,N,07727.5192,W,1,05,4.56,169.9,M,-34.4,M,,*55
$GPRMC,142013.250,A,4308.5156,N,07727.5231,W,41.38,278.83,100919,,,A*4E
$GPGGA,142013.500,4308.5160,N,07727.5269,W,1,05,2.45,170.0,M,-34.4,M,,*50
$GPRMC,142013.750,A,4308.5168,N,07727.5307,W,41.16,279.45,100919,,,A*45
$GPGGA,142014.000,4308.5176,N,07727.5345,W,1,05,4.56,170.0,M,-34.4,M,,*5E
$GPRMC,142014.250,A,4308.5183,N,07727.5382,W,41.07,280.18,100919,,,A*41
$GPGGA,142014.500,4308.5191,N,07727.5420,W,1,05,4.56,170.0,M,-34.4,M,,*56
$GPRMC,142014.750,A,4308.5197,N,07727.5459,W,40.85,280.87,100919,,,A*4D
$GPGGA,142015.000,4308.5202,N,07727.5497,W,1,05,4.56,170.1,M,-34.4,M,,*56
$GPRMC,142015.250,A,4308.5208,N,07727.5536,W,40.98,280.65,100919,,,A*44
$GPGGA,142015.500,4308.5213,N,07727.5574,W,1,05,2.44,170.2,M,-34.4,M,,*59
$GPRMC,142015.750,A,4308.5218,N,07727.5613,W,41.19,279.71,100919,,,A*4F
$GPGGA,142016.000,4308.5222,N,07727.5651,W,1,05,4.56,170.3,M,-34.4,M,,*5D
$GPRMC,142016.250,A,4308.5227,N,07727.5689,W,41.23,278.58,100919,,,A*45
$GPGGA,142016.500,4308.5232,N,07727.5727,W,1,05,4.56,170.3,M,-34.4,M,,*59
$GPRMC,142016.750,A,4308.5236,N,07727.5765,W,41.03,277.12,100919,,,A*40
$GPGGA,142017.000,4308.5241,N,07727.5802,W,1,05,4.57,170.3,M,-34.4,M,,*50
$GPRMC,142017.250,A,4308.5245,N,07727.5840,W,40.72,276.70,100919,,,A*4A
$GPGGA,142017.500,4308.5251,N,07727.5877,W,1,05,4.56,170.1,M,-34.4,M,,*55
$GPRMC,142017.750,A,4308.5258,N,07727.5913,W,40.68,276.85,100919,,,A*45
$GPGGA,142018.000,4308.5263,N,07727.5950,W,1,05,4.57,169.8,M,-34.4,M,,*5A
$GPRMC,142018.250,A,4308.5267,N,07727.5986,W,40.50,276.92,100919,,,A*42
$GPGGA,142018.500,4308.5271,N,07727.6022,W,1,05,4.57,169.4,M,-34.4,M,,*5F
$GPRMC,142018.750,A,4308.5276,N,07727.6059,W,39.30,276.78,100919,,,A*43
$GPGGA,142019.000,4308.5280,N,07727.6095,W,1,05,4.57,169.1,M,-34.4,M,,*5C
$GPRMC,142019.250,A,4308.5283,N,07727.6132,W,38.87,277.30,100919,,,A*41
$GPGGA,142019.500,4308.5286,N,07727.6168,W,1,05,2.44,168.8,M,-34.4,M,,*50
$GPRMC,142019.750,A,4308.5289,N,07727.6205,W,38.50,278.40,100919,,,A*4B
$GPGGA,142020.000,4308.5291,N,07727.6242,W,1,05,4.57,168.6,M,-34.4,M,,*58
$GPRMC,142020.250,A,4308.5292,N,07727.6279,W,38.33,278.44,100919,,,A*44
$GPGGA,142020.500,4308.5291,N,07727.6317,W,1,05,4.57,168.4,M,-34.4,M,,*5E
$GPRMC,142020.750,A,4308.5290,N,07727.6354,W,38.17,277.47,100919,,,A*47
$GPGGA,142021.000,4308.5293,N,07727.6390,W,1,05,4.58,168.3,M,-34.4,M,,*5F
$GPRMC,142021.250,A,4308.5297,N,07727.6426,W,37.80,277.74,100919,,,A*47
$GPGGA,142021.500,4308.5300,N,07727.6461,W,1,05,4.58,168.1,M,-34.4,M,,*5A
$GPRMC,142021.750,A,4308.5304,N,07727.6497,W,37.72,277.91,100919,,,A*45
$GPGGA,142022.000,4308.5307,N,07727.6532,W,1,05,4.58,168.0,M,-34.4,M,,*5D
$GPRMC,142022.250,A,4308.5311,N,07727.6568,W,37.64,277.88,100919,,,A*49
$GPGGA,142022.500,4308.5314,N,07727.6603,W,1,05,2.44,167.9,M,-34.4,M,,*56
$GPRMC,142022.750,A,4308.5316,N,07727.6639,W,37.59,277.44,100919,,,A*42
$GPGGA,142023.000,4308.5317,N,07727.6675,W,1,05,4.58,167.9,M,-34.4,M,,*5B
$GPRMC,142023.250,A,4308.5319,N,07727.6710,W,37.62,276.40,100919,,,A*4E
$GPGGA,142023.500,4308.5321,N,07727.6746,W,1,05,2.44,168.0,M,-34.4,M,,*57
$GPRMC,142023.750,A,4308.5323,N,07727.6782,W,37.68,275.53,100919,,,A*42
$GPGGA,142024.000,4308.5326,N,07727.6817,W,1,04,5.86,168.0,M,-34.4,M,,*51
$GPRMC,142024.250,A,4308.5328,N,07727.6852,W,37.27,275.72,100919,,,A*41
$GPGGA,142024.500,4308.5331,N,07727.6887,W,1,05,2.44,168.0,M,-34.4,M,,*53
$GPRMC,142024.750,A,4308.5332,N,07727.6922,W,36.99,275.83,100919,,,A*43
$GPGGA,142025.000,4308.5334,N,07727.6956,W,1,05,4.59,168.1,M,-34.4,M,,*54
$GPRMC,142025.250,A,4308.5336,N,07727.6991,W,36.69,275.92,100919,,,A*44
$GPGGA,142025.500,4308.5339,N,07727.7025,W,1,05,2.45,168.3,M,-34.4,M,,*59
$GPRMC,142025.750,A,4308.5341,N,07727.7058,W,36.07,275.32,100919,,,A*4E
$GPGGA,142026.000,4308.5343,N,07727.7092,W,1,05,2.44,168.4,M,-34.4,M,,*58
$GPRMC,142026.250,A,4308.5345,N,07727.7126,W,35.72,274.95,100919,,,A*49
$GPGGA,142026.500,4308.5347,N,07727.7159,W,1,05,2.44,168.5,M,-34.4,M,,*5E
$GPRMC,142026.750,A,4308.5348,N,07727.7192,W,35.20,274.06,100919,,,A*43
$GPGGA,142027.000,4308.5350,N,07727.7226,W,1,05,2.44,168.7,M,-34.4,M,,*55
$GPRMC,142027.250,A,4308.5351,N,07727.7258,W,34.97,272.90,100919,,,A*4E
$GPGGA,142027.500,4308.5352,N,07727.7291,W,1,05,2.44,168.8,M,-34.4,M,,*51
$GPRMC,142027.750,A,4308.5352,N,07727.7323,W,33.79,271.63,100919,,,A*4D
$GPGGA,142028.000,4308.5352,N,07727.7354,W,1,05,2.44,168.9,M,-34.4,M,,*52
$GPRMC,142028.250,A,4308.5352,N,07727.7385,W,32.46,270.97,100919,,,A*4C
$GPGGA,142028.500,4308.5352,N,07727.7415,W,1,05,2.44,168.9,M,-34.4,M,,*55
$GPRMC,142028.750,A,4308.5352,N,07727.7444,W,30.14,270.38,100919,,,A*43
$GPGGA,142029.000,4308.5350,N,07727.7472,W,1,05,2.44,168.9,M,-34.4,M,,*52
$GPRMC,142029.250,A,4308.5350,N,07727.7499,W,28.46,269.64,100919,,,A*4A
$GPGGA,142029.500,4308.5349,N,07727.7525,W,1,05,2.44,169.0,M,-34.4,M,,*54
$GPRMC,142029.750,A,4308.5347,N,07727.7550,W,26.01,267.69,100919,,,A*43
$GPGGA,142030.000,4308.5347,N,07727.7573,W,1,05,2.44,169.1,M,-34.4,M,,*55
$GPRMC,142030.250,A,4308.5347,N,07727.7596,W,24.59,266.52,100919,,,A*42
$GPGGA,142030.500,4308.5346,N,07727.7618,W,1,05,2.44,169.3,M,-34.4,M,,*5D
$GPRMC,142030.750,A,4308.5345,N,07727.7638,W,22.63,264.50,100919,,,A*4D
$GPGGA,142031.000,4308.5344,N,07727.7658,W,1,05,4.60,169.4,M,-34.4,M,,*58
$GPRMC,142031.250,A,4308.5343,N,07727.7678,W,21.36,263.76,100919,,,A*4B
$GPGGA,142031.500,4308.5341,N,07727.7696,W,1,05,2.44,169.5,M,-34.4,M,,*5B
$GPRMC,142031.750,A,4308.5339,N,07727.7713,W,19.05,261.62,100919,,,A*43
$GPGGA,142032.000,4308.5337,N,07727.7729,W,1,05,4.60,169.7,M,-34.4,M,,*5B
$GPRMC,142032.250,A,4308.5335,N,07727.7745,W,17.74,260.06,100919,,,A*41
$GPGGA,142032.500,4308.5332,N,07727.7760,W,1,05,2.44,169.7,M,-34.4,M,,*56
$GPRMC,142032.750,A,4308.5329,N,07727.7774,W,15.45,257.07,100919,,,A*4E
$GPGGA,142033.000,4308.5327,N,07727.7787,W,1,05,4.61,169.8,M,-34.4,M,,*51
$GPRMC,142033.250,A,4308.5326,N,07727.7799,W,14.01,255.85,100919,,,A*4F
$GPGGA,142033.500,4308.5326,N,07727.7809,W,1,05,4.61,169.8,M,-34.4,M,,*5C
$GPRMC,142033.750,A,4308.5325,N,07727.7819,W,11.35,254.82,100919,,,A*4A
$GPGGA,142034.000,4308.5324,N,07727.7827,W,1,05,4.61,169.8,M,-34.4,M,,*50
$GPRMC,142034.250,A,4308.5325,N,07727.7834,W,9.40,253.93,100919,,,A*7B
$GPGGA,142034.500,4308.5325,N,07727.7840,W,1,05,4.61,169.8,M,-34.4,M,,*55
$GPRMC,142034.750,A,4308.5324,N,07727.7845,W,7.17,248.11,100919,,,A*75
$GPGGA,142035.000,4308.5322,N,07727.7850,W,1,05,4.61,169.8,M,-34.4,M,,*57
$GPRMC,142035.250,A,4308.5321,N,07727.7854,W,6.28,241.77,100919,,,A*70
$GPGGA,142035.500,4308.5320,N,07727.7857,W,1,05,4.62,169.9,M,-34.4,M,,*55
$GPRMC,142035.750,A,4308.5319,N,07727.7860,W,5.87,235.10,100919,,,A*7D
$GPGGA,142036.000,4308.5319,N,07727.7862,W,1,05,4.62,169.9,M,-34.4,M,,*5F
$GPRMC,142036.250,A,4308.5318,N,07727.7865,W,5.56,230.73,100919,,,A*73
$GPGGA,142036.500,4308.5319,N,07727.7867,W,1,05,4.62,169.9,M,-34.4,M,,*5F
$GPRMC,142036.750,A,4308.5322,N,07727.7868,W,4.61,232.36,100919,,,A*74
$GPGGA,142037.000,4308.5324,N,07727.7869,W,1,05,4.62,170.0,M,-34.4,M,,*5A
$GPRMC,142037.250,A,4308.5325,N,07727.7871,W,3.67,235.90,100919,,,A*75
$GPGGA,142037.500,4308.5327,N,07727.7872,W,1,05,2.44,170.0,M,-34.4,M,,*54
$GPRMC,142037.750,A,4308.5329,N,07727.7872,W,2.31,235.87,100919,,,A*7B
$GPGGA,142038.000,4308.5329,N,07727.7873,W,1,05,2.44,170.0,M,-34.4,M,,*51
$GPRMC,142038.250,A,4308.5330,N,07727.7874,W,1.33,235.87,100919,,,A*7E
$GPGGA,142038.500,4308.5332,N,07727.7873,W,1,05,2.44,170.1,M,-34.4,M,,*5F
$GPRMC,142038.750,A,4308.5333,N,07727.7872,W,0.65,235.87,100919,,,A*7C
$GPGGA,142039.000,4308.5334,N,07727.7871,W,1,05,2.44,170.1,M,-34.4,M,,*5F
$GPRMC,142039.250,A,4308.5335,N,07727.7871,W,0.61,235.87,100919,,,A*79
$GPGGA,142039.500,4308.5335,N,07727.7870,W,1,05,2.44,170.0,M,-34.4,M,,*5B
$GPRMC,142039.750,A,4308.5335,N,07727.7870,W,0.63,235.87,100919,,,A*7F
$GPGGA,142040.000,4308.5335,N,07727.7869,W,1,05,2.44,169.9,M,-34.4,M,,*59
$GPRMC,142040.250,A,4308.5335,N,07727.7869,W,0.65,235.87,100919,,,A*7A
$GPGGA,142040.500,4308.5335,N,07727.7869,W,1,05,2.44,169.9,M,-34.4,M,,*5C
$GPRMC,142040.750,A,4308.5335,N,07727.7869,W,0.65,235.87,100919,,,A*7F
$GPGGA,142041.000,4308.5334,N,07727.7869,W,1,05,2.44,169.8,M,-34.4,M,,*58
$GPRMC,142041.250,A,4308.5334,N,07727.7870,W,0.58,235.87,100919,,,A*7C
$GPGGA,142041.500,4308.5334,N,07727.7870,W,1,05,2.44,169.6,M,-34.4,M,,*5B
$GPRMC,142041.750,A,4308.5334,N,07727.7871,W,0.48,235.87,100919,,,A*79
$GPGGA,142042.000,4308.5334,N,07727.7871,W,1,05,2.44,169.5,M,-34.4,M,,*5F
$GPRMC,142042.250,A,4308.5334,N,07727.7872,W,0.43,235.87,100919,,,A*77
$GPGGA,142042.500,4308.5335,N,07727.7873,W,1,05,2.44,169.4,M,-34.4,M,,*58
$GPRMC,142042.750,A,4308.5335,N,07727.7875,W,1.34,235.87,100919,,,A*75
$GPGGA,142043.000,4308.5336,N,07727.7877,W,1,05,2.44,169.3,M,-34.4,M,,*5C
$GPRMC,142043.250,A,4308.5336,N,07727.7879,W,2.03,235.87,100919,,,A*79
$GPGGA,142043.500,4308.5336,N,07727.7882,W,1,05,2.44,169.1,M,-34.4,M,,*51
$GPRMC,142043.750,A,4308.5337,N,07727.7885,W,2.59,235.87,100919,,,A*71
$GPGGA,142044.000,4308.5338,N,07727.7887,W,1,05,2.44,168.9,M,-34.4,M,,*51
$GPRMC,142044.250,A,4308.5338,N,07727.7890,W,3.18,269.68,100919,,,A*74
$GPGGA,142044.500,4308.5339,N,07727.7892,W,1,05,2.44,168.7,M,-34.4,M,,*5F
$GPRMC,142044.750,A,4308.5341,N,07727.7894,W,2.67,274.73,100919,,,A*74
$GPGGA,142045.000,4308.5342,N,07727.7896,W,1,05,2.44,168.6,M,-34.4,M,,*52
$GPRMC,142045.250,A,4308.5344,N,07727.7897,W,1.94,274.73,100919,,,A*79
$GPGGA,142045.500,4308.5345,N,07727.7898,W,1,05,2.44,168.4,M,-34.4,M,,*5C
$GPRMC,142045.750,A,4308.5346,N,07727.7898,W,0.96,274.73,100919,,,A*72
$GPGGA,142046.000,4308.5347,N,07727.7897,W,1,05,2.44,168.3,M,-34.4,M,,*50
$GPRMC,142046.250,A,4308.5348,N,07727.7896,W,0.93,274.73,100919,,,A*71
$GPGGA,142046.500,4308.5349,N,07727.7896,W,1,05,4.65,168.3,M,-34.4,M,,*5F
$GPRMC,142046.750,A,4308.5349,N,07727.7895,W,0.94,274.73,100919,,,A*71
$GPGGA,142047.000,4308.5350,N,07727.7895,W,1,05,2.44,168.2,M,-34.4,M,,*54
$GPRMC,142047.250,A,4308.5350,N,07727.7894,W,0.94,274.73,100919,,,A*7C
$GPGGA,142047.500,4308.5351,N,07727.7894,W,1,05,2.44,168.2,M,-34.4,M,,*51
$GPRMC,142047.750,A,4308.5351,N,07727.7895,W,0.69,274.73,100919,,,A*7B
$GPGGA,142048.000,4308.5352,N,07727.7897,W,1,05,4.65,168.2,M,-34.4,M,,*5E
$GPRMC,142048.250,A,4308.5351,N,07727.7898,W,0.66,274.73,100919,,,A*73
$GPGGA,142048.500,4308.5352,N,07727.7900,W,1,05,2.44,168.2,M,-34.4,M,,*51
$GPRMC,142048.750,A,4308.5355,N,07727.7903,W,1.61,274.73,100919,,,A*77
$GPGGA,142049.000,4308.5356,N,07727.7907,W,1,05,2.44,168.2,M,-34.4,M,,*56
$GPRMC,142049.250,A,4308.5357,N,07727.7910,W,3.09,280.84,100919,,,A*7C
$GPGGA,142049.500,4308.5359,N,07727.7914,W,1,05,2.44,168.2,M,-34.4,M,,*5E
$GPRMC,142049.750,A,4308.5361,N,07727.7919,W,4.40,282.12,100919,,,A*72
$GPGGA,142050.000,4308.5363,N,07727.7923,W,1,05,4.66,168.3,M,-34.4,M,,*59
$GPRMC,142050.250,A,4308.5364,N,07727.7927,W,4.46,286.27,100919,,,A*73
$GPGGA,142050.500,4308.5366,N,07727.7932,W,1,06,2.14,168.3,M,-34.4,M,,*59
$GPRMC,142050.750,A,4308.5368,N,07727.7935,W,3.83,291.35,100919,,,A*72
$GPGGA,142051.000,4308.5369,N,07727.7939,W,1,06,2.05,168.3,M,-34.4,M,,*59
$GPRMC,142051.250,A,4308.5370,N,07727.7942,W,3.33,296.06,100919,,,A*73
$GPGGA,142051.500,4308.5370,N,07727.7945,W,1,06,2.05,168.3,M,-34.4,M,,*5F
$GPRMC,142051.750,A,4308.5371,N,07727.7947,W,2.40,296.06,100919,,,A*77
$GPGGA,142052.000,4308.5371,N,07727.7950,W,1,06,2.05,168.3,M,-34.4,M,,*5C
$GPRMC,142052.250,A,4308.5371,N,07727.7952,W,2.51,296.06,100919,,,A*75
$GPGGA,142052.500,4308.5371,N,07727.7955,W,1,06,2.05,168.3,M,-34.4,M,,*5C
$GPRMC,142052.750,A,4308.5372,N,07727.7960,W,4.05,276.75,100919,,,A*7F
$GPGGA,142053.000,4308.5370,N,07727.7967,W,1,06,2.15,167.9,M,-34.4,M,,*5C
$GPRMC,142053.250,A,4308.5370,N,07727.7973,W,5.51,272.28,100919,,,A*77
$GPGGA,142053.500,4308.5371,N,07727.7980,W,1,06,2.15,167.9,M,-34.4,M,,*51
$GPRMC,142053.750,A,4308.5372,N,07727.7988,W,8.02,274.77,100919,,,A*73
$GPGGA,142054.000,4308.5373,N,07727.7997,W,1,06,2.14,167.9,M,-34.4,M,,*56
$GPRMC,142054.250,A,4308.5374,N,07727.8006,W,9.61,274.65,100919,,,A*70
$GPGGA,142054.500,4308.5375,N,07727.8017,W,1,06,2.15,167.8,M,-34.4,M,,*5B
$GPRMC,142054.750,A,4308.5377,N,07727.8029,W,12.16,276.21,100919,,,A*43
$GPGGA,142055.000,4308.5377,N,07727.8044,W,1,06,2.14,167.4,M,-34.4,M,,*56
$GPRMC,142055.250,A,4308.5378,N,07727.8058,W,13.80,276.31,100919,,,A*41
$GPGGA,142055.500,4308.5380,N,07727.8072,W,1,06,2.05,167.4,M,-34.4,M,,*5E
$GPRMC,142055.750,A,4308.5380,N,07727.8090,W,16.07,276.99,100919,,,A*4F
$GPGGA,142056.000,4308.5380,N,07727.8108,W,1,06,2.14,166.8,M,-34.4,M,,*59
$GPRMC,142056.250,A,4308.5382,N,07727.8125,W,17.58,276.27,100919,,,A*4A
$GPGGA,142056.500,4308.5383,N,07727.8143,W,1,06,2.14,166.7,M,-34.4,M,,*5F
$GPRMC,142056.750,A,4308.5384,N,07727.8164,W,19.49,276.58,100919,,,A*4A
$GPGGA,142057.000,4308.5384,N,07727.8187,W,1,06,2.14,166.0,M,-34.4,M,,*53
$GPRMC,142057.250,A,4308.5387,N,07727.8207,W,20.70,277.34,100919,,,A*40
$GPGGA,142057.500,4308.5384,N,07727.8236,W,1,06,2.15,164.9,M,-34.4,M,,*55
$GPRMC,142057.750,A,4308.5384,N,07727.8261,W,22.33,278.16,100919,,,A*4C
$GPGGA,142058.000,4308.5386,N,07727.8285,W,1,06,2.14,164.0,M,-34.4,M,,*5D
$GPRMC,142058.250,A,4308.5388,N,07727.8308,W,23.48,278.48,100919,,,A*42
$GPGGA,142058.500,4308.5389,N,07727.8335,W,1,06,2.05,163.5,M,-34.4,M,,*5F
$GPRMC,142058.750,A,4308.5390,N,07727.8363,W,25.40,278.56,100919,,,A*42
$GPGGA,142059.000,4308.5391,N,07727.8390,W,1,06,2.05,162.8,M,-34.4,M,,*51
$GPRMC,142059.250,A,4308.5389,N,07727.8423,W,27.08,278.04,100919,,,A*44
$GPGGA,142059.500,4308.5387,N,07727.8456,W,1,06,2.05,161.1,M,-34.4,M,,*54
$GPRMC,142059.750,A,4308.5386,N,07727.8488,W,28.85,277.82,100919,,,A*44
$GPGGA,142100.000,4308.5386,N,07727.8520,W,1,06,2.05,159.8,M,-34.4,M,,*5F
$GPRMC,142100.250,A,4308.5390,N,07727.8549,W,30.27,278.04,100919,,,A*47
$GPGGA,142100.500,4308.5392,N,07727.8581,W,1,06,2.05,159.6,M,-34.4,M,,*5A
$GPRMC,142100.750,A,4308.5392,N,07727.8615,W,30.99,278.17,100919,,,A*4D
$GPGGA,142101.000,4308.5393,N,07727.8650,W,1,06,2.05,158.5,M,-34.4,M,,*52
$GPRMC,142101.250,A,4308.5396,N,07727.8681,W,33.32,278.00,100919,,,A*44
$GPGGA,142101.500,4308.5399,N,07727.8714,W,1,06,2.05,158.3,M,-34.4,M,,*5A
$GPRMC,142101.750,A,4308.5401,N,07727.8747,W,34.84,278.08,100919,,,A*41
