Vers 70
USE_SERIAL_FEEDBACK=true
DEVELOPMENT_MODE=false
USE_RMC_ONLY=false

$GPRMC,143551.250,A,4308.3037,N,07726.2622,W,0.17,332.94,090519,,,A*79
$GPGGA,143551.500,4308.3037,N,07726.2623,W,1,05,1.54,109.0,M,-34.4,M,,*56
lng=-77.437705, lat=43.138393, altitude=109.90, speed=0.17, satellites=5, angle=332.9400, fixquality=1
$GPGGA,143552.500,4308.3035,N,07726.2625,W,1,05,1.62,107.8,M,-34.4,M,,*52
$GPRMC,143552.500,A,4308.3035,N,07726.2625,W,0.05,356.75,090519,,,A*73
lng=-77.437713, lat=43.138393, altitude=107.80, speed=0.08, satellites=5, angle=350.8600, fixquality=1
$GPGGA,143553.750,4308.3034,N,07726.2629,W,1,05,1.54,106.8,M,-34.4,M,,*5D
$GPRMC,143553.750,A,4308.3034,N,07726.2629,W,0.12,299.11,090519,,,A*7E
lng=-77.437713, lat=43.138385, altitude=106.80, speed=0.14, satellites=5, angle=302.3300, fixquality=1
$GPGGA,143554.250,4308.3033,N,07726.2630,W,1,05,1.53,105.9,M,-34.4,M,,*55
$GPRMC,143554.250,A,4308.3033,N,07726.2630,W,0.05,217.88,090519,,,A*73
lng=-77.437721, lat=43.138385, altitude=105.90, speed=0.05, satellites=5, angle=295.6900, fixquality=1
$GPGGA,143555.250,4308.3029,N,07726.2634,W,1,05,1.54,102.8,M,-34.4,M,,*5A
$GPRMC,143555.250,A,4308.3029,N,07726.2634,W,0.06,236.57,090519,,,A*7F
lng=-77.437721, lat=43.138378, altitude=102.80, speed=0.07, satellites=5, angle=225.9400, fixquality=1
$GPGGA,143555.500,4308.3029,N,07726.2635,W,1,05,1.54,102.1,M,-34.4,M,,*50
$GPRMC,143555.500,A,4308.3029,N,07726.2635,W,0.06,231.96,090519,,,A*76
lng=-77.437728, lat=43.138378, altitude=102.10, speed=0.06, satellites=5, angle=236.5700, fixquality=1
$GPGGA,143556.500,4308.3025,N,07726.2640,W,1,05,1.54,99.7,M,-34.4,M,,*68
$GPRMC,143556.500,A,4308.3025,N,07726.2640,W,0.19,243.31,090519,,,A*7D
lng=-77.437736, lat=43.138378, altitude=99.70, speed=0.15, satellites=5, angle=245.3500, fixquality=1
$GPGGA,143556.750,4308.3024,N,07726.2641,W,1,05,1.54,99.1,M,-34.4,M,,*69
$GPRMC,143556.750,A,4308.3024,N,07726.2641,W,0.19,235.35,090519,,,A*7F
lng=-77.437736, lat=43.138370, altitude=99.10, speed=0.19, satellites=5, angle=243.3100, fixquality=1
$GPGGA,143558.000,4308.3020,N,07726.2644,W,1,05,1.54,97.9,M,-34.4,M,,*62
$GPRMC,143558.000,A,4308.3020,N,07726.2644,W,0.05,224.10,090519,,,A*78
lng=-77.437736, lat=43.138362, altitude=97.90, speed=0.08, satellites=5, angle=262.1600, fixquality=1
$GPGGA,143558.500,4308.3018,N,07726.2645,W,1,05,1.54,98.0,M,-34.4,M,,*6B
$GPRMC,143558.500,A,4308.3018,N,07726.2645,W,0.15,166.38,090519,,,A*79
lng=-77.437744, lat=43.138362, altitude=98.00, speed=0.09, satellites=5, angle=165.7200, fixquality=1
$GPGGA,143559.250,4308.3015,N,07726.2646,W,1,05,1.53,98.8,M,-34.4,M,,*69
$GPRMC,143559.250,A,4308.3015,N,07726.2646,W,0.23,141.38,09051
lng=-77.437744, lat=43.138355, altitude=98.80, speed=0.19, satellites=5, angle=147.9800, fixquality=1
$GPGGA,143600.500,4308.3014,N,07726.2643,W,1,06,1.39,106.4,M,-34.4,M,,*55
$GPRMC,143600.500,A,4308.3014,N,07726.2643,W,0.31,202.00,090519,,,A*71
lng=-77.437736, lat=43.138355, altitude=106.40, speed=0.31, satellites=6, angle=198.6200, fixquality=1
$GPGGA,143601.000,4308.3014,N,07726.2637,W,1,06,1.39,109.4,M,-34.4,M,,*5D
$GPRMC,143601.000,A,4308.3014,N,07726.2637,W,0.32,206.30,09051
lng=-77.437728, lat=43.138355, altitude=109.40, speed=0.29, satellites=6, angle=205.4300, fixquality=1
$GPGGA,143601.250,4308.3013,N,07726.2634,W,1,06,1.39,110.9,M,-34.4,M,,*5B
$GPRMC,143601.250,A,4308.3013,N,07726.2634,W,0.29,217.37,090519,,,A*7C
lng=-77.437721, lat=43.138355, altitude=110.90, speed=0.32, satellites=6, angle=206.3000, fixquality=1
$GPGGA,143601.750,4308.3013,N,07726.2629,W,1,06,1.39,113.8,M,-34.4,M,,*50
$GPRMC,143601.750,A,4308.3013,N,07726.2629,W,0.20,204.61,090519
lng=-77.437713, lat=43.138355, altitude=113.80, speed=0.24, satellites=6, angle=215.1500, fixquality=1
$GPGGA,143602.250,4308.3012,N,07726.2623,W,1,06,1.39,116.9,M,-34.4,M,,*59
$GPRMC,143602.250,A,4308.3012,N,07726.2623,W,0.13,180.33,090519,,,A*78
lng=-77.437705, lat=43.138355, altitude=116.90, speed=0.13, satellites=6, angle=167.5900, fixquality=1
$GPGGA,143603.000,4308.3016,N,07726.2622,W,1,06,1.39,119.2,M,-34.4,M,,*5E
$GPRMC,143603.000,A,4308.3016,N,07726.2622,W,0.11,219.46,090519,,,A*78
lng=-77.437705, lat=43.138362, altitude=119.20, speed=0.12, satellites=6, angle=169.2100, fixquality=1
$GPGGA,143609.500,4308.3020,N,07726.2619,W,1,06,1.39,122.5,M,-34.4,M,,*53
$GPRMC,143609.500,A,4308.3020,N,07726.2619,W,0.07,25.86,090519,,,A*4C
lng=-77.437698, lat=43.138362, altitude=122.50, speed=0.11, satellites=6, angle=23.5200, fixquality=1
$GPGGA,143614.500,4308.3021,N,07726.2619,W,1,06,1.54,122.7,M,-34.4,M,,*57
$GPRMC,143614.500,A,4308.3021,N,07726.2619,W,0.19,354.83,090519,,,A*7E
lng=-77.437698, lat=43.138370, altitude=122.70, speed=0.21, satellites=6, angle=1.0400, fixquality=1
$GPGGA,143617.000,4308.3022,N,07726.2620,W,1,06,1.54,122.7,M,-34.4,M,,*58
$GPRMC,143617.000,A,4308.3022,N,07726.2620,W,0.31,355.52,090519,,,A*76
lng=-77.437705, lat=43.138370, altitude=122.70, speed=0.31, satellites=6, angle=352.0600, fixquality=1
$GPGGA,143617.750,4308.3023,N,07726.2619,W,1,06,1.54,122.8,M,-34.4,M,,*5E
$GPRMC,143617.750,A,4308.3023,N,07726.2619,W,0.29,16.56,090519,,,A*46
lng=-77.437698, lat=43.138370, altitude=122.80, speed=0.30, satellites=6, angle=13.4800, fixquality=1
$GPGGA,143619.250,4308.3023,N,07726.2620,W,1,06,1.39,122.8,M,-34.4,M,,*54
$GPRMC,143619.250,A,4308.3023,N,07726.2620,W,0.07,322.48,090519,,,A*70
lng=-77.437705, lat=43.138370, altitude=122.80, speed=0.06, satellites=6, angle=286.0200, fixquality=1
$GPGGA,143620.250,4308.3023,N,07726.2619,W,1,06,1.39,122.8,M,-34.4,M,,*54
$GPRMC,143620.250,A,4308.3023,N,07726.2619,W,0.01,84.54,090519,,,A*44
lng=-77.437698, lat=43.138370, altitude=122.80, speed=0.05, satellites=6, angle=39.9200, fixquality=1
$GPGGA,143620.750,4308.3023,N,07726.2620,W,1,06,1.39,122.8,M,-34.4,M,,*5B
$GPRMC,143620.750,A,4308.3023,N,07726.2620,W,0.10,307.48,090519,,,A*7E
lng=-77.437705, lat=43.138370, altitude=122.80, speed=0.06, satellites=6, angle=313.4600, fixquality=1
$GPGGA,143627.750,4308.3025,N,07726.2621,W,1,06,1.39,122.8,M,-34.4,M,,*5B
$GPRMC,143627.750,A,4308.3025,N,07726.2621,W,0.06,314.67,090519,,,A*76
lng=-77.437705, lat=43.138378, altitude=122.80, speed=0.07, satellites=6, angle=305.6100, fixquality=1
$GPGGA,143639.250,4308.3024,N,07726.2622,W,1,06,1.39,122.8,M,-34.4,M,,*53
$GPRMC,143639.250,A,4308.3024,N,07726.2622,W,0.19,223.73,090519,,,A*70
lng=-77.437705, lat=43.138370, altitude=122.80, speed=0.17, satellites=6, angle=219.4700, fixquality=1
$GPGGA,143648.750,4308.3025,N,07726.2622,W,1,06,1.39,122.8,M,-34.4,M,,*51
$GPRMC,143648.750,A,4308.3025,N,07726.2622,W,0.25,22.29,090519,,,A*41
lng=-77.437705, lat=43.138378, altitude=122.80, speed=0.22, satellites=6, angle=32.8400, fixquality=1
$GPGGA,143656.000,4308.3027,N,07726.2625,W,1,06,1.39,122.8,M,-34.4,M,,*59
$GPRMC,143656.000,A,4308.3027,N,07726.2625,W,0.36,271.50,090519,,,A*71
lng=-77.437713, lat=43.138378, altitude=122.80, speed=0.37, satellites=6, angle=274.0600, fixquality=1
$GPGGA,143707.000,4308.3024,N,07726.2625,W,1,06,1.39,122.7,M,-34.4,M,,*50
$GPRMC,143707.000,A,4308.3024,N,07726.2625,W,0.23,201.90,090519,,,A*78
lng=-77.437713, lat=43.138370, altitude=122.70, speed=0.22, satellites=6, angle=192.0500, fixquality=1
$GPGGA,143715.000,4308.3020,N,07726.2625,W,1,06,1.39,122.7,M,-34.4,M,,*57
$GPRMC,143715.000,A,4308.3020,N,07726.2625,W,0.47,158.43,090519,,,A*7C
lng=-77.437713, lat=43.138362, altitude=122.70, speed=0.43, satellites=6, angle=163.1800, fixquality=1
$GPGGA,143715.250,4308.3020,N,07726.2624,W,1,06,1.39,122.7,M,-34.4,M,,*51
$GPRMC,143715.250,A,4308.3020,N,07726.2624,W,0.49,158.44,090519,,,A*73
lng=-77.437705, lat=43.138362, altitude=122.70, speed=0.47, satellites=6, angle=158.4300, fixquality=1
$GPGGA,143718.250,4308.3015,N,07726.2623,W,1,06,1.39,122.6,M,-34.4,M,,*5C
$GPRMC,143718.250,A,4308.3015,N,07726.2623,W,0.56,164.18,090519,,,A*77
lng=-77.437705, lat=43.138355, altitude=122.60, speed=0.56, satellites=6, angle=169.6700, fixquality=1
$GPGGA,143719.000,4308.3010,N,07726.2621,W,1,06,1.39,122.5,M,-34.4,M,,*5E
$GPRMC,143719.000,A,4308.3010,N,07726.2621,W,0.66,159.22,090519,,,A*72
lng=-77.437705, lat=43.138347, altitude=122.50, speed=0.64, satellites=6, angle=160.7000, fixquality=1
$GPGGA,143719.750,4308.3005,N,07726.2620,W,1,06,1.39,122.2,M,-34.4,M,,*5E
$GPRMC,143719.750,A,4308.3005,N,07726.2620,W,0.61,164.80,090519,,,A*74
lng=-77.437705, lat=43.138339, altitude=122.20, speed=0.60, satellites=6, angle=164.5200, fixquality=1
$GPGGA,143720.500,4308.2999,N,07726.2619,W,1,06,1.39,122.1,M,-34.4,M,,*57
$GPRMC,143720.500,A,4308.2999,N,07726.2619,W,0.75,167.37,090519,,,A*74
lng=-77.437698, lat=43.138328, altitude=122.10, speed=0.68, satellites=6, angle=166.8900, fixquality=1
$GPGGA,143721.500,4308.2995,N,07726.2617,W,1,06,1.39,121.8,M,-34.4,M,,*5E
$GPRMC,143721.500,A,4308.2995,N,07726.2617,W,0.64,161.58,090519,,,A*78
lng=-77.437698, lat=43.138320, altitude=121.80, speed=0.68, satellites=6, angle=167.4000, fixquality=1
$GPGGA,143724.500,4308.2990,N,07726.2616,W,1,06,1.39,121.3,M,-34.4,M,,*54
$GPRMC,143724.500,A,4308.2990,N,07726.2616,W,0.25,172.53,090519,,,A*75
lng=-77.437698, lat=43.138313, altitude=121.30, speed=0.24, satellites=6, angle=163.8700, fixquality=1
$GPGGA,143730.500,4308.2990,N,07726.2620,W,1,06,1.39,121.2,M,-34.4,M,,*55
$GPRMC,143730.500,A,4308.2990,N,07726.2620,W,0.09,313.88,090519$GPGGA,143730.750,4308.2990,N,07726.2620,W,1,06,1.39,121.2,M,-34.4,M,,*52
lng=-77.437705, lat=43.138313, altitude=121.20, speed=0.17, satellites=6, angle=316.4100, fixquality=1
$GPGGA,143731.750,4308.2991,N,07726.2620,W,1,06,1.55,121.2,M,-34.4,M,,*58
$GPRMC,143731.750,A,4308.2991,N,07726.2620,W,0.41,359.12,090519,,,A*7E
lng=-77.437705, lat=43.138320, altitude=121.20, speed=0.32, satellites=6, angle=357.9000, fixquality=1
$GPRMC,143732.250,A,4308.2995,N,07726.2622,W,1.00,357.52,090519,,,A*70
$GPGGA,143732.500,4308.2999,N,07726.2624,W,1,06,1.55,121.9,M,-34.4,M,,*5B
lng=-77.437705, lat=43.138320, altitude=121.60, speed=1.00, satellites=6, angle=357.5200, fixquality=1
$GPRMC,143732.750,A,4308.3000,N,07726.2624,W,1.88,2.56,090519,,,A*70
$GPGGA,143733.000,4308.3002,N,07726.2624,W,1,06,1.55,122.0,M,-34.4,M,,*5F
lng=-77.437705, lat=43.138328, altitude=121.90, speed=1.88, satellites=6, angle=2.5600, fixquality=1
$GPRMC,143733.250,A,4308.3004,N,07726.2626,W,3.11,9.65,090519,,,A*7B
$GPGGA,143733.500,4308.3006,N,07726.2627,W,1,06,1.55,122.0,M,-34.4,M,,*5D
lng=-77.437713, lat=43.138339, altitude=122.00, speed=3.11, satellites=6, angle=9.6500, fixquality=1
$GPRMC,143733.750,A,4308.3008,N,07726.2629,W,3.19,8.94,090519,,,A*7A
$GPGGA,143734.000,4308.3009,N,07726.2630,W,1,06,1.55,122.2,M,-34.4,M,,*54
lng=-77.437713, lat=43.138347, altitude=122.00, speed=3.19, satellites=6, angle=8.9400, fixquality=1
$GPRMC,143734.250,A,4308.3012,N,07726.2632,W,3.34,7.59,090519,,,A*78
$GPGGA,143734.500,4308.3013,N,07726.2634,W,1,06,1.55,122.6,M,-34.4,M,,*5A
lng=-77.437721, lat=43.138355, altitude=122.20, speed=3.34, satellites=6, angle=7.5900, fixquality=1
$GPRMC,143734.750,A,4308.3014,N,07726.2635,W,3.21,3.57,090519,,,A*72
$GPGGA,143735.000,4308.3015,N,07726.2636,W,1,06,1.55,123.3,M,-34.4,M,,*5E
lng=-77.437728, lat=43.138355, altitude=122.60, speed=3.21, satellites=6, angle=3.5700, fixquality=1
$GPRMC,143735.250,A,4308.3016,N,07726.2637,W,3.76,4.94,090519,,,A*7C
$GPGGA,143735.500,4308.3019,N,07726.2638,W,1,06,1.55,124.1,M,-34.4,M,,*5C
lng=-77.437728, lat=43.138362, altitude=123.30, speed=3.76, satellites=6, angle=4.9400, fixquality=1
$GPRMC,143735.750,A,4308.3022,N,07726.2639,W,3.91,6.61,090519,,,A*71
$GPGGA,143736.000,4308.3025,N,07726.2640,W,1,06,1.55,124.9,M,-34.4,M,,*52
lng=-77.437728, lat=43.138370, altitude=124.10, speed=3.91, satellites=6, angle=6.6100, fixquality=1
$GPRMC,143736.250,A,4308.3028,N,07726.2641,W,4.27,5.44,090519,,,A*7C
$GPGGA,143736.500,4308.3030,N,07726.2641,W,1,06,1.55,125.7,M,-34.4,M,,*5D
lng=-77.437736, lat=43.138378, altitude=124.90, speed=4.27, satellites=6, angle=5.4400, fixquality=1
$GPRMC,143736.750,A,4308.3034,N,07726.2641,W,4.49,6.16,090519,,,A*78
$GPGGA,143737.000,4308.3037,N,07726.2642,W,1,06,1.55,126.4,M,-34.4,M,,*5D
lng=-77.437736, lat=43.138385, altitude=125.70, speed=4.49, satellites=6, angle=6.1600, fixquality=1
$GPRMC,143737.250,A,4308.3040,N,07726.2641,W,5.40,4.55,090519,,,A*72
$GPGGA,143737.500,4308.3044,N,07726.2641,W,1,06,1.55,127.1,M,-34.4,M,,*5B
lng=-77.437736, lat=43.138404, altitude=126.40, speed=5.40, satellites=6, angle=4.5500, fixquality=1
$GPRMC,143737.750,A,4308.3048,N,07726.2642,W,6.32,6.13,090519,,,A*7A
$GPGGA,143738.000,4308.3053,N,07726.2641,W,1,06,1.55,127.6,M,-34.4,M,,*50
lng=-77.437736, lat=43.138412, altitude=127.10, speed=6.32, satellites=6, angle=6.1300, fixquality=1
$GPRMC,143738.250,A,4308.3057,N,07726.2642,W,6.64,5.91,090519,,,A*74
$GPGGA,143738.500,4308.3062,N,07726.2642,W,1,06,1.55,128.3,M,-34.4,M,,*5E
lng=-77.437736, lat=43.138427, altitude=127.60, speed=6.64, satellites=6, angle=5.9100, fixquality=1
$GPRMC,143738.750,A,4308.3067,N,07726.2643,W,6.66,4.66,090519,,,A*78
$GPGGA,143739.000,4308.3071,N,07726.2643,W,1,06,1.55,128.8,M,-34.4,M,,*52
lng=-77.437736, lat=43.138442, altitude=128.30, speed=6.66, satellites=6, angle=4.6600, fixquality=1
$GPRMC,143739.250,A,4308.3075,N,07726.2643,W,6.72,3.97,090519,,,A*73
$GPGGA,143739.500,4308.3080,N,07726.2643,W,1,06,1.55,129.1,M,-34.4,M,,*51
lng=-77.437736, lat=43.138462, altitude=128.80, speed=6.72, satellites=6, angle=3.9700, fixquality=1
$GPRMC,143739.750,A,4308.3084,N,07726.2644,W,6.54,1.80,090519,,,A*7F
$GPGGA,143740.000,4308.3088,N,07726.2644,W,1,06,1.55,129.4,M,-34.4,M,,*50
lng=-77.437736, lat=43.138477, altitude=129.10, speed=6.54, satellites=6, angle=1.8000, fixquality=1
$GPRMC,143740.250,A,4308.3093,N,07726.2644,W,5.67,1.65,090519,,,A*7A
$GPGGA,143740.500,4308.3096,N,07726.2644,W,1,06,1.55,129.7,M,-34.4,M,,*59
lng=-77.437736, lat=43.138484, altitude=129.40, speed=5.67, satellites=6, angle=1.6500, fixquality=1
$GPRMC,143740.750,A,4308.3100,N,07726.2645,W,4.86,3.04,090519,,,A*7E
$GPGGA,143741.000,4308.3104,N,07726.2645,W,1,06,1.55,130.1,M,-34.4,M,,*58
lng=-77.437744, lat=43.138500, altitude=129.70, speed=4.86, satellites=6, angle=3.0400, fixquality=1
$GPRMC,143741.250,A,4308.3107,N,07726.2645,W,4.56,0.79,090519,,,A*79
$GPGGA,143741.500,4308.3110,N,07726.2645,W,1,06,1.55,130.6,M,-34.4,M,,*5F
lng=-77.437744, lat=43.138507, altitude=130.10, speed=4.56, satellites=6, angle=0.7900, fixquality=1
$GPRMC,143741.750,A,4308.3114,N,07726.2645,W,4.78,357.27,090519,,,A*78
$GPGGA,143742.000,4308.3117,N,07726.2646,W,1,06,1.55,131.1,M,-34.4,M,,*5B
lng=-77.437744, lat=43.138526, altitude=130.60, speed=4.78, satellites=6, angle=357.2700, fixquality=1
$GPRMC,143742.250,A,4308.3120,N,07726.2648,W,4.26,349.27,090519,,,A*70
$GPGGA,143742.500,4308.3123,N,07726.2650,W,1,06,1.55,131.7,M,-34.4,M,,*58
lng=-77.437744, lat=43.138534, altitude=131.10, speed=4.26, satellites=6, angle=349.2700, fixquality=1
$GPRMC,143742.750,A,4308.3127,N,07726.2652,W,4.15,334.93,090519,,,A*7C
$GPGGA,143743.000,4308.3129,N,07726.2653,W,1,06,1.55,132.2,M,-34.4,M,,*53
lng=-77.437751, lat=43.138542, altitude=131.70, speed=4.15, satellites=6, angle=334.9300, fixquality=1
$GPRMC,143743.250,A,4308.3132,N,07726.2656,W,3.80,309.54,090519,,,A*76
$GPGGA,143743.500,4308.3134,N,07726.2659,W,1,06,1.39,132.6,M,-34.4,M,,*5E
lng=-77.437759, lat=43.138549, altitude=132.20, speed=3.80, satellites=6, angle=309.5400, fixquality=1
$GPRMC,143743.750,A,4308.3136,N,07726.2661,W,2.97,309.99,090519,,,A*75
$GPGGA,143744.000,4308.3139,N,07726.2664,W,1,06,1.39,133.1,M,-34.4,M,,*59
lng=-77.437767, lat=43.138557, altitude=132.60, speed=2.97, satellites=6, angle=309.9900, fixquality=1
$GPRMC,143744.250,A,4308.3140,N,07726.2667,W,2.76,299.78,090519,,,A*78
$GPGGA,143744.500,4308.3142,N,07726.2670,W,1,06,1.39,133.7,M,-34.4,M,,*53
lng=-77.437774, lat=43.138565, altitude=133.10, speed=2.76, satellites=6, angle=299.7800, fixquality=1
$GPRMC,143744.750,A,4308.3143,N,07726.2672,W,2.58,290.84,090519,,,A*7C
$GPGGA,143745.000,4308.3144,N,07726.2675,W,1,06,1.39,134.2,M,-34.4,M,,*56
lng=-77.437782, lat=43.138572, altitude=133.70, speed=2.58, satellites=6, angle=290.8400, fixquality=1
$GPRMC,143745.250,A,4308.3144,N,07726.2678,W,2.30,285.72,090519,,,A*76
$GPGGA,143745.500,4308.3145,N,07726.2680,W,1,06,1.39,134.6,M,-34.4,M,,*5C
lng=-77.437789, lat=43.138572, altitude=134.20, speed=2.30, satellites=6, angle=285.7200, fixquality=1
$GPRMC,143745.750,A,4308.3145,N,07726.2682,W,1.49,285.89,090519,,,A*7E
$GPGGA,143746.000,4308.3145,N,07726.2683,W,1,06,1.39,135.1,M,-34.4,M,,*5F
lng=-77.437797, lat=43.138572, altitude=134.60, speed=1.49, satellites=6, angle=285.8900, fixquality=1
$GPRMC,143746.500,A,4308.3145,N,07726.2682,W,0.87,54.04,090519,,,A*42
$GPGGA,143746.750,4308.3144,N,07726.2679,W,1,06,1.39,135.7,M,-34.4,M,,*5F
lng=-77.437797, lat=43.138572, altitude=135.50, speed=0.87, satellites=6, angle=54.0400, fixquality=1
$GPRMC,143747.000,A,4308.3142,N,07726.2676,W,2.01,101.09,090519,,,A*7A
$GPGGA,143747.250,4308.3142,N,07726.2671,W,1,06,1.39,136.0,M,-34.4,M,,*51
lng=-77.437789, lat=43.138565, altitude=135.70, speed=2.01, satellites=6, angle=101.0900, fixquality=1
$GPRMC,143747.500,A,4308.3142,N,07726.2666,W,5.70,89.59,090519,,,A*4B
$GPGGA,143747.750,4308.3141,N,07726.2660,W,1,06,1.39,136.3,M,-34.4,M,,*54
lng=-77.437774, lat=43.138565, altitude=136.00, speed=5.70, satellites=6, angle=89.5900, fixquality=1
$GPRMC,143748.000,A,4308.3141,N,07726.2653,W,7.90,91.88,090519,,,A*4D
$GPGGA,143748.250,4308.3141,N,07726.2644,W,1,05,1.69,136.6,M,-34.4,M,,*5B
lng=-77.437751, lat=43.138565, altitude=136.30, speed=7.90, satellites=6, angle=91.8800, fixquality=1
$GPRMC,143748.500,A,4308.3140,N,07726.2634,W,10.58,94.40,090519,,,A*7B
$GPGGA,143748.750,4308.3140,N,07726.2624,W,1,05,1.46,136.9,M,-34.4,M,,*5B
lng=-77.437721, lat=43.138565, altitude=136.60, speed=10.58, satellites=5, angle=94.4000, fixquality=1
$GPRMC,143749.000,A,4308.3140,N,07726.2614,W,11.65,91.27,090519,,,A*76
$GPGGA,143749.250,4308.3141,N,07726.2603,W,1,05,1.46,137.1,M,-34.4,M,,*52
lng=-77.437690, lat=43.138565, altitude=136.90, speed=11.65, satellites=5, angle=91.2700, fixquality=1
$GPRMC,143749.500,A,4308.3140,N,07726.2590,W,13.40,89.17,090519,,,A*73
$GPGGA,143749.750,4308.3140,N,07726.2577,W,1,05,1.46,137.3,M,-34.4,M,,*54
lng=-77.437644, lat=43.138565, altitude=137.10, speed=13.40, satellites=5, angle=89.1700, fixquality=1
$GPRMC,143750.000,A,4308.3139,N,07726.2564,W,14.32,89.00,090519,,,A*7F
$GPGGA,143750.250,4308.3139,N,07726.2549,W,1,06,1.39,137.5,M,-34.4,M,,*57
lng=-77.437606, lat=43.138565, altitude=137.30, speed=14.32, satellites=5, angle=89.0000, fixquality=1
$GPRMC,143750.500,A,4308.3137,N,07726.2533,W,15.83,88.26,090519,,,A*78
$GPGGA,143750.750,4308.3137,N,07726.2518,W,1,06,1.39,137.7,M,-34.4,M,,*5A
lng=-77.437553, lat=43.138557, altitude=137.50, speed=15.83, satellites=6, angle=88.2600, fixquality=1
$GPRMC,143751.000,A,4308.3135,N,07726.2500,W,17.11,88.33,090519,,,A*73
$GPGGA,143751.250,4308.3133,N,07726.2480,W,1,06,1.55,138.0,M,-34.4,M,,*58
lng=-77.437500, lat=43.138557, altitude=137.70, speed=17.11, satellites=6, angle=88.3300, fixquality=1
$GPRMC,143751.500,A,4308.3132,N,07726.2460,W,18.73,88.06,090519,,,A*7B
$GPGGA,143751.750,4308.3131,N,07726.2441,W,1,06,1.39,138.3,M,-34.4,M,,*5B
lng=-77.437431, lat=43.138549, altitude=138.00, speed=18.73, satellites=6, angle=88.0600, fixquality=1
$GPRMC,143752.000,A,4308.3130,N,07726.2420,W,20.03,87.38,090519,,,A*75
$GPGGA,143752.250,4308.3129,N,07726.2399,W,1,06,1.55,138.6,M,-34.4,M,,*59
lng=-77.437370, lat=43.138549, altitude=138.30, speed=20.03, satellites=6, angle=87.3800, fixquality=1
$GPRMC,143752.500,A,4308.3129,N,07726.2378,W,21.20,87.74,090519,,,A*7A
$GPGGA,143752.750,4308.3128,N,07726.2356,W,1,06,1.39,138.9,M,-34.4,M,,*5B
lng=-77.437294, lat=43.138549, altitude=138.60, speed=21.20, satellites=6, angle=87.7400, fixquality=1
$GPRMC,143753.000,A,4308.3127,N,07726.2334,W,22.24,88.39,090519,,,A*79
$GPGGA,143753.250,4308.3127,N,07726.2311,W,1,06,1.55,139.2,M,-34.4,M,,*53
lng=-77.437225, lat=43.138542, altitude=138.90, speed=22.24, satellites=6, angle=88.3900, fixquality=1
$GPRMC,143753.500,A,4308.3126,N,07726.2288,W,23.17,88.59,090519,,,A*7C
$GPGGA,143753.750,4308.3126,N,07726.2265,W,1,06,1.39,139.4,M,-34.4,M,,*59
lng=-77.437149, lat=43.138542, altitude=139.20, speed=23.17, satellites=6, angle=88.5900, fixquality=1
$GPRMC,143754.000,A,4308.3126,N,07726.2242,W,23.75,89.54,090519,,,A*70
$GPGGA,143754.250,4308.3125,N,07726.2219,W,1,06,1.55,139.6,M,-34.4,M,,*5B
lng=-77.437065, lat=43.138542, altitude=139.40, speed=23.75, satellites=6, angle=89.5400, fixquality=1
$GPRMC,143754.500,A,4308.3125,N,07726.2196,W,24.11,89.16,090519,,,A*7F
$GPGGA,143754.750,4308.3125,N,07726.2173,W,1,06,1.39,139.8,M,-34.4,M,,*55
lng=-77.436996, lat=43.138542, altitude=139.60, speed=24.11, satellites=6, angle=89.1600, fixquality=1
$GPRMC,143755.000,A,4308.3125,N,07726.2150,W,24.18,89.02,090519,,,A*7D
$GPGGA,143755.250,4308.3125,N,07726.2126,W,1,06,1.39,140.1,M,-34.4,M,,*56
lng=-77.436912, lat=43.138542, altitude=139.80, speed=24.18, satellites=6, angle=89.0200, fixquality=1
$GPRMC,143755.500,A,4308.3125,N,07726.2103,W,24.08,89.67,090519,,,A*7C
$GPGGA,143755.750,4308.3124,N,07726.2080,W,1,06,1.39,140.3,M,-34.4,M,,*5D
lng=-77.436843, lat=43.138542, altitude=140.10, speed=24.08, satellites=6, angle=89.6700, fixquality=1
$GPRMC,143756.000,A,4308.3125,N,07726.2058,W,23.80,90.34,090519,,,A*7C
$GPGGA,143756.250,4308.3122,N,07726.2034,W,1,06,1.39,140.2,M,-34.4,M,,*53
lng=-77.436759, lat=43.138542, altitude=140.30, speed=23.80, satellites=6, angle=90.3400, fixquality=1
$GPRMC,143756.500,A,4308.3122,N,07726.2012,W,23.67,91.06,090519,,,A*79
$GPGGA,143756.750,4308.3122,N,07726.1990,W,1,06,1.39,140.4,M,-34.4,M,,*54
lng=-77.436683, lat=43.138534, altitude=140.20, speed=23.67, satellites=6, angle=91.0600, fixquality=1
$GPRMC,143757.000,A,4308.3122,N,07726.1967,W,23.94,90.76,090519,,,A*7F
$GPGGA,143757.250,4308.3121,N,07726.1944,W,1,06,1.39,140.6,M,-34.4,M,,*58
lng=-77.436614, lat=43.138534, altitude=140.40, speed=23.94, satellites=6, angle=90.7600, fixquality=1
$GPRMC,143757.500,A,4308.3121,N,07726.1921,W,24.20,91.78,090519,,,A*7C
$GPGGA,143757.750,4308.3120,N,07726.1898,W,1,06,1.39,140.8,M,-34.4,M,,*52
lng=-77.436531, lat=43.138534, altitude=140.60, speed=24.20, satellites=6, angle=91.7800, fixquality=1
$GPRMC,143758.000,A,4308.3119,N,07726.1875,W,24.16,91.42,090519,,,A*71
$GPGGA,143758.250,4308.3118,N,07726.1852,W,1,06,1.55,141.0,M,-34.4,M,,*56
lng=-77.436454, lat=43.138534, altitude=140.80, speed=24.16, satellites=6, angle=91.4200, fixquality=1
$GPRMC,143758.500,A,4308.3118,N,07726.1829,W,24.15,91.08,090519,,,A*71
$GPGGA,143758.750,4308.3117,N,07726.1806,W,1,06,1.39,141.2,M,-34.4,M,,*55
lng=-77.436386, lat=43.138534, altitude=141.00, speed=24.15, satellites=6, angle=91.0800, fixquality=1
$GPRMC,143759.000,A,4308.3116,N,07726.1783,W,24.19,91.77,090519,,,A*70
$GPGGA,143759.250,4308.3116,N,07726.1761,W,1,06,1.55,141.3,M,-34.4,M,,*55
lng=-77.436302, lat=43.138526, altitude=141.20, speed=24.19, satellites=6, angle=91.7700, fixquality=1
$GPRMC,143759.500,A,4308.3115,N,07726.1738,W,24.19,91.53,090519,,,A*70
$GPGGA,143759.750,4308.3115,N,07726.1715,W,1,06,1.39,141.4,M,-34.4,M,,*5D
lng=-77.436233, lat=43.138526, altitude=141.30, speed=24.19, satellites=6, angle=91.5300, fixquality=1
$GPRMC,143800.000,A,4308.3114,N,07726.1692,W,24.20,90.34,090519,,,A*7C
$GPGGA,143800.250,4308.3114,N,07726.1670,W,1,06,1.56,141.5,M,-34.4,M,,*50
lng=-77.436157, lat=43.138526, altitude=141.40, speed=24.20, satellites=6, angle=90.3400, fixquality=1
$GPRMC,143800.500,A,4308.3115,N,07726.1647,W,23.74,88.63,090519,,,A*7D
$GPGGA,143800.750,4308.3116,N,07726.1625,W,1,06,1.55,141.7,M,-34.4,M,,*56
lng=-77.436073, lat=43.138526, altitude=141.50, speed=23.74, satellites=6, angle=88.6300, fixquality=1
$GPRMC,143801.000,A,4308.3117,N,07726.1602,W,23.69,85.03,090519,,,A*7D
$GPGGA,143801.250,4308.3119,N,07726.1580,W,1,06,1.56,141.9,M,-34.4,M,,*5C
lng=-77.436004, lat=43.138526, altitude=141.70, speed=23.69, satellites=6, angle=85.0300, fixquality=1
$GPRMC,143801.500,A,4308.3121,N,07726.1558,W,23.10,80.82,090519,,,A*73
$GPGGA,143801.750,4308.3124,N,07726.1535,W,1,06,1.39,142.1,M,-34.4,M,,*5B
lng=-77.435928, lat=43.138534, altitude=141.90, speed=23.10, satellites=6, angle=80.8200, fixquality=1
$GPRMC,143802.000,A,4308.3128,N,07726.1514,W,23.10,75.21,090519,,,A*77
$GPGGA,143802.250,4308.3133,N,07726.1493,W,1,06,1.39,142.3,M,-34.4,M,,*54
lng=-77.435859, lat=43.138549, altitude=142.10, speed=23.10, satellites=6, angle=75.2100, fixquality=1
$GPRMC,143802.500,A,4308.3139,N,07726.1472,W,23.06,70.55,090519,,,A*72
$GPGGA,143802.750,4308.3145,N,07726.1451,W,1,06,1.39,142.6,M,-34.4,M,,*5B
lng=-77.435783, lat=43.138565, altitude=142.30, speed=23.06, satellites=6, angle=70.5500, fixquality=1
$GPRMC,143803.000,A,4308.3151,N,07726.1432,W,22.00,66.27,090519,,,A*79
$GPGGA,143803.250,4308.3157,N,07726.1412,W,1,06,1.39,142.7,M,-34.4,M,,*5A
lng=-77.435714, lat=43.138584, altitude=142.60, speed=22.00, satellites=6, angle=66.2700, fixquality=1
$GPRMC,143803.500,A,4308.3165,N,07726.1392,W,23.25,61.50,090519,,,A*77
$GPGGA,143803.750,4308.3173,N,07726.1373,W,1,06,1.39,142.9,M,-34.4,M,,*57
lng=-77.435653, lat=43.138607, altitude=142.70, speed=23.25, satellites=6, angle=61.5000, fixquality=1
$GPRMC,143804.000,A,4308.3182,N,07726.1355,W,23.39,55.92,090519,,,A*73
$GPGGA,143804.250,4308.3192,N,07726.1337,W,1,06,1.39,143.1,M,-34.4,M,,*53
lng=-77.435585, lat=43.138637, altitude=142.90, speed=23.39, satellites=6, angle=55.9200, fixquality=1
$GPRMC,143804.500,A,4308.3201,N,07726.1319,W,23.01,54.20,090519,,,A*75
$GPGGA,143804.750,4308.3212,N,07726.1302,W,1,06,1.39,143.4,M,-34.4,M,,*5E
lng=-77.435531, lat=43.138671, altitude=143.10, speed=23.01, satellites=6, angle=54.2000, fixquality=1
$GPRMC,143805.000,A,4308.3222,N,07726.1286,W,22.93,49.95,090519,,,A*7F
$GPGGA,143805.250,4308.3234,N,07726.1271,W,1,06,1.39,143.5,M,-34.4,M,,*5A
lng=-77.435470, lat=43.138706, altitude=143.40, speed=22.93, satellites=6, angle=49.9500, fixquality=1
$GPRMC,143805.500,A,4308.3246,N,07726.1257,W,22.90,43.36,090519,,,A*74
$GPGGA,143805.750,4308.3258,N,07726.1243,W,1,06,1.39,143.7,M,-34.4,M,,*56
lng=-77.435424, lat=43.138744, altitude=143.50, speed=22.90, satellites=6, angle=43.3600, fixquality=1
$GPRMC,143806.000,A,4308.3271,N,07726.1230,W,22.88,38.61,090519,,,A*70
$GPGGA,143806.250,4308.3284,N,07726.1220,W,1,06,1.39,143.8,M,-34.4,M,,*5B
lng=-77.435386, lat=43.138786, altitude=143.70, speed=22.88, satellites=6, angle=38.6100, fixquality=1
$GPRMC,143806.500,A,4308.3297,N,07726.1209,W,22.39,32.81,090519,,,A*79
$GPGGA,143806.750,4308.3311,N,07726.1198,W,1,06,1.39,144.0,M,-34.4,M,,*5C
lng=-77.435348, lat=43.138828, altitude=143.80, speed=22.39, satellites=6, angle=32.8100, fixquality=1
$GPRMC,143807.000,A,4308.3325,N,07726.1188,W,22.56,29.22,090519,,,A*75
$GPGGA,143807.250,4308.3340,N,07726.1180,W,1,06,1.39,144.1,M,-34.4,M,,*54
lng=-77.435310, lat=43.138874, altitude=144.00, speed=22.56, satellites=6, angle=29.2200, fixquality=1
$GPRMC,143807.500,A,4308.3355,N,07726.1172,W,23.08,21.37,090519,,,A*74
$GPGGA,143807.750,4308.3371,N,07726.1164,W,1,06,1.39,144.3,M,-34.4,M,,*5B
lng=-77.435287, lat=43.138923, altitude=144.10, speed=23.08, satellites=6, angle=21.3700, fixquality=1
$GPRMC,143808.000,A,4308.3388,N,07726.1157,W,24.02,16.45,090519,,,A*75
$GPGGA,143808.250,4308.3405,N,07726.1152,W,1,06,1.39,144.5,M,-34.4,M,,*56
lng=-77.435264, lat=43.138980, altitude=144.30, speed=24.02, satellites=6, angle=16.4500, fixquality=1
$GPRMC,143808.500,A,4308.3421,N,07726.1148,W,24.31,11.43,090519,,,A*7B
$GPGGA,143808.750,4308.3438,N,07726.1145,W,1,06,1.56,144.7,M,-34.4,M,,*50
lng=-77.435249, lat=43.139038, altitude=144.50, speed=24.31, satellites=6, angle=11.4300, fixquality=1
$GPRMC,143809.000,A,4308.3454,N,07726.1143,W,24.31,6.11,090519,,,A*47
$GPGGA,143809.250,4308.3472,N,07726.1141,W,1,06,1.56,144.9,M,-34.4,M,,*50
lng=-77.435234, lat=43.139087, altitude=144.70, speed=24.31, satellites=6, angle=6.1100, fixquality=1
$GPRMC,143809.500,A,4308.3489,N,07726.1140,W,24.95,2.23,090519,,,A*4A
$GPGGA,143809.750,4308.3507,N,07726.1140,W,1,06,1.56,145.1,M,-34.4,M,,*5E
lng=-77.435226, lat=43.139152, altitude=144.90, speed=24.95, satellites=6, angle=2.2300, fixquality=1
$GPRMC,143810.000,A,4308.3524,N,07726.1141,W,25.13,0.37,090519,,,A*48
$GPGGA,143810.250,4308.3542,N,07726.1140,W,1,06,1.56,145.4,M,-34.4,M,,*57
lng=-77.435234, lat=43.139209, altitude=145.10, speed=25.13, satellites=6, angle=0.3700, fixquality=1
$GPRMC,143810.500,A,4308.3560,N,07726.1141,W,25.32,0.22,090519,,,A*4A
$GPGGA,143810.750,4308.3578,N,07726.1141,W,1,06,1.39,145.6,M,-34.4,M,,*51
lng=-77.435234, lat=43.139266, altitude=145.40, speed=25.32, satellites=6, angle=0.2200, fixquality=1
$GPRMC,143811.000,A,4308.3596,N,07726.1141,W,25.48,0.10,090519,,,A*4B
$GPGGA,143811.250,4308.3614,N,07726.1142,W,1,06,1.39,145.9,M,-34.4,M,,*50
lng=-77.435234, lat=43.139324, altitude=145.60, speed=25.48, satellites=6, angle=0.1000, fixquality=1
$GPRMC,143811.500,A,4308.3633,N,07726.1142,W,25.83,359.79,090519,,,A*46
$GPGGA,143811.750,4308.3651,N,07726.1142,W,1,06,1.39,146.3,M,-34.4,M,,*5D
lng=-77.435234, lat=43.139389, altitude=145.90, speed=25.83, satellites=6, angle=359.7900, fixquality=1
$GPRMC,143812.000,A,4308.3668,N,07726.1143,W,25.41,0.24,090519,,,A*46
$GPGGA,143812.250,4308.3687,N,07726.1142,W,1,06,1.39,146.7,M,-34.4,M,,*54
lng=-77.435234, lat=43.139446, altitude=146.30, speed=25.41, satellites=6, angle=0.2400, fixquality=1
$GPRMC,143812.500,A,4308.3705,N,07726.1142,W,25.68,0.57,090519,,,A*47
$GPGGA,143812.750,4308.3723,N,07726.1143,W,1,06,1.39,147.1,M,-34.4,M,,*58
lng=-77.435234, lat=43.139511, altitude=146.70, speed=25.68, satellites=6, angle=0.5700, fixquality=1
$GPRMC,143813.000,A,4308.3741,N,07726.1143,W,25.83,0.53,090519,,,A*43
$GPGGA,143813.250,4308.3760,N,07726.1143,W,1,06,1.39,147.5,M,-34.4,M,,*5F
lng=-77.435234, lat=43.139568, altitude=147.10, speed=25.83, satellites=6, angle=0.5300, fixquality=1
$GPRMC,143813.500,A,4308.3778,N,07726.1143,W,25.86,0.94,090519,,,A*42
$GPGGA,143813.750,4308.3796,N,07726.1143,W,1,06,1.39,147.8,M,-34.4,M,,*5E
lng=-77.435234, lat=43.139633, altitude=147.50, speed=25.86, satellites=6, angle=0.9400, fixquality=1
$GPRMC,143814.000,A,4308.3814,N,07726.1142,W,25.68,1.38,090519,,,A*43
$GPGGA,143814.250,4308.3832,N,07726.1142,W,1,06,1.56,147.9,M,-34.4,M,,*54
lng=-77.435234, lat=43.139690, altitude=147.80, speed=25.68, satellites=6, angle=1.3800, fixquality=1
$GPRMC,143814.500,A,4308.3850,N,07726.1142,W,25.72,1.43,090519,,,A*41
$GPGGA,143814.750,4308.3867,N,07726.1142,W,1,06,1.39,148.2,M,-34.4,M,,*5C
lng=-77.435234, lat=43.139747, altitude=147.90, speed=25.72, satellites=6, angle=1.4300, fixquality=1
$GPRMC,143815.000,A,4308.3885,N,07726.1142,W,25.46,0.61,090519,,,A*4B
$GPGGA,143815.250,4308.3903,N,07726.1142,W,1,06,1.56,148.7,M,-34.4,M,,*57
lng=-77.435234, lat=43.139812, altitude=148.20, speed=25.46, satellites=6, angle=0.6100, fixquality=1
$GPRMC,143815.500,A,4308.3920,N,07726.1142,W,24.72,1.13,090519,,,A*42
$GPGGA,143815.750,4308.3937,N,07726.1142,W,1,06,1.56,148.8,M,-34.4,M,,*5A
lng=-77.435234, lat=43.139869, altitude=148.70, speed=24.72, satellites=6, angle=1.1300, fixquality=1
$GPRMC,143816.000,A,4308.3954,N,07726.1142,W,24.07,1.51,090519,,,A*43
$GPGGA,143816.250,4308.3971,N,07726.1141,W,1,06,1.56,149.0,M,-34.4,M,,*54
lng=-77.435234, lat=43.139926, altitude=148.80, speed=24.07, satellites=6, angle=1.5100, fixquality=1
$GPRMC,143816.500,A,4308.3988,N,07726.1141,W,23.46,1.77,090519,,,A*42
$GPGGA,143816.750,4308.4004,N,07726.1141,W,1,06,1.56,149.4,M,-34.4,M,,*59
lng=-77.435234, lat=43.139980, altitude=149.00, speed=23.46, satellites=6, angle=1.7700, fixquality=1
$GPRMC,143817.000,A,4308.4020,N,07726.1141,W,22.83,1.75,090519,,,A*40
$GPGGA,143817.250,4308.4036,N,07726.1140,W,1,06,1.56,149.7,M,-34.4,M,,*5E
lng=-77.435234, lat=43.140029, altitude=149.40, speed=22.83, satellites=6, angle=1.7500, fixquality=1
$GPRMC,143817.500,A,4308.4052,N,07726.1140,W,22.39,1.76,090519,,,A*43
$GPGGA,143817.750,4308.4067,N,07726.1139,W,1,06,1.56,149.8,M,-34.4,M,,*5E
lng=-77.435226, lat=43.140087, altitude=149.70, speed=22.39, satellites=6, angle=1.7600, fixquality=1
$GPRMC,143818.000,A,4308.4083,N,07726.1139,W,21.71,1.70,090519,,,A*42
$GPGGA,143818.250,4308.4098,N,07726.1139,W,1,06,1.56,150.1,M,-34.4,M,,*55
lng=-77.435226, lat=43.140136, altitude=149.80, speed=21.71, satellites=6, angle=1.7000, fixquality=1
$GPRMC,143818.500,A,4308.4113,N,07726.1139,W,21.17,1.94,090519,,,A*45
$GPGGA,143818.750,4308.4127,N,07726.1138,W,1,06,1.56,150.2,M,-34.4,M,,*57
lng=-77.435226, lat=43.140186, altitude=150.10, speed=21.17, satellites=6, angle=1.9400, fixquality=1
$GPRMC,143819.000,A,4308.4142,N,07726.1138,W,20.62,1.68,090519,,,A*44
$GPGGA,143819.250,4308.4156,N,07726.1137,W,1,06,1.56,150.2,M,-34.4,M,,*5A
lng=-77.435226, lat=43.140235, altitude=150.20, speed=20.62, satellites=6, angle=1.6800, fixquality=1
$GPRMC,143819.500,A,4308.4170,N,07726.1137,W,20.00,1.93,090519,,,A*4F
$GPGGA,143819.750,4308.4184,N,07726.1137,W,1,06,1.56,150.5,M,-34.4,M,,*57
lng=-77.435226, lat=43.140281, altitude=150.20, speed=20.00, satellites=6, angle=1.9300, fixquality=1
$GPRMC,143820.000,A,4308.4196,N,07726.1137,W,18.00,1.13,090519,,,A*4B
$GPGGA,143820.250,4308.4209,N,07726.1136,W,1,06,1.56,150.8,M,-34.4,M,,*52
lng=-77.435226, lat=43.140323, altitude=150.50, speed=18.00, satellites=6, angle=1.1300, fixquality=1
$GPRMC,143820.500,A,4308.4220,N,07726.1137,W,15.72,359.05,090519,,,A*41
$GPGGA,143820.750,4308.4232,N,07726.1136,W,1,06,1.56,151.0,M,-34.4,M,,*56
lng=-77.435226, lat=43.140365, altitude=150.80, speed=15.72, satellites=6, angle=359.0500, fixquality=1
$GPRMC,143821.000,A,4308.4242,N,07726.1137,W,13.11,356.97,090519,,,A*46
$GPGGA,143821.250,4308.4251,N,07726.1138,W,1,06,1.56,151.3,M,-34.4,M,,*5A
lng=-77.435226, lat=43.140403, altitude=151.00, speed=13.11, satellites=6, angle=356.9700, fixquality=1
$GPRMC,143821.500,A,4308.4260,N,07726.1140,W,11.65,354.70,090519,,,A*49
$GPGGA,143821.750,4308.4269,N,07726.1141,W,1,06,1.56,151.6,M,-34.4,M,,*5F
lng=-77.435226, lat=43.140430, altitude=151.30, speed=11.65, satellites=6, angle=354.7000, fixquality=1
$GPRMC,143822.000,A,4308.4277,N,07726.1143,W,11.13,354.20,090519,,,A*4E
$GPGGA,143822.250,4308.4283,N,07726.1144,W,1,06,1.56,151.8,M,-34.4,M,,*56
lng=-77.435234, lat=43.140460, altitude=151.60, speed=11.13, satellites=6, angle=354.2000, fixquality=1
$GPRMC,143822.500,A,4308.4289,N,07726.1145,W,9.58,353.90,090519,,,A*76
$GPGGA,143822.750,4308.4294,N,07726.1147,W,1,06,1.56,152.1,M,-34.4,M,,*5C
lng=-77.435234, lat=43.140480, altitude=151.80, speed=9.58, satellites=6, angle=353.9000, fixquality=1
$GPRMC,143823.000,A,4308.4298,N,07726.1148,W,8.23,354.74,090519,,,A*7F
$GPGGA,143823.250,4308.4300,N,07726.1146,W,1,06,1.56,152.5,M,-34.4,M,,*51
lng=-77.435249, lat=43.140495, altitude=152.10, speed=8.23, satellites=6, angle=354.7400, fixquality=1
$GPRMC,143823.500,A,4308.4302,N,07726.1145,W,5.71,359.63,090519,,,A*74
$GPGGA,143823.750,4308.4305,N,07726.1144,W,1,06,1.56,152.8,M,-34.4,M,,*5E
lng=-77.435234, lat=43.140502, altitude=152.50, speed=5.71, satellites=6, angle=359.6300, fixquality=1
$GPRMC,143824.000,A,4308.4307,N,07726.1143,W,4.35,2.64,090519,,,A*7E
$GPGGA,143824.250,4308.4308,N,07726.1143,W,1,06,1.56,152.9,M,-34.4,M,,*57
lng=-77.435234, lat=43.140510, altitude=152.80, speed=4.35, satellites=6, angle=2.6400, fixquality=1
$GPRMC,143824.500,A,4308.4309,N,07726.1142,W,2.55,3.27,090519,,,A*72
$GPGGA,143824.750,4308.4311,N,07726.1142,W,1,06,1.56,153.1,M,-34.4,M,,*52
lng=-77.435234, lat=43.140510, altitude=152.90, speed=2.55, satellites=6, angle=3.2700, fixquality=1
$GPRMC,143825.000,A,4308.4312,N,07726.1141,W,1.88,3.27,090519,,,A*7C
$GPGGA,143825.250,4308.4312,N,07726.1142,W,1,06,1.56,153.2,M,-34.4,M,,*56
lng=-77.435234, lat=43.140518, altitude=153.10, speed=1.88, satellites=6, angle=3.2700, fixquality=1
$GPRMC,143825.500,A,4308.4313,N,07726.1142,W,1.50,3.27,090519,,,A*7E
$GPGGA,143825.750,4308.4314,N,07726.1141,W,1,06,1.56,153.4,M,-34.4,M,,*50
lng=-77.435234, lat=43.140518, altitude=153.20, speed=1.50, satellites=6, angle=3.2700, fixquality=1
$GPRMC,143826.000,A,4308.4316,N,07726.1141,W,1.86,3.27,090519,,,A*75
$GPGGA,143826.250,4308.4319,N,07726.1141,W,1,06,1.56,153.6,M,-34.4,M,,*59
lng=-77.435234, lat=43.140525, altitude=153.40, speed=1.86, satellites=6, angle=3.2700, fixquality=1
$GPRMC,143826.500,A,4308.4322,N,07726.1142,W,4.69,5.74,090519,,,A*70
$GPGGA,143826.750,4308.4326,N,07726.1144,W,1,06,1.56,154.3,M,-34.4,M,,*57
lng=-77.435234, lat=43.140537, altitude=153.60, speed=4.69, satellites=6, angle=5.7400, fixquality=1
$GPRMC,143827.000,A,4308.4329,N,07726.1145,W,5.40,346.81,090519,,,A*7C
$GPGGA,143827.250,4308.4335,N,07726.1152,W,1,06,1.56,154.8,M,-34.4,M,,*5D
lng=-77.435234, lat=43.140552, altitude=154.30, speed=5.40, satellites=6, angle=346.8100, fixquality=1
$GPRMC,143827.500,A,4308.4341,N,07726.1160,W,9.60,319.07,090519,,,A*7A
$GPGGA,143827.750,4308.4347,N,07726.1169,W,1,06,1.39,155.3,M,-34.4,M,,*56
lng=-77.435272, lat=43.140567, altitude=154.80, speed=9.60, satellites=6, angle=319.0700, fixquality=1
$GPRMC,143828.000,A,4308.4353,N,07726.1178,W,12.29,308.08,090519,,,A*42
$GPGGA,143828.250,4308.4358,N,07726.1189,W,1,06,1.39,155.6,M,-34.4,M,,*59
lng=-77.435295, lat=43.140583, altitude=155.30, speed=12.29, satellites=6, angle=308.0800, fixquality=1
$GPRMC,143828.500,A,4308.4361,N,07726.1203,W,13.65,295.20,090519,,,A*4F
$GPGGA,143828.750,4308.4361,N,07726.1218,W,1,06,1.39,156.0,M,-34.4,M,,*58
lng=-77.435333, lat=43.140602, altitude=155.60, speed=13.65, satellites=6, angle=295.2000, fixquality=1
$GPRMC,143829.000,A,4308.4363,N,07726.1231,W,14.77,289.47,090519,,,A*40
$GPGGA,143829.250,4308.4365,N,07726.1246,W,1,06,1.56,156.3,M,-34.4,M,,*59
lng=-77.435386, lat=43.140609, altitude=156.00, speed=14.77, satellites=6, angle=289.4700, fixquality=1
$GPRMC,143829.500,A,4308.4367,N,07726.1262,W,16.00,283.74,090519,,,A*4F
$GPGGA,143829.750,4308.4370,N,07726.1279,W,1,06,1.39,156.7,M,-34.4,M,,*59
lng=-77.435432, lat=43.140609, altitude=156.30, speed=16.00, satellites=6, angle=283.7400, fixquality=1
$GPRMC,143830.000,A,4308.4372,N,07726.1295,W,17.15,278.71,090519,,,A*4A
$GPGGA,143830.250,4308.4374,N,07726.1311,W,1,06,1.56,156.9,M,-34.4,M,,*58
lng=-77.435493, lat=43.140617, altitude=156.70, speed=17.15, satellites=6, angle=278.7100, fixquality=1
$GPRMC,143830.500,A,4308.4377,N,07726.1329,W,18.15,276.65,090519,,,A*48
$GPGGA,143830.750,4308.4379,N,07726.1346,W,1,06,1.39,157.2,M,-34.4,M,,*51
lng=-77.435546, lat=43.140625, altitude=156.90, speed=18.15, satellites=6, angle=276.6500, fixquality=1
$GPRMC,143831.000,A,4308.4381,N,07726.1364,W,19.06,277.23,090519,,,A*4C
$GPGGA,143831.250,4308.4383,N,07726.1382,W,1,06,1.56,157.6,M,-34.4,M,,*55
lng=-77.435600, lat=43.140632, altitude=157.20, speed=19.06, satellites=6, angle=277.2300, fixquality=1
$GPRMC,143831.500,A,4308.4385,N,07726.1400,W,19.77,276.89,090519,,,A*4F
$GPGGA,143831.750,4308.4387,N,07726.1419,W,1,06,1.39,157.6,M,-34.4,M,,*58
lng=-77.435668, lat=43.140640, altitude=157.60, speed=19.77, satellites=6, angle=276.8900, fixquality=1
$GPRMC,143832.000,A,4308.4389,N,07726.1438,W,20.57,277.57,090519,,,A*44
$GPGGA,143832.250,4308.4391,N,07726.1457,W,1,06,1.39,157.4,M,-34.4,M,,*51
lng=-77.435737, lat=43.140647, altitude=157.60, speed=20.57, satellites=6, angle=277.5700, fixquality=1
$GPRMC,143832.500,A,4308.4393,N,07726.1477,W,21.37,277.66,090519,,,A*44
$GPGGA,143832.750,4308.4396,N,07726.1497,W,1,06,1.39,157.5,M,-34.4,M,,*5E
lng=-77.435791, lat=43.140659, altitude=157.40, speed=21.37, satellites=6, angle=277.6600, fixquality=1
$GPRMC,143833.000,A,4308.4398,N,07726.1518,W,22.12,277.68,090519,,,A*49
$GPGGA,143833.250,4308.4400,N,07726.1539,W,1,06,1.56,157.4,M,-34.4,M,,*5F
lng=-77.435867, lat=43.140666, altitude=157.50, speed=22.12, satellites=6, angle=277.6800, fixquality=1
$GPRMC,143833.500,A,4308.4403,N,07726.1560,W,22.86,277.58,090519,,,A*48
$GPGGA,143833.750,4308.4405,N,07726.1582,W,1,06,1.56,157.7,M,-34.4,M,,*5C
lng=-77.435928, lat=43.140674, altitude=157.40, speed=22.86, satellites=6, angle=277.5800, fixquality=1
$GPRMC,143834.000,A,4308.4408,N,07726.1603,W,23.56,276.94,090519,,,A*4A
$GPGGA,143834.250,4308.4411,N,07726.1626,W,1,06,1.56,157.8,M,-34.4,M,,*59
lng=-77.436004, lat=43.140682, altitude=157.70, speed=23.56, satellites=6, angle=276.9400, fixquality=1
$GPRMC,143834.500,A,4308.4413,N,07726.1649,W,24.17,276.18,090519,,,A*4D
$GPGGA,143834.750,4308.4415,N,07726.1672,W,1,06,1.56,158.0,M,-34.4,M,,*5E
lng=-77.436080, lat=43.140689, altitude=157.80, speed=24.17, satellites=6, angle=276.1800, fixquality=1
$GPRMC,143835.000,A,4308.4418,N,07726.1696,W,24.86,276.58,090519,,,A*4C
$GPGGA,143835.250,4308.4420,N,07726.1719,W,1,06,1.56,158.2,M,-34.4,M,,*52
lng=-77.436157, lat=43.140697, altitude=158.00, speed=24.86, satellites=6, angle=276.5800, fixquality=1
$GPRMC,143835.500,A,4308.4423,N,07726.1743,W,25.42,276.32,090519,,,A*4D
$GPGGA,143835.750,4308.4426,N,07726.1768,W,1,06,1.39,158.4,M,-34.4,M,,*58
lng=-77.436241, lat=43.140705, altitude=158.20, speed=25.42, satellites=6, angle=276.3200, fixquality=1
$GPRMC,143836.000,A,4308.4428,N,07726.1793,W,26.00,276.38,090519,,,A*42
$GPGGA,143836.250,4308.4431,N,07726.1818,W,1,06,1.39,158.7,M,-34.4,M,,*53
lng=-77.436317, lat=43.140712, altitude=158.40, speed=26.00, satellites=6, angle=276.3800, fixquality=1
$GPRMC,143836.500,A,4308.4433,N,07726.1843,W,26.52,276.48,090519,,,A*4F
$GPGGA,143836.750,4308.4436,N,07726.1868,W,1,06,1.39,158.9,M,-34.4,M,,*58
lng=-77.436401, lat=43.140724, altitude=158.70, speed=26.52, satellites=6, angle=276.4800, fixquality=1
$GPRMC,143837.000,A,4308.4438,N,07726.1894,W,26.78,276.57,090519,,,A*4C
$GPGGA,143837.250,4308.4441,N,07726.1920,W,1,06,1.39,159.1,M,-34.4,M,,*58
lng=-77.436492, lat=43.140731, altitude=158.90, speed=26.78, satellites=6, angle=276.5700, fixquality=1
$GPRMC,143837.500,A,4308.4443,N,07726.1946,W,27.04,277.01,090519,,,A*43
$GPGGA,143837.750,4308.4445,N,07726.1973,W,1,06,1.39,159.2,M,-34.4,M,,*5C
lng=-77.436576, lat=43.140739, altitude=159.10, speed=27.04, satellites=6, angle=277.0100, fixquality=1
$GPRMC,143838.000,A,4308.4448,N,07726.1999,W,27.27,277.22,090519,,,A*40
$GPGGA,143838.250,4308.4451,N,07726.2026,W,1,06,1.39,159.4,M,-34.4,M,,*5F
lng=-77.436660, lat=43.140747, altitude=159.20, speed=27.27, satellites=6, angle=277.2200, fixquality=1
$GPRMC,143838.500,A,4308.4454,N,07726.2053,W,27.54,277.63,090519,,,A*45
$GPGGA,143838.750,4308.4456,N,07726.2081,W,1,06,1.39,159.6,M,-34.4,M,,*52
lng=-77.436752, lat=43.140754, altitude=159.40, speed=27.54, satellites=6, angle=277.6300, fixquality=1
$GPRMC,143839.000,A,4308.4459,N,07726.2108,W,27.82,277.62,090519,,,A*49
$GPGGA,143839.250,4308.4462,N,07726.2136,W,1,06,1.56,159.8,M,-34.4,M,,*5B
lng=-77.436851, lat=43.140762, altitude=159.60, speed=27.82, satellites=6, angle=277.6200, fixquality=1
$GPRMC,143839.500,A,4308.4465,N,07726.2164,W,28.14,277.80,090519,,,A*45
$GPGGA,143839.750,4308.4467,N,07726.2192,W,1,06,1.39,160.0,M,-34.4,M,,*5E
lng=-77.436935, lat=43.140769, altitude=159.80, speed=28.14, satellites=6, angle=277.8000, fixquality=1
$GPRMC,143840.000,A,4308.4470,N,07726.2220,W,29.24,277.42,090519,,,A*45
$GPGGA,143840.250,4308.4472,N,07726.2249,W,1,06,1.56,160.2,M,-34.4,M,,*5F
lng=-77.437034, lat=43.140781, altitude=160.00, speed=29.24, satellites=6, angle=277.4200, fixquality=1
$GPRMC,143840.500,A,4308.4475,N,07726.2277,W,29.87,277.54,090519,,,A*49
$GPGGA,143840.750,4308.4478,N,07726.2306,W,1,06,1.39,160.4,M,-34.4,M,,*55
lng=-77.437126, lat=43.140789, altitude=160.20, speed=29.87, satellites=6, angle=277.5400, fixquality=1
$GPRMC,143841.000,A,4308.4481,N,07726.2335,W,31.05,277.57,090519,,,A*41
$GPGGA,143841.250,4308.4484,N,07726.2365,W,1,06,1.39,160.6,M,-34.4,M,,*55
lng=-77.437225, lat=43.140804, altitude=160.40, speed=31.05, satellites=6, angle=277.5700, fixquality=1
$GPRMC,143841.500,A,4308.4487,N,07726.2394,W,31.31,277.47,090519,,,A*4F
$GPGGA,143841.750,4308.4490,N,07726.2424,W,1,06,1.39,160.7,M,-34.4,M,,*56
lng=-77.437324, lat=43.140811, altitude=160.60, speed=31.31, satellites=6, angle=277.4700, fixquality=1
$GPRMC,143842.000,A,4308.4493,N,07726.2454,W,31.70,277.76,090519,,,A*40
$GPGGA,143842.250,4308.4496,N,07726.2484,W,1,06,1.39,160.9,M,-34.4,M,,*52
lng=-77.437423, lat=43.140819, altitude=160.70, speed=31.70, satellites=6, angle=277.7600, fixquality=1
$GPRMC,143842.500,A,4308.4499,N,07726.2514,W,32.04,277.78,090519,,,A*44
$GPGGA,143842.750,4308.4502,N,07726.2544,W,1,06,1.39,161.1,M,-34.4,M,,*5F
lng=-77.437522, lat=43.140827, altitude=160.90, speed=32.04, satellites=6, angle=277.7800, fixquality=1
$GPRMC,143843.000,A,4308.4505,N,07726.2575,W,32.24,277.64,090519,,,A*4C
$GPGGA,143843.250,4308.4508,N,07726.2605,W,1,06,1.39,161.3,M,-34.4,M,,*55
lng=-77.437622, lat=43.140846, altitude=161.10, speed=32.24, satellites=6, angle=277.6400, fixquality=1
$GPRMC,143843.500,A,4308.4511,N,07726.2636,W,32.80,277.57,090519,,,A*46
$GPGGA,143843.750,4308.4515,N,07726.2667,W,1,06,1.39,161.6,M,-34.4,M,,*5D
lng=-77.437728, lat=43.140853, altitude=161.30, speed=32.80, satellites=6, angle=277.5700, fixquality=1
$GPRMC,143844.000,A,4308.4518,N,07726.2698,W,33.14,277.74,090519,,,A*44
$GPGGA,143844.250,4308.4521,N,07726.2730,W,1,06,1.39,161.7,M,-34.4,M,,*5A
lng=-77.437835, lat=43.140861, altitude=161.60, speed=33.14, satellites=6, angle=277.7400, fixquality=1
$GPRMC,143844.500,A,4308.4525,N,07726.2761,W,33.48,277.45,090519,,,A*43
$GPGGA,143844.750,4308.4528,N,07726.2792,W,1,06,1.39,162.0,M,-34.4,M,,*5A
lng=-77.437934, lat=43.140876, altitude=161.70, speed=33.48, satellites=6, angle=277.4500, fixquality=1
$GPRMC,143845.000,A,4308.4531,N,07726.2824,W,33.77,277.63,090519,,,A*44
$GPGGA,143845.250,4308.4534,N,07726.2856,W,1,06,1.56,162.3,M,-34.4,M,,*5E
lng=-77.438034, lat=43.140884, altitude=162.00, speed=33.77, satellites=6, angle=277.6300, fixquality=1
$GPRMC,143845.500,A,4308.4537,N,07726.2888,W,34.09,277.79,090519,,,A*44
$GPGGA,143845.750,4308.4541,N,07726.2920,W,1,06,1.39,162.5,M,-34.4,M,,*56
lng=-77.438140, lat=43.140892, altitude=162.30, speed=34.09, satellites=6, angle=277.7900, fixquality=1
$GPRMC,143846.000,A,4308.4544,N,07726.2952,W,34.27,277.75,090519,,,A*40
$GPGGA,143846.250,4308.4547,N,07726.2984,W,1,06,1.39,162.6,M,-34.4,M,,*5B
lng=-77.438255, lat=43.140911, altitude=162.50, speed=34.27, satellites=6, angle=277.7500, fixquality=1
$GPRMC,143846.500,A,4308.4551,N,07726.3016,W,34.16,277.81,090519,,,A*40
$GPGGA,143846.750,4308.4554,N,07726.3048,W,1,06,1.39,162.8,M,-34.4,M,,*5A
lng=-77.438362, lat=43.140918, altitude=162.60, speed=34.16, satellites=6, angle=277.8100, fixquality=1
$GPRMC,143847.000,A,4308.4557,N,07726.3079,W,34.11,277.94,090519,,,A*48
$GPGGA,143847.250,4308.4560,N,07726.3111,W,1,06,1.39,163.0,M,-34.4,M,,*5D
lng=-77.438468, lat=43.140926, altitude=162.80, speed=34.11, satellites=6, angle=277.9400, fixquality=1
$GPRMC,143847.500,A,4308.4564,N,07726.3143,W,34.03,278.03,090519,,,A*47
$GPGGA,143847.750,4308.4567,N,07726.3175,W,1,06,1.39,163.1,M,-34.4,M,,*5C
lng=-77.438575, lat=43.140941, altitude=163.00, speed=34.03, satellites=6, angle=278.0300, fixquality=1
$GPRMC,143848.000,A,4308.4570,N,07726.3206,W,33.82,278.23,090519,,,A*46
$GPGGA,143848.250,4308.4573,N,07726.3238,W,1,06,1.39,163.3,M,-34.4,M,,*5B
lng=-77.438682, lat=43.140949, altitude=163.10, speed=33.82, satellites=6, angle=278.2300, fixquality=1
$GPRMC,143848.500,A,4308.4577,N,07726.3269,W,33.78,278.81,090519,,,A*40
$GPGGA,143848.750,4308.4580,N,07726.3300,W,1,06,1.39,163.4,M,-34.4,M,,*5F
lng=-77.438774, lat=43.140956, altitude=163.30, speed=33.78, satellites=6, angle=278.8100, fixquality=1
$GPRMC,143849.000,A,4308.4583,N,07726.3330,W,33.01,278.11,090519,,,A*45
$GPGGA,143849.250,4308.4586,N,07726.3361,W,1,06,1.39,163.6,M,-34.4,M,,*58
lng=-77.438880, lat=43.140975, altitude=163.40, speed=33.01, satellites=6, angle=278.1100, fixquality=1
$GPRMC,143849.500,A,4308.4589,N,07726.3392,W,32.96,277.39,090519,,,A*48
$GPGGA,143849.750,4308.4592,N,07726.3423,W,1,06,1.39,163.8,M,-34.4,M,,*57
lng=-77.438987, lat=43.140983, altitude=163.60, speed=32.96, satellites=6, angle=277.3900, fixquality=1
$GPRMC,143850.000,A,4308.4595,N,07726.3454,W,32.69,277.12,090519,,,A*4C
$GPGGA,143850.250,4308.4597,N,07726.3484,W,1,06,1.39,164.1,M,-34.4,M,,*5C
lng=-77.439086, lat=43.140991, altitude=163.80, speed=32.69, satellites=6, angle=277.1200, fixquality=1
$GPRMC,143850.500,A,4308.4600,N,07726.3514,W,30.98,277.46,090519,,,A*4E
$GPGGA,143850.750,4308.4602,N,07726.3543,W,1,06,1.39,164.3,M,-34.4,M,,*5E
lng=-77.439193, lat=43.140998, altitude=164.10, speed=30.98, satellites=6, angle=277.4600, fixquality=1
$GPRMC,143851.000,A,4308.4605,N,07726.3572,W,30.00,277.84,090519,,,A*40
$GPGGA,143851.250,4308.4608,N,07726.3600,W,1,06,1.39,164.5,M,-34.4,M,,*52
lng=-77.439292, lat=43.141006, altitude=164.30, speed=30.00, satellites=6, angle=277.8400, fixquality=1
$GPRMC,143851.500,A,4308.4611,N,07726.3628,W,29.28,277.67,090519,,,A*43
$GPGGA,143851.750,4308.4614,N,07726.3656,W,1,06,1.39,164.6,M,-34.4,M,,*5A
lng=-77.439376, lat=43.141014, altitude=164.50, speed=29.28, satellites=6, angle=277.6700, fixquality=1
$GPRMC,143852.000,A,4308.4617,N,07726.3683,W,28.90,277.69,090519,,,A*4E
$GPGGA,143852.250,4308.4620,N,07726.3710,W,1,06,1.39,164.6,M,-34.4,M,,*58
lng=-77.439468, lat=43.141033, altitude=164.60, speed=28.90, satellites=6, angle=277.6900, fixquality=1
$GPRMC,143852.500,A,4308.4623,N,07726.3736,W,27.79,278.32,090519,,,A*4A
$GPGGA,143852.750,4308.4625,N,07726.3762,W,1,06,1.39,164.6,M,-34.4,M,,*5D
lng=-77.439559, lat=43.141040, altitude=164.60, speed=27.79, satellites=6, angle=278.3200, fixquality=1
$GPRMC,143853.000,A,4308.4628,N,07726.3788,W,27.28,277.76,090519,,,A*4B
$GPGGA,143853.250,4308.4630,N,07726.3815,W,1,06,1.39,164.5,M,-34.4,M,,*51
lng=-77.439651, lat=43.141048, altitude=164.60, speed=27.28, satellites=6, angle=277.7600, fixquality=1
$GPRMC,143853.500,A,4308.4633,N,07726.3841,W,27.02,278.37,090519,,,A*4C
$GPGGA,143853.750,4308.4636,N,07726.3866,W,1,06,1.39,164.4,M,-34.4,M,,*57
lng=-77.439735, lat=43.141056, altitude=164.50, speed=27.02, satellites=6, angle=278.3700, fixquality=1
$GPRMC,143854.000,A,4308.4639,N,07726.3891,W,26.84,278.90,090519,,,A*4B
$GPGGA,143854.250,4308.4641,N,07726.3916,W,1,06,1.39,164.3,M,-34.4,M,,*54
lng=-77.439819, lat=43.141063, altitude=164.40, speed=26.84, satellites=6, angle=278.9000, fixquality=1
$GPRMC,143854.500,A,4308.4644,N,07726.3940,W,25.40,279.09,090519,,,A*43
$GPGGA,143854.750,4308.4646,N,07726.3964,W,1,06,1.39,164.2,M,-34.4,M,,*52
lng=-77.439903, lat=43.141071, altitude=164.30, speed=25.40, satellites=6, angle=279.0900, fixquality=1
$GPRMC,143855.000,A,4308.4649,N,07726.3987,W,24.72,278.87,090519,,,A*46
$GPGGA,143855.250,4308.4651,N,07726.4010,W,1,06,1.39,164.1,M,-34.4,M,,*5E
lng=-77.439979, lat=43.141078, altitude=164.20, speed=24.72, satellites=6, angle=278.8700, fixquality=1
$GPRMC,143855.500,A,4308.4653,N,07726.4033,W,23.61,278.87,090519,,,A*4C
$GPGGA,143855.750,4308.4656,N,07726.4055,W,1,06,1.39,164.0,M,-34.4,M,,*5C
lng=-77.440055, lat=43.141090, altitude=164.10, speed=23.61, satellites=6, angle=278.8700, fixquality=1
$GPRMC,143856.000,A,4308.4658,N,07726.4077,W,22.40,278.30,090519,,,A*4F
$GPGGA,143856.250,4308.4660,N,07726.4098,W,1,06,1.39,163.9,M,-34.4,M,,*50
lng=-77.440132, lat=43.141098, altitude=164.00, speed=22.40, satellites=6, angle=278.3000, fixquality=1
$GPRMC,143856.500,A,4308.4662,N,07726.4118,W,20.98,278.21,090519,,,A*4C
$GPGGA,143856.750,4308.4664,N,07726.4137,W,1,06,1.39,163.8,M,-34.4,M,,*54
lng=-77.440193, lat=43.141105, altitude=163.90, speed=20.98, satellites=6, angle=278.2100, fixquality=1
$GPRMC,143857.000,A,4308.4666,N,07726.4155,W,19.25,278.63,090519,,,A*4F
$GPGGA,143857.250,4308.4668,N,07726.4172,W,1,06,1.56,163.8,M,-34.4,M,,*54
lng=-77.440261, lat=43.141113, altitude=163.80, speed=19.25, satellites=6, angle=278.6300, fixquality=1
$GPRMC,143857.500,A,4308.4669,N,07726.4188,W,17.05,278.81,090519,,,A*45
$GPGGA,143857.750,4308.4671,N,07726.4203,W,1,06,1.39,163.8,M,-34.4,M,,*55
lng=-77.440315, lat=43.141113, altitude=163.80, speed=17.05, satellites=6, angle=278.8100, fixquality=1
$GPRMC,143858.000,A,4308.4674,N,07726.4218,W,14.90,279.00,090519,,,A*4E
$GPGGA,143858.250,4308.4676,N,07726.4232,W,1,06,1.57,163.7,M,-34.4,M,,*5D
lng=-77.440361, lat=43.141120, altitude=163.80, speed=14.90, satellites=6, angle=279.0000, fixquality=1
$GPRMC,143858.500,A,4308.4679,N,07726.4243,W,11.99,281.81,090519,,,A*4A
$GPGGA,143858.750,4308.4682,N,07726.4253,W,1,06,1.39,163.8,M,-34.4,M,,*53
lng=-77.440406, lat=43.141128, altitude=163.70, speed=11.99, satellites=6, angle=281.8100, fixquality=1
$GPRMC,143859.000,A,4308.4683,N,07726.4262,W,9.78,282.70,090519,,,A*73
$GPGGA,143859.250,4308.4685,N,07726.4269,W,1,06,1.56,163.8,M,-34.4,M,,*50
lng=-77.440437, lat=43.141136, altitude=163.80, speed=9.78, satellites=6, angle=282.7000, fixquality=1
$GPRMC,143859.500,A,4308.4686,N,07726.4278,W,8.51,283.78,090519,,,A*7B
$GPGGA,143859.750,4308.4687,N,07726.4285,W,1,06,1.39,163.8,M,-34.4,M,,*5C
lng=-77.440460, lat=43.141147, altitude=163.80, speed=8.51, satellites=6, angle=283.7800, fixquality=1
$GPRMC,143900.000,A,4308.4687,N,07726.4293,W,7.56,280.88,090519,,,A*73
$GPGGA,143900.250,4308.4688,N,07726.4299,W,1,06,1.56,163.9,M,-34.4,M,,*5E
lng=-77.440483, lat=43.141147, altitude=163.80, speed=7.56, satellites=6, angle=280.8800, fixquality=1
$GPRMC,143900.500,A,4308.4689,N,07726.4305,W,5.98,282.91,090519,,,A*7C
$GPGGA,143900.750,4308.4689,N,07726.4310,W,1,06,1.39,163.9,M,-34.4,M,,*53
lng=-77.440513, lat=43.141147, altitude=163.90, speed=5.98, satellites=6, angle=282.9100, fixquality=1
$GPRMC,143901.000,A,4308.4689,N,07726.4315,W,4.64,281.87,090519,,,A*7F
$GPGGA,143901.250,4308.4689,N,07726.4318,W,1,06,1.57,164.0,M,-34.4,M,,*59
lng=-77.440528, lat=43.141147, altitude=163.90, speed=4.64, satellites=6, angle=281.8700, fixquality=1
$GPRMC,143901.500,A,4308.4689,N,07726.4321,W,3.26,284.04,090519,,,A*72
$GPGGA,143901.750,4308.4691,N,07726.4322,W,1,06,1.39,164.1,M,-34.4,M,,*55
lng=-77.440536, lat=43.141147, altitude=164.00, speed=3.26, satellites=6, angle=284.0400, fixquality=1
$GPRMC,143902.000,A,4308.4691,N,07726.4324,W,1.58,284.04,090519,,,A*73
$GPGGA,143902.250,4308.4691,N,07726.4325,W,1,06,1.39,164.2,M,-34.4,M,,*57
lng=-77.440544, lat=43.141155, altitude=164.10, speed=1.58, satellites=6, angle=284.0400, fixquality=1
$GPRMC,143902.500,A,4308.4693,N,07726.4325,W,0.82,284.04,090519,,,A*73
$GPGGA,143902.750,4308.4689,N,07726.4325,W,1,06,1.39,164.2,M,-34.4,M,,*5B
lng=-77.440544, lat=43.141155, altitude=164.20, speed=0.82, satellites=6, angle=284.0400, fixquality=1
$GPRMC,143903.000,A,4308.4689,N,07726.4325,W,0.14,284.04,090519,,,A*73
$GPGGA,143903.250,4308.4689,N,07726.4325,W,1,06,1.39,164.1,M,-34.4,M,,*5C
lng=-77.440544, lat=43.141147, altitude=164.20, speed=0.14, satellites=6, angle=284.0400, fixquality=1
$GPRMC,143903.500,A,4308.4690,N,07726.4325,W,0.10,284.04,090519,,,A*7A
$GPGGA,143903.750,4308.4690,N,07726.4325,W,1,06,1.39,164.2,M,-34.4,M,,*52
lng=-77.440544, lat=43.141155, altitude=164.10, speed=0.10, satellites=6, angle=284.0400, fixquality=1
$GPRMC,143916.500,A,4308.4691,N,07726.4325,W,1.21,284.04,090519,,,A*7C
$GPGGA,143916.750,4308.4692,N,07726.4326,W,1,06,1.39,164.4,M,-34.4,M,,*51
lng=-77.440544, lat=43.141155, altitude=164.40, speed=1.21, satellites=6, angle=284.0400, fixquality=1
$GPRMC,143917.000,A,4308.4692,N,07726.4328,W,2.98,277.50,090519,,,A*7A
$GPGGA,143917.250,4308.4692,N,07726.4331,W,1,06,1.39,164.4,M,-34.4,M,,*53
lng=-77.440544, lat=43.141155, altitude=164.40, speed=2.98, satellites=6, angle=277.5000, fixquality=1
$GPRMC,143917.500,A,4308.4693,N,07726.4334,W,4.50,275.22,090519,,,A*76
$GPGGA,143917.750,4308.4693,N,07726.4338,W,1,06,1.39,164.3,M,-34.4,M,,*59
lng=-77.440559, lat=43.141155, altitude=164.40, speed=4.50, satellites=6, angle=275.2200, fixquality=1
$GPRMC,143918.000,A,4308.4694,N,07726.4343,W,5.99,279.41,090519,,,A*76
$GPGGA,143918.250,4308.4695,N,07726.4349,W,1,06,1.57,164.3,M,-34.4,M,,*5B
lng=-77.440567, lat=43.141155, altitude=164.30, speed=5.99, satellites=6, angle=279.4100, fixquality=1
$GPRMC,143918.500,A,4308.4695,N,07726.4355,W,7.10,278.31,090519,,,A*70
$GPGGA,143918.750,4308.4696,N,07726.4362,W,1,06,1.39,164.2,M,-34.4,M,,*5D
lng=-77.440589, lat=43.141162, altitude=164.30, speed=7.10, satellites=6, angle=278.3100, fixquality=1
$GPRMC,143919.000,A,4308.4697,N,07726.4369,W,8.15,279.10,090519,,,A*71
$GPGGA,143919.250,4308.4698,N,07726.4376,W,1,06,1.57,164.1,M,-34.4,M,,*59
lng=-77.440620, lat=43.141162, altitude=164.20, speed=8.15, satellites=6, angle=279.1000, fixquality=1
$GPRMC,143919.500,A,4308.4699,N,07726.4384,W,9.45,278.72,090519,,,A*78
$GPGGA,143919.750,4308.4699,N,07726.4393,W,1,06,1.39,164.0,M,-34.4,M,,*5F
lng=-77.440643, lat=43.141162, altitude=164.10, speed=9.45, satellites=6, angle=278.7200, fixquality=1
$GPRMC,143920.000,A,4308.4700,N,07726.4403,W,10.99,279.70,090519,,,A*44
$GPGGA,143920.250,4308.4701,N,07726.4413,W,1,06,1.57,163.9,M,-34.4,M,,*59
lng=-77.440673, lat=43.141170, altitude=164.00, speed=10.99, satellites=6, angle=279.7000, fixquality=1
$GPRMC,143920.500,A,4308.4703,N,07726.4424,W,12.49,279.36,090519,,,A*4A
$GPGGA,143920.750,4308.4704,N,07726.4436,W,1,06,1.39,163.9,M,-34.4,M,,*56
lng=-77.440704, lat=43.141170, altitude=163.90, speed=12.49, satellites=6, angle=279.3600, fixquality=1
$GPRMC,143921.000,A,4308.4705,N,07726.4448,W,14.23,279.05,090519,,,A*48
$GPGGA,143921.250,4308.4707,N,07726.4462,W,1,06,1.57,163.8,M,-34.4,M,,*59
lng=-77.440750, lat=43.141178, altitude=163.90, speed=14.23, satellites=6, angle=279.0500, fixquality=1
$GPRMC,143921.500,A,4308.4708,N,07726.4475,W,15.70,278.66,090519,,,A*4D
$GPGGA,143921.750,4308.4710,N,07726.4490,W,1,06,1.39,163.8,M,-34.4,M,,*5F
lng=-77.440788, lat=43.141178, altitude=163.80, speed=15.70, satellites=6, angle=278.6600, fixquality=1
$GPRMC,143922.000,A,4308.4711,N,07726.4506,W,17.14,277.77,090519,,,A*49
$GPGGA,143922.250,4308.4713,N,07726.4522,W,1,06,1.57,163.9,M,-34.4,M,,*5B
lng=-77.440841, lat=43.141185, altitude=163.80, speed=17.14, satellites=6, angle=277.7700, fixquality=1
$GPRMC,143922.500,A,4308.4715,N,07726.4538,W,18.11,277.78,090519,,,A*40
$GPGGA,143922.750,4308.4717,N,07726.4555,W,1,06,1.57,163.9,M,-34.4,M,,*5A
lng=-77.440895, lat=43.141193, altitude=163.90, speed=18.11, satellites=6, angle=277.7800, fixquality=1
$GPRMC,143923.000,A,4308.4719,N,07726.4573,W,19.82,278.46,090519,,,A*4E
$GPGGA,143923.250,4308.4721,N,07726.4591,W,1,06,1.39,164.0,M,-34.4,M,,*55
lng=-77.440956, lat=43.141193, altitude=163.90, speed=19.82, satellites=6, angle=278.4600, fixquality=1
$GPRMC,143923.500,A,4308.4723,N,07726.4610,W,21.21,277.89,090519,,,A*4A
$GPGGA,143923.750,4308.4726,N,07726.4631,W,1,06,1.39,164.1,M,-34.4,M,,*5F
lng=-77.441017, lat=43.141201, altitude=164.00, speed=21.21, satellites=6, angle=277.8900, fixquality=1
$GPRMC,143924.000,A,4308.4728,N,07726.4652,W,22.94,277.50,090519,,,A*4C
$GPGGA,143924.250,4308.4730,N,07726.4674,W,1,06,1.57,164.1,M,-34.4,M,,*53
lng=-77.441085, lat=43.141212, altitude=164.10, speed=22.94, satellites=6, angle=277.5000, fixquality=1
$GPRMC,143924.500,A,4308.4732,N,07726.4696,W,23.95,278.36,090519,,,A*45
$GPGGA,143924.750,4308.4735,N,07726.4718,W,1,06,1.39,164.2,M,-34.4,M,,*53
lng=-77.441162, lat=43.141220, altitude=164.10, speed=23.95, satellites=6, angle=278.3600, fixquality=1
$GPRMC,143925.000,A,4308.4738,N,07726.4741,W,24.40,278.26,090519,,,A*4E
$GPGGA,143925.250,4308.4740,N,07726.4764,W,1,06,1.39,164.3,M,-34.4,M,,*5F
lng=-77.441238, lat=43.141227, altitude=164.20, speed=24.40, satellites=6, angle=278.2600, fixquality=1
$GPRMC,143925.500,A,4308.4742,N,07726.4788,W,25.13,277.49,090519,,,A*42
$GPGGA,143925.750,4308.4744,N,07726.4812,W,1,06,1.39,164.4,M,-34.4,M,,*57
lng=-77.441314, lat=43.141235, altitude=164.30, speed=25.13, satellites=6, angle=277.4900, fixquality=1
$GPRMC,143926.000,A,4308.4746,N,07726.4837,W,26.11,277.09,090519,,,A*4E
