Vers 60
USE_SERIAL_FEEDBACK=true
DEVELOPMENT_MODE=false
USE_RMC_ONLY=false

$GPRMC,162249.000,A,4300.2369,N,07848.7107,W,0.44,1.47,190519,,,D*7F
$GPGGA,162249.250,4300.2369,N,07848.7107,W,2,09,0.93,179.2,M,-34.5,M,0000,0000*5A
lng=-78.811851, lat=43.003948, altitude=179.30, speed=0.44, satellites=9, angle=1.4700, fixquality=2
$GPRMC,162249.500,A,4300.2368,N,07848.7107,W,0.39,12.92,190519,,,D*4B
$GPGGA,162249.750,4300.2368,N,07848.7106,W,2,09,0.93,179.2,M,-34.5,M,0000,0000*5F
lng=-78.811851, lat=43.003948, altitude=179.20, speed=0.39, satellites=9, angle=12.9200, fixquality=2
$GPRMC,162250.000,A,4300.2368,N,07848.7106,W,0.33,21.62,190519,,,D*42
$GPGGA,162250.250,4300.2368,N,07848.7106,W,2,09,0.93,179.1,M,-34.5,M,0000,0000*51
lng=-78.811843, lat=43.003948, altitude=179.20, speed=0.33, satellites=9, angle=21.6200, fixquality=2
$GPRMC,162250.500,A,4300.2367,N,07848.7106,W,0.23,29.17,190519,,,D*43
$GPGGA,162250.750,4300.2367,N,07848.7107,W,2,09,0.93,179.1,M,-34.5,M,0000,0000*5A
lng=-78.811843, lat=43.003948, altitude=179.10, speed=0.23, satellites=9, angle=29.1700, fixquality=2
$GPRMC,162251.000,A,4300.2367,N,07848.7107,W,0.10,32.30,190519,,,D*49
$GPGGA,162251.250,4300.2367,N,07848.7108,W,2,09,0.93,179.0,M,-34.5,M,0000,0000*50
lng=-78.811851, lat=43.003948, altitude=179.10, speed=0.10, satellites=9, angle=32.3000, fixquality=2
$GPRMC,162251.500,A,4300.2367,N,07848.7107,W,0.16,16.96,190519,,,D*40
$GPGGA,162251.750,4300.2368,N,07848.7107,W,2,09,0.93,179.0,M,-34.5,M,0000,0000*55
lng=-78.811851, lat=43.003948, altitude=179.00, speed=0.16, satellites=9, angle=16.9600, fixquality=2
$GPRMC,162252.000,A,4300.2368,N,07848.7107,W,0.21,29.25,190519,,,D*49
$GPGGA,162252.250,4300.2367,N,07848.7107,W,2,09,0.93,178.9,M,-34.5,M,0000,0000*54
lng=-78.811851, lat=43.003948, altitude=179.00, speed=0.21, satellites=9, angle=29.2500, fixquality=2
$GPRMC,162252.500,A,4300.2367,N,07848.7107,W,0.18,27.91,190519,,,D*48
$GPGGA,162252.750,4300.2367,N,07848.7107,W,2,09,0.93,178.8,M,-34.5,M,0000,0000*50
lng=-78.811851, lat=43.003948, altitude=178.90, speed=0.18, satellites=9, angle=27.9100, fixquality=2
$GPRMC,162253.000,A,4300.2367,N,07848.7107,W,0.15,23.01,190519,,,D*4C
$GPGGA,162253.250,4300.2367,N,07848.7107,W,2,09,0.93,178.7,M,-34.5,M,0000,0000*5B
lng=-78.811851, lat=43.003948, altitude=178.80, speed=0.15, satellites=9, angle=23.0100, fixquality=2
$GPRMC,162253.500,A,4300.2367,N,07848.7107,W,0.11,22.89,190519,,,D*4C
$GPGGA,162253.750,4300.2366,N,07848.7107,W,2,09,0.93,178.7,M,-34.5,M,0000,0000*5F
lng=-78.811851, lat=43.003948, altitude=178.70, speed=0.11, satellites=9, angle=22.8900, fixquality=2
$GPRMC,162254.000,A,4300.2366,N,07848.7107,W,0.05,341.76,190519,,,D*7C
$GPGGA,162254.250,4300.2366,N,07848.7107,W,2,09,0.93,178.6,M,-34.5,M,0000,0000*5C
lng=-78.811851, lat=43.003948, altitude=178.70, speed=0.05, satellites=9, angle=341.7600, fixquality=2
$GPRMC,162254.500,A,4300.2366,N,07848.7107,W,0.07,332.36,190519,,,D*7B
$GPGGA,162254.750,4300.2366,N,07848.7107,W,2,09,0.93,178.5,M,-34.5,M,0000,0000*5A
lng=-78.811851, lat=43.003948, altitude=178.60, speed=0.07, satellites=9, angle=332.3600, fixquality=2
$GPRMC,162255.000,A,4300.2366,N,07848.7107,W,0.07,325.66,190519,,,D*7C
$GPGGA,162255.250,4300.2366,N,07848.7107,W,2,09,0.93,178.5,M,-34.5,M,0000,0000*5E
lng=-78.811851, lat=43.003948, altitude=178.50, speed=0.07, satellites=9, angle=325.6600, fixquality=2
$GPRMC,162255.500,A,4300.2366,N,07848.7107,W,0.12,321.75,190519,,,D*7B
$GPGGA,162255.750,4300.2366,N,07848.7108,W,2,09,0.93,178.4,M,-34.5,M,0000,0000*55
lng=-78.811851, lat=43.003948, altitude=178.50, speed=0.12, satellites=9, angle=321.7500, fixquality=2
$GPRMC,162256.000,A,4300.2366,N,07848.7108,W,0.10,350.68,190519,,,D*7A
$GPGGA,162256.250,4300.2366,N,07848.7108,W,2,09,0.93,178.4,M,-34.5,M,0000,0000*53
lng=-78.811851, lat=43.003948, altitude=178.40, speed=0.10, satellites=9, angle=350.6800, fixquality=2
$GPRMC,162256.500,A,4300.2366,N,07848.7108,W,0.10,340.53,190519,,,D*76
$GPGGA,162256.750,4300.2366,N,07848.7108,W,2,09,0.93,178.4,M,-34.5,M,0000,0000*56
lng=-78.811851, lat=43.003948, altitude=178.40, speed=0.10, satellites=9, angle=340.5300, fixquality=2
$GPRMC,162257.000,A,4300.2366,N,07848.7108,W,0.07,309.93,190519,,,D*75
$GPGGA,162257.250,4300.2366,N,07848.7108,W,2,09,0.93,178.4,M,-34.5,M,0000,0000*52
lng=-78.811851, lat=43.003948, altitude=178.40, speed=0.07, satellites=9, angle=309.9300, fixquality=2
$GPRMC,162257.500,A,4300.2366,N,07848.7108,W,0.06,299.58,190519,,,D*7E
$GPGGA,162257.750,4300.2366,N,07848.7108,W,2,09,0.93,178.4,M,-34.5,M,0000,0000*57
lng=-78.811851, lat=43.003948, altitude=178.40, speed=0.06, satellites=9, angle=299.5800, fixquality=2
$GPRMC,162258.000,A,4300.2366,N,07848.7108,W,0.03,270.36,190519,,,D*7E
$GPGGA,162258.250,4300.2366,N,07848.7108,W,2,09,0.93,178.4,M,-34.5,M,0000,0000*5D
lng=-78.811851, lat=43.003948, altitude=178.40, speed=0.03, satellites=9, angle=270.3600, fixquality=2
$GPRMC,162258.500,A,4300.2366,N,07848.7108,W,0.08,264.95,190519,,,D*7C
$GPGGA,162258.750,4300.2366,N,07848.7108,W,2,09,0.93,178.4,M,-34.5,M,0000,0000*58
lng=-78.811851, lat=43.003948, altitude=178.40, speed=0.08, satellites=9, angle=264.9500, fixquality=2
$GPRMC,162259.000,A,4300.2366,N,07848.7108,W,0.11,263.55,190519,,,D*7B
$GPGGA,162259.250,4300.2366,N,07848.7108,W,2,09,0.93,178.4,M,-34.5,M,0000,0000*5C
lng=-78.811851, lat=43.003948, altitude=178.40, speed=0.11, satellites=9, angle=263.5500, fixquality=2
$GPRMC,162259.500,A,4300.2366,N,07848.7108,W,0.08,268.67,190519,,,D*7C
$GPGGA,162259.750,4300.2366,N,07848.7108,W,2,09,0.93,178.4,M,-34.5,M,0000,0000*59
lng=-78.811851, lat=43.003948, altitude=178.40, speed=0.08, satellites=9, angle=268.6700, fixquality=2
$GPRMC,162300.000,A,4300.2366,N,07848.7108,W,0.05,219.62,190519,,,D*7A
$GPGGA,162300.250,4300.2366,N,07848.7108,W,2,09,0.93,178.4,M,-34.5,M,0000,0000*51
lng=-78.811851, lat=43.003948, altitude=178.40, speed=0.05, satellites=9, angle=219.6200, fixquality=2
$GPRMC,162300.500,A,4300.2366,N,07848.7108,W,0.05,287.54,190519,,,D*7D
$GPGGA,162300.750,4300.2366,N,07848.7109,W,2,09,0.93,178.4,M,-34.5,M,0000,0000*55
lng=-78.811851, lat=43.003948, altitude=178.40, speed=0.05, satellites=9, angle=287.5400, fixquality=2
$GPRMC,162301.000,A,4300.2366,N,07848.7109,W,0.17,300.94,190519,,,D*79
$GPGGA,162301.250,4300.2366,N,07848.7109,W,2,09,0.93,178.4,M,-34.5,M,0000,0000*51
lng=-78.811851, lat=43.003948, altitude=178.40, speed=0.17, satellites=9, angle=300.9400, fixquality=2
$GPRMC,162301.500,A,4300.2367,N,07848.7109,W,0.19,276.96,190519,,,D*71
$GPGGA,162301.750,4300.2367,N,07848.7109,W,2,09,0.93,178.4,M,-34.5,M,0000,0000*55
lng=-78.811851, lat=43.003948, altitude=178.40, speed=0.19, satellites=9, angle=276.9600, fixquality=2
$GPRMC,162302.000,A,4300.2366,N,07848.7109,W,0.22,218.55,190519,,,D*79
$GPGGA,162302.250,4300.2366,N,07848.7109,W,2,09,0.93,178.4,M,-34.5,M,0000,0000*52
lng=-78.811851, lat=43.003948, altitude=178.40, speed=0.22, satellites=9, angle=218.5500, fixquality=2
$GPRMC,162302.500,A,4300.2366,N,07848.7109,W,0.17,211.18,190519,,,D*7A
$GPGGA,162302.750,4300.2366,N,07848.7110,W,2,09,0.93,178.4,M,-34.5,M,0000,0000*5F
lng=-78.811851, lat=43.003948, altitude=178.40, speed=0.17, satellites=9, angle=211.1800, fixquality=2
$GPRMC,162303.000,A,4300.2366,N,07848.7110,W,0.17,191.13,190519,,,D*76
$GPGGA,162303.250,4300.2366,N,07848.7110,W,2,09,0.93,178.4,M,-34.5,M,0000,0000*5B
lng=-78.811851, lat=43.003948, altitude=178.40, speed=0.17, satellites=9, angle=191.1300, fixquality=2
$GPRMC,162303.500,A,4300.2366,N,07848.7110,W,0.19,183.78,190519,,,D*73
$GPGGA,162303.750,4300.2366,N,07848.7110,W,2,09,0.93,178.4,M,-34.5,M,0000,0000*5E
lng=-78.811851, lat=43.003948, altitude=178.40, speed=0.19, satellites=9, angle=183.7800, fixquality=2
$GPRMC,162304.000,A,4300.2366,N,07848.7110,W,0.21,179.20,190519,,,D*72
$GPGGA,162304.250,4300.2365,N,07848.7110,W,2,09,0.93,178.4,M,-34.5,M,0000,0000*5F
lng=-78.811851, lat=43.003948, altitude=178.40, speed=0.21, satellites=9, angle=179.2000, fixquality=2
$GPRMC,162304.500,A,4300.2365,N,07848.7110,W,0.16,205.62,190519,,,D*7E
$GPGGA,162304.750,4300.2365,N,07848.7110,W,2,09,0.94,178.4,M,-34.5,M,0000,0000*5D
lng=-78.811851, lat=43.003940, altitude=178.40, speed=0.16, satellites=9, angle=205.6200, fixquality=2
$GPRMC,162305.000,A,4300.2365,N,07848.7110,W,0.02,180.26,190519,,,D*71
$GPGGA,162305.250,4300.2365,N,07848.7110,W,2,09,0.94,178.4,M,-34.5,M,0000,0000*59
lng=-78.811851, lat=43.003940, altitude=178.40, speed=0.02, satellites=9, angle=180.2600, fixquality=2
$GPRMC,162305.500,A,4300.2365,N,07848.7110,W,0.01,87.45,190519,,,D*44
$GPGGA,162305.750,4300.2365,N,07848.7110,W,2,09,0.93,178.3,M,-34.5,M,0000,0000*5C
lng=-78.811851, lat=43.003940, altitude=178.40, speed=0.01, satellites=9, angle=87.4500, fixquality=2
$GPRMC,162306.000,A,4300.2365,N,07848.7110,W,0.00,66.84,190519,,,D*41
$GPGGA,162306.250,4300.2365,N,07848.7110,W,2,09,0.93,178.3,M,-34.5,M,0000,0000*5A
lng=-78.811851, lat=43.003940, altitude=178.30, speed=0.00, satellites=9, angle=66.8400, fixquality=2
$GPRMC,162306.500,A,4300.2365,N,07848.7109,W,0.02,144.69,190519,,,D*7C
$GPGGA,162306.750,4300.2365,N,07848.7109,W,2,09,0.93,178.3,M,-34.5,M,0000,0000*57
lng=-78.811851, lat=43.003940, altitude=178.30, speed=0.02, satellites=9, angle=144.6900, fixquality=2
$GPRMC,162307.000,A,4300.2365,N,07848.7108,W,0.00,108.99,190519,,,D*7C
$GPGGA,162307.250,4300.2366,N,07848.7108,W,2,09,0.93,178.2,M,-34.5,M,0000,0000*50
lng=-78.811851, lat=43.003940, altitude=178.30, speed=0.00, satellites=9, angle=108.9900, fixquality=2
$GPRMC,162307.500,A,4300.2367,N,07848.7107,W,0.05,36.21,190519,,,D*4E
$GPGGA,162307.750,4300.2367,N,07848.7107,W,2,09,0.93,178.1,M,-34.5,M,0000,0000*58
lng=-78.811851, lat=43.003948, altitude=178.20, speed=0.05, satellites=9, angle=36.2100, fixquality=2
$GPRMC,162308.000,A,4300.2368,N,07848.7106,W,0.04,34.06,190519,,,D*4C
$GPGGA,162308.250,4300.2368,N,07848.7106,W,2,09,0.93,178.0,M,-34.5,M,0000,0000*5D
lng=-78.811843, lat=43.003948, altitude=178.10, speed=0.04, satellites=9, angle=34.0600, fixquality=2
$GPRMC,162308.500,A,4300.2368,N,07848.7105,W,0.02,103.41,190519,,,D*7A
$GPGGA,162308.750,4300.2369,N,07848.7105,W,2,09,0.93,177.9,M,-34.5,M,0000,0000*5C
lng=-78.811843, lat=43.003948, altitude=178.00, speed=0.02, satellites=9, angle=103.4100, fixquality=2
$GPRMC,162309.000,A,4300.2369,N,07848.7105,W,0.01,314.11,190519,,,D*7D
$GPGGA,162309.250,4300.2369,N,07848.7105,W,2,09,0.94,177.8,M,-34.5,M,0000,0000*5E
lng=-78.811843, lat=43.003948, altitude=177.90, speed=0.01, satellites=9, angle=314.1100, fixquality=2
$GPRMC,162309.500,A,4300.2370,N,07848.7105,W,0.01,357.72,190519,,,D*72
$GPGGA,162309.750,4300.2370,N,07848.7105,W,2,09,0.93,177.8,M,-34.5,M,0000,0000*54
lng=-78.811843, lat=43.003948, altitude=177.80, speed=0.01, satellites=9, angle=357.7200, fixquality=2
$GPRMC,162310.000,A,4300.2370,N,07848.7105,W,0.01,174.87,190519,,,D*76
$GPGGA,162310.250,4300.2370,N,07848.7105,W,2,09,0.93,177.7,M,-34.5,M,0000,0000*56
lng=-78.811843, lat=43.003948, altitude=177.80, speed=0.01, satellites=9, angle=174.8700, fixquality=2
$GPRMC,162310.500,A,4300.2370,N,07848.7105,W,0.03,179.61,190519,,,D*74
$GPGGA,162310.750,4300.2370,N,07848.7105,W,2,09,0.93,177.7,M,-34.5,M,0000,0000*53
lng=-78.811843, lat=43.003948, altitude=177.70, speed=0.03, satellites=9, angle=179.6100, fixquality=2
$GPRMC,162311.000,A,4300.2370,N,07848.7106,W,0.04,256.03,190519,,,D*7E
$GPGGA,162311.250,4300.2370,N,07848.7106,W,2,09,0.94,177.6,M,-34.5,M,0000,0000*52
lng=-78.811843, lat=43.003948, altitude=177.70, speed=0.04, satellites=9, angle=256.0300, fixquality=2
$GPRMC,162311.500,A,4300.2370,N,07848.7105,W,0.02,29.85,190519,,,D*4A
$GPGGA,162311.750,4300.2370,N,07848.7104,W,2,09,0.94,177.6,M,-34.5,M,0000,0000*55
lng=-78.811843, lat=43.003948, altitude=177.60, speed=0.02, satellites=9, angle=29.8500, fixquality=2
$GPRMC,162312.000,A,4300.2371,N,07848.7103,W,0.02,90.90,190519,,,D*4D
$GPGGA,162312.250,4300.2371,N,07848.7103,W,2,09,0.94,177.5,M,-34.5,M,0000,0000*56
lng=-78.811843, lat=43.003955, altitude=177.60, speed=0.02, satellites=9, angle=90.9000, fixquality=2
$GPRMC,162312.500,A,4300.2371,N,07848.7103,W,0.01,328.93,190519,,,D*78
$GPGGA,162312.750,4300.2371,N,07848.7103,W,2,09,0.93,177.5,M,-34.5,M,0000,0000*54
lng=-78.811843, lat=43.003955, altitude=177.50, speed=0.01, satellites=9, angle=328.9300, fixquality=2
$GPRMC,162313.000,A,4300.2371,N,07848.7103,W,0.01,209.93,190519,,,D*7E
$GPGGA,162313.250,4300.2371,N,07848.7103,W,2,09,0.94,177.4,M,-34.5,M,0000,0000*56
lng=-78.811843, lat=43.003955, altitude=177.50, speed=0.01, satellites=9, angle=209.9300, fixquality=2
$GPRMC,162313.500,A,4300.2371,N,07848.7102,W,0.02,165.65,190519,,,D*79
$GPGGA,162313.750,4300.2370,N,07848.7102,W,2,09,0.94,177.4,M,-34.5,M,0000,0000*53
lng=-78.811836, lat=43.003955, altitude=177.40, speed=0.02, satellites=9, angle=165.6500, fixquality=2
$GPRMC,162314.000,A,4300.2370,N,07848.7102,W,0.01,141.53,190519,,,D*7A
$GPGGA,162314.250,4300.2370,N,07848.7102,W,2,09,0.94,177.3,M,-34.5,M,0000,0000*56
lng=-78.811836, lat=43.003948, altitude=177.40, speed=0.01, satellites=9, angle=141.5300, fixquality=2
$GPRMC,162314.500,A,4300.2371,N,07848.7101,W,0.00,61.70,190519,,,D*4E
$GPGGA,162314.750,4300.2371,N,07848.7101,W,2,09,0.94,177.3,M,-34.5,M,0000,0000*51
lng=-78.811836, lat=43.003955, altitude=177.30, speed=0.00, satellites=9, angle=61.7000, fixquality=2
$GPRMC,162315.000,A,4300.2371,N,07848.7101,W,0.00,255.74,190519,,,D*7B
$GPGGA,162315.250,4300.2371,N,07848.7101,W,2,09,0.94,177.2,M,-34.5,M,0000,0000*54
lng=-78.811836, lat=43.003955, altitude=177.30, speed=0.00, satellites=9, angle=255.7400, fixquality=2
$GPRMC,162315.500,A,4300.2371,N,07848.7101,W,0.00,355.34,190519,,,D*7B
$GPGGA,162315.750,4300.2371,N,07848.7101,W,2,09,0.94,177.2,M,-34.5,M,0000,0000*51
lng=-78.811836, lat=43.003955, altitude=177.20, speed=0.00, satellites=9, angle=355.3400, fixquality=2
$GPRMC,162316.000,A,4300.2372,N,07848.7100,W,0.01,37.50,190519,,,D*4B
$GPGGA,162316.250,4300.2372,N,07848.7100,W,2,09,0.94,177.1,M,-34.5,M,0000,0000*56
lng=-78.811836, lat=43.003955, altitude=177.20, speed=0.01, satellites=9, angle=37.5000, fixquality=2
$GPRMC,162316.500,A,4300.2372,N,07848.7100,W,0.01,310.56,190519,,,D*7E
$GPGGA,162316.750,4300.2372,N,07848.7100,W,2,09,0.94,177.1,M,-34.5,M,0000,0000*53
lng=-78.811836, lat=43.003955, altitude=177.10, speed=0.01, satellites=9, angle=310.5600, fixquality=2
$GPRMC,162317.000,A,4300.2372,N,07848.7100,W,0.01,195.77,190519,,,D*76
$GPGGA,162317.250,4300.2373,N,07848.7100,W,2,09,0.93,177.0,M,-34.5,M,0000,0000*50
lng=-78.811836, lat=43.003955, altitude=177.10, speed=0.01, satellites=9, angle=195.7700, fixquality=2
$GPRMC,162317.500,A,4300.2373,N,07848.7100,W,0.01,359.43,190519,,,D*77
$GPGGA,162317.750,4300.2373,N,07848.7100,W,2,09,0.94,177.0,M,-34.5,M,0000,0000*52
lng=-78.811836, lat=43.003955, altitude=177.00, speed=0.01, satellites=9, angle=359.4300, fixquality=2
$GPRMC,162318.000,A,4300.2374,N,07848.7099,W,0.02,51.80,190519,,,D*4C
$GPGGA,162318.250,4300.2375,N,07848.7099,W,2,09,0.94,176.9,M,-34.5,M,0000,0000*57
lng=-78.811836, lat=43.003955, altitude=177.00, speed=0.02, satellites=9, angle=51.8000, fixquality=2
$GPRMC,162318.500,A,4300.2376,N,07848.7098,W,0.01,27.40,190519,,,D*44
$GPGGA,162318.750,4300.2376,N,07848.7098,W,2,09,0.94,176.9,M,-34.5,M,0000,0000*50
lng=-78.811836, lat=43.003963, altitude=176.90, speed=0.01, satellites=9, angle=27.4000, fixquality=2
$GPRMC,162319.000,A,4300.2376,N,07848.7098,W,0.01,27.10,190519,,,D*45
$GPGGA,162319.250,4300.2377,N,07848.7098,W,2,09,0.94,176.9,M,-34.5,M,0000,0000*55
lng=-78.811836, lat=43.003963, altitude=176.90, speed=0.01, satellites=9, angle=27.1000, fixquality=2
$GPRMC,162319.500,A,4300.2377,N,07848.7097,W,0.00,46.90,190519,,,D*40
$GPGGA,162319.750,4300.2377,N,07848.7097,W,2,09,0.94,176.9,M,-34.5,M,0000,0000*5F
lng=-78.811820, lat=43.003963, altitude=176.90, speed=0.00, satellites=9, angle=46.9000, fixquality=2
$GPRMC,162320.000,A,4300.2379,N,07848.7097,W,0.04,347.78,190519,,,D*71
$GPGGA,162320.250,4300.2378,N,07848.7097,W,2,09,0.94,176.9,M,-34.5,M,0000,0000*5F
lng=-78.811820, lat=43.003963, altitude=176.90, speed=0.04, satellites=9, angle=347.7800, fixquality=2
$GPRMC,162320.500,A,4300.2379,N,07848.7097,W,0.01,257.64,190519,,,D*7C
$GPGGA,162320.750,4300.2379,N,07848.7097,W,2,09,0.94,176.9,M,-34.5,M,0000,0000*5B
lng=-78.811820, lat=43.003963, altitude=176.90, speed=0.01, satellites=9, angle=257.6400, fixquality=2
$GPRMC,162321.000,A,4300.2379,N,07848.7097,W,0.03,90.07,190519,,,D*46
$GPGGA,162321.250,4300.2379,N,07848.7097,W,2,09,0.94,176.9,M,-34.5,M,0000,0000*5F
lng=-78.811820, lat=43.003963, altitude=176.90, speed=0.03, satellites=9, angle=90.0700, fixquality=2
$GPRMC,162321.500,A,4300.2379,N,07848.7097,W,0.00,0.00,190519,,,D*7E
$GPGGA,162321.750,4300.2379,N,07848.7097,W,2,09,0.94,176.9,M,-34.5,M,0000,0000*5A
lng=-78.811820, lat=43.003963, altitude=176.90, speed=0.00, satellites=9, angle=0.0000, fixquality=2
$GPRMC,162322.000,A,4300.2379,N,07848.7097,W,0.01,70.73,190519,,,D*4A
$GPGGA,162322.250,4300.2379,N,07848.7097,W,2,09,0.94,176.9,M,-34.5,M,0000,0000*5C
lng=-78.811820, lat=43.003963, altitude=176.90, speed=0.01, satellites=9, angle=70.7300, fixquality=2
$GPRMC,162322.500,A,4300.2379,N,07848.7097,W,0.01,58.54,190519,,,D*40
$GPGGA,162322.750,4300.2379,N,07848.7097,W,2,09,0.94,176.9,M,-34.5,M,0000,0000*59
lng=-78.811820, lat=43.003963, altitude=176.90, speed=0.01, satellites=9, angle=58.5400, fixquality=2
$GPRMC,162323.000,A,4300.2379,N,07848.7097,W,0.00,228.20,190519,,,D*73
$GPGGA,162323.250,4300.2379,N,07848.7097,W,2,09,0.94,176.9,M,-34.5,M,0000,0000*5D
lng=-78.811820, lat=43.003963, altitude=176.90, speed=0.00, satellites=9, angle=228.2000, fixquality=2
$GPRMC,162323.500,A,4300.2379,N,07848.7097,W,0.00,152.16,190519,,,D*7D
$GPGGA,162323.750,4300.2379,N,07848.7097,W,2,08,1.13,176.9,M,-34.5,M,0000,0000*57
lng=-78.811820, lat=43.003963, altitude=176.90, speed=0.00, satellites=9, angle=152.1600, fixquality=2
$GPRMC,162324.000,A,4300.2379,N,07848.7097,W,0.01,7.53,190519,,,D*7E
$GPGGA,162324.250,4300.2379,N,07848.7097,W,2,10,0.87,176.9,M,-34.5,M,0000,0000*50
lng=-78.811820, lat=43.003963, altitude=176.90, speed=0.01, satellites=8, angle=7.5300, fixquality=2
$GPRMC,162324.500,A,4300.2379,N,07848.7097,W,0.00,335.72,190519,,,D*7B
$GPGGA,162324.750,4300.2379,N,07848.7097,W,2,10,0.87,176.9,M,-34.5,M,0000,0000*55
lng=-78.811820, lat=43.003963, altitude=176.90, speed=0.00, satellites=10, angle=335.7200, fixquality=2
$GPRMC,162325.000,A,4300.2379,N,07848.7097,W,0.01,185.35,190519,,,D*74
$GPGGA,162325.250,4300.2379,N,07848.7097,W,2,10,0.87,176.9,M,-34.5,M,0000,0000*51
lng=-78.811820, lat=43.003963, altitude=176.90, speed=0.01, satellites=10, angle=185.3500, fixquality=2
$GPRMC,162325.500,A,4300.2379,N,07848.7097,W,0.01,301.55,190519,,,D*79
$GPGGA,162325.750,4300.2379,N,07848.7097,W,2,10,0.87,176.9,M,-34.5,M,0000,0000*54
lng=-78.811820, lat=43.003963, altitude=176.90, speed=0.01, satellites=10, angle=301.5500, fixquality=2
$GPRMC,162326.000,A,4300.2379,N,07848.7097,W,0.01,25.38,190519,,,D*41
$GPGGA,162326.250,4300.2379,N,07848.7097,W,2,10,0.87,176.9,M,-34.5,M,0000,0000*52
lng=-78.811820, lat=43.003963, altitude=176.90, speed=0.01, satellites=10, angle=25.3800, fixquality=2
$GPRMC,162326.500,A,4300.2379,N,07848.7097,W,0.02,9.27,190519,,,D*77
$GPGGA,162326.750,4300.2379,N,07848.7097,W,2,09,1.08,176.9,M,-34.5,M,0000,0000*59
lng=-78.811820, lat=43.003963, altitude=176.90, speed=0.02, satellites=10, angle=9.2700, fixquality=2
$GPRMC,162327.000,A,4300.2379,N,07848.7097,W,0.01,336.83,190519,,,D*71
$GPGGA,162327.250,4300.2379,N,07848.7097,W,2,10,0.87,176.9,M,-34.5,M,0000,0000*53
lng=-78.811820, lat=43.003963, altitude=176.90, speed=0.01, satellites=9, angle=336.8300, fixquality=2
$GPRMC,162327.500,A,4300.2379,N,07848.7097,W,0.01,254.35,190519,,,D*7C
$GPGGA,162327.750,4300.2379,N,07848.7097,W,2,10,0.87,176.9,M,-34.5,M,0000,0000*56
lng=-78.811820, lat=43.003963, altitude=176.90, speed=0.01, satellites=10, angle=254.3500, fixquality=2
$GPRMC,162328.000,A,4300.2379,N,07848.7097,W,0.02,271.09,190519,,,D*7D
$GPGGA,162328.250,4300.2379,N,07848.7097,W,2,10,0.87,177.0,M,-34.5,M,0000,0000*54
lng=-78.811820, lat=43.003963, altitude=176.90, speed=0.02, satellites=10, angle=271.0900, fixquality=2
$GPRMC,162328.500,A,4300.2379,N,07848.7097,W,0.01,163.53,190519,,,D*74
$GPGGA,162328.750,4300.2380,N,07848.7096,W,2,10,0.87,177.1,M,-34.5,M,0000,0000*57
lng=-78.811820, lat=43.003963, altitude=177.00, speed=0.01, satellites=10, angle=163.5300, fixquality=2
$GPRMC,162329.000,A,4300.2380,N,07848.7096,W,0.01,27.15,190519,,,D*44
$GPGGA,162329.250,4300.2380,N,07848.7096,W,2,10,0.87,177.2,M,-34.5,M,0000,0000*50
lng=-78.811820, lat=43.003963, altitude=177.10, speed=0.01, satellites=10, angle=27.1500, fixquality=2
$GPRMC,162329.500,A,4300.2381,N,07848.7096,W,0.01,326.30,190519,,,D*75
$GPGGA,162329.750,4300.2381,N,07848.7095,W,2,10,0.87,177.3,M,-34.5,M,0000,0000*56
lng=-78.811820, lat=43.003971, altitude=177.20, speed=0.01, satellites=10, angle=326.3000, fixquality=2
$GPRMC,162330.000,A,4300.2381,N,07848.7095,W,0.00,348.85,190519,,,D*7C
$GPGGA,162330.250,4300.2381,N,07848.7095,W,2,10,0.87,177.3,M,-34.5,M,0000,0000*5B
lng=-78.811820, lat=43.003971, altitude=177.30, speed=0.00, satellites=10, angle=348.8500, fixquality=2
$GPRMC,162330.500,A,4300.2382,N,07848.7095,W,0.01,54.64,190519,,,D*4A
$GPGGA,162330.750,4300.2382,N,07848.7095,W,2,10,0.87,177.4,M,-34.5,M,0000,0000*5A
lng=-78.811820, lat=43.003971, altitude=177.30, speed=0.01, satellites=10, angle=54.6400, fixquality=2
$GPRMC,162331.000,A,4300.2382,N,07848.7094,W,0.00,32.62,190519,,,D*48
$GPGGA,162331.250,4300.2382,N,07848.7094,W,2,10,0.87,177.5,M,-34.5,M,0000,0000*5E
lng=-78.811820, lat=43.003971, altitude=177.40, speed=0.00, satellites=10, angle=32.6200, fixquality=2
$GPRMC,162331.500,A,4300.2383,N,07848.7094,W,0.00,35.04,190519,,,D*4B
$GPGGA,162331.750,4300.2383,N,07848.7094,W,2,10,0.87,177.6,M,-34.5,M,0000,0000*59
lng=-78.811820, lat=43.003971, altitude=177.50, speed=0.00, satellites=10, angle=35.0400, fixquality=2
$GPRMC,162332.000,A,4300.2383,N,07848.7093,W,0.00,70.42,190519,,,D*49
$GPGGA,162332.250,4300.2383,N,07848.7093,W,2,10,0.87,177.7,M,-34.5,M,0000,0000*59
lng=-78.811820, lat=43.003971, altitude=177.60, speed=0.00, satellites=10, angle=70.4200, fixquality=2
$GPRMC,162332.500,A,4300.2383,N,07848.7093,W,0.00,18.02,190519,,,D*46
$GPGGA,162332.750,4300.2384,N,07848.7093,W,2,10,0.87,177.7,M,-34.5,M,0000,0000*5B
lng=-78.811820, lat=43.003971, altitude=177.70, speed=0.00, satellites=10, angle=18.0200, fixquality=2
$GPRMC,162333.000,A,4300.2384,N,07848.7092,W,0.01,105.67,190519,,,D*7B
$GPGGA,162333.250,4300.2384,N,07848.7092,W,2,10,0.87,177.8,M,-34.5,M,0000,0000*51
lng=-78.811813, lat=43.003971, altitude=177.70, speed=0.01, satellites=10, angle=105.6700, fixquality=2
$GPRMC,162333.500,A,4300.2384,N,07848.7092,W,0.01,128.28,190519,,,D*7A
$GPGGA,162333.750,4300.2385,N,07848.7092,W,2,10,0.87,177.9,M,-34.5,M,0000,0000*54
lng=-78.811813, lat=43.003971, altitude=177.80, speed=0.01, satellites=10, angle=128.2800, fixquality=2
$GPRMC,162334.000,A,4300.2385,N,07848.7092,W,0.00,136.68,190519,,,D*73
$GPGGA,162334.250,4300.2385,N,07848.7091,W,2,10,0.87,177.9,M,-34.5,M,0000,0000*55
lng=-78.811813, lat=43.003971, altitude=177.90, speed=0.00, satellites=10, angle=136.6800, fixquality=2
$GPRMC,162334.500,A,4300.2385,N,07848.7091,W,0.01,311.17,190519,,,D*7B
$GPGGA,162334.750,4300.2385,N,07848.7091,W,2,10,0.87,177.9,M,-34.5,M,0000,0000*50
lng=-78.811813, lat=43.003971, altitude=177.90, speed=0.01, satellites=10, angle=311.1700, fixquality=2
$GPRMC,162335.000,A,4300.2385,N,07848.7091,W,0.01,44.17,190519,,,D*4C
$GPGGA,162335.250,4300.2385,N,07848.7091,W,2,10,0.87,177.9,M,-34.5,M,0000,0000*54
lng=-78.811813, lat=43.003971, altitude=177.90, speed=0.01, satellites=10, angle=44.1700, fixquality=2
$GPRMC,162335.500,A,4300.2385,N,07848.7091,W,0.00,71.02,190519,,,D*4A
$GPGGA,162335.750,4300.2385,N,07848.7091,W,2,10,0.87,177.9,M,-34.5,M,0000,0000*51
lng=-78.811813, lat=43.003971, altitude=177.90, speed=0.00, satellites=10, angle=71.0200, fixquality=2
$GPRMC,162336.000,A,4300.2385,N,07848.7091,W,0.01,35.37,190519,,,D*4B
$GPGGA,162336.250,4300.2385,N,07848.7091,W,2,10,0.87,177.9,M,-34.5,M,0000,0000*57
lng=-78.811813, lat=43.003971, altitude=177.90, speed=0.01, satellites=10, angle=35.3700, fixquality=2
$GPRMC,162336.500,A,4300.2385,N,07848.7091,W,0.01,19.08,190519,,,D*4C
$GPGGA,162336.750,4300.2385,N,07848.7091,W,2,10,0.87,177.9,M,-34.5,M,0000,0000*52
lng=-78.811813, lat=43.003971, altitude=177.90, speed=0.01, satellites=10, angle=19.0800, fixquality=2
$GPRMC,162337.000,A,4300.2385,N,07848.7091,W,0.00,93.46,190519,,,D*41
$GPGGA,162337.250,4300.2385,N,07848.7091,W,2,09,1.00,178.0,M,-34.5,M,0000,0000*56
lng=-78.811813, lat=43.003971, altitude=177.90, speed=0.00, satellites=10, angle=93.4600, fixquality=2
$GPRMC,162337.500,A,4300.2385,N,07848.7091,W,0.00,189.92,190519,,,D*77
$GPGGA,162337.750,4300.2385,N,07848.7090,W,2,10,0.87,178.1,M,-34.5,M,0000,0000*55
lng=-78.811813, lat=43.003971, altitude=178.00, speed=0.00, satellites=9, angle=189.9200, fixquality=2
$GPRMC,162338.000,A,4300.2385,N,07848.7090,W,0.00,350.52,190519,,,D*76
$GPGGA,162338.250,4300.2386,N,07848.7090,W,2,09,1.00,178.2,M,-34.5,M,0000,0000*59
lng=-78.811813, lat=43.003971, altitude=178.10, speed=0.00, satellites=10, angle=350.5200, fixquality=2
$GPRMC,162338.500,A,4300.2386,N,07848.7090,W,0.01,342.84,190519,,,D*79
$GPGGA,162338.750,4300.2386,N,07848.7090,W,2,09,1.00,178.2,M,-34.5,M,0000,0000*5C
lng=-78.811813, lat=43.003978, altitude=178.20, speed=0.01, satellites=9, angle=342.8400, fixquality=2
$GPRMC,162339.000,A,4300.2386,N,07848.7090,W,0.00,145.02,190519,,,D*77
$GPGGA,162339.250,4300.2386,N,07848.7089,W,2,09,1.00,178.3,M,-34.5,M,0000,0000*51
lng=-78.811813, lat=43.003978, altitude=178.20, speed=0.00, satellites=9, angle=145.0200, fixquality=2
$GPRMC,162339.500,A,4300.2386,N,07848.7089,W,0.01,20.75,190519,,,D*49
$GPGGA,162339.750,4300.2387,N,07848.7089,W,2,09,1.00,178.4,M,-34.5,M,0000,0000*52
lng=-78.811813, lat=43.003978, altitude=178.30, speed=0.01, satellites=9, angle=20.7500, fixquality=2
$GPRMC,162340.000,A,4300.2387,N,07848.7088,W,0.01,176.83,190519,,,D*79
$GPGGA,162340.250,4300.2387,N,07848.7088,W,2,09,1.00,178.4,M,-34.5,M,0000,0000*58
lng=-78.811813, lat=43.003978, altitude=178.40, speed=0.01, satellites=9, angle=176.8300, fixquality=2
$GPRMC,162340.500,A,4300.2387,N,07848.7088,W,0.00,191.78,190519,,,D*70
$GPGGA,162340.750,4300.2387,N,07848.7087,W,2,08,1.18,178.6,M,-34.5,M,0000,0000*58
lng=-78.811813, lat=43.003978, altitude=178.40, speed=0.00, satellites=9, angle=191.7800, fixquality=2
$GPRMC,162341.000,A,4300.2387,N,07848.7087,W,0.00,351.79,190519,,,D*74
$GPGGA,162341.250,4300.2388,N,07848.7087,W,2,08,1.18,178.6,M,-34.5,M,0000,0000*53
lng=-78.811805, lat=43.003978, altitude=178.60, speed=0.00, satellites=8, angle=351.7900, fixquality=2
$GPRMC,162341.500,A,4300.2388,N,07848.7086,W,0.01,90.09,190519,,,D*47
$GPGGA,162341.750,4300.2388,N,07848.7086,W,2,09,1.08,178.7,M,-34.5,M,0000,0000*56
lng=-78.811805, lat=43.003978, altitude=178.60, speed=0.01, satellites=8, angle=90.0900, fixquality=2
$GPRMC,162342.000,A,4300.2388,N,07848.7085,W,0.01,13.42,190519,,,D*46
$GPGGA,162342.250,4300.2389,N,07848.7085,W,2,08,1.18,178.7,M,-34.5,M,0000,0000*52
lng=-78.811805, lat=43.003978, altitude=178.70, speed=0.01, satellites=9, angle=13.4200, fixquality=2
$GPRMC,162342.500,A,4300.2389,N,07848.7085,W,0.01,141.46,190519,,,D*70
$GPGGA,162342.750,4300.2389,N,07848.7085,W,2,08,1.18,178.9,M,-34.5,M,0000,0000*59
lng=-78.811805, lat=43.003978, altitude=178.70, speed=0.01, satellites=8, angle=141.4600, fixquality=2
$GPRMC,162343.000,A,4300.2389,N,07848.7085,W,0.01,148.47,190519,,,D*7C
$GPGGA,162343.250,4300.2389,N,07848.7084,W,2,09,1.00,178.8,M,-34.5,M,0000,0000*55
lng=-78.811805, lat=43.003978, altitude=178.90, speed=0.01, satellites=8, angle=148.4700, fixquality=2
$GPRMC,162343.500,A,4300.2389,N,07848.7084,W,0.00,327.34,190519,,,D*76
$GPGGA,162343.750,4300.2389,N,07848.7084,W,2,08,1.18,178.9,M,-34.5,M,0000,0000*59
lng=-78.811805, lat=43.003978, altitude=178.80, speed=0.00, satellites=9, angle=327.3400, fixquality=2
$GPRMC,162344.000,A,4300.2390,N,07848.7083,W,0.01,19.39,190519,,,D*49
$GPGGA,162344.250,4300.2390,N,07848.7083,W,2,09,1.08,178.9,M,-34.5,M,0000,0000*54
lng=-78.811805, lat=43.003978, altitude=178.90, speed=0.01, satellites=8, angle=19.3900, fixquality=2
$GPRMC,162344.500,A,4300.2390,N,07848.7083,W,0.01,246.58,190519,,,D*73
$GPGGA,162344.750,4300.2390,N,07848.7083,W,2,09,1.08,178.9,M,-34.5,M,0000,0000*51
lng=-78.811805, lat=43.003978, altitude=178.90, speed=0.01, satellites=9, angle=246.5800, fixquality=2
$GPRMC,162345.000,A,4300.2390,N,07848.7083,W,0.02,46.81,190519,,,D*42
$GPGGA,162345.250,4300.2390,N,07848.7083,W,2,10,0.87,178.9,M,-34.5,M,0000,0000*5B
lng=-78.811805, lat=43.003978, altitude=178.90, speed=0.02, satellites=9, angle=46.8100, fixquality=2
$GPRMC,162345.500,A,4300.2390,N,07848.7083,W,0.01,264.52,190519,,,D*78
$GPGGA,162345.750,4300.2390,N,07848.7083,W,2,09,1.00,178.9,M,-34.5,M,0000,0000*58
lng=-78.811805, lat=43.003978, altitude=178.90, speed=0.01, satellites=10, angle=264.5200, fixquality=2
$GPRMC,162346.000,A,4300.2390,N,07848.7083,W,0.00,345.25,190519,,,D*7D
$GPGGA,162346.250,4300.2390,N,07848.7083,W,2,09,1.00,178.9,M,-34.5,M,0000,0000*5E
lng=-78.811805, lat=43.003978, altitude=178.90, speed=0.00, satellites=9, angle=345.2500, fixquality=2
$GPRMC,162346.500,A,4300.2390,N,07848.7083,W,0.00,326.35,190519,,,D*7C
$GPGGA,162346.750,4300.2390,N,07848.7083,W,2,09,1.08,178.9,M,-34.5,M,0000,0000*53
lng=-78.811805, lat=43.003978, altitude=178.90, speed=0.00, satellites=9, angle=326.3500, fixquality=2
$GPRMC,162347.000,A,4300.2390,N,07848.7083,W,0.00,0.00,190519,,,D*79
$GPGGA,162347.250,4300.2390,N,07848.7083,W,2,10,0.87,178.9,M,-34.5,M,0000,0000*59
lng=-78.811805, lat=43.003978, altitude=178.90, speed=0.00, satellites=9, angle=0.0000, fixquality=2
$GPRMC,162347.500,A,4300.2390,N,07848.7083,W,0.00,0.00,190519,,,D*7C
$GPGGA,162347.750,4300.2390,N,07848.7083,W,2,09,1.08,179.0,M,-34.5,M,0000,0000*5A
lng=-78.811805, lat=43.003978, altitude=178.90, speed=0.00, satellites=10, angle=0.0000, fixquality=2
$GPRMC,162348.000,A,4300.2390,N,07848.7083,W,0.00,36.63,190519,,,D*46
$GPGGA,162348.250,4300.2390,N,07848.7083,W,2,09,1.00,179.0,M,-34.5,M,0000,0000*58
lng=-78.811805, lat=43.003978, altitude=179.00, speed=0.00, satellites=9, angle=36.6300, fixquality=2
$GPRMC,162348.500,A,4300.2390,N,07848.7083,W,0.00,0.00,190519,,,D*73
$GPGGA,162348.750,4300.2390,N,07848.7083,W,2,09,1.00,179.0,M,-34.5,M,0000,0000*5D
lng=-78.811805, lat=43.003978, altitude=179.00, speed=0.00, satellites=9, angle=0.0000, fixquality=2
$GPRMC,162349.000,A,4300.2390,N,07848.7083,W,0.00,9.40,190519,,,D*7A
$GPGGA,162349.250,4300.2390,N,07848.7083,W,2,09,1.08,179.0,M,-34.5,M,0000,0000*51
lng=-78.811805, lat=43.003978, altitude=179.00, speed=0.00, satellites=9, angle=9.4000, fixquality=2
$GPRMC,162349.500,A,4300.2390,N,07848.7083,W,0.00,323.70,190519,,,D*77
$GPGGA,162349.750,4300.2390,N,07848.7083,W,2,10,0.87,179.0,M,-34.5,M,0000,0000*5A
lng=-78.811805, lat=43.003978, altitude=179.00, speed=0.00, satellites=9, angle=323.7000, fixquality=2
$GPRMC,162350.000,A,4300.2390,N,07848.7083,W,0.00,24.47,190519,,,D*4A
$GPGGA,162350.250,4300.2390,N,07848.7083,W,2,10,0.87,179.0,M,-34.5,M,0000,0000*57
lng=-78.811805, lat=43.003978, altitude=179.00, speed=0.00, satellites=10, angle=24.4700, fixquality=2
$GPRMC,162350.500,A,4300.2390,N,07848.7083,W,0.00,8.16,190519,,,D*75
$GPGGA,162350.750,4300.2390,N,07848.7083,W,2,09,1.08,179.0,M,-34.5,M,0000,0000*5C
lng=-78.811805, lat=43.003978, altitude=179.00, speed=0.00, satellites=10, angle=8.1600, fixquality=2
$GPRMC,162351.000,A,4300.2390,N,07848.7083,W,0.00,345.61,190519,,,D*7B
$GPGGA,162351.250,4300.2390,N,07848.7083,W,2,09,1.08,179.0,M,-34.5,M,0000,0000*58
lng=-78.811805, lat=43.003978, altitude=179.00, speed=0.00, satellites=9, angle=345.6100, fixquality=2
$GPRMC,162351.500,A,4300.2390,N,07848.7083,W,0.00,10.05,190519,,,D*4F
$GPGGA,162351.750,4300.2390,N,07848.7083,W,2,10,0.87,179.0,M,-34.5,M,0000,0000*53
lng=-78.811805, lat=43.003978, altitude=179.00, speed=0.00, satellites=9, angle=10.0500, fixquality=2
$GPRMC,162352.000,A,4300.2390,N,07848.7083,W,0.00,18.39,190519,,,D*4E
$GPGGA,162352.250,4300.2390,N,07848.7083,W,2,09,1.08,179.0,M,-34.5,M,0000,0000*5B
lng=-78.811805, lat=43.003978, altitude=179.00, speed=0.00, satellites=10, angle=18.3900, fixquality=2
$GPRMC,162352.500,A,4300.2390,N,07848.7083,W,0.01,109.56,190519,,,D*72
$GPGGA,162352.750,4300.2390,N,07848.7083,W,2,10,0.87,179.0,M,-34.5,M,0000,0000*50
lng=-78.811805, lat=43.003978, altitude=179.00, speed=0.01, satellites=9, angle=109.5600, fixquality=2
$GPRMC,162353.000,A,4300.2390,N,07848.7083,W,0.01,6.56,190519,,,D*78
$GPGGA,162353.250,4300.2390,N,07848.7083,W,2,10,0.87,179.0,M,-34.5,M,0000,0000*54
lng=-78.811805, lat=43.003978, altitude=179.00, speed=0.01, satellites=10, angle=6.5600, fixquality=2
$GPRMC,162353.500,A,4300.2390,N,07848.7083,W,0.02,341.98,190519,,,D*7C
$GPGGA,162353.750,4300.2390,N,07848.7083,W,2,09,1.08,179.0,M,-34.5,M,0000,0000*5F
lng=-78.811805, lat=43.003978, altitude=179.00, speed=0.02, satellites=10, angle=341.9800, fixquality=2
$GPRMC,162354.000,A,4300.2390,N,07848.7083,W,0.01,316.44,190519,,,D*7E
$GPGGA,162354.250,4300.2390,N,07848.7083,W,2,09,1.08,179.0,M,-34.5,M,0000,0000*5D
lng=-78.811805, lat=43.003978, altitude=179.00, speed=0.01, satellites=9, angle=316.4400, fixquality=2
$GPRMC,162354.500,A,4300.2390,N,07848.7083,W,0.01,278.39,190519,,,D*78
$GPGGA,162354.750,4300.2390,N,07848.7083,W,2,09,1.08,179.0,M,-34.5,M,0000,0000*58
lng=-78.811805, lat=43.003978, altitude=179.00, speed=0.01, satellites=9, angle=278.3900, fixquality=2
$GPRMC,162355.000,A,4300.2390,N,07848.7083,W,0.01,221.66,190519,,,D*7A
$GPGGA,162355.250,4300.2390,N,07848.7083,W,2,09,1.08,179.0,M,-34.5,M,0000,0000*5C
lng=-78.811805, lat=43.003978, altitude=179.00, speed=0.01, satellites=9, angle=221.6600, fixquality=2
$GPRMC,162355.500,A,4300.2390,N,07848.7083,W,0.00,0.00,190519,,,D*7F
$GPGGA,162355.750,4300.2390,N,07848.7083,W,2,09,1.08,179.0,M,-34.5,M,0000,0000*59
lng=-78.811805, lat=43.003978, altitude=179.00, speed=0.00, satellites=9, angle=0.0000, fixquality=2
$GPRMC,162356.000,A,4300.2390,N,07848.7083,W,0.01,186.97,190519,,,D*79
$GPGGA,162356.250,4300.2390,N,07848.7083,W,2,09,1.08,179.0,M,-34.5,M,0000,0000*5F
lng=-78.811805, lat=43.003978, altitude=179.00, speed=0.01, satellites=9, angle=186.9700, fixquality=2
$GPRMC,162356.500,A,4300.2390,N,07848.7083,W,0.01,150.76,190519,,,D*78
$GPGGA,162356.750,4300.2390,N,07848.7083,W,2,09,1.08,179.0,M,-34.5,M,0000,0000*5A
lng=-78.811805, lat=43.003978, altitude=179.00, speed=0.01, satellites=9, angle=150.7600, fixquality=2
$GPRMC,162357.000,A,4300.2390,N,07848.7083,W,0.00,80.38,190519,,,D*4B
$GPGGA,162357.250,4300.2390,N,07848.7083,W,2,09,1.08,179.0,M,-34.5,M,0000,0000*5E
lng=-78.811805, lat=43.003978, altitude=179.00, speed=0.00, satellites=9, angle=80.3800, fixquality=2
$GPRMC,162357.500,A,4300.2390,N,07848.7083,W,0.01,168.04,190519,,,D*77
$GPGGA,162357.750,4300.2390,N,07848.7083,W,2,09,1.08,179.0,M,-34.5,M,0000,0000*5B
lng=-78.811805, lat=43.003978, altitude=179.00, speed=0.01, satellites=9, angle=168.0400, fixquality=2
$GPRMC,162358.000,A,4300.2390,N,07848.7083,W,0.00,166.95,190519,,,D*7A
$GPGGA,162358.250,4300.2390,N,07848.7083,W,2,09,1.08,179.0,M,-34.5,M,0000,0000*51
lng=-78.811805, lat=43.003978, altitude=179.00, speed=0.00, satellites=9, angle=166.9500, fixquality=2
$GPRMC,162358.500,A,4300.2390,N,07848.7083,W,0.01,160.29,190519,,,D*7F
$GPGGA,162358.750,4300.2390,N,07848.7083,W,2,09,1.08,179.0,M,-34.5,M,0000,0000*54
lng=-78.811805, lat=43.003978, altitude=179.00, speed=0.01, satellites=9, angle=160.2900, fixquality=2
$GPRMC,162359.000,A,4300.2390,N,07848.7083,W,0.00,137.57,190519,,,D*71
$GPGGA,162359.250,4300.2390,N,07848.7083,W,2,09,1.08,179.0,M,-34.5,M,0000,0000*50
lng=-78.811805, lat=43.003978, altitude=179.00, speed=0.00, satellites=9, angle=137.5700, fixquality=2
$GPRMC,162359.500,A,4300.2390,N,07848.7083,W,0.00,152.16,190519,,,D*72
$GPGGA,162359.750,4300.2390,N,07848.7083,W,2,09,1.08,179.0,M,-34.5,M,0000,0000*55
lng=-78.811805, lat=43.003978, altitude=179.00, speed=0.00, satellites=9, angle=152.1600, fixquality=2
$GPRMC,162400.000,A,4300.2390,N,07848.7083,W,0.00,210.32,190519,,,D*7F
$GPGGA,162400.250,4300.2390,N,07848.7083,W,2,09,1.08,179.0,M,-34.5,M,0000,0000*5B
lng=-78.811805, lat=43.003978, altitude=179.00, speed=0.00, satellites=9, angle=210.3200, fixquality=2
$GPRMC,162400.500,A,4300.2390,N,07848.7083,W,0.00,3.23,190519,,,D*7A
$GPGGA,162400.750,4300.2390,N,07848.7083,W,2,09,1.08,179.0,M,-34.5,M,0000,0000*5E
lng=-78.811805, lat=43.003978, altitude=179.00, speed=0.00, satellites=9, angle=3.2300, fixquality=2
$GPRMC,162401.000,A,4300.2390,N,07848.7083,W,0.00,0.00,190519,,,D*7C
$GPGGA,162401.250,4300.2390,N,07848.7083,W,2,09,1.08,179.0,M,-34.5,M,0000,0000*5A
lng=-78.811805, lat=43.003978, altitude=179.00, speed=0.00, satellites=9, angle=0.0000, fixquality=2
$GPRMC,162401.500,A,4300.2390,N,07848.7083,W,0.00,127.15,190519,,,D*79
$GPGGA,162401.750,4300.2390,N,07848.7083,W,2,09,1.08,179.0,M,-34.5,M,0000,0000*5F
lng=-78.811805, lat=43.003978, altitude=179.00, speed=0.00, satellites=9, angle=127.1500, fixquality=2
$GPRMC,162402.000,A,4300.2390,N,07848.7083,W,0.00,119.64,190519,,,D*74
$GPGGA,162402.250,4300.2390,N,07848.7083,W,2,09,1.08,179.0,M,-34.5,M,0000,0000*59
lng=-78.811805, lat=43.003978, altitude=179.00, speed=0.00, satellites=9, angle=119.6400, fixquality=2
$GPRMC,162402.500,A,4300.2390,N,07848.7083,W,0.00,125.47,190519,,,D*7F
$GPGGA,162402.750,4300.2390,N,07848.7083,W,2,09,1.08,179.0,M,-34.5,M,0000,0000*5C
lng=-78.811805, lat=43.003978, altitude=179.00, speed=0.00, satellites=9, angle=125.4700, fixquality=2
$GPRMC,162403.000,A,4300.2390,N,07848.7083,W,0.00,55.36,190519,,,D*4B
$GPGGA,162403.250,4300.2390,N,07848.7083,W,2,09,1.08,179.0,M,-34.5,M,0000,0000*58
lng=-78.811805, lat=43.003978, altitude=179.00, speed=0.00, satellites=9, angle=55.3600, fixquality=2
$GPRMC,162403.500,A,4300.2390,N,07848.7083,W,0.00,324.47,190519,,,D*7D
$GPGGA,162403.750,4300.2390,N,07848.7083,W,2,09,1.08,179.0,M,-34.5,M,0000,0000*5D
lng=-78.811805, lat=43.003978, altitude=179.00, speed=0.00, satellites=9, angle=324.4700, fixquality=2
$GPRMC,162404.000,A,4300.2390,N,07848.7083,W,0.00,284.91,190519,,,D*7F
$GPGGA,162404.250,4300.2390,N,07848.7083,W,2,09,1.08,179.0,M,-34.5,M,0000,0000*5F
lng=-78.811805, lat=43.003978, altitude=179.00, speed=0.00, satellites=9, angle=284.9100, fixquality=2
$GPRMC,162404.500,A,4300.2390,N,07848.7083,W,0.00,251.61,190519,,,D*7D
$GPGGA,162404.750,4300.2390,N,07848.7083,W,2,09,1.08,179.0,M,-34.5,M,0000,0000*5A
lng=-78.811805, lat=43.003978, altitude=179.00, speed=0.00, satellites=9, angle=251.6100, fixquality=2
$GPRMC,162405.000,A,4300.2390,N,07848.7083,W,0.00,0.00,190519,,,D*78
$GPGGA,162405.250,4300.2390,N,07848.7083,W,2,09,1.08,179.0,M,-34.5,M,0000,0000*5E
lng=-78.811805, lat=43.003978, altitude=179.00, speed=0.00, satellites=9, angle=0.0000, fixquality=2
$GPRMC,162405.500,A,4300.2390,N,07848.7083,W,0.01,264.34,190519,,,D*7B
$GPGGA,162405.750,4300.2390,N,07848.7083,W,2,09,1.08,179.0,M,-34.5,M,0000,0000*5B
lng=-78.811805, lat=43.003978, altitude=179.00, speed=0.01, satellites=9, angle=264.3400, fixquality=2
$GPRMC,162406.000,A,4300.2390,N,07848.7083,W,0.01,172.91,190519,,,D*76
$GPGGA,162406.250,4300.2390,N,07848.7083,W,2,09,1.08,179.0,M,-34.5,M,0000,0000*5D
lng=-78.811805, lat=43.003978, altitude=179.00, speed=0.01, satellites=9, angle=172.9100, fixquality=2
$GPRMC,162406.500,A,4300.2391,N,07848.7083,W,0.00,147.40,190519,,,D*79
$GPGGA,162406.750,4300.2391,N,07848.7083,W,2,09,1.08,179.0,M,-34.5,M,0000,0000*59
lng=-78.811805, lat=43.003986, altitude=179.00, speed=0.00, satellites=9, angle=147.4000, fixquality=2
$GPRMC,162407.000,A,4300.2391,N,07848.7083,W,0.00,6.57,190519,,,D*7F
$GPGGA,162407.250,4300.2391,N,07848.7083,W,2,09,1.08,179.1,M,-34.5,M,0000,0000*5C
lng=-78.811805, lat=43.003986, altitude=179.00, speed=0.00, satellites=9, angle=6.5700, fixquality=2
$GPRMC,162407.500,A,4300.2392,N,07848.7083,W,0.00,274.48,190519,,,D*70
$GPGGA,162407.750,4300.2392,N,07848.7083,W,2,09,1.08,179.1,M,-34.5,M,0000,0000*5A
lng=-78.811805, lat=43.003986, altitude=179.10, speed=0.00, satellites=9, angle=274.4800, fixquality=2
$GPRMC,162408.000,A,4300.2392,N,07848.7083,W,0.00,145.89,190519,,,D*76
$GPGGA,162408.250,4300.2392,N,07848.7083,W,2,09,1.08,179.1,M,-34.5,M,0000,0000*50
lng=-78.811805, lat=43.003986, altitude=179.10, speed=0.00, satellites=9, angle=145.8900, fixquality=2
$GPRMC,162408.500,A,4300.2393,N,07848.7083,W,0.01,12.60,190519,,,D*47
$GPGGA,162408.750,4300.2393,N,07848.7083,W,2,09,1.08,179.2,M,-34.5,M,0000,0000*57
lng=-78.811805, lat=43.003986, altitude=179.10, speed=0.01, satellites=9, angle=12.6000, fixquality=2
$GPRMC,162409.000,A,4300.2393,N,07848.7083,W,0.00,197.23,190519,,,D*79
$GPGGA,162409.250,4300.2393,N,07848.7083,W,2,09,1.08,179.2,M,-34.5,M,0000,0000*53
lng=-78.811805, lat=43.003986, altitude=179.20, speed=0.00, satellites=9, angle=197.2300, fixquality=2
$GPRMC,162409.500,A,4300.2394,N,07848.7083,W,0.01,350.38,190519,,,D*79
$GPGGA,162409.750,4300.2394,N,07848.7083,W,2,09,1.08,179.3,M,-34.5,M,0000,0000*50
lng=-78.811805, lat=43.003986, altitude=179.20, speed=0.01, satellites=9, angle=350.3800, fixquality=2
$GPRMC,162410.000,A,4300.2394,N,07848.7083,W,0.00,187.71,190519,,,D*70
$GPGGA,162410.250,4300.2394,N,07848.7083,W,2,09,1.08,179.3,M,-34.5,M,0000,0000*5D
lng=-78.811805, lat=43.003986, altitude=179.30, speed=0.00, satellites=9, angle=187.7100, fixquality=2
$GPRMC,162410.500,A,4300.2394,N,07848.7083,W,0.00,173.73,190519,,,D*7C
$GPGGA,162410.750,4300.2394,N,07848.7083,W,2,09,1.08,179.3,M,-34.5,M,0000,0000*58
lng=-78.811805, lat=43.003986, altitude=179.30, speed=0.00, satellites=9, angle=173.7300, fixquality=2
$GPRMC,162411.000,A,4300.2394,N,07848.7083,W,0.00,348.32,190519,,,D*77
$GPGGA,162411.250,4300.2395,N,07848.7084,W,2,09,1.08,179.3,M,-34.5,M,0000,0000*5A
lng=-78.811805, lat=43.003986, altitude=179.30, speed=0.00, satellites=9, angle=348.3200, fixquality=2
$GPRMC,162411.500,A,4300.2395,N,07848.7084,W,0.01,320.00,190519,,,D*7A
$GPGGA,162411.750,4300.2395,N,07848.7084,W,2,09,1.08,179.4,M,-34.5,M,0000,0000*58
lng=-78.811805, lat=43.003986, altitude=179.30, speed=0.01, satellites=9, angle=320.0000, fixquality=2
$GPRMC,162412.000,A,4300.2395,N,07848.7084,W,0.00,95.35,190519,,,D*46
$GPGGA,162412.250,4300.2396,N,07848.7084,W,2,09,1.08,179.4,M,-34.5,M,0000,0000*5D
lng=-78.811805, lat=43.003986, altitude=179.40, speed=0.00, satellites=9, angle=95.3500, fixquality=2
$GPRMC,162412.500,A,4300.2396,N,07848.7084,W,0.00,306.56,190519,,,D*7C
$GPGGA,162412.750,4300.2396,N,07848.7085,W,2,09,1.08,179.4,M,-34.5,M,0000,0000*59
lng=-78.811805, lat=43.003993, altitude=179.40, speed=0.00, satellites=9, angle=306.5600, fixquality=2
$GPRMC,162413.000,A,4300.2396,N,07848.7085,W,0.00,266.52,190519,,,D*7A
$GPGGA,162413.250,4300.2396,N,07848.7085,W,2,09,1.08,179.4,M,-34.5,M,0000,0000*5D
lng=-78.811805, lat=43.003993, altitude=179.40, speed=0.00, satellites=9, angle=266.5200, fixquality=2
$GPRMC,162413.500,A,4300.2396,N,07848.7086,W,0.00,228.57,190519,,,D*73
$GPGGA,162413.750,4300.2396,N,07848.7085,W,2,09,1.08,179.5,M,-34.5,M,0000,0000*59
lng=-78.811805, lat=43.003993, altitude=179.40, speed=0.00, satellites=9, angle=228.5700, fixquality=2
$GPRMC,162414.000,A,4300.2396,N,07848.7086,W,0.02,274.32,190519,,,D*79
$GPGGA,162414.250,4300.2397,N,07848.7086,W,2,09,1.08,179.5,M,-34.5,M,0000,0000*59
lng=-78.811805, lat=43.003993, altitude=179.50, speed=0.02, satellites=9, angle=274.3200, fixquality=2
$GPRMC,162414.500,A,4300.2397,N,07848.7086,W,0.02,27.25,190519,,,D*4F
$GPGGA,162414.750,4300.2397,N,07848.7086,W,2,09,1.08,179.5,M,-34.5,M,0000,0000*5C
lng=-78.811805, lat=43.003993, altitude=179.50, speed=0.02, satellites=9, angle=27.2500, fixquality=2
$GPRMC,162415.000,A,4300.2398,N,07848.7086,W,0.01,43.75,190519,,,D*40
$GPGGA,162415.250,4300.2398,N,07848.7086,W,2,09,1.08,179.5,M,-34.5,M,0000,0000*57
lng=-78.811805, lat=43.003993, altitude=179.50, speed=0.01, satellites=9, angle=43.7500, fixquality=2
$GPRMC,162415.500,A,4300.2398,N,07848.7086,W,0.01,63.52,190519,,,D*42
$GPGGA,162415.750,4300.2398,N,07848.7086,W,2,09,1.08,179.5,M,-34.5,M,0000,0000*52
lng=-78.811805, lat=43.003993, altitude=179.50, speed=0.01, satellites=9, angle=63.5200, fixquality=2
$GPRMC,162416.000,A,4300.2398,N,07848.7086,W,0.00,0.00,190519,,,D*77
$GPGGA,162416.250,4300.2399,N,07848.7086,W,2,09,1.08,179.5,M,-34.5,M,0000,0000*55
lng=-78.811805, lat=43.003993, altitude=179.50, speed=0.00, satellites=9, angle=0.0000, fixquality=2
$GPRMC,162416.500,A,4300.2399,N,07848.7087,W,0.01,344.05,190519,,,D*75
$GPGGA,162416.750,4300.2399,N,07848.7087,W,2,09,1.08,179.5,M,-34.5,M,0000,0000*51
lng=-78.811805, lat=43.003993, altitude=179.50, speed=0.01, satellites=9, angle=344.0500, fixquality=2
$GPRMC,162417.000,A,4300.2399,N,07848.7087,W,0.00,356.17,190519,,,D*70
$GPGGA,162417.250,4300.2399,N,07848.7087,W,2,09,1.08,179.5,M,-34.5,M,0000,0000*55
lng=-78.811805, lat=43.003993, altitude=179.50, speed=0.00, satellites=9, angle=356.1700, fixquality=2
$GPRMC,162417.500,A,4300.2399,N,07848.7088,W,0.01,334.94,190519,,,D*74
$GPGGA,162417.750,4300.2399,N,07848.7088,W,2,09,1.08,179.5,M,-34.5,M,0000,0000*5F
lng=-78.811813, lat=43.003993, altitude=179.50, speed=0.01, satellites=9, angle=334.9400, fixquality=2
$GPRMC,162418.000,A,4300.2399,N,07848.7088,W,0.01,325.67,190519,,,D*72
$GPGGA,162418.250,4300.2399,N,07848.7089,W,2,09,1.08,179.5,M,-34.5,M,0000,0000*54
lng=-78.811813, lat=43.003993, altitude=179.50, speed=0.01, satellites=9, angle=325.6700, fixquality=2
$GPRMC,162418.500,A,4300.2399,N,07848.7089,W,0.00,307.07,190519,,,D*71
$GPGGA,162418.750,4300.2399,N,07848.7090,W,2,09,1.08,179.5,M,-34.5,M,0000,0000*59
lng=-78.811813, lat=43.003993, altitude=179.50, speed=0.00, satellites=9, angle=307.0700, fixquality=2
$GPRMC,162419.000,A,4300.2399,N,07848.7090,W,0.00,299.47,190519,,,D*7F
$GPGGA,162419.250,4300.2399,N,07848.7090,W,2,09,1.08,179.5,M,-34.5,M,0000,0000*5D
lng=-78.811813, lat=43.003993, altitude=179.50, speed=0.00, satellites=9, angle=299.4700, fixquality=2
$GPRMC,162419.500,A,4300.2399,N,07848.7091,W,0.00,250.99,190519,,,D*7D
$GPGGA,162419.750,4300.2399,N,07848.7091,W,2,09,1.08,179.6,M,-34.5,M,0000,0000*5A
lng=-78.811813, lat=43.003993, altitude=179.50, speed=0.00, satellites=9, angle=250.9900, fixquality=2
$GPRMC,162420.000,A,4300.2399,N,07848.7091,W,0.01,228.37,190519,,,D*78
$GPGGA,162420.250,4300.2398,N,07848.7091,W,2,09,1.08,179.6,M,-34.5,M,0000,0000*54
lng=-78.811813, lat=43.003993, altitude=179.60, speed=0.01, satellites=9, angle=228.3700, fixquality=2
$GPRMC,162420.500,A,4300.2398,N,07848.7092,W,0.00,303.92,190519,,,D*79
$GPGGA,162420.750,4300.2398,N,07848.7092,W,2,09,1.08,179.6,M,-34.5,M,0000,0000*52
lng=-78.811813, lat=43.003993, altitude=179.60, speed=0.00, satellites=9, angle=303.9200, fixquality=2
$GPRMC,162421.000,A,4300.2398,N,07848.7092,W,0.00,90.95,190519,,,D*43
$GPGGA,162421.250,4300.2398,N,07848.7092,W,2,09,1.08,179.6,M,-34.5,M,0000,0000*56
lng=-78.811813, lat=43.003993, altitude=179.60, speed=0.00, satellites=9, angle=90.9500, fixquality=2
$GPRMC,162421.500,A,4300.2398,N,07848.7093,W,0.00,26.30,190519,,,D*45
$GPGGA,162421.750,4300.2398,N,07848.7093,W,2,09,1.08,179.7,M,-34.5,M,0000,0000*53
lng=-78.811820, lat=43.003993, altitude=179.60, speed=0.00, satellites=9, angle=26.3000, fixquality=2
$GPRMC,162422.000,A,4300.2398,N,07848.7093,W,0.00,234.19,190519,,,D*79
$GPGGA,162422.250,4300.2398,N,07848.7094,W,2,09,1.08,179.7,M,-34.5,M,0000,0000*52
lng=-78.811820, lat=43.003993, altitude=179.70, speed=0.00, satellites=9, angle=234.1900, fixquality=2
$GPRMC,162422.500,A,4300.2397,N,07848.7094,W,0.02,162.18,190519,,,D*77
$GPGGA,162422.750,4300.2397,N,07848.7094,W,2,09,1.08,179.7,M,-34.5,M,0000,0000*58
lng=-78.811820, lat=43.003993, altitude=179.70, speed=0.02, satellites=9, angle=162.1800, fixquality=2
$GPRMC,162423.000,A,4300.2397,N,07848.7094,W,0.02,152.21,190519,,,D*7A
$GPGGA,162423.250,4300.2396,N,07848.7095,W,2,09,1.08,179.8,M,-34.5,M,0000,0000*53
lng=-78.811820, lat=43.003993, altitude=179.70, speed=0.02, satellites=9, angle=152.2100, fixquality=2
$GPRMC,162423.500,A,4300.2396,N,07848.7095,W,0.00,318.57,190519,,,D*70
$GPGGA,162423.750,4300.2396,N,07848.7095,W,2,09,1.08,179.9,M,-34.5,M,0000,0000*57
lng=-78.811820, lat=43.003993, altitude=179.80, speed=0.00, satellites=9, angle=318.5700, fixquality=2
$GPRMC,162424.000,A,4300.2396,N,07848.7095,W,0.00,82.32,190519,,,D*41
$GPGGA,162424.250,4300.2396,N,07848.7096,W,2,09,1.08,179.9,M,-34.5,M,0000,0000*56
lng=-78.811820, lat=43.003993, altitude=179.90, speed=0.00, satellites=9, angle=82.3200, fixquality=2
$GPRMC,162424.500,A,4300.2395,N,07848.7096,W,0.00,73.55,190519,,,D*4B
$GPGGA,162424.750,4300.2395,N,07848.7096,W,2,09,1.08,180.0,M,-34.5,M,0000,0000*5F
lng=-78.811820, lat=43.003986, altitude=179.90, speed=0.00, satellites=9, angle=73.5500, fixquality=2
$GPRMC,162425.000,A,4300.2395,N,07848.7096,W,0.00,144.48,190519,,,D*76
$GPGGA,162425.250,4300.2395,N,07848.7096,W,2,09,1.08,180.1,M,-34.5,M,0000,0000*5A
lng=-78.811820, lat=43.003986, altitude=180.00, speed=0.00, satellites=9, angle=144.4800, fixquality=2
$GPRMC,162425.500,A,4300.2395,N,07848.7096,W,0.01,99.02,190519,,,D*4D
$GPGGA,162425.750,4300.2395,N,07848.7096,W,2,09,1.08,180.2,M,-34.5,M,0000,0000*5C
lng=-78.811820, lat=43.003986, altitude=180.10, speed=0.01, satellites=9, angle=99.0200, fixquality=2
$GPRMC,162426.000,A,4300.2395,N,07848.7096,W,0.01,227.32,190519,,,D*7F
$GPGGA,162426.250,4300.2395,N,07848.7097,W,2,09,1.08,180.3,M,-34.5,M,0000,0000*5A
lng=-78.811820, lat=43.003986, altitude=180.20, speed=0.01, satellites=9, angle=227.3200, fixquality=2
$GPRMC,162426.500,A,4300.2395,N,07848.7097,W,0.01,127.55,190519,,,D*79
$GPGGA,162426.750,4300.2394,N,07848.7097,W,2,09,1.08,180.5,M,-34.5,M,0000,0000*58
lng=-78.811820, lat=43.003986, altitude=180.30, speed=0.01, satellites=9, angle=127.5500, fixquality=2
$GPRMC,162427.000,A,4300.2394,N,07848.7097,W,0.00,343.40,190519,,,D*79
$GPGGA,162427.250,4300.2394,N,07848.7098,W,2,09,1.08,180.6,M,-34.5,M,0000,0000*50
lng=-78.811820, lat=43.003986, altitude=180.50, speed=0.00, satellites=9, angle=343.4000, fixquality=2
$GPRMC,162427.500,A,4300.2394,N,07848.7098,W,0.00,11.35,190519,,,D*45
$GPGGA,162427.750,4300.2394,N,07848.7098,W,2,08,1.18,180.7,M,-34.5,M,0000,0000*54
lng=-78.811836, lat=43.003986, altitude=180.60, speed=0.00, satellites=9, angle=11.3500, fixquality=2
$GPRMC,162428.000,A,4300.2394,N,07848.7098,W,0.00,8.44,190519,,,D*71
$GPGGA,162428.250,4300.2394,N,07848.7098,W,2,08,1.18,180.8,M,-34.5,M,0000,0000*51
lng=-78.811836, lat=43.003986, altitude=180.70, speed=0.00, satellites=8, angle=8.4400, fixquality=2
$GPRMC,162428.500,A,4300.2394,N,07848.7099,W,0.01,6.83,190519,,,D*71
$GPGGA,162428.750,4300.2394,N,07848.7099,W,2,08,1.18,180.9,M,-34.5,M,0000,0000*54
lng=-78.811836, lat=43.003986, altitude=180.80, speed=0.01, satellites=8, angle=6.8300, fixquality=2
$GPRMC,162429.000,A,4300.2394,N,07848.7099,W,0.00,311.55,190519,,,D*7A
$GPGGA,162429.250,4300.2393,N,07848.7099,W,2,08,1.18,181.0,M,-34.5,M,0000,0000*5F
lng=-78.811836, lat=43.003986, altitude=180.90, speed=0.00, satellites=8, angle=311.5500, fixquality=2
$GPRMC,162429.500,A,4300.2393,N,07848.7099,W,0.00,185.32,190519,,,D*76
$GPGGA,162429.750,4300.2393,N,07848.7100,W,2,09,1.08,181.2,M,-34.5,M,0000,0000*59
lng=-78.811836, lat=43.003986, altitude=181.00, speed=0.00, satellites=8, angle=185.3200, fixquality=2
$GPRMC,162430.000,A,4300.2393,N,07848.7100,W,0.01,233.80,190519,,,D*7C
$GPGGA,162430.250,4300.2393,N,07848.7100,W,2,09,1.08,181.3,M,-34.5,M,0000,0000*55
lng=-78.811836, lat=43.003986, altitude=181.20, speed=0.01, satellites=9, angle=233.8000, fixquality=2
$GPRMC,162430.500,A,4300.2393,N,07848.7101,W,0.01,300.28,190519,,,D*7B
$GPGGA,162430.750,4300.2393,N,07848.7101,W,2,09,1.08,181.4,M,-34.5,M,0000,0000*56
lng=-78.811836, lat=43.003986, altitude=181.30, speed=0.01, satellites=9, angle=300.2800, fixquality=2
$GPRMC,162431.000,A,4300.2393,N,07848.7101,W,0.00,298.95,190519,,,D*78
$GPGGA,162431.250,4300.2392,N,07848.7101,W,2,09,1.08,181.5,M,-34.5,M,0000,0000*52
lng=-78.811836, lat=43.003986, altitude=181.40, speed=0.00, satellites=9, angle=298.9500, fixquality=2
$GPRMC,162431.500,A,4300.2392,N,07848.7101,W,0.00,164.94,190519,,,D*7D
$GPGGA,162431.750,4300.2392,N,07848.7102,W,2,09,1.08,181.5,M,-34.5,M,0000,0000*54
lng=-78.811836, lat=43.003986, altitude=181.50, speed=0.00, satellites=9, angle=164.9400, fixquality=2
$GPRMC,162432.000,A,4300.2392,N,07848.7102,W,0.00,260.57,190519,,,D*70
$GPGGA,162432.250,4300.2392,N,07848.7102,W,2,09,1.08,181.6,M,-34.5,M,0000,0000*51
lng=-78.811836, lat=43.003986, altitude=181.50, speed=0.00, satellites=9, angle=260.5700, fixquality=2
$GPRMC,162432.500,A,4300.2392,N,07848.7102,W,0.01,70.12,190519,,,D*46
$GPGGA,162432.750,4300.2392,N,07848.7102,W,2,09,1.08,181.7,M,-34.5,M,0000,0000*55
lng=-78.811836, lat=43.003986, altitude=181.60, speed=0.01, satellites=9, angle=70.1200, fixquality=2
$GPRMC,162433.000,A,4300.2392,N,07848.7102,W,0.01,167.90,190519,,,D*7F
$GPGGA,162433.250,4300.2392,N,07848.7102,W,2,09,1.08,181.7,M,-34.5,M,0000,0000*51
lng=-78.811836, lat=43.003986, altitude=181.70, speed=0.01, satellites=9, angle=167.9000, fixquality=2
$GPRMC,162433.500,A,4300.2392,N,07848.7102,W,0.01,21.65,190519,,,D*43
$GPGGA,162433.750,4300.2391,N,07848.7103,W,2,09,1.08,181.8,M,-34.5,M,0000,0000*59
lng=-78.811836, lat=43.003986, altitude=181.70, speed=0.01, satellites=9, angle=21.6500, fixquality=2
$GPRMC,162434.000,A,4300.2391,N,07848.7103,W,0.01,161.40,190519,,,D*71
$GPGGA,162434.250,4300.2391,N,07848.7103,W,2,09,1.08,181.9,M,-34.5,M,0000,0000*5A
lng=-78.811843, lat=43.003986, altitude=181.80, speed=0.01, satellites=9, angle=161.4000, fixquality=2
$GPRMC,162434.500,A,4300.2391,N,07848.7103,W,0.00,316.28,190519,,,D*79
$GPGGA,162434.750,4300.2391,N,07848.7103,W,2,09,1.08,182.0,M,-34.5,M,0000,0000*55
lng=-78.811843, lat=43.003986, altitude=181.90, speed=0.00, satellites=9, angle=316.2800, fixquality=2
$GPRMC,162435.000,A,4300.2391,N,07848.7103,W,0.02,245.52,190519,,,D*75
$GPGGA,162435.250,4300.2391,N,07848.7103,W,2,09,1.08,182.1,M,-34.5,M,0000,0000*50
lng=-78.811843, lat=43.003986, altitude=182.00, speed=0.02, satellites=9, angle=245.5200, fixquality=2
$GPRMC,162435.500,A,4300.2391,N,07848.7103,W,0.00,168.91,190519,,,D*71
$GPGGA,162435.750,4300.2391,N,07848.7103,W,2,09,1.08,182.2,M,-34.5,M,0000,0000*56
lng=-78.811843, lat=43.003986, altitude=182.10, speed=0.00, satellites=9, angle=168.9100, fixquality=2
$GPRMC,162436.000,A,4300.2391,N,07848.7103,W,0.00,151.46,190519,,,D*77
$GPGGA,162436.250,4300.2391,N,07848.7103,W,2,09,1.08,182.2,M,-34.5,M,0000,0000*50
lng=-78.811843, lat=43.003986, altitude=182.20, speed=0.00, satellites=9, angle=151.4600, fixquality=2
$GPRMC,162436.500,A,4300.2391,N,07848.7103,W,0.01,337.79,190519,,,D*7D
$GPGGA,162436.750,4300.2391,N,07848.7103,W,2,09,1.08,182.4,M,-34.5,M,0000,0000*53
lng=-78.811843, lat=43.003986, altitude=182.20, speed=0.01, satellites=9, angle=337.7900, fixquality=2
$GPRMC,162437.000,A,4300.2390,N,07848.7103,W,0.00,225.68,190519,,,D*7B
$GPGGA,162437.250,4300.2390,N,07848.7103,W,2,09,1.08,182.5,M,-34.5,M,0000,0000*57
lng=-78.811843, lat=43.003978, altitude=182.40, speed=0.00, satellites=9, angle=225.6800, fixquality=2
$GPRMC,162437.500,A,4300.2390,N,07848.7103,W,0.01,1.69,190519,,,D*7A
$GPGGA,162437.750,4300.2390,N,07848.7103,W,2,09,1.08,182.5,M,-34.5,M,0000,0000*52
lng=-78.811843, lat=43.003978, altitude=182.50, speed=0.01, satellites=9, angle=1.6900, fixquality=2
$GPRMC,162438.000,A,4300.2390,N,07848.7103,W,0.00,58.57,190519,,,D*40
$GPGGA,162438.250,4300.2390,N,07848.7103,W,2,09,1.08,182.5,M,-34.5,M,0000,0000*58
lng=-78.811843, lat=43.003978, altitude=182.50, speed=0.00, satellites=9, angle=58.5700, fixquality=2
$GPRMC,162438.500,A,4300.2390,N,07848.7103,W,0.01,339.34,190519,,,D*75
$GPGGA,162438.750,4300.2390,N,07848.7103,W,2,09,1.08,182.5,M,-34.5,M,0000,0000*5D
lng=-78.811843, lat=43.003978, altitude=182.50, speed=0.01, satellites=9, angle=339.3400, fixquality=2
$GPRMC,162439.000,A,4300.2390,N,07848.7103,W,0.01,327.70,190519,,,D*7E
$GPGGA,162439.250,4300.2390,N,07848.7103,W,2,09,1.08,182.5,M,-34.5,M,0000,0000*59
lng=-78.811843, lat=43.003978, altitude=182.50, speed=0.01, satellites=9, angle=327.7000, fixquality=2
$GPRMC,162439.500,A,4300.2390,N,07848.7103,W,0.00,209.68,190519,,,D*7E
$GPGGA,162439.750,4300.2390,N,07848.7103,W,2,09,1.08,182.5,M,-34.5,M,0000,0000*5C
lng=-78.811843, lat=43.003978, altitude=182.50, speed=0.00, satellites=9, angle=209.6800, fixquality=2
$GPRMC,162440.000,A,4300.2390,N,07848.7103,W,0.01,356.03,190519,,,D*72
$GPGGA,162440.250,4300.2390,N,07848.7103,W,2,09,1.08,182.5,M,-34.5,M,0000,0000*57
lng=-78.811843, lat=43.003978, altitude=182.50, speed=0.01, satellites=9, angle=356.0300, fixquality=2
$GPRMC,162440.500,A,4300.2390,N,07848.7103,W,0.01,317.53,190519,,,D*77
$GPGGA,162440.750,4300.2390,N,07848.7103,W,2,09,1.08,182.5,M,-34.5,M,0000,0000*52
lng=-78.811843, lat=43.003978, altitude=182.50, speed=0.01, satellites=9, angle=317.5300, fixquality=2
$GPRMC,162441.000,A,4300.2390,N,07848.7103,W,0.00,57.41,190519,,,D*46
$GPGGA,162441.250,4300.2390,N,07848.7103,W,2,09,1.08,182.5,M,-34.5,M,0000,0000*56
lng=-78.811843, lat=43.003978, altitude=182.50, speed=0.00, satellites=9, angle=57.4100, fixquality=2
$GPRMC,162441.500,A,4300.2390,N,07848.7103,W,0.00,303.02,190519,,,D*76
$GPGGA,162441.750,4300.2390,N,07848.7103,W,2,09,1.08,182.5,M,-34.5,M,0000,0000*53
lng=-78.811843, lat=43.003978, altitude=182.50, speed=0.00, satellites=9, angle=303.0200, fixquality=2
$GPRMC,162442.000,A,4300.2390,N,07848.7103,W,0.00,0.14,190519,,,D*77
$GPGGA,162442.250,4300.2390,N,07848.7103,W,2,09,1.08,182.5,M,-34.5,M,0000,0000*55
lng=-78.811843, lat=43.003978, altitude=182.50, speed=0.00, satellites=9, angle=0.1400, fixquality=2
$GPRMC,162442.500,A,4300.2390,N,07848.7103,W,0.00,126.33,190519,,,D*72
$GPGGA,162442.750,4300.2390,N,07848.7103,W,2,09,1.08,182.5,M,-34.5,M,0000,0000*50
lng=-78.811843, lat=43.003978, altitude=182.50, speed=0.00, satellites=9, angle=126.3300, fixquality=2
$GPRMC,162443.000,A,4300.2390,N,07848.7103,W,0.01,308.11,190519,,,D*79
$GPGGA,162443.250,4300.2390,N,07848.7103,W,2,09,1.08,182.5,M,-34.5,M,0000,0000*54
lng=-78.811843, lat=43.003978, altitude=182.50, speed=0.01, satellites=9, angle=308.1100, fixquality=2
$GPRMC,162443.500,A,4300.2390,N,07848.7103,W,0.01,146.72,190519,,,D*71
$GPGGA,162443.750,4300.2390,N,07848.7103,W,2,09,1.08,182.5,M,-34.5,M,0000,0000*51
lng=-78.811843, lat=43.003978, altitude=182.50, speed=0.01, satellites=9, angle=146.7200, fixquality=2
$GPRMC,162444.000,A,4300.2390,N,07848.7103,W,0.01,180.09,190519,,,D*75
$GPGGA,162444.250,4300.2390,N,07848.7103,W,2,09,1.08,182.5,M,-34.5,M,0000,0000*53
lng=-78.811843, lat=43.003978, altitude=182.50, speed=0.01, satellites=9, angle=180.0900, fixquality=2
$GPRMC,162444.500,A,4300.2390,N,07848.7103,W,0.00,287.47,190519,,,D*7F
$GPGGA,162444.750,4300.2390,N,07848.7103,W,2,09,1.08,182.5,M,-34.5,M,0000,0000*56
lng=-78.811843, lat=43.003978, altitude=182.50, speed=0.00, satellites=9, angle=287.4700, fixquality=2
$GPRMC,162445.000,A,4300.2390,N,07848.7103,W,0.01,172.81,190519,,,D*79
$GPGGA,162445.250,4300.2390,N,07848.7103,W,2,09,1.08,182.5,M,-34.5,M,0000,0000*52
lng=-78.811843, lat=43.003978, altitude=182.50, speed=0.01, satellites=9, angle=172.8100, fixquality=2
$GPRMC,162445.500,A,4300.2390,N,07848.7103,W,0.00,80.34,190519,,,D*4F
$GPGGA,162445.750,4300.2390,N,07848.7103,W,2,09,1.08,182.5,M,-34.5,M,0000,0000*57
lng=-78.811843, lat=43.003978, altitude=182.50, speed=0.00, satellites=9, angle=80.3400, fixquality=2
$GPRMC,162446.000,A,4300.2390,N,07848.7103,W,0.01,147.71,190519,,,D*73
$GPGGA,162446.250,4300.2390,N,07848.7103,W,2,09,1.08,182.5,M,-34.5,M,0000,0000*51
