Vers 81
USE_SERIAL_FEEDBACK=true
DEVELOPMENT_MODE=false
USE_RMC_ONLY=false

$GPRMC,120203.250,A,4308.3011,N,07726.2629,W,0.25,347.22,121019,,,A*73
$GPGGA,120203.500,4308.3011,N,07726.2628,W,1,05,2.41,155.0,M,-34.4,M,,*52
$GPGGA,120204.000,4308.3010,N,07726.2628,W,1,05,2.41,155.0,M,-34.4,M,,*51
$GPRMC,120204.000,A,4308.3010,N,07726.2628,W,0.04,68.85,121019,,,A*43
$GPRMC,120204.500,A,4308.3008,N,07726.2629,W,0.06,11.36,121019,,,A*4A
$GPGGA,120204.750,4308.3008,N,07726.2629,W,1,05,2.41,154.6,M,-34.4,M,,*5C
$GPGGA,120205.250,4308.3008,N,07726.2631,W,1,05,2.04,154.4,M,-34.4,M,,*52
$GPRMC,120205.250,A,4308.3008,N,07726.2631,W,0.06,16.38,121019,4.4,M,-34.4,M,,*50
$GPRMC,120205.500,A,4308.3008,N,07726.2631,W,0.05,0.64,121019,,
$GPGGA,120206.000,4308.3009,N,07726.2632,W,1,05,2.04,154.3,M,-34.4,M,,*53
$GPGGA,120206.500,4308.3009,N,07726.2632,W,1,05,2.04,154.2,M,-34.4,M,,*57
$GPRMC,120206.500,A,4308.3009,N,07726.2632,W,0.03,181.36,121019,,A*7E
$GPRMC,120207.000,A,4308.3010,N,07726.2633,W,0.09,245.91,121019,,,A*7F
$GPGGA,120207.250,4308.3011,N,07726.2634,W,1,05,2.04,154.2,M,-34.4,M,,*5B
$GPRMC,120207.750,A,4308.3013,N,07726.2635,W,0.19,294.49,121019,,,A*70
$GPGGA,120208.000,4308.3014,N,07726.2635,W,1,05,2.04,154.2,M,-34.4,M,,*57
$GPGGA,120208.500,4308.3017,N,07726.2636,W,1,05,2.04,154.4,M,-34.4,M,,*54
$GPRMC,120208.500,A,4308.3017,N,07726.2636,W,0.32,326.54,121019,,,A*72
$GPRMC,120209.000,A,4308.3019,N,07726.2637,W,0.42,342.34,121019,,,A*7A
$GPGGA,120209.250,4308.3020,N,07726.2637,W,1,05,2.04,154.6,M,-34.4,M,,*50
$GPRMC,120209.250,A,4308.3020,N,07726.2637,W,0.42,352.22,1210197D
$GPGGA,120209.750,4308.3021,N,07726.2637,W,1,05,2.41,154.6,M,-3M,,*55
$GPRMC,120210.250,A,4308.3022,N,07726.2638,W,0.34,340.56,121019,,,A*75
$GPGGA,120210.500,4308.3022,N,07726.2638,W,1,05,2.04,154.7,M,-34.4,M,,*56
$GPRMC,120211.000,A,4308.3023,N,07726.2639,W,0.30,322.55,121019,,,A*70
$GPGGA,120211.250,4308.3023,N,07726.2639,W,1,05,2.04,154.9,M,-34.4,M,,*5B
$GPGGA,120211.750,4308.3024,N,07726.2639,W,1,05,2.04,155.0,M,-34.4,M,,*51
$GPRMC,120211.750,A,4308.3024,N,07726.2639,W,0.27,327.70,121019,,,A*71
$GPRMC,120212.250,A,4308.3024,N,07726.2639,W,0.23,332.62,121019,,,A*74
$GPGGA,120212.500,4308.3024,N,07726.2640,W,1,05,2.04,155.1,M,-34.4,M,,*5A
$GPGGA,120213.000,4308.3024,N,07726.2639,W,1,05,2.04,155.2,M,-34.4,M,,*53
$GPRMC,120213.000,A,4308.3024,N,07726.2639,W,0.18,301.08,121019,,,A*76
$GPRMC,120213.500,A,4308.3024,N,07726.2639,W,0.14,291.35,121019,,,A*79
$GPGGA,120213.750,4308.3024,N,07726.2639,W,1,05,2.04,155.4,M,-34.4,M,,*57
$GPGGA,120214.250,4308.3025,N,07726.2639,W,1,05,2.41,155.5,M,-34.4,M,,*54
$GPRMC,120214.250,A,4308.3025,N,07726.2639,W,0.11,357.64,121019M,-34.4,M,,*55
$GPRMC,120215.000,A,4308.3026,N,07726.2639,W,0.12,303.90,121019,,,A*7B
$GPGGA,120215.250,4308.3027,N,07726.2639,W,1,05,2.04,155.7,M,-34.4,M,,*54
$GPGGA,120215.750,4308.3028,N,07726.2640,W,1,05,2.04,155.8,M,-34.4,M,,*5F
$GPRMC,120215.750,A,4308.3028,N,07726.2640,W,0.21,355.24,121019,,,A*75
$GPRMC,120216.250,A,4308.3030,N,07726.2640,W,0.22,351.01,121019,,,A*7A
$GPGGA,120216.500,4308.3032,N,07726.2641,W,1,05,2.41,156.0,M,-34.4,M,,*5B
$GPRMC,120217.000,A,4308.3033,N,07726.2642,W,0.24,345.99,121019,,,A*7F
$GPGGA,120217.250,4308.3034,N,07726.2642,W,1,05,2.41,156.3,M,-34.4,M,,*5E
$GPRMC,120217.250,A,4308.3034,N,07726.2642,W,0.24,343.11,1210196
$GPGGA,120217.750,4308.3037,N,07726.2643,W,1,05,2.04,156.5,M,-34.4,M,,*5E
$GPGGA,120218.250,4308.3040,N,07726.2645,W,1,05,2.04,156.7,M,-34.4,M,,*50
$GPRMC,120218.250,A,4308.3040,N,07726.2645,W,0.35,337.90,121019,,,A*78
$GPRMC,120218.750,A,4308.3042,N,07726.2646,W,0.39,329.70,121019,,,A*71
$GPGGA,120219.000,4308.3046,N,07726.2649,W,1,05,2.04,157.1,M,-3C,120219.000,A,4308.3046,N,07726.2649,W,0.48,325.34,121019,,,A*73
$GPRMC,120219.500,A,4308.3049,N,07726.2650,W,0.53,332.27,121019,,,A*7F
$GPGGA,120219.750,4308.3052,N,07726.2652,W,1,05,2.04,157.5,M,-34.4,M,,*52
$GPGGA,120220.250,4308.3055,N,07726.2654,W,1,05,2.04,157.8,M,-34.4,M,,*51
$GPRMC,120220.250,A,4308.3055,N,07726.2654,W,0.59,327.47,121019,,,A*76
$GPRMC,120220.750,A,4308.3056,N,07726.2655,W,0.53,320.21,121019,,,A*7C
$GPGGA,120221.000,4308.3057,N,07726.2655,W,1,05,2.04,158.1,M,-34.4,M,,*52
$GPRMC,120221.500,A,4308.3059,N,07726.2657,W,0.53,314.73,121019,,,A*77
$GPGGA,120221.750,4308.3061,N,07726.2658,W,1,05,2.04,158.5,M,-34.4,M,,*5C
$GPGGA,120222.250,4308.3063,N,07726.2659,W,1,05,2.04,158.7,M,-34.4,M,,*5B
$GPRMC,120222.250,A,4308.3063,N,07726.2659,W,0.55,314.18,121019,,,A*7A
$GPRMC,120222.750,A,4308.3063,N,07726.2659,W,0.43,321.40,121019,,,A*73
$GPGGA,120223.000,4308.3062,N,07726.2658,W,1,05,2.04,159.1,M,-34.4,M,,*5A
$GPRMC,120223.500,A,4308.3064,N,07726.2658,W,0.30,336.64,121019,,,A*77
$GPGGA,120223.750,4308.3066,N,07726.2659,W,1,05,2.04,159.4,M,-34.4,M,,*58
$GPGGA,120224.250,4308.3068,N,07726.2661,W,1,05,2.04,159.7,M,-34.4,M,,*5C
$GPRMC,120224.250,A,4308.3068,N,07726.2661,W,0.38,338.71,121019,,,A*76
$GPRMC,120224.750,A,4308.3068,N,07726.2661,W,0.25,318.98,121019,,,A*7A
$GPGGA,120225.000,4308.3068,N,07726.2661,W,1,05,2.04,160.2,M,-34.4,M,,*55
$GPGGA,120225.500,4308.3070,N,07726.2661,W,1,05,2.05,160.5,M,-34.4,M,,*5F
$GPRMC,120225.500,A,4308.3070,N,07726.2661,W,0.24,337.84,1210196,M,-34.4,M,,*59
$GPRMC,120226.250,A,4308.3072,N,07726.2663,W,0.28,324.03,121019,,,A*74
$GPGGA,120226.500,4308.3073,N,07726.2664,W,1,06,1.71,161.0,M,-34.4,M,,*5D
$GPGGA,120227.000,4308.3074,N,07726.2664,W,1,06,1.71,161.2,M,-34.4,M,,*5C
$GPRMC,120227.000,A,4308.3074,N,07726.2664,W,0.25,323.72,121019,,,A*7F
$GPRMC,120227.500,A,4308.3075,N,07726.2664,W,0.26,332.23,121019,,,A*7C
$GPGGA,120227.750,4308.3075,N,07726.2665,W,1,06,1.71,161.6,M,-34.4,M,,*5A
$GPRMC,120228.250,A,4308.3076,N,07726.2665,W,0.32,326.19,121019,,,A*7A
$GPGGA,120228.500,4308.3076,N,07726.2666,W,1,06,1.71,161.8,M,-34.4,M,,*5C
$GPGGA,120229.000,4308.3077,N,07726.2666,W,1,06,1.71,162.1,M,-34.4,M,,*53
$GPRMC,120229.000,A,4308.3077,N,07726.2666,W,0.31,314.80,121019,,,A*7C
$GPRMC,120229.500,A,4308.3077,N,07726.2666,W,0.26,312.15,121019,,,A*75
$GPGGA,120229.750,4308.3077,N,07726.2666,W,1,06,1.71,162.2,M,-34.4,M,,*52
$GPGGA,120230.250,4308.3077,N,07726.2666,W,1,06,1.71,162.2,M,-34.4,M,,*5F
$GPRMC,120230.250,A,4308.3077,N,07726.2666,W,0.12,322.59,1210192,M,-34.4,M,,*5D
$GPRMC,120231.000,A,4308.3078,N,07726.2666,W,0.11,6.27,121019,,,A*75
$GPGGA,120231.250,4308.3078,N,07726.2666,W,1,06,2.04,162.2,M,-34.4,M,,*50
$GPGGA,120231.750,4308.3078,N,07726.2666,W,1,06,1.71,162.2,M,-34.4,M,,*54
$GPRMC,120231.750,A,4308.3078,N,07726.2666,W,0.14,308.52,121019,,A*7D
$GPRMC,120232.250,A,4308.3078,N,07726.2667,W,0.20,329.16,121019,,,A*7E
$GPGGA,120232.500,4308.3078,N,07726.2667,W,1,06,1.71,162.2,M,-34.4,M,,*51
$GPRMC,120233.000,A,4308.3078,N,07726.2667,W,0.22,347.13,121019,,,A*77
$GPGGA,120233.250,4308.3078,N,07726.2667,W,1,06,2.04,162.3,M,-34.4,M,,*52
$GPGGA,120233.750,4308.3079,N,07726.2667,W,1,06,1.71,162.3,M,-34.4,M,,*57
$GPRMC,120233.750,A,4308.3079,N,07726.2667,W,0.26,1.12,121019,,A*70
$GPRMC,120234.250,A,4308.3079,N,07726.2667,W,0.37,13.07,121019,,,A*45
$GPGGA,120234.500,4308.3079,N,07726.2667,W,1,06,2.04,162.3,M,-34.4,M,,*56
$GPGGA,120235.000,4308.3080,N,07726.2667,W,1,06,2.05,162.3,M,-34.4,M,,*55
$GPRMC,120235.000,A,4308.3080,N,07726.2667,W,0.17,350.37,121019,,,A*70
$GPGGA,120235.750,4308.3080,N,07726.2667,W,1,06,1.71,162.3,M,-34.4,M,,*57
$GPRMC,120235.750,A,4308.3080,N,07726.2667,W,0.05,2.91,121019,,,A*79
$GPRMC,120236.250,A,4308.3080,N,07726.2667,W,0.03,352.61,121019,,,A*70
$GPGGA,120236.500,4308.3080,N,07726.2667,W,1,06,2.04,162.3,M,-34.4,M,,*52
$GPGGA,120237.000,4308.3080,N,07726.2667,W,1,06,1.71,162.3,M,-34.4,M,,*57
$GPRMC,120237.000,A,4308.3080,N,07726.2667,W,0.12,239.43,121019,,,A*7A
$GPRMC,120237.500,A,4308.3080,N,07726.2667,W,0.13,217.44,121019,,,A*75
$GPGGA,120237.750,4308.3080,N,07726.2667,W,1,06,1.71,162.3,M,-3.4,M,,*55
$GPRMC,120237.750,A,4308.3080,N,07726.2667,W,0.12,160.58,121019
$GPGGA,120238.250,4308.3080,N,07726.2667,W,1,06,1.71,162.3,M,-34.4,M,,*5F
$GPRMC,120238.250,A,4308.3080,N,07726.2667,W,0.13,162.73,121019
$GPGGA,120238.750,4308.3079,N,07726.2667,W,1,06,1.71,162.3,M,-34.4,M,,*5C
$GPGGA,120239.250,4308.3079,N,07726.2667,W,1,06,1.71,162.3,M,-34.4,M,,*58
$GPRMC,120239.250,A,4308.3079,N,07726.2667,W,0.07,230.18,121019,,,A*76
$GPRMC,120239.750,A,4308.3079,N,07726.2667,W,0.02,90.10,121019,,,A*46
$GPGGA,120240.000,4308.3079,N,07726.2667,W,1,06,1.71,162.3,M,-34.4,M,,*51
$GPGGA,120240.500,4308.3079,N,07726.2667,W,1,06,1.71,162.3,M,-34.4,M,,*54
$GPRMC,120240.500,A,4308.3079,N,07726.2667,W,0.06,153.98,121019,,,A*75
$GPRMC,120241.000,A,4308.3079,N,07726.2667,W,0.02,240.09,121019,,,A*7C
$GPGGA,120241.250,4308.3079,N,07726.2667,W,1,06,1.71,162.3,M,-34.4,M,,*57
$GPGGA,120241.750,4308.3079,N,07726.2667,W,1,06,1.71,162.3,M,-34.4,M,,*52
$GPRMC,120241.750,A,4308.3079,N,07726.2667,W,0.07,200.00,121019M,-34.4,M,,*53
$GPRMC,120242.500,A,4308.3079,N,07726.2667,W,0.11,160.35,121019,,,A*76
$GPGGA,120242.750,4308.3079,N,07726.2667,W,1,06,1.71,162.3,M,-34.4,M,,*51
$GPRMC,120243.250,A,4308.3079,N,07726.2666,W,0.19,149.99,121019,,,A*71
$GPGGA,120243.500,4308.3078,N,07726.2666,W,1,06,1.71,162.3,M,-34.4,M,,*57
$GPGGA,120244.000,4308.3078,N,07726.2666,W,1,06,1.71,162.3,M,-34.4,M,,*55
$GPRMC,120244.000,A,4308.3078,N,07726.2666,W,0.14,178.56,121019,,,A*7C
$GPRMC,120244.500,A,4308.3078,N,07726.2666,W,0.06,201.78,121019,,,A*7B
$GPGGA,120244.750,4308.3078,N,07726.2666,W,1,06,1.71,162.3,M,-34.4,M,,*57
$GPRMC,120244.750,A,4308.3078,N,07726.2666,W,0.04,21.74,121019
$GPGGA,120245.250,4308.3078,N,07726.2666,W,1,06,2.04,162.3,M,-34.4,M,,*52
$GPGGA,120245.750,4308.3078,N,07726.2666,W,1,06,1.71,162.3,M,-34.4,M,,*56
$GPRMC,120245.750,A,4308.3078,N,07726.2666,W,0.14,316.96,121019,,A*79
$GPRMC,120246.250,A,4308.3078,N,07726.2667,W,0.16,293.65,121019,,,A*7C
$GPGGA,120246.500,4308.3078,N,07726.2667,W,1,06,1.71,162.3,M,-34.4,M,,*53
$GPRMC,120247.000,A,4308.3078,N,07726.2667,W,0.06,63.04,121019,,,A*41
$GPGGA,120247.250,4308.3078,N,07726.2667,W,1,06,1.71,162.3,M,-34.4,M,,*50
$GPGGA,120247.750,4308.3078,N,07726.2667,W,1,06,1.71,162.3,M,-34.4,M,,*55
$GPRMC,120247.750,A,4308.3078,N,07726.2667,W,0.01,50.56,121019,,A*43
$GPRMC,120248.250,A,4308.3078,N,07726.2666,W,0.12,60.31,121019,,,A*48
$GPGGA,120248.500,4308.3078,N,07726.2666,W,1,06,1.71,162.3,M,-34.4,M,,*5C
$GPRMC,120249.000,A,4308.3078,N,07726.2666,W,0.07,108.37,121019,,,A*73
$GPGGA,120249.250,4308.3078,N,07726.2666,W,1,06,1.71,162.3,M,-34.4,M,,*5F
$GPGGA,120249.750,4308.3078,N,07726.2666,W,1,06,1.71,162.3,M,-34.4,M,,*5A
$GPRMC,120249.750,A,4308.3078,N,07726.2666,W,0.11,137.56,121019,,A*7D
$GPRMC,120250.250,A,4308.3078,N,07726.2666,W,0.14,179.46,121019,,,A*7E
$GPGGA,120250.500,4308.3078,N,07726.2666,W,1,06,1.71,162.4,M,-34.4,M,,*52
$GPGGA,120251.000,4308.3078,N,07726.2666,W,1,06,1.71,162.4,M,-34.4,M,,*56
$GPRMC,120251.000,A,4308.3078,N,07726.2666,W,0.15,169.58,121019,-34.4,M,,*51
$GPRMC,120251.750,A,4308.3077,N,07726.2666,W,0.11,228.58,121019,,,A*78
$GPGGA,120252.000,4308.3077,N,07726.2666,W,1,06,1.71,162.4,M,-34.4,M,,*5A
$GPGGA,120252.500,4308.3077,N,07726.2666,W,1,06,1.71,162.4,M,-34.4,M,,*5F
$GPRMC,120252.500,A,4308.3077,N,07726.2666,W,0.03,133.44,121019,,A*7B
$GPRMC,120253.000,A,4308.3077,N,07726.2666,W,0.10,74.41,121019,,,A*4A
$GPGGA,120253.250,4308.3077,N,07726.2666,W,1,06,1.71,162.4,M,-34.4,M,,*5C
$GPRMC,120253.750,A,4308.3077,N,07726.2665,W,0.15,111.02,121019,,,A*7B
$GPGGA,120254.000,4308.3077,N,07726.2665,W,1,06,1.71,162.4,M,-34.4,M,,*5F
$GPRMC,120254.000,A,4308.3077,N,07726.2665,W,0.15,153.82,12101973
$GPGGA,120254.500,4308.3077,N,07726.2665,W,1,06,1.71,162.4,M,-34.4,M,,*5A
$GPGGA,120255.000,4308.3077,N,07726.2665,W,1,06,1.71,162.4,M,-34.4,M,,*5E
$GPRMC,120255.000,A,4308.3077,N,07726.2665,W,0.08,143.08,121019,,,A*7E
$GPRMC,120255.500,A,4308.3077,N,07726.2665,W,0.12,142.16,121019,,,A*7E
$GPGGA,120255.750,4308.3077,N,07726.2665,W,1,06,1.71,162.4,M,-34,M,,*5C
$GPRMC,120256.250,A,4308.3076,N,07726.2665,W,0.15,118.17,121019,,,A*77
$GPGGA,120256.500,4308.3076,N,07726.2664,W,1,06,1.71,162.4,M,-34.4,M,,*58
$GPRMC,120256.500,A,4308.3076,N,07726.2664,W,0.20,126.25,1210197C
$GPGGA,120257.000,4308.3076,N,07726.2664,W,1,06,1.71,162.4,M,-34.4,M,,*5C
$GPGGA,120257.500,4308.3076,N,07726.2664,W,1,06,1.71,162.4,M,-34.4,M,,*59
$GPRMC,120257.500,A,4308.3076,N,07726.2664,W,0.11,118.20,121019,,,A*75
$GPRMC,120258.000,A,4308.3076,N,07726.2664,W,0.17,130.46,121019,,,A*73
$GPGGA,120258.250,4308.3076,N,07726.2663,W,1,06,1.71,162.3,M,-34,M,,*54
$GPRMC,120258.750,A,4308.3076,N,07726.2663,W,0.15,124.51,121019,,,A*77
$GPGGA,120259.000,4308.3075,N,07726.2663,W,1,06,1.71,162.3,M,-34.4,M,,*51
$GPRMC,120259.500,A,4308.3075,N,07726.2663,W,0.06,109.02,121019,,,A*79
$GPGGA,120259.750,4308.3075,N,07726.2663,W,1,06,1.71,162.3,M,-34.4,M,,*53
$GPGGA,120300.250,4308.3075,N,07726.2663,W,1,06,1.71,162.3,M,-34.4,M,,*5B
$GPRMC,120300.250,A,4308.3075,N,07726.2663,W,0.04,142.90,121019,,,A*70
$GPRMC,120300.750,A,4308.3075,N,07726.2662,W,0.07,122.26,121019,,,A*7C
$GPGGA,120301.000,4308.3075,N,07726.2662,W,1,06,1.71,162.3,M,-34.4,M,,*5C
$GPGGA,120301.500,4308.3075,N,07726.2662,W,1,06,1.71,162.3,M,-34.4,M,,*59
$GPRMC,120301.500,A,4308.3075,N,07726.2662,W,0.04,340.96,121019,,A*74
$GPRMC,120302.000,A,4308.3075,N,07726.2662,W,0.04,176.12,121019,,,A*79
$GPGGA,120302.250,4308.3075,N,07726.2662,W,1,06,1.71,162.3,M,-34.4,M,,*58
$GPGGA,120302.750,4308.3075,N,07726.2662,W,1,06,1.71,162.3,M,-34.4,M,,*5D
$GPRMC,120302.750,A,4308.3075,N,07726.2662,W,0.09,177.03,121019,-34.4,M,,*5E
$GPRMC,120303.500,A,4308.3075,N,07726.2662,W,0.03,194.42,121019,,,A*73
$GPGGA,120303.750,4308.3075,N,07726.2662,W,1,06,1.71,162.3,M,-34.4,M,,*5C
$GPGGA,120304.250,4308.3075,N,07726.2662,W,1,06,1.71,162.3,M,-34.4,M,,*5E
$GPRMC,120304.250,A,4308.3075,N,07726.2662,W,0.13,138.49,121019,,,A*7A
$GPRMC,120304.750,A,4308.3075,N,07726.2662,W,0.07,116.65,121019,,,A*78
$GPGGA,120305.000,4308.3075,N,07726.2662,W,1,06,1.71,162.3,M,-34.4,M,,*58
$GPRMC,120305.500,A,4308.3075,N,07726.2662,W,0.10,1.53,121019,,,A*7A
$GPGGA,120305.750,4308.3075,N,07726.2662,W,1,06,2.05,162.3,M,-34.4,M,,*5A
$GPGGA,120306.250,4308.3075,N,07726.2662,W,1,06,1.71,162.3,M,-34.4,M,,*5C
$GPRMC,120306.250,A,4308.3075,N,07726.2662,W,0.05,9.43,121019,,A*76
$GPRMC,120306.750,A,4308.3075,N,07726.2662,W,0.05,60.28,121019,,,A*41
$GPGGA,120307.000,4308.3075,N,07726.2662,W,1,06,1.71,162.3,M,-34.4,M,,*5A
$GPGGA,120307.500,4308.3075,N,07726.2661,W,1,06,1.71,162.3,M,-34.4,M,,*5C
$GPRMC,120307.500,A,4308.3075,N,07726.2661,W,0.14,96.64,121019,5B
$GPRMC,120308.250,A,4308.3075,N,07726.2661,W,0.17,57.39,121019,,,A*4E
$GPGGA,120308.500,4308.3075,N,07726.2661,W,1,06,1.71,162.3,M,-34.4,M,,*53
$GPGGA,120309.000,4308.3075,N,07726.2661,W,1,06,1.71,162.3,M,-34.4,M,,*57
$GPRMC,120309.000,A,4308.3075,N,07726.2661,W,0.07,101.96,121019,,,A*7E
$GPRMC,120309.500,A,4308.3075,N,07726.2660,W,0.07,8.71,121019,,,A*7B
$GPGGA,120309.750,4308.3075,N,07726.2660,W,1,06,2.05,162.3,M,-34.4,M,,*54
$GPRMC,120310.250,A,4308.3075,N,07726.2660,W,0.12,357.63,121019,,,A*7F
$GPGGA,120310.500,4308.3075,N,07726.2660,W,1,06,2.05,162.3,M,-34.4,M,,*5B
$GPGGA,120311.000,4308.3075,N,07726.2661,W,1,06,2.05,162.3,M,-34.4,M,,*5E
$GPRMC,120311.000,A,4308.3075,N,07726.2661,W,0.24,2.97,121019,,,A*75
$GPRMC,120311.500,A,4308.3076,N,07726.2660,W,0.20,19.86,121019,,,A*4C
$GPGGA,120311.750,4308.3076,N,07726.2660,W,1,06,1.71,162.3,M,-34.4,M,,*5E
$GPGGA,120312.250,4308.3076,N,07726.2660,W,1,06,2.05,162.3,M,-34.4,M,,*58
$GPRMC,120312.250,A,4308.3076,N,07726.2660,W,0.17,3.52,121019,,162.3,M,-34.4,M,,*5A
$GPRMC,120313.000,A,4308.3076,N,07726.2660,W,0.12,12.59,121019,,,A*43
$GPGGA,120313.250,4308.3076,N,07726.2660,W,1,06,2.05,162.3,M,-34.4,M,,*59
$GPGGA,120313.750,4308.3076,N,07726.2660,W,1,06,1.71,162.3,M,-34.4,M,,*5C
$GPRMC,120313.750,A,4308.3076,N,07726.2660,W,0.18,36.84,121019,,,A*4D
$GPRMC,120314.250,A,4308.3077,N,07726.2660,W,0.13,60.12,121019,,,A*49
$GPGGA,120314.500,4308.3077,N,07726.2660,W,1,06,1.71,162.3,M,-34.4,M,,*5D
$GPRMC,120315.000,A,4308.3077,N,07726.2659,W,0.13,62.78,121019,,,A*4B
$GPGGA,120315.250,4308.3077,N,07726.2659,W,1,06,1.71,162.3,M,-34.4,M,,*54
$GPGGA,120315.750,4308.3077,N,07726.2659,W,1,06,1.71,162.3,M,-34.4,M,,*51
$GPRMC,120315.750,A,4308.3077,N,07726.2659,W,0.05,123.81,121019,,,A*7C
$GPRMC,120316.250,A,4308.3077,N,07726.2659,W,0.14,157.00,121019,,,A*70
$GPGGA,120316.500,4308.3077,N,07726.2659,W,1,06,1.71,162.3,M,-34.4,M,,*55
$GPGGA,120317.000,4308.3076,N,07726.2659,W,1,06,1.71,162.3,M,-34.4,M,,*50
$GPRMC,120317.000,A,4308.3076,N,07726.2659,W,0.12,215.98,1210193,M,-34.4,M,,*57
$GPRMC,120317.250,A,4308.3076,N,07726.2659,W,0.13,220.48,12101
$GPGGA,120317.750,4308.3076,N,07726.2659,W,1,06,1.71,162.3,M,-34.4,M,,*52
$GPGGA,120318.250,4308.3076,N,07726.2659,W,1,06,1.71,162.2,M,-34.4,M,,*59
$GPRMC,120318.250,A,4308.3076,N,07726.2659,W,0.04,216.49,121019,,,A*75
$GPRMC,120318.750,A,4308.3076,N,07726.2659,W,0.11,88.11,121019,,,A*4C
$GPGGA,120319.000,4308.3076,N,07726.2659,W,1,06,1.71,162.2,M,-34.4,M,,*5F
$GPRMC,120319.500,A,4308.3076,N,07726.2659,W,0.11,67.28,121019,,,A*41
$GPGGA,120319.750,4308.3076,N,07726.2659,W,1,06,1.71,162.2,M,-34.4,M,,*5D
$GPGGA,120320.250,4308.3076,N,07726.2659,W,1,06,1.71,162.2,M,-34.4,M,,*52
$GPRMC,120320.250,A,4308.3076,N,07726.2659,W,0.04,133.99,121019,,,A*77
$GPRMC,120320.750,A,4308.3076,N,07726.2659,W,0.07,94.77,121019,,,A*4D
$GPGGA,120321.000,4308.3076,N,07726.2658,W,1,06,1.71,162.2,M,-34.4,M,,*55
$GPGGA,120321.500,4308.3076,N,07726.2658,W,1,06,1.71,162.2,M,-34.4,M,,*50
$GPRMC,120321.500,A,4308.3076,N,07726.2658,W,0.09,60.84,121019,.2,M,-34.4,M,,*57
$GPRMC,120322.250,A,4308.3076,N,07726.2658,W,0.06,70.72,121019,,,A*45
$GPGGA,120322.500,4308.3076,N,07726.2658,W,1,06,1.71,162.2,M,-34.4,M,,*53
$GPRMC,120322.500,A,4308.3076,N,07726.2658,W,0.14,48.32,121019
$GPGGA,120323.000,4308.3076,N,07726.2658,W,1,06,1.71,162.2,M,-34.4,M,,*57
$GPGGA,120323.500,4308.3076,N,07726.2658,W,1,06,1.71,162.2,M,-34.4,M,,*52
$GPRMC,120323.500,A,4308.3076,N,07726.2658,W,0.11,16.50,121019,,A*40
$GPRMC,120324.000,A,4308.3077,N,07726.2658,W,0.07,8.27,121019,,,A*7B
$GPGGA,120324.250,4308.3077,N,07726.2658,W,1,06,2.05,162.2,M,-34.4,M,,*56
$GPGGA,120324.750,4308.3076,N,07726.2658,W,1,06,1.71,162.2,M,-34.4,M,,*52
$GPRMC,120324.750,A,4308.3076,N,07726.2658,W,0.15,220.91,121019,,,A*7E
$GPRMC,120325.250,A,4308.3076,N,07726.2658,W,0.11,194.43,121019,,,A*7D
$GPGGA,120325.500,4308.3076,N,07726.2658,W,1,06,1.71,162.2,M,-34.4,M,,*54
$GPGGA,120326.000,4308.3076,N,07726.2658,W,1,06,1.71,162.2,M,-34.4,M,,*52
$GPRMC,120326.000,A,4308.3076,N,07726.2658,W,0.05,130.48,121019,162.2,M,-34.4,M,,*55
$GPRMC,120326.250,A,4308.3076,N,07726.2658,W,0.05,168.00,12101
$GPGGA,120326.750,4308.3076,N,07726.2658,W,1,06,1.71,162.2,M,-34.4,M,,*50
$GPGGA,120327.250,4308.3076,N,07726.2658,W,1,06,1.71,162.2,M,-34.4,M,,*54
$GPRMC,120327.250,A,4308.3076,N,07726.2658,W,0.14,359.25,121019,,,A*79
$GPRMC,120327.750,A,4308.3076,N,07726.2658,W,0.27,24.67,121019,,,A*43
$GPGGA,120328.000,4308.3076,N,07726.2658,W,1,06,1.71,162.2,M,-34.4,M,,*5C
$GPRMC,120328.500,A,4308.3077,N,07726.2657,W,0.17,34.27,121019,,,A*43
$GPGGA,120328.750,4308.3077,N,07726.2657,W,1,06,1.71,162.2,M,-34.4,M,,*50
$GPGGA,120329.250,4308.3077,N,07726.2657,W,1,06,1.71,162.2,M,-34.4,M,,*54
$GPRMC,120329.250,A,4308.3077,N,07726.2657,W,0.12,37.00,121019,,,A*43
$GPRMC,120329.750,A,4308.3077,N,07726.2657,W,0.05,196.92,121019,,,A*71
$GPGGA,120330.000,4308.3077,N,07726.2657,W,1,06,1.71,162.2,M,-34.4,M,,*5B
$GPGGA,120330.500,4308.3077,N,07726.2657,W,1,06,1.71,162.2,M,-34.4,M,,*5E
$GPRMC,120330.500,A,4308.3077,N,07726.2657,W,0.08,285.13,121019,,,A*7B
$GPRMC,120331.000,A,4308.3077,N,07726.2657,W,0.06,248.84,121019,,,A*7E
$GPGGA,120331.250,4308.3077,N,07726.2657,W,1,06,1.71,162.2,M,-34.4,M,,*5D
$GPGGA,120331.750,4308.3077,N,07726.2657,W,1,06,1.71,162.2,M,-34.4,M,,*58
$GPRMC,120331.750,A,4308.3077,N,07726.2657,W,0.15,178.15,121019,,A*76
$GPRMC,120332.250,A,4308.3076,N,07726.2657,W,0.12,145.89,121019,,,A*7D
$GPGGA,120332.500,4308.3076,N,07726.2657,W,1,06,1.71,162.2,M,-34.4,M,,*5D
$GPGGA,120333.000,4308.3076,N,07726.2657,W,1,06,1.71,162.2,M,-34.4,M,,*59
$GPRMC,120333.000,A,4308.3076,N,07726.2657,W,0.23,127.23,12101962.2,M,-34.4,M,,*5E
$GPGGA,120333.750,4308.3076,N,07726.2657,W,1,06,1.71,162.2,M,-34.4,M,,*5B
$GPRMC,120333.750,A,4308.3076,N,07726.2657,W,0.11,141.39,121019,,A*75
$GPRMC,120334.250,A,4308.3076,N,07726.2657,W,0.09,143.21,121019,,,A*75
$GPGGA,120334.500,4308.3076,N,07726.2656,W,1,06,1.71,162.2,M,-34.4,M,,*5A
$GPGGA,120335.000,4308.3076,N,07726.2656,W,1,06,1.71,162.2,M,-34.4,M,,*5E
$GPRMC,120335.000,A,4308.3076,N,07726.2656,W,0.17,120.71,121019,,,A*7D
$GPRMC,120335.500,A,4308.3076,N,07726.2656,W,0.13,125.24,121019,,,A*79
$GPGGA,120335.750,4308.3076,N,07726.2656,W,1,06,1.71,162.1,M,-34.4,M,,*5F
$GPGGA,120336.250,4308.3075,N,07726.2656,W,1,06,1.71,162.1,M,-34.4,M,,*5A
$GPRMC,120336.250,A,4308.3075,N,07726.2656,W,0.03,107.16,121019,,,A*7B
$GPRMC,120336.750,A,4308.3075,N,07726.2656,W,0.07,317.49,121019,,,A*73
$GPGGA,120337.000,4308.3075,N,07726.2656,W,1,06,1.71,162.1,M,-34.4,M,,*5C
$GPGGA,120337.500,4308.3076,N,07726.2656,W,1,06,2.05,162.1,M,-34.4,M,,*5A
$GPRMC,120337.500,A,4308.3076,N,07726.2656,W,0.08,39.17,121019,2.1,M,-34.4,M,,*5D
$GPRMC,120337.750,A,4308.3076,N,07726.2656,W,0.02,168.01,121019
$GPGGA,120338.250,4308.3076,N,07726.2656,W,1,06,1.71,162.1,M,-34.4,M,,*57
$GPRMC,120338.250,A,4308.3076,N,07726.2656,W,0.06,216.04,1210197A
$GPGGA,120338.750,4308.3075,N,07726.2656,W,1,06,1.71,162.1,M,-34.4,M,,*51
$GPGGA,120339.250,4308.3075,N,07726.2656,W,1,06,1.71,162.1,M,-34.4,M,,*55
$GPRMC,120339.250,A,4308.3075,N,07726.2656,W,0.13,141.79,121019,,,A*7E
$GPGGA,120340.000,4308.3075,N,07726.2656,W,1,06,1.71,162.1,M,-34.4,M,,*5C
$GPRMC,120340.000,A,4308.3075,N,07726.2656,W,0.14,127.65,121019,,,A*7D
$GPRMC,120340.500,A,4308.3075,N,07726.2655,W,0.14,141.76,121019,,,A*79
$GPGGA,120340.750,4308.3075,N,07726.2655,W,1,06,1.71,162.1,M,-34.4,M,,*5D
$GPGGA,120341.250,4308.3075,N,07726.2655,W,1,06,1.71,162.1,M,-34.4,M,,*59
$GPRMC,120341.250,A,4308.3075,N,07726.2655,W,0.09,83.87,121019,,A*47
$GPRMC,120341.750,A,4308.3075,N,07726.2655,W,0.12,97.60,121019,,,A*44
$GPGGA,120342.000,4308.3075,N,07726.2655,W,1,06,1.71,162.1,M,-34.4,M,,*5D
$GPRMC,120342.500,A,4308.3075,N,07726.2655,W,0.12,53.76,121019,,,A*4F
$GPGGA,120342.750,4308.3075,N,07726.2654,W,1,06,1.71,162.1,M,-34.4,M,,*5E
$GPGGA,120343.250,4308.3075,N,07726.2654,W,1,06,1.71,162.1,M,-34.4,M,,*5A
$GPRMC,120343.250,A,4308.3075,N,07726.2654,W,0.14,47.64,121019,,A*4D
$GPRMC,120343.750,A,4308.3075,N,07726.2654,W,0.09,49.38,121019,,,A*43
$GPGGA,120344.000,4308.3075,N,07726.2654,W,1,06,1.71,162.1,M,-34.4,M,,*5A
$GPRMC,120344.500,A,4308.3075,N,07726.2654,W,0.09,54.26,121019,,,A*40
$GPGGA,120344.750,4308.3075,N,07726.2654,W,1,06,1.71,162.1,M,-34.4,M,,*58
$GPGGA,120345.250,4308.3075,N,07726.2654,W,1,06,1.71,162.1,M,-34.4,M,,*5C
$GPRMC,120345.250,A,4308.3075,N,07726.2654,W,0.11,91.58,121019,,,A*4A
$GPRMC,120345.750,A,4308.3075,N,07726.2653,W,0.12,118.63,121019,,,A*73
$GPGGA,120346.000,4308.3075,N,07726.2653,W,1,06,1.71,162.1,M,-34.4,M,,*5F
$GPGGA,120346.500,4308.3075,N,07726.2653,W,1,06,1.71,162.1,M,-34.4,M,,*5A
$GPRMC,120346.500,A,4308.3075,N,07726.2653,W,0.14,114.42,121019,M,-34.4,M,,*5D
$GPRMC,120346.750,A,4308.3075,N,07726.2653,W,0.13,107.35,12101978
$GPGGA,120347.250,4308.3075,N,07726.2653,W,1,06,1.71,162.1,M,-34.4,M,,*59
$GPRMC,120347.750,A,4308.3075,N,07726.2653,W,0.13,176.98,121019,,,A*7C
$GPGGA,120348.000,4308.3075,N,07726.2653,W,1,06,1.71,162.1,M,-34.4,M,,*51
$GPGGA,120348.500,4308.3075,N,07726.2653,W,1,06,1.71,162.1,M,-34.4,M,,*54
$GPRMC,120348.500,A,4308.3075,N,07726.2653,W,0.17,171.27,121019,,,A*73
$GPRMC,120349.000,A,4308.3074,N,07726.2653,W,0.14,167.75,121019,,,A*75
$GPGGA,120349.250,4308.3074,N,07726.2653,W,1,06,1.71,162.1,M,-34.4,M,,*56
$GPGGA,120349.750,4308.3074,N,07726.2652,W,1,06,1.71,162.1,M,-34.4,M,,*52
$GPRMC,120349.750,A,4308.3074,N,07726.2652,W,0.27,162.32,121019,,,A*70
$GPRMC,120350.250,A,4308.3074,N,07726.2652,W,0.30,165.26,121019,,,A*79
$GPGGA,120350.500,4308.3073,N,07726.2652,W,1,06,1.71,162.1,M,-34.4,M,,*5A
$GPGGA,120351.000,4308.3073,N,07726.2652,W,1,06,1.71,162.1,M,-34.4,M,,*5E
$GPRMC,120351.000,A,4308.3073,N,07726.2652,W,0.20,158.27,1210191,M,-34.4,M,,*59
$GPRMC,120351.250,A,4308.3073,N,07726.2652,W,0.18,165.24,121019A
$GPGGA,120351.750,4308.3073,N,07726.2652,W,1,06,1.71,162.1,M,-34.4,M,,*5C
$GPGGA,120352.250,4308.3073,N,07726.2652,W,1,06,1.71,162.1,M,-34.4,M,,*5A
$GPRMC,120352.250,A,4308.3073,N,07726.2652,W,0.04,153.49,121019,,,A*77
$GPRMC,120352.750,A,4308.3073,N,07726.2652,W,0.14,210.69,121019,,,A*75
$GPGGA,120353.000,4308.3072,N,07726.2652,W,1,06,1.71,162.1,M,-34.4,M,,*5D
$GPRMC,120353.500,A,4308.3072,N,07726.2652,W,0.08,219.47,121019,,,A*7A
$GPGGA,120353.750,4308.3072,N,07726.2652,W,1,06,1.71,162.1,M,-34.4,M,,*5F
$GPGGA,120354.250,4308.3072,N,07726.2652,W,1,06,1.71,162.1,M,-34.4,M,,*5D
$GPRMC,120354.250,A,4308.3072,N,07726.2652,W,0.07,195.43,121019,,,A*73
$GPRMC,120354.750,A,4308.3072,N,07726.2652,W,0.04,153.15,121019,,,A*7C
$GPGGA,120355.000,4308.3072,N,07726.2652,W,1,06,1.71,162.1,M,-34.4,M,,*5B
$GPGGA,120355.500,4308.3072,N,07726.2652,W,1,06,1.71,162.1,M,-34.4,M,,*5E
$GPRMC,120355.500,A,4308.3072,N,07726.2652,W,0.01,123.59,121019
$GPRMC,120355.750,A,4308.3072,N,07726.2652,W,0.02,128.95,121019
$GPGGA,120356.250,4308.3072,N,07726.2652,W,1,06,1.71,162.1,M,-34.4,M,,*5F
$GPRMC,120356.250,A,4308.3072,N,07726.2652,W,0.01,354.99,12101970
$GPGGA,120356.750,4308.3072,N,07726.2652,W,1,06,1.71,162.1,M,-34.4,M,,*5A
$GPGGA,120357.250,4308.3072,N,07726.2652,W,1,06,1.71,162.1,M,-34.4,M,,*5E
$GPRMC,120357.250,A,4308.3072,N,07726.2652,W,0.01,175.28,121019,,A*75
$GPRMC,120357.750,A,4308.3072,N,07726.2652,W,0.01,104.41,121019,,,A*79
$GPGGA,120358.000,4308.3072,N,07726.2652,W,1,06,1.71,162.1,M,-34.4,M,,*56
$GPRMC,120358.250,A,4308.3072,N,07726.2652,W,0.03,26.55,121019,,,A*45
$GPGGA,120358.500,4308.3072,N,07726.2652,W,1,06,1.71,162.1,M,-34.4,M,,*53
$GPGGA,120359.000,4308.3072,N,07726.2652,W,1,06,2.06,162.1,M,-34.4,M,,*54
$GPRMC,120359.000,A,4308.3072,N,07726.2652,W,0.03,194.68,121019,,,A*75
$GPRMC,120359.500,A,4308.3072,N,07726.2652,W,0.04,234.30,121019,,,A*73
$GPGGA,120359.750,4308.3072,N,07726.2652,W,1,06,1.71,162.1,M,-34.4,M,,*55
$GPRMC,120400.250,A,4308.3072,N,07726.2652,W,0.00,331.63,121019,,,A*7C
$GPGGA,120400.500,4308.3072,N,07726.2652,W,1,06,1.71,162.1,M,-34.4,M,,*59
$GPGGA,120401.000,4308.3072,N,07726.2652,W,1,06,1.71,162.1,M,-34.4,M,,*5D
$GPRMC,120401.000,A,4308.3072,N,07726.2652,W,0.04,191.35,121019,,,A*75
$GPRMC,120401.500,A,4308.3072,N,07726.2652,W,0.05,278.57,121019,,,A*71
$GPGGA,120401.750,4308.3072,N,07726.2652,W,1,06,1.71,162.1,M,-34.4,M,,*5F
$GPGGA,120402.250,4308.3072,N,07726.2652,W,1,06,1.71,162.1,M,-34.4,M,,*59
$GPRMC,120402.250,A,4308.3072,N,07726.2652,W,0.08,196.78,121019-34.4,M,,*5B
$GPRMC,120402.500,A,4308.3072,N,07726.2652,W,0.09,191.95,12101
$GPGGA,120403.000,4308.3072,N,07726.2652,W,1,06,1.71,162.1,M,-34.4,M,,*5F
$GPGGA,120403.500,4308.3071,N,07726.2652,W,1,06,1.71,162.1,M,-34.4,M,,*59
$GPRMC,120403.500,A,4308.3071,N,07726.2652,W,0.06,164.80,121019,,,A*77
$GPRMC,120404.000,A,4308.3071,N,07726.2652,W,0.06,157.50,121019,,,A*78
$GPGGA,120404.250,4308.3071,N,07726.2652,W,1,06,1.71,162.1,M,-34.4,M,,*5C
$GPRMC,120404.750,A,4308.3071,N,07726.2652,W,0.05,190.45,121019,,,A*76
$GPGGA,120405.000,4308.3071,N,07726.2652,W,1,06,1.71,162.1,M,-34.4,M,,*5A
$GPGGA,120405.500,4308.3071,N,07726.2652,W,1,06,1.71,162.1,M,-34.4,M,,*5F
$GPRMC,120405.500,A,4308.3071,N,07726.2652,W,0.07,118.50,121019,,A*76
$GPRMC,120406.000,A,4308.3071,N,07726.2652,W,0.11,144.54,121019,,,A*7A
$GPGGA,120406.250,4308.3071,N,07726.2652,W,1,06,1.71,162.1,M,-34.4,M,,*5E
$GPRMC,120406.250,A,4308.3071,N,07726.2652,W,0.10,149.40,12101919,,,A*7C
$GPGGA,120406.750,4308.3071,N,07726.2652,W,1,06,1.71,162.0,M,-34.4,M,,*5A
$GPRMC,120406.750,A,4308.3071,N,07726.2652,W,0.20,151.60,12101971
$GPGGA,120407.250,4308.3071,N,07726.2652,W,1,06,1.71,162.0,M,-34.4,M,,*5E
$GPGGA,120407.750,4308.3070,N,07726.2652,W,1,06,1.71,162.0,M,-34.4,M,,*5A
$GPRMC,120407.750,A,4308.3070,N,07726.2652,W,0.27,180.05,121019,,,A*71
$GPRMC,120408.250,A,4308.3070,N,07726.2651,W,0.19,157.65,121019,,,A*79
$GPGGA,120408.500,4308.3070,N,07726.2651,W,1,06,1.71,162.0,M,-34.4,M,,*51
$GPRMC,120409.000,A,4308.3069,N,07726.2651,W,0.28,134.68,121019,,,A*7D
$GPGGA,120409.250,4308.3069,N,07726.2651,W,1,06,1.71,162.0,M,-34.4,M,,*5A
$GPGGA,120409.750,4308.3069,N,07726.2651,W,1,06,1.71,162.0,M,-34.4,M,,*5F
$GPRMC,120409.750,A,4308.3069,N,07726.2651,W,0.22,145.38,121019,,,A*76
$GPRMC,120410.250,A,4308.3069,N,07726.2650,W,0.14,181.78,121019,,,A*73
$GPGGA,120410.500,4308.3069,N,07726.2650,W,1,06,1.71,162.0,M,-34.4,M,,*51
$GPRMC,120410.500,A,4308.3069,N,07726.2650,W,0.15,192.22,121019,,,A*7D
$GPGGA,120411.000,4308.3068,N,07726.2650,W,1,06,1.71,162.0,M,-34.4,M,,*54
$GPRMC,120411.500,A,4308.3068,N,07726.2650,W,0.27,166.36,121019,,,A*72
$GPGGA,120411.750,4308.3068,N,07726.2650,W,1,06,1.71,162.0,M,-34.4,M,,*56
$GPGGA,120412.250,4308.3068,N,07726.2650,W,1,06,1.71,162.0,M,-34.4,M,,*50
$GPRMC,120412.250,A,4308.3068,N,07726.2650,W,0.18,142.55,121019,,A*7C
$GPRMC,120412.750,A,4308.3068,N,07726.2650,W,0.05,203.04,121019,,,A*77
$GPGGA,120413.000,4308.3067,N,07726.2650,W,1,06,1.71,162.0,M,-34.4,M,,*59
$GPRMC,120413.500,A,4308.3067,N,07726.2650,W,0.04,170.06,121019,,,A*7A
$GPGGA,120413.750,4308.3067,N,07726.2650,W,1,06,1.71,162.0,M,-34.4,M,,*5B
$GPGGA,120414.250,4308.3067,N,07726.2650,W,1,06,1.71,162.0,M,-34.4,M,,*59
$GPRMC,120414.250,A,4308.3067,N,07726.2650,W,0.13,37.66,121019,,A*4D
$GPRMC,120414.750,A,4308.3068,N,07726.2650,W,0.14,20.62,121019,,,A*42
$GPGGA,120415.000,4308.3068,N,07726.2650,W,1,06,1.71,162.0,M,-34.4,M,,*50
$GPGGA,120415.500,4308.3068,N,07726.2650,W,1,06,2.06,162.0,M,-34.4,M,,*56
$GPRMC,120415.500,A,4308.3068,N,07726.2650,W,0.15,1.87,121019,,6,162.0,M,-34.4,M,,*51
$GPGGA,120416.250,4308.3068,N,07726.2650,W,1,06,1.71,162.0,M,-34.4,M,,*54
$GPRMC,120416.250,A,4308.3068,N,07726.2650,W,0.01,313.07,121019,,,A*71
$GPRMC,120416.750,A,4308.3068,N,07726.2650,W,0.05,164.75,121019,,,A*77
$GPGGA,120417.000,4308.3068,N,07726.2650,W,1,06,1.71,162.0,M,-34.4,M,,*52
$GPGGA,120417.500,4308.3068,N,07726.2650,W,1,06,1.71,162.0,M,-34.4,M,,*57
$GPRMC,120417.500,A,4308.3068,N,07726.2650,W,0.02,120.45,121019,,A*75
$GPRMC,120418.000,A,4308.3068,N,07726.2650,W,0.06,76.03,121019,,,A*4B
$GPGGA,120418.250,4308.3068,N,07726.2650,W,1,06,1.71,162.0,M,-34.4,M,,*5A
$GPGGA,120418.750,4308.3068,N,07726.2649,W,1,06,1.71,162.0,M,-34.4,M,,*57
$GPRMC,120418.750,A,4308.3068,N,07726.2649,W,0.21,155.40,121019,,,A*73
$GPRMC,120419.250,A,4308.3068,N,07726.2649,W,0.17,181.49,121019,,,A*72
$GPGGA,120419.500,4308.3067,N,07726.2649,W,1,06,1.71,162.0,M,-34.4,M,,*5E
$GPRMC,120420.000,A,4308.3067,N,07726.2649,W,0.16,139.30,121019,,,A*7C
$GPGGA,120420.250,4308.3067,N,07726.2649,W,1,06,1.71,162.0,M,-34.4,M,,*56
$GPRMC,120420.250,A,4308.3067,N,07726.2649,W,0.17,147.15,1210190
$GPGGA,120420.750,4308.3067,N,07726.2649,W,1,06,1.71,162.0,M,-34.4,M,,*53
$GPGGA,120421.250,4308.3067,N,07726.2649,W,1,06,1.71,162.0,M,-34.4,M,,*57
$GPRMC,120421.250,A,4308.3067,N,07726.2649,W,0.13,113.93,121019,,A*7E
$GPRMC,120421.750,A,4308.3067,N,07726.2648,W,0.11,93.30,121019,,,A*48
$GPGGA,120422.000,4308.3067,N,07726.2648,W,1,06,1.71,162.0,M,-34.4,M,,*52
$GPRMC,120422.500,A,4308.3067,N,07726.2648,W,0.10,124.59,121019,,,A*7F
$GPGGA,120422.750,4308.3067,N,07726.2648,W,1,06,1.71,161.9,M,-34.4,M,,*5A
$GPGGA,120423.250,4308.3066,N,07726.2648,W,1,06,1.71,161.9,M,-34.4,M,,*5F
$GPRMC,120423.250,A,4308.3066,N,07726.2648,W,0.20,139.53,121019,,A*78
$GPRMC,120423.750,A,4308.3066,N,07726.2648,W,0.12,116.13,121019,,,A*75
$GPGGA,120424.000,4308.3066,N,07726.2647,W,1,06,1.71,161.9,M,-34.4,M,,*50
$GPGGA,120424.500,4308.3066,N,07726.2647,W,1,06,1.71,161.9,M,-34.4,M,,*55
$GPRMC,120424.500,A,4308.3066,N,07726.2647,W,0.11,39.23,121019,161.9,M,-34.4,M,,*52
$GPRMC,120424.750,A,4308.3066,N,07726.2647,W,0.18,25.56,121019,49
$GPGGA,120425.250,4308.3066,N,07726.2647,W,1,06,1.71,161.9,M,-34.4,M,,*56
$GPGGA,120425.750,4308.3067,N,07726.2647,W,1,06,1.71,161.9,M,-34.4,M,,*52
$GPRMC,120425.750,A,4308.3067,N,07726.2647,W,0.23,63.06,121019,,,A*48
$GPRMC,120426.250,A,4308.3067,N,07726.2646,W,0.16,116.81,121019,,,A*75
$GPGGA,120426.500,4308.3066,N,07726.2646,W,1,06,1.71,161.9,M,-34.4,M,,*56
$GPRMC,120427.000,A,4308.3066,N,07726.2646,W,0.08,54.08,121019,,,A*4B
$GPGGA,120427.250,4308.3067,N,07726.2646,W,1,06,1.71,161.9,M,-34.4,M,,*54
$GPRMC,120427.750,A,4308.3067,N,07726.2646,W,0.07,337.98,121019,,,A*78
$GPGGA,120428.000,4308.3067,N,07726.2646,W,1,06,1.71,161.9,M,-34.4,M,,*5C
$GPGGA,120428.500,4308.3067,N,07726.2646,W,1,06,1.71,161.9,M,-34.4,M,,*59
$GPRMC,120428.500,A,4308.3067,N,07726.2646,W,0.17,45.11,121019,,,A*46
$GPRMC,120429.000,A,4308.3067,N,07726.2646,W,0.13,78.05,121019,,,A*4D
$GPGGA,120429.250,4308.3067,N,07726.2645,W,1,06,1.71,161.9,M,-3$GPGGA,120429.750,4308.3067,N,07726.2645,W,1,06,1.71,161.9,M,-34.4,M,,*5C
$GPRMC,120430.250,A,4308.3067,N,07726.2645,W,0.15,39.64,121019,,,A*45
$GPGGA,120430.500,4308.3067,N,07726.2645,W,1,06,1.71,161.9,M,-34.4,M,,*53
$GPGGA,120431.000,4308.3067,N,07726.2645,W,1,06,1.71,161.9,M,-34.4,M,,*57
$GPRMC,120431.000,A,4308.3067,N,07726.2645,W,0.07,40.19,121019,,,A*44
$GPRMC,120431.500,A,4308.3067,N,07726.2645,W,0.10,340.85,121019,,,A*71
$GPGGA,120431.750,4308.3067,N,07726.2645,W,1,06,1.71,161.9,M,-34.4,M,,*55
$GPRMC,120432.250,A,4308.3068,N,07726.2645,W,0.26,337.65,121019,,,A*74
$GPGGA,120432.500,4308.3068,N,07726.2645,W,1,06,1.71,161.9,M,-34.4,M,,*5E
$GPGGA,120433.000,4308.3068,N,07726.2645,W,1,06,2.06,161.9,M,-34.4,M,,*59
$GPRMC,120433.000,A,4308.3068,N,07726.2645,W,0.11,56.16,121019,,,A*46
$GPRMC,120433.500,A,4308.3068,N,07726.2645,W,0.19,16.28,121019,,,A*42
$GPGGA,120433.750,4308.3068,N,07726.2645,W,1,06,1.71,161.9,M,-34.4,M,,*58
$GPRMC,120433.750,A,4308.3068,N,07726.2645,W,0.13,355.77,1210194
$GPGGA,120434.250,4308.3068,N,07726.2645,W,1,06,2.06,161.9,M,-34.4,M,,*59
$GPGGA,120434.750,4308.3068,N,07726.2645,W,1,06,1.71,161.9,M,-34.4,M,,*5F
$GPRMC,120434.750,A,4308.3068,N,07726.2645,W,0.19,347.96,121019,,,A*70
$GPRMC,120435.250,A,4308.3069,N,07726.2645,W,0.20,0.79,121019,,,A*7E
$GPGGA,120435.500,4308.3069,N,07726.2645,W,1,06,2.06,161.9,M,-34.4,M,,*5B
$GPRMC,120436.000,A,4308.3069,N,07726.2645,W,0.20,357.00,121019,,,A*75
$GPGGA,120436.250,4308.3069,N,07726.2645,W,1,06,2.06,161.9,M,-34.4,M,,*5A
$GPRMC,120436.750,A,4308.3069,N,07726.2645,W,0.13,323.64,121019,,,A*76
$GPGGA,120437.000,4308.3070,N,07726.2645,W,1,06,1.71,161.9,M,-34.4,M,,*57
$GPGGA,120437.500,4308.3070,N,07726.2645,W,1,06,1.71,161.9,M,-34.4,M,,*52
$GPRMC,120437.500,A,4308.3070,N,07726.2645,W,0.14,283.96,121019,,,A*79
$GPRMC,120438.000,A,4308.3070,N,07726.2646,W,0.20,287.81,121019,,,A*75
$GPGGA,120438.250,4308.3070,N,07726.2646,W,1,06,1.71,161.9,M,-34.4,M,,*5C
$GPRMC,120438.250,A,4308.3070,N,07726.2646,W,0.17,288.77,12101
$GPGGA,120438.750,4308.3070,N,07726.2646,W,1,06,1.71,161.9,M,-34.4,M,,*59
$GPRMC,120438.750,A,4308.3070,N,07726.2646,W,0.11,228.18,12101
$GPGGA,120439.250,4308.3070,N,07726.2646,W,1,06,1.71,161.9,M,-34.4,M,,*5D
$GPGGA,120439.750,4308.3070,N,07726.2647,W,1,06,1.71,161.9,M,-34.4,M,,*59
$GPRMC,120439.750,A,4308.3070,N,07726.2647,W,0.11,314.25,121019,,,A*70
$GPRMC,120440.250,A,4308.3070,N,07726.2647,W,0.05,344.92,121019,,,A*77
$GPGGA,120440.500,4308.3070,N,07726.2647,W,1,06,1.71,161.9,M,-34.4,M,,*50
$GPRMC,120441.000,A,4308.3070,N,07726.2647,W,0.11,160.51,121019,,,A*7F
$GPGGA,120441.250,4308.3070,N,07726.2647,W,1,06,1.71,161.9,M,-34.4,M,,*53
$GPGGA,120441.750,4308.3069,N,07726.2647,W,1,06,1.71,161.9,M,-34.4,M,,*5E
$GPRMC,120441.750,A,4308.3069,N,07726.2647,W,0.09,130.93,121019,,,A*77
$GPRMC,120442.250,A,4308.3069,N,07726.2646,W,0.09,134.87,121019,,,A*71
$GPGGA,120442.500,4308.3069,N,07726.2646,W,1,06,1.71,161.9,M,-34.4,M,,*5B
$GPGGA,120443.000,4308.3069,N,07726.2646,W,1,06,1.71,161.9,M,-34.4,M,,*5F
$GPRMC,120443.000,A,4308.3069,N,07726.2646,W,0.13,330.45,121019161.9,M,-34.4,M,,*58
$GPRMC,120443.750,A,4308.3070,N,07726.2646,W,0.25,330.06,121019,,,A*7C
$GPGGA,120444.000,4308.3070,N,07726.2647,W,1,06,1.71,161.9,M,-34.4,M,,*51
$GPRMC,120444.000,A,4308.3070,N,07726.2647,W,0.16,298.95,121019.68,121019,,,A*77
$GPGGA,120444.500,4308.3070,N,07726.2647,W,1,06,1.71,161.9,M,-34.4,M,,*54
$GPGGA,120445.000,4308.3070,N,07726.2647,W,1,06,1.71,161.9,M,-34.4,M,,*50
$GPRMC,120445.000,A,4308.3070,N,07726.2647,W,0.13,234.64,121019,,A*7D
$GPRMC,120445.500,A,4308.3070,N,07726.2647,W,0.12,173.63,121019,,,A*7E
$GPGGA,120445.750,4308.3069,N,07726.2647,W,1,06,1.71,161.9,M,-34.4,M,,*5A
$GPGGA,120446.250,4308.3069,N,07726.2647,W,1,06,1.71,161.9,M,-34.4,M,,*5C
$GPRMC,120446.250,A,4308.3069,N,07726.2647,W,0.25,176.97,121019,,,A*7D
$GPRMC,120446.750,A,4308.3069,N,07726.2647,W,0.14,178.39,121019,,,A*70
$GPGGA,120447.000,4308.3069,N,07726.2647,W,1,06,1.71,161.9,M,-34.4,M,,*5A
$GPGGA,120447.500,4308.3069,N,07726.2647,W,1,06,1.71,161.9,M,-34.4,M,,*5F
$GPRMC,120447.500,A,4308.3069,N,07726.2647,W,0.13,167.92,121019161.9,M,-34.4,M,,*59
$GPRMC,120447.750,A,4308.3068,N,07726.2647,W,0.15,155.20,12101977
$GPGGA,120448.250,4308.3068,N,07726.2647,W,1,06,1.71,161.9,M,-34.4,M,,*53
$GPGGA,120448.750,4308.3068,N,07726.2647,W,1,06,1.71,161.9,M,-34.4,M,,*56
$GPRMC,120448.750,A,4308.3068,N,07726.2647,W,0.19,153.20,121019,,,A*73
$GPRMC,120449.250,A,4308.3068,N,07726.2647,W,0.17,161.93,121019,,,A*70
$GPGGA,120449.500,4308.3068,N,07726.2647,W,1,06,1.71,161.9,M,-34.4,M,,*50
$GPRMC,120450.000,A,4308.3067,N,07726.2646,W,0.12,133.02,121019,,,A*7B
$GPGGA,120450.250,4308.3067,N,07726.2646,W,1,06,1.71,161.9,M,-34.4,M,,*54
$GPRMC,120450.250,A,4308.3067,N,07726.2646,W,0.06,148.36,1210197C
$GPGGA,120450.750,4308.3067,N,07726.2646,W,1,06,1.71,161.9,M,-34.4,M,,*51
$GPRMC,120451.250,A,4308.3067,N,07726.2647,W,0.02,297.97,121019,,,A*7C
$GPGGA,120451.500,4308.3067,N,07726.2647,W,1,06,1.71,161.9,M,-34.4,M,,*56
$GPGGA,120452.000,4308.3067,N,07726.2647,W,1,06,1.71,161.9,M,-34.4,M,,*50
$GPRMC,120452.000,A,4308.3067,N,07726.2647,W,0.09,9.53,121019,,,161.9,M,-34.4,M,,*54
$GPGGA,120452.750,4308.3068,N,07726.2647,W,1,06,1.71,161.9,M,-34.4,M,,*5D
$GPRMC,120452.750,A,4308.3068,N,07726.2647,W,0.01,337.32,121019,,A*72
$GPRMC,120453.250,A,4308.3068,N,07726.2646,W,0.07,357.98,121019,,,A*77
$GPGGA,120453.500,4308.3068,N,07726.2647,W,1,06,2.06,161.9,M,-34.4,M,,*58
$GPGGA,120454.000,4308.3068,N,07726.2646,W,1,06,2.06,161.9,M,-34.4,M,,*5B
$GPRMC,120454.000,A,4308.3068,N,07726.2646,W,0.13,10.49,121019,,,A*4E
$GPRMC,120454.500,A,4308.3068,N,07726.2646,W,0.07,89.25,121019,,,A*44
$GPGGA,120454.750,4308.3068,N,07726.2646,W,1,06,1.71,161.9,M,-34.4,M,,*5A
$GPGGA,120455.250,4308.3068,N,07726.2646,W,1,06,1.71,161.9,M,-34.4,M,,*5E
$GPRMC,120455.250,A,4308.3068,N,07726.2646,W,0.12,286.95,121019,,,A*75
$GPRMC,120455.750,A,4308.3068,N,07726.2647,W,0.17,296.68,121019,,,A*77
$GPGGA,120456.000,4308.3068,N,07726.2647,W,1,06,1.71,161.9,M,-34.4,M,,*5B
$GPGGA,120456.500,4308.3068,N,07726.2647,W,1,06,1.71,162.0,M,-34.4,M,,*54
$GPRMC,120456.500,A,4308.3068,N,07726.2647,W,0.12,218.30,1210192.0,M,-34.4,M,,*53
$GPRMC,120456.750,A,4308.3068,N,07726.2647,W,0.06,239.69,12101975
$GPGGA,120457.250,4308.3068,N,07726.2647,W,1,06,1.71,162.0,M,-34.4,M,,*57
$GPGGA,120457.750,4308.3068,N,07726.2647,W,1,06,1.71,162.0,M,-34.4,M,,*52
$GPRMC,120457.750,A,4308.3068,N,07726.2647,W,0.11,196.02,121019,,,A*7C
$GPRMC,120458.250,A,4308.3068,N,07726.2647,W,0.25,169.67,121019,,,A*72
$GPGGA,120458.500,4308.3067,N,07726.2647,W,1,06,1.71,162.0,M,-34.4,M,,*55
$GPRMC,120459.000,A,4308.3067,N,07726.2647,W,0.13,138.25,121019,,,A*7C
$GPGGA,120459.250,4308.3067,N,07726.2647,W,1,06,1.71,162.0,M,-34.4,M,,*56
$GPGGA,120459.750,4308.3067,N,07726.2647,W,1,06,1.71,162.0,M,-34.4,M,,*53
$GPRMC,120459.750,A,4308.3067,N,07726.2647,W,0.10,22.84,121019,,,A*4C
$GPRMC,120500.250,A,4308.3067,N,07726.2647,W,0.03,23.26,121019,,,A*4F
$GPGGA,120500.500,4308.3067,N,07726.2647,W,1,06,1.71,162.0,M,-34.4,M,,*59
$GPGGA,120501.000,4308.3067,N,07726.2647,W,1,06,1.71,162.0,M,-34.4,M,,*5D
$GPRMC,120501.000,A,4308.3067,N,07726.2647,W,0.05,79.30,121019,62.0,M,-34.4,M,,*5A
$GPGGA,120501.750,4308.3067,N,07726.2647,W,1,06,1.71,162.0,M,-34.4,M,,*5F
$GPRMC,120501.750,A,4308.3067,N,07726.2647,W,0.03,267.98,121019,,A*7C
$GPRMC,120502.250,A,4308.3067,N,07726.2647,W,0.13,199.44,121019,,,A*78
$GPGGA,120502.500,4308.3067,N,07726.2647,W,1,06,1.71,162.0,M,-34.4,M,,*5B
$GPGGA,120503.000,4308.3067,N,07726.2647,W,1,06,1.71,162.0,M,-34.4,M,,*5F
$GPRMC,120503.000,A,4308.3067,N,07726.2647,W,0.13,301.40,121019,,,A*79
$GPRMC,120503.500,A,4308.3067,N,07726.2647,W,0.15,268.58,121019,,,A*7D
$GPGGA,120503.750,4308.3067,N,07726.2647,W,1,06,1.71,162.0,M,-34.4,M,,*5D
$GPGGA,120504.250,4308.3067,N,07726.2648,W,1,06,1.71,162.0,M,-34.4,M,,*50
$GPRMC,120504.250,A,4308.3067,N,07726.2648,W,0.04,280.12,121019,,,A*7F
$GPRMC,120504.750,A,4308.3067,N,07726.2648,W,0.09,4.33,121019,,,A*7A
$GPGGA,120505.000,4308.3067,N,07726.2648,W,1,06,2.06,162.0,M,-34.4,M,,*55
$GPGGA,120505.500,4308.3067,N,07726.2648,W,1,06,1.71,162.0,M,-34.4,M,,*53
$GPRMC,120505.500,A,4308.3067,N,07726.2648,W,0.05,32.36,121019,2.0,M,-34.4,M,,*54
$GPRMC,120505.750,A,4308.3067,N,07726.2648,W,0.04,272.71,121019
$GPGGA,120506.250,4308.3067,N,07726.2648,W,1,06,1.71,162.0,M,-34.4,M,,*52
$GPGGA,120506.750,4308.3067,N,07726.2648,W,1,06,1.71,162.0,M,-34.4,M,,*57
$GPRMC,120506.750,A,4308.3067,N,07726.2648,W,0.22,255.23,121019,,,A*76
$GPRMC,120507.250,A,4308.3067,N,07726.2648,W,0.21,199.20,121019,,,A*71
$GPGGA,120507.500,4308.3067,N,07726.2648,W,1,06,1.71,162.0,M,-34.4,M,,*51
$GPRMC,120508.000,A,4308.3066,N,07726.2648,W,0.30,168.21,121019,,,A*77
$GPGGA,120508.250,4308.3066,N,07726.2648,W,1,06,1.71,162.0,M,-34.4,M,,*5D
$GPGGA,120508.750,4308.3066,N,07726.2648,W,1,06,1.71,162.0,M,-34.4,M,,*58
$GPRMC,120508.750,A,4308.3066,N,07726.2648,W,0.19,162.63,121019,,,A*72
$GPRMC,120509.250,A,4308.3066,N,07726.2648,W,0.25,149.85,121019,,,A*78
$GPGGA,120509.500,4308.3065,N,07726.2648,W,1,06,1.71,162.0,M,-34.4,M,,*5D
$GPGGA,120510.000,4308.3065,N,07726.2647,W,1,06,1.71,162.0,M,-34.4,M,,*5F
$GPRMC,120510.000,A,4308.3065,N,07726.2647,W,0.22,163.50,121019.0,M,-34.4,M,,*58
$GPGGA,120510.750,4308.3065,N,07726.2647,W,1,06,1.71,162.0,M,-34.4,M,,*5D
$GPRMC,120510.750,A,4308.3065,N,07726.2647,W,0.14,173.53,121019,,,A*79
$GPRMC,120511.250,A,4308.3064,N,07726.2647,W,0.13,164.03,121019,,,A*78
$GPGGA,120511.500,4308.3064,N,07726.2647,W,1,06,1.71,162.0,M,-34.4,M,,*5A
$GPGGA,120512.000,4308.3064,N,07726.2647,W,1,06,1.71,162.0,M,-34.4,M,,*5C
$GPRMC,120512.000,A,4308.3064,N,07726.2647,W,0.16,168.53,121019,,,A*70
$GPRMC,120512.500,A,4308.3064,N,07726.2647,W,0.20,170.79,121019,,,A*71
$GPGGA,120512.750,4308.3064,N,07726.2647,W,1,06,1.71,162.0,M,-34.4,M,,*5E
$GPGGA,120513.250,4308.3063,N,07726.2647,W,1,06,1.71,162.0,M,-34.4,M,,*5D
$GPRMC,120513.250,A,4308.3063,N,07726.2647,W,0.18,198.38,121019,,,A*7D
$GPRMC,120513.750,A,4308.3063,N,07726.2647,W,0.13,211.43,121019,,,A*7D
$GPGGA,120514.000,4308.3063,N,07726.2647,W,1,06,1.71,162.0,M,-34.4,M,,*5D
$GPGGA,120514.500,4308.3063,N,07726.2647,W,1,06,1.71,162.0,M,-34.4,M,,*58
$GPRMC,120514.500,A,4308.3063,N,07726.2647,W,0.14,188.79,1210192.0,M,-34.4,M,,*5F
$GPRMC,120515.250,A,4308.3063,N,07726.2647,W,0.11,157.38,121019,,,A*71
$GPGGA,120515.500,4308.3063,N,07726.2647,W,1,06,1.71,162.0,M,-34.4,M,,*59
$GPGGA,120516.000,4308.3062,N,07726.2647,W,1,06,1.71,162.0,M,-34.4,M,,*5E
$GPRMC,120516.000,A,4308.3062,N,07726.2647,W,0.10,182.05,121019,,,A*73
$GPRMC,120516.500,A,4308.3062,N,07726.2647,W,0.17,183.44,121019,,,A*75
$GPGGA,120516.750,4308.3062,N,07726.2647,W,1,06,1.71,162.0,M,-34.4,M,,*5C
$GPRMC,120517.250,A,4308.3062,N,07726.2647,W,0.22,162.31,121019,,,A*7D
$GPGGA,120517.500,4308.3062,N,07726.2647,W,1,06,1.71,162.0,M,-34.4,M,,*5A
$GPGGA,120518.000,4308.3061,N,07726.2647,W,1,06,1.71,162.0,M,-34.4,M,,*53
$GPRMC,120518.000,A,4308.3061,N,07726.2647,W,0.25,155.79,121019,,,A*79
$GPRMC,120518.500,A,4308.3061,N,07726.2647,W,0.33,163.35,121019,,,A*76
$GPGGA,120518.750,4308.3061,N,07726.2647,W,1,06,1.71,162.0,M,-34.4,M,,*51
$GPGGA,120519.250,4308.3060,N,07726.2647,W,1,06,1.71,162.0,M,-34.4,M,,*54
$GPRMC,120519.250,A,4308.3060,N,07726.2647,W,0.16,192.60,121019162.0,M,-34.4,M,,*56
$GPRMC,120519.500,A,4308.3060,N,07726.2647,W,0.12,173.92,1210197F
$GPGGA,120520.000,4308.3060,N,07726.2647,W,1,06,1.71,162.0,M,-34.4,M,,*59
$GPGGA,120520.500,4308.3060,N,07726.2646,W,1,06,1.71,162.0,M,-34.4,M,,*5D
$GPRMC,120520.500,A,4308.3060,N,07726.2646,W,0.23,168.77,121019,,,A*71
$GPRMC,120521.000,A,4308.3059,N,07726.2646,W,0.23,159.60,121019,,,A*7B
$GPGGA,120521.250,4308.3059,N,07726.2646,W,1,06,1.71,162.0,M,-34.4,M,,*54
$GPRMC,120521.750,A,4308.3059,N,07726.2646,W,0.24,145.00,121019,,,A*75
$GPGGA,120522.000,4308.3059,N,07726.2646,W,1,06,1.70,162.0,M,-34.4,M,,*51
$GPGGA,120522.500,4308.3059,N,07726.2645,W,1,06,1.71,162.0,M,-34.4,M,,*56
$GPRMC,120522.500,A,4308.3059,N,07726.2645,W,0.16,109.47,121019,,,A*78
$GPRMC,120523.000,A,4308.3058,N,07726.2645,W,0.04,88.73,121019,,,A*41
$GPGGA,120523.250,4308.3058,N,07726.2645,W,1,06,1.71,162.0,M,-34.4,M,,*54
$GPRMC,120523.750,A,4308.3058,N,07726.2645,W,0.05,286.95,121019,,,A*76
$GPGGA,120524.000,4308.3058,N,07726.2645,W,1,06,1.71,162.0,M,-34.4,M,,*54
$GPRMC,120524.000,A,4308.3058,N,07726.2645,W,0.01,116.75,12101
$GPGGA,120524.500,4308.3058,N,07726.2645,W,1,06,1.71,162.0,M,-34.4,M,,*51
$GPGGA,120525.000,4308.3058,N,07726.2645,W,1,06,1.71,162.0,M,-34.4,M,,*55
$GPRMC,120525.000,A,4308.3058,N,07726.2645,W,0.06,270.58,121019,,,A*79
$GPRMC,120525.500,A,4308.3058,N,07726.2645,W,0.08,82.30,121019,,,A*43
$GPGGA,120525.750,4308.3058,N,07726.2645,W,1,06,1.71,162.0,M,-34.4,M,,*57
$GPGGA,120526.250,4308.3058,N,07726.2645,W,1,06,1.71,162.0,M,-34.4,M,,*51
$GPRMC,120526.250,A,4308.3058,N,07726.2645,W,0.04,48.04,121019,,,A*4F
$GPGGA,120526.500,4308.3058,N,07726.2645,W,1,06,1.71,162.0,M,-34.4,M,,*53
$GPRMC,120526.500,A,4308.3058,N,07726.2645,W,0.03,69.45,121019,,,A*4C
$GPGGA,120526.750,4308.3058,N,07726.2645,W,1,06,1.71,162.0,M,-
$GPGGA,120527.000,4308.3058,N,07726.2645,W,1,06,1.71,162.0,M,-34.4,M,,*57
$GPGGA,120527.500,4308.3058,N,07726.2645,W,1,06,1.71,162.0,M,-34.4,M,,*52
$GPRMC,120527.500,A,4308.3058,N,07726.2645,W,0.15,125.39,121019,,,A*78
$GPRMC,120528.000,A,4308.3058,N,07726.2645,W,0.09,92.91,121019,,,A*40
$GPGGA,120528.250,4308.3058,N,07726.2645,W,1,06,1.71,162.0,M,-34.4,M,,*5F
$GPGGA,120528.750,4308.3058,N,07726.2644,W,1,06,1.71,162.0,M,-34.4,M,,*5B
$GPRMC,120528.750,A,4308.3058,N,07726.2644,W,0.19,109.50,121019,,A*7C
$GPRMC,120529.250,A,4308.3058,N,07726.2644,W,0.09,119.00,121019,,,A*7D
$GPGGA,120529.500,4308.3058,N,07726.2644,W,1,06,1.71,162.0,M,-34.4,M,,*5D
$GPGGA,120530.000,4308.3058,N,07726.2644,W,1,06,1.71,162.0,M,-34.4,M,,*50
$GPRMC,120530.000,A,4308.3058,N,07726.2644,W,0.02,54.97,121019,162.0,M,-34.4,M,,*57
$GPRMC,120530.250,A,4308.3058,N,07726.2644,W,0.04,157.35,121019D
$GPGGA,120530.750,4308.3058,N,07726.2644,W,1,06,1.71,162.0,M,-34.4,M,,*52
$GPRMC,120531.250,A,4308.3058,N,07726.2644,W,0.04,111.49,121019,,,A*7C
$GPGGA,120531.500,4308.3058,N,07726.2644,W,1,06,1.71,162.0,M,-34.4,M,,*54
$GPGGA,120532.000,4308.3057,N,07726.2644,W,1,06,1.71,162.0,M,-34.4,M,,*5D
$GPRMC,120532.000,A,4308.3057,N,07726.2644,W,0.12,103.11,121019,,A*7E
$GPRMC,120532.500,A,4308.3057,N,07726.2643,W,0.05,61.49,121019,,,A*42
$GPGGA,120532.750,4308.3057,N,07726.2643,W,1,06,1.71,162.0,M,-34.4,M,,*58
$GPGGA,120533.250,4308.3057,N,07726.2643,W,1,06,1.71,162.0,M,-34.4,M,,*5C
$GPRMC,120533.250,A,4308.3057,N,07726.2643,W,0.06,115.95,121019,,,A*71
$GPRMC,120533.750,A,4308.3057,N,07726.2643,W,0.12,155.68,121019,,,A*77
$GPGGA,120534.000,4308.3057,N,07726.2643,W,1,06,1.71,161.9,M,-34.4,M,,*56
$GPGGA,120534.500,4308.3057,N,07726.2643,W,1,06,1.71,161.9,M,-34.4,M,,*53
$GPRMC,120534.500,A,4308.3057,N,07726.2643,W,0.16,175.25,1210191.9,M,-34.4,M,,*54
$GPGGA,120535.250,4308.3057,N,07726.2643,W,1,06,1.71,161.9,M,-34.4,M,,*50
$GPRMC,120535.250,A,4308.3057,N,07726.2643,W,0.20,144.16,121019,,,A*7C
$GPRMC,120535.750,A,4308.3056,N,07726.2643,W,0.18,150.01,121019,,,A*70
$GPGGA,120536.000,4308.3056,N,07726.2643,W,1,06,1.71,161.9,M,-34.4,M,,*55
$GPGGA,120536.500,4308.3056,N,07726.2643,W,1,06,1.71,161.9,M,-34.4,M,,*50
$GPRMC,120536.500,A,4308.3056,N,07726.2643,W,0.13,192.28,121019,,,A*7A
$GPRMC,120537.000,A,4308.3056,N,07726.2643,W,0.26,210.41,121019,,,A*7E
$GPGGA,120537.250,4308.3056,N,07726.2643,W,1,06,1.71,161.9,M,-34.4,M,,*53
$GPGGA,120537.750,4308.3056,N,07726.2643,W,1,06,1.71,161.9,M,-34.4,M,,*56
$GPRMC,120537.750,A,4308.3056,N,07726.2643,W,0.16,218.80,121019,,,A*7A
$GPRMC,120538.250,A,4308.3055,N,07726.2643,W,0.09,191.65,121019,,,A*74
$GPGGA,120538.500,4308.3055,N,07726.2643,W,1,06,1.70,161.9,M,-34.4,M,,*5C
$GPRMC,120539.000,A,4308.3055,N,07726.2643,W,0.22,144.23,121019,,,A*71
$GPGGA,120539.250,4308.3055,N,07726.2643,W,1,06,1.71,161.9,M,-34.4,M,,*5E
$GPRMC,120539.250,A,4308.3055,N,07726.2643,W,0.23,152.66,1210195
$GPGGA,120539.750,4308.3055,N,07726.2643,W,1,06,1.71,161.9,M,-34.4,M,,*5B
$GPGGA,120540.250,4308.3054,N,07726.2643,W,1,06,1.71,161.9,M,-34.4,M,,*51
$GPRMC,120540.250,A,4308.3054,N,07726.2643,W,0.15,124.76,121019,,,A*7B
$GPRMC,120540.750,A,4308.3054,N,07726.2642,W,0.16,158.94,121019,,,A*7B
$GPGGA,120541.000,4308.3054,N,07726.2642,W,1,06,1.71,161.9,M,-34.4,M,,*56
$GPRMC,120541.500,A,4308.3054,N,07726.2642,W,0.12,171.58,121019,,,A*72
$GPGGA,120541.750,4308.3054,N,07726.2642,W,1,06,1.70,161.9,M,-34.4,M,,*55
$GPGGA,120542.250,4308.3054,N,07726.2642,W,1,06,1.71,161.9,M,-34.4,M,,*52
$GPRMC,120542.250,A,4308.3054,N,07726.2642,W,0.07,83.27,121019,,A*43
$GPRMC,120542.750,A,4308.3054,N,07726.2642,W,0.13,68.87,121019,,,A*4C
$GPGGA,120543.000,4308.3054,N,07726.2642,W,1,06,1.71,161.9,M,-34.4,M,,*54
$GPGGA,120543.500,4308.3054,N,07726.2642,W,1,06,1.71,161.9,M,-34.4,M,,*51
$GPRMC,120543.500,A,4308.3054,N,07726.2642,W,0.16,118.14,121019,161.9,M,-34.4,M,,*56
$GPRMC,120543.750,A,4308.3054,N,07726.2642,W,0.17,147.23,121019F
$GPGGA,120544.250,4308.3054,N,07726.2641,W,1,06,1.71,161.9,M,-34.4,M,,*57
$GPGGA,120544.750,4308.3053,N,07726.2641,W,1,06,1.71,161.9,M,-34.4,M,,*55
$GPRMC,120544.750,A,4308.3053,N,07726.2641,W,0.15,164.04,121019,,,A*7E
$GPRMC,120545.250,A,4308.3053,N,07726.2641,W,0.14,157.18,121019,,,A*76
$GPGGA,120545.500,4308.3053,N,07726.2641,W,1,06,1.70,161.9,M,-34.4,M,,*52
$GPRMC,120546.000,A,4308.3053,N,07726.2641,W,0.15,148.36,121019,,,A*71
$GPGGA,120546.250,4308.3053,N,07726.2641,W,1,06,1.71,161.9,M,-34.4,M,,*52
$GPRMC,120546.750,A,4308.3053,N,07726.2641,W,0.14,154.96,121019,,,A*75
$GPGGA,120547.000,4308.3053,N,07726.2641,W,1,06,1.71,162.0,M,-34.4,M,,*5E
$GPGGA,120547.500,4308.3053,N,07726.2641,W,1,06,1.70,162.0,M,-34.4,M,,*5A
$GPRMC,120547.500,A,4308.3053,N,07726.2641,W,0.04,273.53,121019,,A*7D
$GPRMC,120548.000,A,4308.3053,N,07726.2641,W,0.07,230.60,121019,,,A*73
$GPGGA,120548.250,4308.3053,N,07726.2641,W,1,06,1.71,162.0,M,-34.4,M,,*56
$GPRMC,120548.250,A,4308.3053,N,07726.2641,W,0.07,202.56,12101
$GPGGA,120548.750,4308.3052,N,07726.2641,W,1,06,1.70,162.0,M,-34.4,M,,*53
$GPGGA,120549.250,4308.3052,N,07726.2641,W,1,06,1.71,162.0,M,-34.4,M,,*56
$GPRMC,120549.250,A,4308.3052,N,07726.2641,W,0.25,146.97,121019,,,A*7E
$GPRMC,120549.750,A,4308.3052,N,07726.2640,W,0.28,128.72,121019,,,A*74
$GPGGA,120550.000,4308.3052,N,07726.2640,W,1,06,1.71,162.0,M,-34.4,M,,*58
$GPRMC,120550.500,A,4308.3052,N,07726.2640,W,0.16,124.67,121019,,,A*7E
$GPGGA,120550.750,4308.3052,N,07726.2640,W,1,06,1.70,162.0,M,-34.4,M,,*5B
$GPGGA,120551.250,4308.3051,N,07726.2639,W,1,06,1.71,162.0,M,-34.4,M,,*53
$GPRMC,120551.250,A,4308.3051,N,07726.2639,W,0.27,163.22,121019,,A*70
$GPRMC,120551.750,A,4308.3051,N,07726.2639,W,0.16,159.53,121019,,,A*78
$GPGGA,120552.000,4308.3051,N,07726.2639,W,1,06,1.71,162.0,M,-34.4,M,,*57
$GPGGA,120552.500,4308.3051,N,07726.2639,W,1,06,1.70,162.0,M,-34.4,M,,*53
$GPRMC,120552.500,A,4308.3051,N,07726.2639,W,0.02,329.42,121019.0,M,-34.4,M,,*55
$GPGGA,120553.250,4308.3051,N,07726.2639,W,1,06,1.71,162.0,M,-34.4,M,,*51
$GPRMC,120553.250,A,4308.3051,N,07726.2639,W,0.17,37.16,121019,,A*46
$GPRMC,120553.750,A,4308.3051,N,07726.2639,W,0.11,133.16,121019,,,A*70
$GPGGA,120554.000,4308.3051,N,07726.2639,W,1,06,1.71,162.0,M,-34.4,M,,*51
$GPGGA,120554.500,4308.3051,N,07726.2639,W,1,06,1.71,162.0,M,-34.4,M,,*54
$GPRMC,120554.500,A,4308.3051,N,07726.2639,W,0.04,101.70,121019,,A*75
$GPRMC,120555.000,A,4308.3051,N,07726.2639,W,0.02,15.01,121019,,,A*45
$GPGGA,120555.250,4308.3051,N,07726.2639,W,1,06,1.71,162.0,M,-34.4,M,,*57
$GPGGA,120555.750,4308.3051,N,07726.2639,W,1,06,1.71,162.0,M,-34.4,M,,*52
$GPRMC,120555.750,A,4308.3051,N,07726.2639,W,0.04,193.59,121019,,A*73
$GPRMC,120556.250,A,4308.3051,N,07726.2639,W,0.08,340.18,121019,,,A*70
$GPGGA,120556.500,4308.3051,N,07726.2639,W,1,06,1.71,162.0,M,-34.4,M,,*56
$GPGGA,120557.000,4308.3051,N,07726.2639,W,1,06,1.71,162.0,M,-34.4,M,,*52
$GPRMC,120557.000,A,4308.3051,N,07726.2639,W,0.16,330.20,121019M,-34.4,M,,*55
$GPRMC,120557.250,A,4308.3051,N,07726.2639,W,0.15,333.31,12101976
$GPGGA,120557.750,4308.3051,N,07726.2639,W,1,06,1.71,162.0,M,-34.4,M,,*50
$GPGGA,120558.250,4308.3052,N,07726.2639,W,1,06,1.71,162.0,M,-34.4,M,,*59
$GPRMC,120558.250,A,4308.3052,N,07726.2639,W,0.15,308.36,121019,,,A*71
$GPGGA,120558.500,4308.3052,N,07726.2640,W,1,06,1.71,162.0,M,-
$GPGGA,120558.750,4308.3052,N,07726.2640,W,1,06,1.71,162.0,M,-34.4,M,,*52
$GPGGA,120559.250,4308.3052,N,07726.2640,W,1,06,1.71,162.0,M,-34.4,M,,*56
$GPRMC,120559.250,A,4308.3052,N,07726.2640,W,0.09,321.41,121019162.0,M,-34.4,M,,*54
$GPRMC,120559.500,A,4308.3052,N,07726.2640,W,0.09,325.09,1210193
$GPGGA,120600.000,4308.3052,N,07726.2640,W,1,06,1.71,162.0,M,-34.4,M,,*5E
$GPGGA,120600.500,4308.3052,N,07726.2640,W,1,06,1.71,162.0,M,-34.4,M,,*5B
$GPRMC,120600.500,A,4308.3052,N,07726.2640,W,0.02,216.59,121019,,A*72
$GPRMC,120601.000,A,4308.3052,N,07726.2640,W,0.02,18.46,121019,,,A*44
$GPGGA,120601.250,4308.3052,N,07726.2640,W,1,06,1.71,162.0,M,-34.4,M,,*58
$GPRMC,120601.750,A,4308.3052,N,07726.2640,W,0.00,289.15,121019,,,A*78
$GPGGA,120602.000,4308.3052,N,07726.2640,W,1,06,1.71,162.0,M,-34.4,M,,*5C
$GPRMC,120602.500,A,4308.3052,N,07726.2640,W,0.05,295.65,121019,,,A*73
$GPGGA,120602.750,4308.3052,N,07726.2640,W,1,06,1.71,162.0,M,-34.4,M,,*5E
$GPGGA,120603.250,4308.3052,N,07726.2640,W,1,06,2.07,162.0,M,-34.4,M,,*58
$GPRMC,120603.250,A,4308.3052,N,07726.2640,W,0.12,354.33,121019,,,A*79
$GPRMC,120603.750,A,4308.3052,N,07726.2640,W,0.15,359.66,121019,,,A*76
$GPGGA,120604.000,4308.3052,N,07726.2640,W,1,06,2.07,162.0,M,-3,M,,*58
$GPGGA,120604.500,4308.3053,N,07726.2640,W,1,06,2.07,162.0,M,-34.4,M,,*5C
$GPRMC,120604.500,A,4308.3053,N,07726.2640,W,0.24,352.75,121019,,,A*7C
$GPRMC,120605.000,A,4308.3053,N,07726.2640,W,0.35,341.26,121019,,,A*7C
$GPGGA,120605.250,4308.3053,N,07726.2640,W,1,06,1.71,162.0,M,-34.4,M,,*5D
$GPGGA,120605.750,4308.3054,N,07726.2640,W,1,06,1.70,162.0,M,-34.4,M,,*5E
$GPRMC,120605.750,A,4308.3054,N,07726.2640,W,0.37,352.59,121019,,,A*71
$GPRMC,120606.250,A,4308.3054,N,07726.2640,W,0.34,0.26,121019,,,A*78
$GPGGA,120606.500,4308.3054,N,07726.2640,W,1,06,2.07,162.0,M,-34.4,M,,*59
$GPGGA,120607.000,4308.3055,N,07726.2640,W,1,06,2.07,162.0,M,-34.4,M,,*5C
$GPRMC,120607.000,A,4308.3055,N,07726.2640,W,0.26,7.73,121019,,,A*7B
$GPGGA,120607.250,4308.3055,N,07726.2640,W,1,06,2.07,162.0,M,-3E
$GPGGA,120607.500,4308.3055,N,07726.2640,W,1,06,2.07,162.0,M,-34.4,M,,*59
$GPGGA,120608.000,4308.3055,N,07726.2640,W,1,06,1.71,162.0,M,-34.4,M,,*51
$GPRMC,120608.000,A,4308.3055,N,07726.2640,W,0.06,325.57,121019,162.0,M,-34.4,M,,*57
$GPRMC,120608.750,A,4308.3055,N,07726.2641,W,0.10,281.24,121019,,,A*7C
$GPGGA,120609.000,4308.3055,N,07726.2641,W,1,06,1.71,162.0,M,-34.4,M,,*51
$GPGGA,120609.500,4308.3055,N,07726.2641,W,1,06,1.70,162.0,M,-34.4,M,,*55
$GPRMC,120609.500,A,4308.3055,N,07726.2641,W,0.07,280.25,121019,,,A*7C
$GPRMC,120610.000,A,4308.3055,N,07726.2641,W,0.13,334.42,121019,,,A*7B
$GPGGA,120610.250,4308.3055,N,07726.2641,W,1,06,1.71,162.0,M,-34.4,M,,*5E
$GPRMC,120610.750,A,4308.3056,N,07726.2641,W,0.08,329.72,121019,,,A*7F
$GPGGA,120611.000,4308.3056,N,07726.2641,W,1,06,1.71,162.0,M,-34.4,M,,*5B
$GPGGA,120611.500,4308.3055,N,07726.2641,W,1,06,1.71,162.0,M,-34.4,M,,*5D
$GPRMC,120611.500,A,4308.3055,N,07726.2641,W,0.08,174.49,121019,,A*78
$GPRMC,120612.000,A,4308.3055,N,07726.2641,W,0.05,322.31,121019,,,A*7D
$GPGGA,120612.250,4308.3055,N,07726.2641,W,1,06,1.71,162.0,M,-34.4,M,,*5C
$GPGGA,120612.750,4308.3056,N,07726.2641,W,1,06,1.70,162.0,M,-34.4,M,,*5B
$GPRMC,120612.750,A,4308.3056,N,07726.2641,W,0.15,300.93,121019162.0,M,-34.4,M,,*58
$GPRMC,120613.000,A,4308.3056,N,07726.2641,W,0.13,302.78,1210197B
$GPGGA,120613.500,4308.3056,N,07726.2642,W,1,06,1.71,162.0,M,-34.4,M,,*5F
$GPGGA,120614.000,4308.3056,N,07726.2642,W,1,06,1.71,162.0,M,-34.4,M,,*5D
$GPRMC,120614.000,A,4308.3056,N,07726.2642,W,0.07,209.03,121019,,,A*70
$GPRMC,120614.500,A,4308.3056,N,07726.2642,W,0.06,263.92,121019,,,A*70
$GPGGA,120614.750,4308.3056,N,07726.2642,W,1,06,1.70,162.0,M,-34.4,M,,*5E
$GPRMC,120615.250,A,4308.3056,N,07726.2642,W,0.02,124.41,121019,,,A*79
$GPGGA,120615.500,4308.3056,N,07726.2642,W,1,06,1.70,162.0,M,-34.4,M,,*58
$GPGGA,120616.000,4308.3056,N,07726.2642,W,1,06,1.70,162.0,M,-34.4,M,,*5E
$GPRMC,120616.000,A,4308.3056,N,07726.2642,W,0.07,217.78,121019,,,A*71
$GPRMC,120616.500,A,4308.3055,N,07726.2642,W,0.12,248.27,121019,,,A*73
$GPGGA,120616.750,4308.3055,N,07726.2642,W,1,06,1.71,162.0,M,-34.4,M,,*5E
$GPGGA,120617.250,4308.3055,N,07726.2642,W,1,06,1.71,162.0,M,-34.4,M,,*5A
$GPRMC,120617.250,A,4308.3055,N,07726.2642,W,0.15,226.57,121019,162.0,M,-34.4,M,,*59
$GPRMC,120617.500,A,4308.3055,N,07726.2643,W,0.16,197.46,12101978
$GPGGA,120618.000,4308.3055,N,07726.2643,W,1,06,1.71,162.0,M,-34.4,M,,*53
$GPRMC,120618.500,A,4308.3055,N,07726.2642,W,0.11,170.82,121019,,,A*79
$GPGGA,120618.750,4308.3055,N,07726.2642,W,1,06,1.70,162.0,M,-34.4,M,,*51
$GPGGA,120619.250,4308.3054,N,07726.2642,W,1,06,1.70,162.0,M,-34.4,M,,*54
$GPRMC,120619.250,A,4308.3054,N,07726.2642,W,0.15,181.89,121019,,A*7A
$GPRMC,120619.750,A,4308.3054,N,07726.2642,W,0.22,191.28,121019,,,A*71
$GPGGA,120620.000,4308.3054,N,07726.2643,W,1,06,1.71,162.0,M,-34.4,M,,*59
$GPGGA,120620.500,4308.3054,N,07726.2643,W,1,06,1.71,162.0,M,-34.4,M,,*5C
$GPRMC,120620.500,A,4308.3054,N,07726.2643,W,0.29,191.59,121019,,,A*70
$GPRMC,120621.000,A,4308.3053,N,07726.2643,W,0.27,187.60,121019,,,A*70
$GPGGA,120621.250,4308.3053,N,07726.2643,W,1,06,1.71,162.0,M,-34.4,M,,*58
$GPGGA,120621.750,4308.3053,N,07726.2643,W,1,06,1.71,162.0,M,-34.4,M,,*5D
$GPRMC,120621.750,A,4308.3053,N,07726.2643,W,0.27,178.16,12101962.0,M,-34.4,M,,*5C
$GPGGA,120622.500,4308.3052,N,07726.2643,W,1,06,1.70,162.0,M,-34.4,M,,*59
$GPRMC,120622.500,A,4308.3052,N,07726.2643,W,0.32,169.46,121019,,,A*77
$GPRMC,120623.000,A,4308.3052,N,07726.2643,W,0.25,168.00,121019,,,A*76
$GPGGA,120623.250,4308.3051,N,07726.2643,W,1,06,1.70,162.0,M,-34.4,M,,*59
$GPGGA,120623.750,4308.3051,N,07726.2643,W,1,06,1.71,162.0,M,-34.4,M,,*5D
$GPRMC,120623.750,A,4308.3051,N,07726.2643,W,0.29,163.66,121019,,A*70
$GPRMC,120624.250,A,4308.3051,N,07726.2643,W,0.32,180.26,121019,,,A*71
$GPGGA,120624.500,4308.3050,N,07726.2643,W,1,06,1.71,162.0,M,-34.4,M,,*5C
$GPGGA,120625.000,4308.3050,N,07726.2643,W,1,06,1.70,162.0,M,-34.4,M,,*59
$GPRMC,120625.000,A,4308.3050,N,07726.2643,W,0.28,192.82,121019,,,A*70
$GPRMC,120625.500,A,4308.3050,N,07726.2643,W,0.22,191.32,121019,,,A*77
$GPGGA,120625.750,4308.3049,N,07726.2643,W,1,06,1.70,162.0,M,-34.4,M,,*53
$GPGGA,120626.250,4308.3049,N,07726.2643,W,1,06,1.71,162.0,M,-34.4,M,,*54
$GPRMC,120626.250,A,4308.3049,N,07726.2643,W,0.14,171.64,12101
$GPRMC,120626.500,A,4308.3049,N,07726.2643,W,0.18,163.01,121019
$GPGGA,120627.000,4308.3049,N,07726.2643,W,1,06,1.71,162.0,M,-34.4,M,,*52
$GPGGA,120627.500,4308.3049,N,07726.2643,W,1,06,1.70,162.0,M,-34.4,M,,*56
$GPRMC,120627.500,A,4308.3049,N,07726.2643,W,0.10,172.51,121019,,,A*74
$GPRMC,120628.000,A,4308.3049,N,07726.2643,W,0.10,167.78,121019,,,A*71
$GPGGA,120628.250,4308.3049,N,07726.2643,W,1,06,1.71,162.0,M,-34.4,M,,*5A
