Vers 81
USE_SERIAL_FEEDBACK=true
DEVELOPMENT_MODE=false
USE_RMC_ONLY=false

$GPRMC,122104.250,A,4308.3040,N,07726.2627,W,0.03,49.67,130919,,,A*4E
$GPGGA,122104.500,4308.3039,N,07726.2629,W,1,05,1.98,154.5,M,-34.4,M,,*5C
$GPRMC,122104.750,A,4308.3040,N,07726.2630,W,0.02,164.48,130919,,,A*7F
$GPGGA,122105.000,4308.3041,N,07726.2631,W,1,05,1.98,154.5,M,-34.4,M,,*5E
$GPRMC,122105.250,A,4308.3041,N,07726.2632,W,0.01,209.96,130919,,,A*70
$GPGGA,122105.500,4308.3041,N,07726.2633,W,1,05,1.98,154.5,M,-34.4,M,,*59
$GPRMC,122105.750,A,4308.3042,N,07726.2635,W,0.01,187.62,130919,,,A*7F
$GPGGA,122106.000,4308.3043,N,07726.2637,W,1,05,1.98,153.6,M,-34.4,M,,*5D
$GPRMC,122106.250,A,4308.3043,N,07726.2639,W,0.00,47.86,130919,,,A*42
$GPGGA,122106.500,4308.3045,N,07726.2640,W,1,05,1.98,153.1,M,-34.4,M,,*59
$GPRMC,122106.750,A,4308.3046,N,07726.2641,W,0.02,169.14,130919,,,A*79
$GPGGA,122107.000,4308.3048,N,07726.2641,W,1,05,1.98,153.0,M,-34.4,M,,*50
$GPRMC,122107.250,A,4308.3048,N,07726.2642,W,0.03,225.26,130919,,,A*7B
$GPGGA,122107.500,4308.3049,N,07726.2642,W,1,05,1.98,152.9,M,-34.4,M,,*5F
$GPRMC,122107.750,A,4308.3049,N,07726.2642,W,0.03,102.23,130919,,,A*7C
$GPGGA,122108.000,4308.3050,N,07726.2642,W,1,05,1.98,152.7,M,-34.4,M,,*53
$GPRMC,122108.250,A,4308.3050,N,07726.2642,W,0.03,164.33,130919,,,A*7F
$GPGGA,122108.500,4308.3051,N,07726.2642,W,1,05,1.98,152.8,M,-34.4,M,,*58
$GPRMC,122108.750,A,4308.3051,N,07726.2642,W,0.02,154.68,130919,,,A*77
$GPGGA,122109.000,4308.3051,N,07726.2642,W,1,05,1.98,152.8,M,-34.4,M,,*5C
$GPRMC,122109.250,A,4308.3051,N,07726.2641,W,0.03,196.50,130919,,,A*74
$GPGGA,122109.500,4308.3051,N,07726.2641,W,1,05,1.98,152.9,M,-34.4,M,,*5B
$GPRMC,122109.750,A,4308.3052,N,07726.2641,W,0.05,6.77,130919,,,A*79
$GPGGA,122110.000,4308.3052,N,07726.2641,W,1,05,3.54,153.0,M,-34.4,M,,*5F
$GPRMC,122110.250,A,4308.3053,N,07726.2641,W,0.02,6.57,130919,,,A*70
$GPGGA,122110.500,4308.3053,N,07726.2641,W,1,05,3.54,153.0,M,-34.4,M,,*5B
$GPRMC,122110.750,A,4308.3053,N,07726.2641,W,0.02,285.11,130919,,,A*7E
$GPGGA,122111.000,4308.3054,N,07726.2641,W,1,05,1.98,153.1,M,-34.4,M,,*5B
$GPRMC,122111.250,A,4308.3055,N,07726.2642,W,0.02,134.09,130919,,,A*7F
$GPGGA,122111.500,4308.3056,N,07726.2641,W,1,05,1.98,153.4,M,-34.4,M,,*59
$GPRMC,122111.750,A,4308.3057,N,07726.2642,W,0.02,181.97,130919,,,A*71
$GPGGA,122112.000,4308.3057,N,07726.2642,W,1,05,1.98,153.4,M,-34.4,M,,*5D
$GPRMC,122112.250,A,4308.3058,N,07726.2643,W,0.04,167.56,130919,,,A*7A
$GPGGA,122112.500,4308.3058,N,07726.2643,W,1,05,1.98,153.4,M,-34.4,M,,*56
$GPRMC,122112.750,A,4308.3059,N,07726.2643,W,0.03,332.98,130919,,,A*79
$GPGGA,122113.000,4308.3059,N,07726.2644,W,1,05,1.98,153.4,M,-34.4,M,,*54
$GPRMC,122113.250,A,4308.3059,N,07726.2644,W,0.07,194.37,130919,,,A*75
$GPGGA,122113.500,4308.3059,N,07726.2644,W,1,05,1.98,153.3,M,-34.4,M,,*56
$GPRMC,122113.750,A,4308.3059,N,07726.2645,W,0.03,204.93,130919,,,A*71
$GPGGA,122114.000,4308.3059,N,07726.2645,W,1,05,1.98,153.2,M,-34.4,M,,*54
$GPRMC,122114.250,A,4308.3059,N,07726.2645,W,0.01,61.36,130919,,,A*4F
$GPGGA,122114.500,4308.3059,N,07726.2645,W,1,05,1.98,153.3,M,-34.4,M,,*50
$GPRMC,122114.750,A,4308.3059,N,07726.2645,W,0.03,332.87,130919,,,A*77
$GPGGA,122115.000,4308.3058,N,07726.2645,W,1,05,1.98,153.4,M,-34.4,M,,*52
$GPRMC,122115.250,A,4308.3058,N,07726.2645,W,0.10,188.86,130919,,,A*72
$GPGGA,122115.500,4308.3057,N,07726.2645,W,1,05,1.98,153.4,M,-34.4,M,,*58
$GPRMC,122115.750,A,4308.3056,N,07726.2645,W,0.18,222.53,130919,,,A*7A
$GPGGA,122116.000,4308.3055,N,07726.2645,W,1,05,1.98,153.4,M,-34.4,M,,*5C
$GPRMC,122116.250,A,4308.3054,N,07726.2645,W,0.14,213.80,130919,,,A*7E
$GPGGA,122116.500,4308.3053,N,07726.2645,W,1,05,1.98,153.4,M,-34.4,M,,*5F
$GPRMC,122116.750,A,4308.3052,N,07726.2645,W,0.11,212.29,130919,,,A*7A
$GPGGA,122117.000,4308.3051,N,07726.2645,W,1,05,1.98,153.4,M,-34.4,M,,*59
$GPRMC,122117.250,A,4308.3050,N,07726.2646,W,0.10,233.07,130919,,,A*71
$GPGGA,122117.500,4308.3049,N,07726.2646,W,1,05,1.98,153.4,M,-34.4,M,,*56
$GPRMC,122117.750,A,4308.3049,N,07726.2646,W,0.07,272.83,130919,,,A*73
$GPGGA,122118.000,4308.3049,N,07726.2646,W,1,05,1.98,153.6,M,-34.4,M,,*5E
$GPRMC,122118.250,A,4308.3048,N,07726.2646,W,0.14,274.61,130919,,,A*70
$GPGGA,122118.500,4308.3048,N,07726.2645,W,1,05,1.98,153.8,M,-34.4,M,,*57
$GPRMC,122118.750,A,4308.3048,N,07726.2645,W,0.10,237.24,130919,,,A*74
$GPGGA,122119.000,4308.3047,N,07726.2645,W,1,05,1.98,154.0,M,-34.4,M,,*53
$GPRMC,122119.250,A,4308.3047,N,07726.2644,W,0.07,201.05,130919,,,A*7E
$GPGGA,122119.500,4308.3047,N,07726.2644,W,1,05,1.98,154.3,M,-34.4,M,,*54
$GPRMC,122119.750,A,4308.3047,N,07726.2643,W,0.03,195.20,130919,,,A*71
$GPGGA,122120.000,4308.3047,N,07726.2643,W,1,05,1.98,154.5,M,-34.4,M,,*5A
$GPRMC,122120.250,A,4308.3047,N,07726.2643,W,0.01,139.88,130919,,,A*78
$GPGGA,122120.500,4308.3047,N,07726.2642,W,1,05,1.98,154.7,M,-34.4,M,,*5C
$GPRMC,122120.750,A,4308.3047,N,07726.2642,W,0.02,342.88,130919,,,A*71
$GPGGA,122121.000,4308.3047,N,07726.2642,W,1,05,1.98,154.9,M,-34.4,M,,*56
$GPRMC,122121.250,A,4308.3047,N,07726.2642,W,0.08,261.50,130919,,,A*7A
$GPGGA,122121.500,4308.3047,N,07726.2642,W,1,05,1.98,155.1,M,-34.4,M,,*5A
$GPRMC,122121.750,A,4308.3046,N,07726.2641,W,0.12,226.09,130919,,,A*79
$GPGGA,122122.000,4308.3046,N,07726.2641,W,1,05,1.98,155.3,M,-34.4,M,,*5C
$GPRMC,122122.250,A,4308.3046,N,07726.2641,W,0.17,207.97,130919,,,A*7E
$GPGGA,122122.500,4308.3046,N,07726.2641,W,1,05,1.98,155.5,M,-34.4,M,,*5F
$GPRMC,122122.750,A,4308.3046,N,07726.2641,W,0.10,215.76,130919,,,A*70
$GPGGA,122123.000,4308.3046,N,07726.2641,W,1,05,1.98,155.7,M,-34.4,M,,*59
$GPRMC,122123.250,A,4308.3047,N,07726.2640,W,0.03,211.82,130919,,,A*79
$GPGGA,122123.500,4308.3047,N,07726.2640,W,1,05,1.98,155.9,M,-34.4,M,,*52
$GPRMC,122123.750,A,4308.3047,N,07726.2639,W,0.07,158.18,130919,,,A*7B
$GPGGA,122124.000,4308.3047,N,07726.2639,W,1,05,1.98,156.1,M,-34.4,M,,*55
$GPRMC,122124.250,A,4308.3047,N,07726.2639,W,0.05,174.49,130919,,,A*71
$GPGGA,122124.500,4308.3047,N,07726.2639,W,1,05,1.98,156.2,M,-34.4,M,,*53
$GPRMC,122124.750,A,4308.3047,N,07726.2639,W,0.05,294.64,130919,,,A*76
$GPGGA,122125.000,4308.3048,N,07726.2639,W,1,05,1.98,156.4,M,-34.4,M,,*5E
$GPRMC,122125.250,A,4308.3048,N,07726.2639,W,0.05,306.41,130919,,,A*70
$GPGGA,122125.500,4308.3047,N,07726.2639,W,1,05,1.98,156.5,M,-34.4,M,,*55
$GPRMC,122125.750,A,4308.3047,N,07726.2640,W,0.15,209.97,130919,,,A*70
$GPGGA,122126.000,4308.3047,N,07726.2639,W,1,05,1.98,156.7,M,-34.4,M,,*51
$GPRMC,122126.250,A,4308.3047,N,07726.2639,W,0.12,181.74,130919,,,A*71
$GPGGA,122126.500,4308.3047,N,07726.2639,W,1,06,1.80,156.9,M,-34.4,M,,*50
$GPRMC,122126.750,A,4308.3047,N,07726.2639,W,0.09,202.30,130919,,,A*76
$GPGGA,122127.000,4308.3047,N,07726.2639,W,1,06,1.80,157.0,M,-34.4,M,,*5C
$GPRMC,122127.250,A,4308.3047,N,07726.2639,W,0.10,200.31,130919,,,A*79
$GPGGA,122127.500,4308.3048,N,07726.2639,W,1,06,1.80,157.1,M,-34.4,M,,*57
$GPRMC,122127.750,A,4308.3048,N,07726.2639,W,0.06,258.79,130919,,,A*75
$GPGGA,122128.000,4308.3049,N,07726.2639,W,1,06,1.80,157.3,M,-34.4,M,,*5E
$GPRMC,122128.250,A,4308.3049,N,07726.2638,W,0.05,342.17,130919,,,A*7E
$GPGGA,122128.500,4308.3049,N,07726.2638,W,1,06,1.80,157.5,M,-34.4,M,,*5C
$GPRMC,122128.750,A,4308.3049,N,07726.2638,W,0.03,23.57,130919,,,A*4D
$GPGGA,122129.000,4308.3050,N,07726.2638,W,1,06,1.80,157.7,M,-34.4,M,,*52
$GPRMC,122129.250,A,4308.3050,N,07726.2637,W,0.03,47.90,130919,,,A*47
$GPGGA,122129.500,4308.3051,N,07726.2637,W,1,06,1.80,157.9,M,-34.4,M,,*57
$GPRMC,122129.750,A,4308.3052,N,07726.2637,W,0.13,15.12,130919,,,A*4C
$GPGGA,122130.000,4308.3052,N,07726.2637,W,1,06,1.80,158.1,M,-34.4,M,,*5E
$GPRMC,122130.250,A,4308.3052,N,07726.2637,W,0.14,346.56,130919,,,A*73
$GPGGA,122130.500,4308.3053,N,07726.2637,W,1,06,2.58,158.2,M,-34.4,M,,*5F
$GPRMC,122130.750,A,4308.3053,N,07726.2637,W,0.10,336.47,130919,,,A*74
$GPGGA,122131.000,4308.3053,N,07726.2637,W,1,06,1.80,158.4,M,-34.4,M,,*5B
$GPRMC,122131.250,A,4308.3054,N,07726.2637,W,0.13,7.53,130919,,,A*70
$GPGGA,122131.500,4308.3055,N,07726.2636,W,1,06,2.58,158.5,M,-34.4,M,,*5E
$GPRMC,122131.750,A,4308.3055,N,07726.2637,W,0.14,351.35,130919,,,A*73
$GPGGA,122132.000,4308.3055,N,07726.2637,W,1,06,2.58,158.6,M,-34.4,M,,*5A
$GPRMC,122132.250,A,4308.3055,N,07726.2638,W,0.16,316.45,130919,,,A*7C
$GPGGA,122132.500,4308.3055,N,07726.2638,W,1,08,1.48,158.8,M,-34.4,M,,*52
$GPRMC,122132.750,A,4308.3056,N,07726.2638,W,0.18,301.39,130919,,,A*79
$GPGGA,122133.000,4308.3056,N,07726.2638,W,1,08,1.48,158.9,M,-34.4,M,,*54
$GPRMC,122133.250,A,4308.3056,N,07726.2638,W,0.10,334.92,130919,,,A*72
$GPGGA,122133.500,4308.3056,N,07726.2638,W,1,08,1.48,159.1,M,-34.4,M,,*58
$GPRMC,122133.750,A,4308.3057,N,07726.2638,W,0.20,344.93,130919,,,A*73
$GPGGA,122134.000,4308.3058,N,07726.2638,W,1,08,1.48,159.2,M,-34.4,M,,*57
$GPRMC,122134.250,A,4308.3059,N,07726.2638,W,0.24,6.24,130919,,,A*72
$GPGGA,122134.500,4308.3060,N,07726.2637,W,1,08,2.01,159.4,M,-34.4,M,,*5E
$GPRMC,122134.750,A,4308.3060,N,07726.2637,W,0.21,13.08,130919,,,A*4D
$GPGGA,122135.000,4308.3060,N,07726.2637,W,1,08,2.01,159.6,M,-34.4,M,,*58
$GPRMC,122135.250,A,4308.3060,N,07726.2637,W,0.10,327.99,130919,,,A*77
$GPGGA,122135.500,4308.3060,N,07726.2637,W,1,08,1.48,159.7,M,-34.4,M,,*52
$GPRMC,122135.750,A,4308.3060,N,07726.2637,W,0.11,235.34,130919,,,A*76
$GPGGA,122136.000,4308.3060,N,07726.2638,W,1,08,1.48,159.8,M,-34.4,M,,*54
$GPRMC,122136.250,A,4308.3060,N,07726.2638,W,0.11,232.51,130919,,,A*7B
$GPGGA,122136.500,4308.3060,N,07726.2638,W,1,08,1.48,159.8,M,-34.4,M,,*51
$GPRMC,122136.750,A,4308.3060,N,07726.2638,W,0.12,217.74,130919,,,A*7D
$GPGGA,122137.000,4308.3060,N,07726.2638,W,1,08,1.48,159.8,M,-34.4,M,,*55
$GPRMC,122137.250,A,4308.3060,N,07726.2638,W,0.12,200.66,130919,,,A*7C
$GPGGA,122137.500,4308.3060,N,07726.2638,W,1,08,1.48,159.8,M,-34.4,M,,*50
$GPRMC,122137.750,A,4308.3060,N,07726.2638,W,0.09,102.81,130919,,,A*7B
$GPGGA,122138.000,4308.3060,N,07726.2638,W,1,08,1.48,159.8,M,-34.4,M,,*5A
$GPRMC,122138.250,A,4308.3060,N,07726.2638,W,0.03,95.10,130919,,,A*4C
$GPGGA,122138.500,4308.3060,N,07726.2638,W,1,08,1.48,159.8,M,-34.4,M,,*5F
$GPRMC,122138.750,A,4308.3060,N,07726.2638,W,0.05,158.22,130919,,,A*7E
$GPGGA,122139.000,4308.3060,N,07726.2638,W,1,08,1.48,159.8,M,-34.4,M,,*5B
$GPRMC,122139.250,A,4308.3060,N,07726.2638,W,0.05,192.69,130919,,,A*73
$GPGGA,122139.500,4308.3060,N,07726.2638,W,1,08,1.48,159.8,M,-34.4,M,,*5E
$GPRMC,122139.750,A,4308.3060,N,07726.2638,W,0.02,35.75,130919,,,A*40
$GPGGA,122140.000,4308.3060,N,07726.2638,W,1,08,1.48,159.8,M,-34.4,M,,*55
$GPRMC,122140.250,A,4308.3060,N,07726.2638,W,0.07,332.26,130919,,,A*7C
$GPGGA,122140.500,4308.3060,N,07726.2638,W,1,08,1.48,159.8,M,-34.4,M,,*50
$GPRMC,122140.750,A,4308.3060,N,07726.2638,W,0.05,335.81,130919,,,A*71
$GPGGA,122141.000,4308.3060,N,07726.2638,W,1,08,1.48,159.8,M,-34.4,M,,*54
$GPRMC,122141.250,A,4308.3060,N,07726.2638,W,0.05,64.11,130919,,,A*4B
$GPGGA,122141.500,4308.3060,N,07726.2638,W,1,08,1.48,159.8,M,-34.4,M,,*51
$GPRMC,122141.750,A,4308.3060,N,07726.2638,W,0.06,8.73,130919,,,A*73
$GPGGA,122142.000,4308.3060,N,07726.2638,W,1,08,2.00,159.8,M,-34.4,M,,*58
$GPRMC,122142.250,A,4308.3060,N,07726.2637,W,0.31,13.45,130919,,,A*41
$GPGGA,122142.500,4308.3060,N,07726.2637,W,1,08,2.00,159.9,M,-34.4,M,,*53
$GPRMC,122142.750,A,4308.3061,N,07726.2637,W,0.90,12.54,130919,,,A*4F
$GPGGA,122143.000,4308.3063,N,07726.2637,W,1,08,2.00,160.0,M,-34.4,M,,*57
$GPRMC,122143.250,A,4308.3066,N,07726.2635,W,1.35,10.91,130919,,,A*4B
$GPGGA,122143.500,4308.3070,N,07726.2635,W,1,08,2.00,160.4,M,-34.4,M,,*56
$GPRMC,122143.750,A,4308.3073,N,07726.2634,W,3.36,358.38,130919,,,A*76
$GPGGA,122144.000,4308.3076,N,07726.2634,W,1,08,2.00,160.6,M,-34.4,M,,*51
$GPRMC,122144.250,A,4308.3081,N,07726.2635,W,4.71,355.10,130919,,,A*7B
$GPGGA,122144.500,4308.3085,N,07726.2635,W,1,08,2.00,160.9,M,-34.4,M,,*56
$GPRMC,122144.750,A,4308.3089,N,07726.2636,W,5.38,350.94,130919,,,A*70
$GPGGA,122145.000,4308.3093,N,07726.2637,W,1,08,2.00,161.1,M,-34.4,M,,*5E
$GPRMC,122145.250,A,4308.3097,N,07726.2637,W,4.95,353.32,130919,,,A*73
$GPGGA,122145.500,4308.3100,N,07726.2637,W,1,08,2.00,161.2,M,-34.4,M,,*53
$GPRMC,122145.750,A,4308.3104,N,07726.2638,W,4.92,356.54,130919,,,A*70
$GPGGA,122146.000,4308.3108,N,07726.2638,W,1,08,2.00,161.3,M,-34.4,M,,*53
$GPRMC,122146.250,A,4308.3111,N,07726.2637,W,4.80,0.96,130919,,,A*70
$GPGGA,122146.500,4308.3114,N,07726.2637,W,1,08,2.00,161.4,M,-34.4,M,,*53
$GPRMC,122146.750,A,4308.3118,N,07726.2637,W,4.48,2.95,130919,,,A*79
$GPGGA,122147.000,4308.3121,N,07726.2636,W,1,08,2.00,161.5,M,-34.4,M,,*51
$GPRMC,122147.250,A,4308.3124,N,07726.2636,W,4.21,5.36,130919,,,A*72
$GPGGA,122147.500,4308.3127,N,07726.2636,W,1,08,2.00,161.6,M,-34.4,M,,*51
$GPRMC,122147.750,A,4308.3129,N,07726.2635,W,2.92,3.53,130919,,,A*72
$GPGGA,122148.000,4308.3131,N,07726.2635,W,1,08,2.00,161.7,M,-34.4,M,,*5E
$GPRMC,122148.250,A,4308.3132,N,07726.2635,W,2.37,8.24,130919,,,A*76
$GPGGA,122148.500,4308.3133,N,07726.2634,W,1,08,2.00,161.7,M,-34.4,M,,*58
$GPRMC,122148.750,A,4308.3134,N,07726.2634,W,1.28,18.93,130919,,,A*44
$GPGGA,122149.000,4308.3135,N,07726.2634,W,1,08,1.48,161.8,M,-34.4,M,,*5A
$GPRMC,122149.250,A,4308.3136,N,07726.2634,W,1.10,13.75,130919,,,A*4A
$GPGGA,122149.500,4308.3137,N,07726.2633,W,1,08,2.00,161.8,M,-34.4,M,,*55
$GPRMC,122149.750,A,4308.3138,N,07726.2633,W,1.17,19.29,130919,,,A*42
$GPGGA,122150.000,4308.3139,N,07726.2633,W,1,08,1.48,161.9,M,-34.4,M,,*58
$GPRMC,122150.250,A,4308.3140,N,07726.2632,W,1.36,17.19,130919,,,A*4F
$GPGGA,122150.500,4308.3142,N,07726.2631,W,1,08,1.48,161.9,M,-34.4,M,,*53
$GPRMC,122150.750,A,4308.3143,N,07726.2631,W,1.56,12.97,130919,,,A*4F
$GPGGA,122151.000,4308.3145,N,07726.2631,W,1,08,2.00,161.9,M,-34.4,M,,*5F
$GPRMC,122151.250,A,4308.3147,N,07726.2632,W,2.27,359.48,130919,,,A*77
$GPGGA,122151.500,4308.3149,N,07726.2632,W,1,08,2.00,161.9,M,-34.4,M,,*55
$GPRMC,122151.750,A,4308.3150,N,07726.2632,W,2.57,1.34,130919,,,A*76
$GPGGA,122152.000,4308.3151,N,07726.2632,W,1,08,2.00,161.8,M,-34.4,M,,*5B
$GPRMC,122152.250,A,4308.3153,N,07726.2633,W,2.52,1.46,130919,,,A*72
$GPGGA,122152.500,4308.3154,N,07726.2633,W,1,08,2.00,161.8,M,-34.4,M,,*5A
$GPRMC,122152.750,A,4308.3155,N,07726.2633,W,1.62,0.70,130919,,,A*75
$GPGGA,122153.000,4308.3156,N,07726.2633,W,1,08,2.00,161.8,M,-34.4,M,,*5C
$GPRMC,122153.250,A,4308.3157,N,07726.2633,W,1.81,1.23,130919,,,A*79
$GPGGA,122153.500,4308.3159,N,07726.2633,W,1,08,2.00,161.8,M,-34.4,M,,*56
$GPRMC,122153.750,A,4308.3161,N,07726.2633,W,2.47,4.08,130919,,,A*7C
$GPGGA,122154.000,4308.3163,N,07726.2632,W,1,08,2.00,161.8,M,-34.4,M,,*5C
$GPRMC,122154.250,A,4308.3165,N,07726.2632,W,2.53,11.62,130919,,,A*46
$GPGGA,122154.500,4308.3166,N,07726.2631,W,1,08,2.00,161.8,M,-34.4,M,,*5F
$GPRMC,122154.750,A,4308.3168,N,07726.2630,W,2.87,23.88,130919,,,A*40
$GPGGA,122155.000,4308.3170,N,07726.2629,W,1,08,1.48,161.8,M,-34.4,M,,*5A
$GPRMC,122155.250,A,4308.3171,N,07726.2627,W,3.23,31.84,130919,,,A*4A
$GPGGA,122155.500,4308.3173,N,07726.2626,W,1,08,1.48,161.7,M,-34.4,M,,*5C
$GPRMC,122155.750,A,4308.3174,N,07726.2626,W,3.10,33.16,130919,,,A*42
$GPGGA,122156.000,4308.3175,N,07726.2625,W,1,08,1.48,161.6,M,-34.4,M,,*5E
$GPRMC,122156.250,A,4308.3176,N,07726.2624,W,2.78,36.57,130919,,,A*4B
$GPGGA,122156.500,4308.3177,N,07726.2623,W,1,08,1.48,161.6,M,-34.4,M,,*5F
$GPRMC,122156.750,A,4308.3178,N,07726.2622,W,2.62,42.66,130919,,,A*4C
$GPGGA,122157.000,4308.3178,N,07726.2621,W,1,07,1.52,161.5,M,-34.4,M,,*51
$GPRMC,122157.250,A,4308.3178,N,07726.2619,W,2.52,59.61,130919,,,A*4E
$GPGGA,122157.500,4308.3179,N,07726.2617,W,1,08,1.48,161.5,M,-34.4,M,,*54
$GPRMC,122157.750,A,4308.3179,N,07726.2615,W,2.03,67.89,130919,,,A*49
$GPGGA,122158.000,4308.3179,N,07726.2614,W,1,08,1.48,161.5,M,-34.4,M,,*5D
$GPRMC,122158.250,A,4308.3179,N,07726.2612,W,1.58,76.18,130919,,,A*41
$GPGGA,122158.500,4308.3180,N,07726.2611,W,1,08,1.48,161.5,M,-34.4,M,,*5B
$GPRMC,122158.750,A,4308.3180,N,07726.2611,W,0.85,54.73,130919,,,A*4D
$GPGGA,122159.000,4308.3180,N,07726.2611,W,1,08,1.48,161.5,M,-34.4,M,,*5F
$GPRMC,122159.250,A,4308.3180,N,07726.2612,W,0.42,15.48,130919,,,A*4C
$GPGGA,122159.500,4308.3181,N,07726.2613,W,1,08,1.48,161.5,M,-34.4,M,,*59
$GPRMC,122159.750,A,4308.3181,N,07726.2615,W,0.75,301.72,130919,,,A*74
$GPGGA,122200.000,4308.3180,N,07726.2618,W,1,08,1.48,161.5,M,-34.4,M,,*59
$GPRMC,122200.250,A,4308.3179,N,07726.2623,W,1.75,272.99,130919,,,A*7D
$GPGGA,122200.500,4308.3179,N,07726.2628,W,1,08,1.48,161.5,M,-34.4,M,,*59
$GPRMC,122200.750,A,4308.3179,N,07726.2633,W,3.59,273.45,130919,,,A*75
$GPGGA,122201.000,4308.3179,N,07726.2638,W,1,08,1.48,161.4,M,-34.4,M,,*5D
$GPRMC,122201.250,A,4308.3180,N,07726.2644,W,5.81,277.54,130919,,,A*70
$GPGGA,122201.500,4308.3180,N,07726.2652,W,1,08,2.00,161.4,M,-34.4,M,,*5D
$GPRMC,122201.750,A,4308.3181,N,07726.2660,W,8.27,278.55,130919,,,A*7D
$GPGGA,122202.000,4308.3182,N,07726.2669,W,1,08,2.00,161.4,M,-34.4,M,,*51
$GPRMC,122202.250,A,4308.3184,N,07726.2678,W,9.91,280.58,130919,,,A*71
$GPGGA,122202.500,4308.3185,N,07726.2688,W,1,08,2.00,161.4,M,-34.4,M,,*5C
$GPRMC,122202.750,A,4308.3186,N,07726.2699,W,10.89,280.44,130919,,,A*45
$GPGGA,122203.000,4308.3188,N,07726.2710,W,1,08,1.48,161.4,M,-34.4,M,,*5A
$GPRMC,122203.250,A,4308.3190,N,07726.2722,W,11.85,281.62,130919,,,A*4F
$GPGGA,122203.500,4308.3193,N,07726.2734,W,1,08,2.00,161.4,M,-34.4,M,,*5C
$GPRMC,122203.750,A,4308.3195,N,07726.2746,W,12.56,283.63,130919,,,A*43
$GPGGA,122204.000,4308.3198,N,07726.2758,W,1,08,1.48,161.4,M,-34.4,M,,*50
$GPRMC,122204.250,A,4308.3202,N,07726.2771,W,12.90,286.03,130919,,,A*41
$GPGGA,122204.500,4308.3206,N,07726.2782,W,1,08,2.00,161.4,M,-34.4,M,,*59
$GPRMC,122204.750,A,4308.3210,N,07726.2795,W,12.94,290.25,130919,,,A*4A
$GPGGA,122205.000,4308.3213,N,07726.2807,W,1,08,2.00,161.4,M,-34.4,M,,*5B
$GPRMC,122205.250,A,4308.3217,N,07726.2819,W,13.03,291.18,130919,,,A*42
$GPGGA,122205.500,4308.3220,N,07726.2831,W,1,08,2.00,161.4,M,-34.4,M,,*5B
$GPRMC,122205.750,A,4308.3224,N,07726.2843,W,13.12,291.79,130919,,,A*4F
$GPGGA,122206.000,4308.3228,N,07726.2854,W,1,08,1.48,161.4,M,-34.4,M,,*59
$GPRMC,122206.250,A,4308.3231,N,07726.2865,W,12.80,292.72,130919,,,A*4B
$GPGGA,122206.500,4308.3235,N,07726.2877,W,1,08,1.99,161.4,M,-34.4,M,,*5D
$GPRMC,122206.750,A,4308.3238,N,07726.2888,W,12.71,293.06,130919,,,A*48
$GPGGA,122207.000,4308.3241,N,07726.2899,W,1,08,1.48,161.3,M,-34.4,M,,*51
$GPRMC,122207.250,A,4308.3244,N,07726.2911,W,12.71,293.12,130919,,,A*43
$GPGGA,122207.500,4308.3249,N,07726.2922,W,1,08,1.48,161.3,M,-34.4,M,,*5D
$GPRMC,122207.750,A,4308.3252,N,07726.2933,W,12.70,295.90,130919,,,A*4C
$GPGGA,122208.000,4308.3257,N,07726.2944,W,1,08,1.47,161.2,M,-34.4,M,,*56
$GPRMC,122208.250,A,4308.3260,N,07726.2955,W,12.71,297.88,130919,,,A*4D
$GPGGA,122208.500,4308.3264,N,07726.2966,W,1,08,1.99,161.1,M,-34.4,M,,*53
$GPRMC,122208.750,A,4308.3268,N,07726.2976,W,12.63,299.28,130919,,,A*46
$GPGGA,122209.000,4308.3272,N,07726.2986,W,1,08,1.99,161.1,M,-34.4,M,,*5E
$GPRMC,122209.250,A,4308.3276,N,07726.2997,W,12.59,299.09,130919,,,A*48
$GPGGA,122209.500,4308.3281,N,07726.3007,W,1,08,1.99,161.0,M,-34.4,M,,*57
$GPRMC,122209.750,A,4308.3286,N,07726.3018,W,12.61,298.77,130919,,,A*4E
$GPGGA,122210.000,4308.3290,N,07726.3029,W,1,08,1.47,161.0,M,-34.4,M,,*55
$GPRMC,122210.250,A,4308.3293,N,07726.3040,W,12.61,298.22,130919,,,A*4A
$GPGGA,122210.500,4308.3295,N,07726.3050,W,1,08,1.99,161.0,M,-34.4,M,,*58
$GPRMC,122210.750,A,4308.3299,N,07726.3061,W,12.56,297.37,130919,,,A*49
$GPGGA,122211.000,4308.3302,N,07726.3073,W,1,08,1.99,161.0,M,-34.4,M,,*52
$GPRMC,122211.250,A,4308.3306,N,07726.3084,W,13.15,296.89,130919,,,A*43
$GPGGA,122211.500,4308.3311,N,07726.3096,W,1,08,1.99,160.9,M,-34.4,M,,*56
$GPRMC,122211.750,A,4308.3316,N,07726.3108,W,13.76,297.29,130919,,,A*4C
$GPGGA,122212.000,4308.3320,N,07726.3120,W,1,08,1.99,160.9,M,-34.4,M,,*5E
$GPRMC,122212.250,A,4308.3324,N,07726.3133,W,14.13,296.80,130919,,,A*45
$GPGGA,122212.500,4308.3329,N,07726.3145,W,1,08,1.99,160.9,M,-34.4,M,,*51
$GPRMC,122212.750,A,4308.3333,N,07726.3158,W,14.51,297.12,130919,,,A*47
$GPGGA,122213.000,4308.3337,N,07726.3170,W,1,08,1.47,160.9,M,-34.4,M,,*5F
$GPRMC,122213.250,A,4308.3342,N,07726.3183,W,14.90,297.03,130919,,,A*4E
$GPGGA,122213.500,4308.3347,N,07726.3197,W,1,08,1.99,160.9,M,-34.4,M,,*57
$GPRMC,122213.750,A,4308.3353,N,07726.3211,W,15.77,297.82,130919,,,A*42
$GPGGA,122214.000,4308.3359,N,07726.3225,W,1,08,1.99,160.9,M,-34.4,M,,*50
$GPRMC,122214.250,A,4308.3366,N,07726.3239,W,16.29,298.84,130919,,,A*4D
$GPGGA,122214.500,4308.3371,N,07726.3253,W,1,08,1.99,160.9,M,-34.4,M,,*5E
$GPRMC,122214.750,A,4308.3379,N,07726.3268,W,16.74,299.55,130919,,,A*47
$GPGGA,122215.000,4308.3385,N,07726.3283,W,1,08,1.99,161.0,M,-34.4,M,,*54
$GPRMC,122215.250,A,4308.3393,N,07726.3299,W,17.39,299.81,130919,,,A*48
$GPGGA,122215.500,4308.3401,N,07726.3315,W,1,08,1.99,161.0,M,-34.4,M,,*54
$GPRMC,122215.750,A,4308.3409,N,07726.3331,W,18.15,300.16,130919,,,A*44
$GPGGA,122216.000,4308.3416,N,07726.3346,W,1,08,1.99,161.0,M,-34.4,M,,*52
$GPRMC,122216.250,A,4308.3423,N,07726.3362,W,18.51,300.71,130919,,,A*4D
$GPGGA,122216.500,4308.3431,N,07726.3378,W,1,08,1.99,161.0,M,-34.4,M,,*5F
$GPRMC,122216.750,A,4308.3439,N,07726.3394,W,18.99,300.43,130919,,,A*4F
$GPGGA,122217.000,4308.3447,N,07726.3411,W,1,08,1.47,161.0,M,-34.4,M,,*51
$GPRMC,122217.250,A,4308.3456,N,07726.3428,W,19.56,300.66,130919,,,A*47
$GPGGA,122217.500,4308.3463,N,07726.3443,W,1,08,1.99,161.1,M,-34.4,M,,*57
$GPRMC,122217.750,A,4308.3471,N,07726.3459,W,19.62,301.30,130919,,,A*44
$GPGGA,122218.000,4308.3480,N,07726.3475,W,1,08,1.47,161.2,M,-34.4,M,,*55
$GPRMC,122218.250,A,4308.3488,N,07726.3492,W,20.02,303.41,130919,,,A*47
$GPGGA,122218.500,4308.3496,N,07726.3508,W,1,08,1.99,161.2,M,-34.4,M,,*5F
$GPRMC,122218.750,A,4308.3504,N,07726.3525,W,20.17,304.55,130919,,,A*4C
$GPGGA,122219.000,4308.3513,N,07726.3542,W,1,08,1.99,161.2,M,-34.4,M,,*59
$GPRMC,122219.250,A,4308.3523,N,07726.3559,W,20.26,306.20,130919,,,A*44
$GPGGA,122219.500,4308.3532,N,07726.3575,W,1,08,1.99,161.2,M,-34.4,M,,*5B
$GPRMC,122219.750,A,4308.3542,N,07726.3591,W,20.50,308.38,130919,,,A*44
$GPGGA,122220.000,4308.3552,N,07726.3607,W,1,08,1.99,161.3,M,-34.4,M,,*55
$GPRMC,122220.250,A,4308.3563,N,07726.3622,W,20.53,311.00,130919,,,A*43
$GPGGA,122220.500,4308.3577,N,07726.3638,W,1,08,1.99,161.5,M,-34.4,M,,*5D
$GPRMC,122220.750,A,4308.3592,N,07726.3653,W,20.92,315.40,130919,,,A*43
$GPGGA,122221.000,4308.3607,N,07726.3669,W,1,08,1.47,161.9,M,-34.4,M,,*56
$GPRMC,122221.250,A,4308.3621,N,07726.3683,W,20.73,318.68,130919,,,A*49
$GPGGA,122221.500,4308.3634,N,07726.3697,W,1,08,1.99,162.1,M,-34.4,M,,*5A
$GPRMC,122221.750,A,4308.3647,N,07726.3710,W,20.26,322.47,130919,,,A*43
$GPGGA,122222.000,4308.3662,N,07726.3723,W,1,08,1.47,162.4,M,-34.4,M,,*57
$GPRMC,122222.250,A,4308.3675,N,07726.3734,W,19.89,326.72,130919,,,A*4F
$GPGGA,122222.500,4308.3689,N,07726.3744,W,1,08,1.99,162.6,M,-34.4,M,,*57
$GPRMC,122222.750,A,4308.3703,N,07726.3754,W,19.92,332.10,130919,,,A*47
$GPGGA,122223.000,4308.3716,N,07726.3762,W,1,08,1.99,162.7,M,-34.4,M,,*51
$GPRMC,122223.250,A,4308.3729,N,07726.3771,W,19.49,336.07,130919,,,A*48
$GPGGA,122223.500,4308.3742,N,07726.3778,W,1,08,1.99,162.8,M,-34.4,M,,*51
$GPRMC,122223.750,A,4308.3756,N,07726.3785,W,19.34,339.90,130919,,,A*45
$GPGGA,122224.000,4308.3770,N,07726.3790,W,1,08,1.47,163.0,M,-34.4,M,,*5E
$GPRMC,122224.250,A,4308.3784,N,07726.3794,W,19.44,344.30,130919,,,A*4F
$GPGGA,122224.500,4308.3798,N,07726.3798,W,1,08,1.99,163.2,M,-34.4,M,,*54
$GPRMC,122224.750,A,4308.3811,N,07726.3802,W,19.08,348.50,130919,,,A*4B
$GPGGA,122225.000,4308.3825,N,07726.3805,W,1,08,1.99,163.4,M,-34.4,M,,*54
$GPRMC,122225.250,A,4308.3839,N,07726.3808,W,19.22,350.49,130919,,,A*46
$GPGGA,122225.500,4308.3856,N,07726.3809,W,1,08,1.99,163.8,M,-34.4,M,,*55
$GPRMC,122225.750,A,4308.3872,N,07726.3810,W,20.28,354.99,130919,,,A*4C
$GPGGA,122226.000,4308.3887,N,07726.3811,W,1,08,1.99,164.1,M,-34.4,M,,*58
$GPRMC,122226.250,A,4308.3903,N,07726.3811,W,21.04,358.26,130919,,,A*4B
$GPGGA,122226.500,4308.3918,N,07726.3811,W,1,08,1.99,164.3,M,-34.4,M,,*58
$GPRMC,122226.750,A,4308.3933,N,07726.3810,W,21.61,1.32,130919,,,A*45
$GPGGA,122227.000,4308.3948,N,07726.3809,W,1,08,1.99,164.4,M,-34.4,M,,*57
$GPRMC,122227.250,A,4308.3962,N,07726.3807,W,21.59,3.56,130919,,,A*48
$GPGGA,122227.500,4308.3976,N,07726.3804,W,1,08,1.99,164.6,M,-34.4,M,,*50
$GPRMC,122227.750,A,4308.3990,N,07726.3801,W,21.44,6.03,130919,,,A*4F
$GPGGA,122228.000,4308.4003,N,07726.3798,W,1,08,1.99,164.7,M,-34.4,M,,*5D
$GPRMC,122228.250,A,4308.4018,N,07726.3795,W,21.39,7.25,130919,,,A*46
$GPGGA,122228.500,4308.4032,N,07726.3792,W,1,08,1.99,164.7,M,-34.4,M,,*50
$GPRMC,122228.750,A,4308.4047,N,07726.3789,W,21.66,7.45,130919,,,A*48
$GPGGA,122229.000,4308.4061,N,07726.3786,W,1,08,1.99,164.7,M,-34.4,M,,*57
$GPRMC,122229.250,A,4308.4075,N,07726.3783,W,21.67,8.28,130919,,,A*42
$GPGGA,122229.500,4308.4089,N,07726.3779,W,1,08,1.99,164.6,M,-34.4,M,,*55
$GPRMC,122229.750,A,4308.4104,N,07726.3775,W,21.76,8.97,130919,,,A*4D
$GPGGA,122230.000,4308.4118,N,07726.3770,W,1,08,1.99,164.6,M,-34.4,M,,*58
$GPRMC,122230.250,A,4308.4133,N,07726.3767,W,21.92,9.20,130919,,,A*40
$GPGGA,122230.500,4308.4149,N,07726.3763,W,1,08,1.99,164.6,M,-34.4,M,,*5B
$GPRMC,122230.750,A,4308.4164,N,07726.3759,W,22.02,9.21,130919,,,A*41
$GPGGA,122231.000,4308.4179,N,07726.3756,W,1,08,1.99,164.6,M,-34.4,M,,*5A
$GPRMC,122231.250,A,4308.4194,N,07726.3752,W,22.06,8.63,130919,,,A*42
$GPGGA,122231.500,4308.4209,N,07726.3749,W,1,08,1.99,164.8,M,-34.4,M,,*5B
$GPRMC,122231.750,A,4308.4224,N,07726.3746,W,21.90,8.45,130919,,,A*42
$GPGGA,122232.000,4308.4239,N,07726.3743,W,1,08,1.99,165.0,M,-34.4,M,,*5D
$GPRMC,122232.250,A,4308.4254,N,07726.3740,W,21.56,8.73,130919,,,A*4A
$GPGGA,122232.500,4308.4268,N,07726.3737,W,1,08,1.99,165.1,M,-34.4,M,,*5E
$GPRMC,122232.750,A,4308.4282,N,07726.3734,W,20.90,9.18,130919,,,A*40
$GPGGA,122233.000,4308.4296,N,07726.3731,W,1,08,1.99,165.2,M,-34.4,M,,*5E
$GPRMC,122233.250,A,4308.4310,N,07726.3727,W,20.42,10.33,130919,,,A*72
$GPGGA,122233.500,4308.4323,N,07726.3724,W,1,08,1.99,165.4,M,-34.4,M,,*56
$GPRMC,122233.750,A,4308.4336,N,07726.3720,W,19.74,11.59,130919,,,A*76
$GPGGA,122234.000,4308.4349,N,07726.3716,W,1,08,1.99,165.6,M,-34.4,M,,*5B
$GPRMC,122234.250,A,4308.4362,N,07726.3712,W,19.03,12.63,130919,,,A*7E
$GPGGA,122234.500,4308.4373,N,07726.3709,W,1,08,1.99,165.5,M,-34.4,M,,*5A
$GPRMC,122234.750,A,4308.4386,N,07726.3705,W,18.24,13.76,130919,,,A*76
$GPGGA,122235.000,4308.4398,N,07726.3700,W,1,08,1.98,165.7,M,-34.4,M,,*51
$GPRMC,122235.250,A,4308.4410,N,07726.3696,W,17.58,15.32,130919,,,A*73
$GPGGA,122235.500,4308.4421,N,07726.3692,W,1,08,1.98,165.8,M,-34.4,M,,*54
$GPRMC,122235.750,A,4308.4431,N,07726.3688,W,16.76,16.42,130919,,,A*73
$GPGGA,122236.000,4308.4442,N,07726.3684,W,1,08,1.47,165.8,M,-34.4,M,,*52
$GPRMC,122236.250,A,4308.4452,N,07726.3681,W,15.79,17.16,130919,,,A*75
$GPGGA,122236.500,4308.4462,N,07726.3678,W,1,08,1.47,166.1,M,-34.4,M,,*5C
$GPRMC,122236.750,A,4308.4471,N,07726.3674,W,14.77,17.95,130919,,,A*7F
$GPGGA,122237.000,4308.4480,N,07726.3672,W,1,08,1.47,166.2,M,-34.4,M,,*5D
$GPRMC,122237.250,A,4308.4487,N,07726.3670,W,13.22,17.23,130919,,,A*7C
$GPGGA,122237.500,4308.4494,N,07726.3668,W,1,08,1.47,166.4,M,-34.4,M,,*50
$GPRMC,122237.750,A,4308.4502,N,07726.3665,W,11.45,15.28,130919,,,A*7B
$GPGGA,122238.000,4308.4509,N,07726.3663,W,1,08,1.47,166.5,M,-34.4,M,,*55
$GPRMC,122238.250,A,4308.4516,N,07726.3660,W,10.55,14.15,130919,,,A*7E
$GPGGA,122238.500,4308.4523,N,07726.3658,W,1,08,1.98,166.6,M,-34.4,M,,*51
$GPRMC,122238.750,A,4308.4529,N,07726.3655,W,9.68,13.34,130919,,,A*43
$GPGGA,122239.000,4308.4535,N,07726.3653,W,1,08,1.98,166.7,M,-34.4,M,,*58
$GPRMC,122239.250,A,4308.4540,N,07726.3650,W,9.07,13.86,130919,,,A*4D
$GPGGA,122239.500,4308.4546,N,07726.3648,W,1,08,1.98,166.9,M,-34.4,M,,*5D
$GPRMC,122239.750,A,4308.4551,N,07726.3645,W,8.22,13.62,130919,,,A*40
$GPGGA,122240.000,4308.4556,N,07726.3643,W,1,08,1.98,167.0,M,-34.4,M,,*54
$GPRMC,122240.250,A,4308.4561,N,07726.3641,W,7.58,13.35,130919,,,A*4C
$GPGGA,122240.500,4308.4565,N,07726.3639,W,1,08,1.98,167.2,M,-34.4,M,,*5E
$GPRMC,122240.750,A,4308.4569,N,07726.3636,W,6.51,12.88,130919,,,A*4E
$GPGGA,122241.000,4308.4573,N,07726.3635,W,1,08,1.98,167.3,M,-34.4,M,,*50
$GPRMC,122241.250,A,4308.4576,N,07726.3633,W,5.15,12.94,130919,,,A*4F
$GPGGA,122241.500,4308.4578,N,07726.3632,W,1,08,1.98,167.5,M,-34.4,M,,*5F
$GPRMC,122241.750,A,4308.4579,N,07726.3631,W,3.21,10.67,130919,,,A*48
$GPGGA,122242.000,4308.4581,N,07726.3630,W,1,08,1.98,167.7,M,-34.4,M,,*5F
$GPRMC,122242.250,A,4308.4582,N,07726.3629,W,2.19,10.67,130919,,,A*49
$GPGGA,122242.500,4308.4584,N,07726.3627,W,1,08,1.98,168.0,M,-34.4,M,,*51
$GPRMC,122242.750,A,4308.4585,N,07726.3626,W,2.24,10.67,130919,,,A*4A
$GPGGA,122243.000,4308.4587,N,07726.3625,W,1,08,1.47,168.1,M,-34.4,M,,*57
$GPRMC,122243.250,A,4308.4590,N,07726.3623,W,3.27,9.91,130919,,,A*7C
$GPGGA,122243.500,4308.4593,N,07726.3623,W,1,08,1.98,168.1,M,-34.4,M,,*53
$GPRMC,122243.750,A,4308.4597,N,07726.3622,W,4.76,354.08,130919,,,A*77
$GPGGA,122244.000,4308.4601,N,07726.3622,W,1,08,1.98,168.2,M,-34.4,M,,*5B
$GPRMC,122244.250,A,4308.4606,N,07726.3623,W,6.42,345.71,130919,,,A*74
$GPGGA,122244.500,4308.4612,N,07726.3624,W,1,08,1.98,168.3,M,-34.4,M,,*5B
$GPRMC,122244.750,A,4308.4615,N,07726.3628,W,7.32,339.08,130919,,,A*7B
$GPGGA,122245.000,4308.4621,N,07726.3631,W,1,08,1.47,168.5,M,-34.4,M,,*5F
$GPRMC,122245.250,A,4308.4627,N,07726.3635,W,8.31,333.35,130919,,,A*7A
$GPGGA,122245.500,4308.4633,N,07726.3641,W,1,08,1.47,168.7,M,-34.4,M,,*5C
$GPRMC,122245.750,A,4308.4638,N,07726.3647,W,8.90,324.87,130919,,,A*70
$GPGGA,122246.000,4308.4643,N,07726.3652,W,1,08,1.47,168.9,M,-34.4,M,,*51
$GPRMC,122246.250,A,4308.4648,N,07726.3659,W,9.43,321.08,130919,,,A*73
$GPGGA,122246.500,4308.4654,N,07726.3666,W,1,08,1.47,169.0,M,-34.4,M,,*5D
$GPRMC,122246.750,A,4308.4657,N,07726.3677,W,10.45,307.52,130919,,,A*41
$GPGGA,122247.000,4308.4661,N,07726.3687,W,1,08,1.47,169.1,M,-34.4,M,,*51
$GPRMC,122247.250,A,4308.4665,N,07726.3697,W,11.36,300.59,130919,,,A*43
$GPGGA,122247.500,4308.4669,N,07726.3707,W,1,08,1.47,169.2,M,-34.4,M,,*56
$GPRMC,122247.750,A,4308.4673,N,07726.3718,W,11.98,296.83,130919,,,A*4A
$GPGGA,122248.000,4308.4677,N,07726.3729,W,1,08,1.47,169.2,M,-34.4,M,,*5F
$GPRMC,122248.250,A,4308.4679,N,07726.3740,W,12.48,293.12,130919,,,A*44
$GPGGA,122248.500,4308.4680,N,07726.3752,W,1,08,1.47,169.2,M,-34.4,M,,*5E
$GPRMC,122248.750,A,4308.4681,N,07726.3763,W,12.77,287.45,130919,,,A*4C
$GPGGA,122249.000,4308.4683,N,07726.3775,W,1,08,1.47,169.3,M,-34.4,M,,*5D
$GPRMC,122249.250,A,4308.4685,N,07726.3786,W,12.90,286.19,130919,,,A*46
$GPGGA,122249.500,4308.4688,N,07726.3797,W,1,08,1.47,169.2,M,-34.4,M,,*5E
$GPRMC,122249.750,A,4308.4686,N,07726.3810,W,12.93,283.98,130919,,,A*4F
$GPGGA,122250.000,4308.4687,N,07726.3822,W,1,08,1.47,169.1,M,-34.4,M,,*5E
$GPRMC,122250.250,A,4308.4689,N,07726.3833,W,12.95,283.45,130919,,,A*4A
$GPGGA,122250.500,4308.4690,N,07726.3845,W,1,08,1.47,169.1,M,-34.4,M,,*5C
$GPRMC,122250.750,A,4308.4691,N,07726.3857,W,12.94,283.15,130919,,,A*40
$GPGGA,122251.000,4308.4692,N,07726.3868,W,1,08,1.47,169.0,M,-34.4,M,,*54
$GPRMC,122251.250,A,4308.4694,N,07726.3880,W,12.93,283.19,130919,,,A*40
$GPGGA,122251.500,4308.4695,N,07726.3892,W,1,08,1.47,168.9,M,-34.4,M,,*5B
$GPRMC,122251.750,A,4308.4696,N,07726.3903,W,13.16,283.03,130919,,,A*4A
$GPGGA,122252.000,4308.4697,N,07726.3915,W,1,08,1.47,168.9,M,-34.4,M,,*51
$GPRMC,122252.250,A,4308.4699,N,07726.3927,W,13.09,283.44,130919,,,A*48
$GPGGA,122252.500,4308.4699,N,07726.3939,W,1,08,1.47,168.8,M,-34.4,M,,*55
$GPRMC,122252.750,A,4308.4699,N,07726.3950,W,12.79,283.01,130919,,,A*4A
$GPGGA,122253.000,4308.4699,N,07726.3962,W,1,08,1.47,168.7,M,-34.4,M,,*50
$GPRMC,122253.250,A,4308.4699,N,07726.3974,W,12.75,282.04,130919,,,A*40
$GPGGA,122253.500,4308.4699,N,07726.3986,W,1,08,1.47,168.6,M,-34.4,M,,*5E
$GPRMC,122253.750,A,4308.4698,N,07726.3997,W,12.56,281.30,130919,,,A*4C
$GPGGA,122254.000,4308.4697,N,07726.4009,W,1,08,1.47,168.5,M,-34.4,M,,*58
$GPRMC,122254.250,A,4308.4695,N,07726.4021,W,12.02,281.58,130919,,,A*4F
$GPGGA,122254.500,4308.4694,N,07726.4031,W,1,08,1.98,168.4,M,-34.4,M,,*56
$GPRMC,122254.750,A,4308.4693,N,07726.4042,W,11.12,282.53,130919,,,A*43
$GPGGA,122255.000,4308.4693,N,07726.4051,W,1,08,1.98,168.4,M,-34.4,M,,*53
$GPRMC,122255.250,A,4308.4692,N,07726.4060,W,10.10,283.31,130919,,,A*40
$GPGGA,122255.500,4308.4692,N,07726.4068,W,1,08,1.98,168.3,M,-34.4,M,,*5A
$GPRMC,122255.750,A,4308.4692,N,07726.4075,W,8.73,285.04,130919,,,A*7D
$GPGGA,122256.000,4308.4692,N,07726.4082,W,1,08,1.98,168.3,M,-34.4,M,,*58
$GPRMC,122256.250,A,4308.4691,N,07726.4088,W,7.38,286.68,130919,,,A*73
$GPGGA,122256.500,4308.4690,N,07726.4093,W,1,08,1.98,168.3,M,-34.4,M,,*5F
$GPRMC,122256.750,A,4308.4690,N,07726.4098,W,5.93,289.65,130919,,,A*77
$GPGGA,122257.000,4308.4691,N,07726.4103,W,1,08,1.47,168.3,M,-34.4,M,,*50
$GPRMC,122257.250,A,4308.4691,N,07726.4107,W,4.99,294.60,130919,,,A*77
$GPGGA,122257.500,4308.4690,N,07726.4110,W,1,08,1.98,168.3,M,-34.4,M,,*54
$GPRMC,122257.750,A,4308.4690,N,07726.4114,W,4.48,298.59,130919,,,A*7B
$GPGGA,122258.000,4308.4690,N,07726.4117,W,1,08,1.47,168.2,M,-34.4,M,,*5A
$GPRMC,122258.250,A,4308.4690,N,07726.4120,W,4.10,298.67,130919,,,A*76
$GPGGA,122258.500,4308.4689,N,07726.4124,W,1,08,1.98,168.2,M,-34.4,M,,*55
$GPRMC,122258.750,A,4308.4688,N,07726.4128,W,3.68,294.99,130919,,,A*77
$GPGGA,122259.000,4308.4687,N,07726.4131,W,1,08,1.47,168.2,M,-34.4,M,,*59
$GPRMC,122259.250,A,4308.4686,N,07726.4135,W,3.62,290.22,130919,,,A*7F
$GPGGA,122259.500,4308.4684,N,07726.4139,W,1,08,1.47,168.2,M,-34.4,M,,*57
$GPRMC,122259.750,A,4308.4682,N,07726.4143,W,3.30,281.55,130919,,,A*78
$GPGGA,122300.000,4308.4681,N,07726.4146,W,1,08,1.47,168.2,M,-34.4,M,,*52
$GPRMC,122300.250,A,4308.4680,N,07726.4149,W,3.20,281.31,130919,,,A*7B
$GPGGA,122300.500,4308.4679,N,07726.4152,W,1,08,1.47,168.2,M,-34.4,M,,*55
$GPRMC,122300.750,A,4308.4678,N,07726.4155,W,2.94,281.53,130919,,,A*7E
$GPGGA,122301.000,4308.4678,N,07726.4158,W,1,08,1.47,168.1,M,-34.4,M,,*59
$GPRMC,122301.250,A,4308.4678,N,07726.4161,W,2.88,281.53,130919,,,A*70
$GPGGA,122301.500,4308.4679,N,07726.4163,W,1,08,1.47,168.1,M,-34.4,M,,*55
$GPRMC,122301.750,A,4308.4679,N,07726.4166,W,2.93,297.48,130919,,,A*74
$GPGGA,122302.000,4308.4680,N,07726.4168,W,1,08,1.47,168.2,M,-34.4,M,,*5D
$GPRMC,122302.250,A,4308.4680,N,07726.4171,W,2.91,300.47,130919,,,A*70
$GPGGA,122302.500,4308.4680,N,07726.4173,W,1,08,1.47,168.2,M,-34.4,M,,*52
$GPRMC,122302.750,A,4308.4681,N,07726.4175,W,2.62,300.47,130919,,,A*7C
$GPGGA,122303.000,4308.4681,N,07726.4177,W,1,08,1.47,168.2,M,-34.4,M,,*53
$GPRMC,122303.250,A,4308.4681,N,07726.4178,W,2.15,300.47,130919,,,A*75
$GPGGA,122303.500,4308.4681,N,07726.4179,W,1,08,1.47,168.2,M,-34.4,M,,*58
$GPRMC,122303.750,A,4308.4681,N,07726.4180,W,1.64,300.47,130919,,,A*72
$GPGGA,122304.000,4308.4681,N,07726.4180,W,1,08,1.47,168.3,M,-34.4,M,,*5D
$GPRMC,122304.250,A,4308.4681,N,07726.4180,W,1.27,300.47,130919,,,A*77
$GPGGA,122304.500,4308.4681,N,07726.4180,W,1,08,1.97,168.2,M,-34.4,M,,*54
$GPRMC,122304.750,A,4308.4680,N,07726.4179,W,1.05,300.47,130919,,,A*75
$GPGGA,122305.000,4308.4680,N,07726.4178,W,1,08,1.97,168.3,M,-34.4,M,,*57
$GPRMC,122305.250,A,4308.4680,N,07726.4177,W,0.96,300.47,130919,,,A*74
$GPGGA,122305.500,4308.4680,N,07726.4176,W,1,08,1.47,168.2,M,-34.4,M,,*50
$GPRMC,122305.750,A,4308.4680,N,07726.4175,W,0.92,300.47,130919,,,A*77
$GPGGA,122306.000,4308.4680,N,07726.4174,W,1,08,1.47,168.2,M,-34.4,M,,*54
$GPRMC,122306.250,A,4308.4679,N,07726.4173,W,0.89,300.47,130919,,,A*7B
$GPGGA,122306.500,4308.4679,N,07726.4172,W,1,08,1.47,168.2,M,-34.4,M,,*51
$GPRMC,122306.750,A,4308.4679,N,07726.4171,W,0.90,300.47,130919,,,A*74
$GPGGA,122307.000,4308.4680,N,07726.4170,W,1,08,1.47,168.3,M,-34.4,M,,*50
$GPRMC,122307.250,A,4308.4680,N,07726.4169,W,0.97,300.47,130919,,,A*78
$GPGGA,122307.500,4308.4681,N,07726.4168,W,1,08,1.47,168.4,M,-34.4,M,,*5A
$GPRMC,122307.750,A,4308.4681,N,07726.4168,W,1.00,300.47,130919,,,A*72
$GPGGA,122308.000,4308.4682,N,07726.4167,W,1,08,1.47,168.6,M,-34.4,M,,*5E
$GPRMC,122308.250,A,4308.4682,N,07726.4166,W,0.96,300.47,130919,,,A*7B
$GPGGA,122308.500,4308.4683,N,07726.4166,W,1,08,1.47,168.7,M,-34.4,M,,*5A
$GPRMC,122308.750,A,4308.4683,N,07726.4165,W,0.93,300.47,130919,,,A*79
$GPGGA,122309.000,4308.4684,N,07726.4165,W,1,08,1.47,168.8,M,-34.4,M,,*55
$GPRMC,122309.250,A,4308.4684,N,07726.4165,W,0.00,300.47,130919,,,A*70
$GPGGA,122309.500,4308.4684,N,07726.4165,W,1,08,1.47,168.8,M,-34.4,M,,*50
$GPRMC,122309.750,A,4308.4684,N,07726.4164,W,0.02,300.47,130919,,,A*76
$GPGGA,122310.000,4308.4684,N,07726.4164,W,1,08,1.47,168.8,M,-34.4,M,,*5C
$GPRMC,122310.250,A,4308.4684,N,07726.4164,W,0.03,300.47,130919,,,A*7A
$GPGGA,122310.500,4308.4684,N,07726.4164,W,1,08,1.47,168.8,M,-34.4,M,,*59
$GPRMC,122310.750,A,4308.4684,N,07726.4163,W,0.05,300.47,130919,,,A*7E
$GPGGA,122311.000,4308.4684,N,07726.4163,W,1,08,1.47,168.8,M,-34.4,M,,*5A
$GPRMC,122311.250,A,4308.4684,N,07726.4162,W,0.05,300.47,130919,,,A*7B
$GPGGA,122311.500,4308.4685,N,07726.4162,W,1,08,1.47,168.8,M,-34.4,M,,*5F
$GPRMC,122311.750,A,4308.4685,N,07726.4161,W,0.07,300.47,130919,,,A*7E
$GPGGA,122312.000,4308.4685,N,07726.4161,W,1,08,1.47,168.8,M,-34.4,M,,*5A
$GPRMC,122312.250,A,4308.4685,N,07726.4160,W,0.07,300.47,130919,,,A*79
$GPGGA,122312.500,4308.4686,N,07726.4160,W,1,08,1.47,168.8,M,-34.4,M,,*5D
$GPRMC,122312.750,A,4308.4686,N,07726.4159,W,0.00,300.47,130919,,,A*72
$GPGGA,122313.000,4308.4686,N,07726.4159,W,1,08,1.97,168.8,M,-34.4,M,,*5E
$GPRMC,122313.250,A,4308.4686,N,07726.4159,W,0.01,300.47,130919,,,A*77
$GPGGA,122313.500,4308.4686,N,07726.4159,W,1,08,1.47,168.8,M,-34.4,M,,*56
$GPRMC,122313.750,A,4308.4686,N,07726.4159,W,0.02,300.47,130919,,,A*71
$GPGGA,122314.000,4308.4686,N,07726.4159,W,1,08,1.47,168.8,M,-34.4,M,,*54
$GPRMC,122314.250,A,4308.4686,N,07726.4159,W,0.01,300.47,130919,,,A*70
$GPGGA,122314.500,4308.4686,N,07726.4158,W,1,08,1.47,168.8,M,-34.4,M,,*50
$GPRMC,122314.750,A,4308.4686,N,07726.4159,W,0.00,300.47,130919,,,A*74
$GPGGA,122315.000,4308.4686,N,07726.4159,W,1,08,1.97,168.8,M,-34.4,M,,*58
$GPRMC,122315.250,A,4308.4686,N,07726.4159,W,0.06,300.47,130919,,,A*76
$GPGGA,122315.500,4308.4686,N,07726.4159,W,1,08,1.47,168.8,M,-34.4,M,,*50
$GPRMC,122315.750,A,4308.4686,N,07726.4161,W,0.18,300.47,130919,,,A*77
$GPGGA,122316.000,4308.4686,N,07726.4162,W,1,08,1.47,168.8,M,-34.4,M,,*5E
$GPRMC,122316.250,A,4308.4687,N,07726.4169,W,4.14,265.05,130919,,,A*74
$GPGGA,122316.500,4308.4689,N,07726.4177,W,1,08,1.97,168.6,M,-34.4,M,,*53
$GPRMC,122316.750,A,4308.4691,N,07726.4186,W,6.84,270.51,130919,,,A*79
$GPGGA,122317.000,4308.4691,N,07726.4194,W,1,08,1.97,168.5,M,-34.4,M,,*50
$GPRMC,122317.250,A,4308.4693,N,07726.4202,W,8.24,273.08,130919,,,A*7B
$GPGGA,122317.500,4308.4694,N,07726.4212,W,1,08,1.97,168.4,M,-34.4,M,,*5C
$GPRMC,122317.750,A,4308.4695,N,07726.4222,W,9.62,275.76,130919,,,A*76
$GPGGA,122318.000,4308.4696,N,07726.4232,W,1,08,1.97,168.3,M,-34.4,M,,*51
$GPRMC,122318.250,A,4308.4698,N,07726.4243,W,10.59,277.19,130919,,,A*4D
$GPGGA,122318.500,4308.4699,N,07726.4255,W,1,08,1.97,168.3,M,-34.4,M,,*5A
$GPRMC,122318.750,A,4308.4701,N,07726.4267,W,11.78,278.52,130919,,,A*4D
$GPGGA,122319.000,4308.4703,N,07726.4279,W,1,08,1.97,168.2,M,-34.4,M,,*53
$GPRMC,122319.250,A,4308.4706,N,07726.4291,W,12.82,279.59,130919,,,A*4B
$GPGGA,122319.500,4308.4708,N,07726.4305,W,1,08,1.97,168.2,M,-34.4,M,,*57
$GPRMC,122319.750,A,4308.4711,N,07726.4319,W,14.25,280.46,130919,,,A*4A
$GPGGA,122320.000,4308.4713,N,07726.4333,W,1,08,1.47,168.1,M,-34.4,M,,*59
$GPRMC,122320.250,A,4308.4716,N,07726.4348,W,15.35,281.69,130919,,,A*4A
$GPGGA,122320.500,4308.4720,N,07726.4364,W,1,08,1.97,168.1,M,-34.4,M,,*53
$GPRMC,122320.750,A,4308.4723,N,07726.4382,W,16.59,283.11,130919,,,A*4B
$GPGGA,122321.000,4308.4728,N,07726.4399,W,1,08,1.47,168.1,M,-34.4,M,,*50
$GPRMC,122321.250,A,4308.4733,N,07726.4417,W,18.20,284.76,130919,,,A*43
$GPGGA,122321.500,4308.4735,N,07726.4435,W,1,08,1.97,168.1,M,-34.4,M,,*55
$GPRMC,122321.750,A,4308.4738,N,07726.4454,W,19.88,283.23,130919,,,A*4E
$GPGGA,122322.000,4308.4739,N,07726.4474,W,1,08,1.97,168.0,M,-34.4,M,,*5B
$GPRMC,122322.250,A,4308.4739,N,07726.4494,W,20.55,279.91,130919,,,A*43
$GPGGA,122322.500,4308.4739,N,07726.4516,W,1,08,1.97,168.1,M,-34.4,M,,*5A
$GPRMC,122322.750,A,4308.4739,N,07726.4538,W,21.89,277.08,130919,,,A*4F
$GPGGA,122323.000,4308.4740,N,07726.4561,W,1,08,1.47,168.1,M,-34.4,M,,*5D
$GPRMC,122323.250,A,4308.4740,N,07726.4585,W,22.92,275.83,130919,,,A*4B
$GPGGA,122323.500,4308.4740,N,07726.4611,W,1,08,1.97,168.1,M,-34.4,M,,*51
$GPRMC,122323.750,A,4308.4741,N,07726.4638,W,24.17,275.95,130919,,,A*46
$GPGGA,122324.000,4308.4742,N,07726.4666,W,1,08,1.97,168.1,M,-34.4,M,,*51
$GPRMC,122324.250,A,4308.4743,N,07726.4694,W,25.71,276.17,130919,,,A*48
$GPGGA,122324.500,4308.4746,N,07726.4722,W,1,08,1.97,168.1,M,-34.4,M,,*51
$GPRMC,122324.750,A,4308.4748,N,07726.4750,W,27.66,276.50,130919,,,A*48
$GPGGA,122325.000,4308.4750,N,07726.4779,W,1,08,1.47,168.1,M,-34.4,M,,*51
$GPRMC,122325.250,A,4308.4753,N,07726.4809,W,29.11,277.15,130919,,,A*4B
$GPGGA,122325.500,4308.4757,N,07726.4839,W,1,08,1.97,168.2,M,-34.4,M,,*56
$GPRMC,122325.750,A,4308.4761,N,07726.4869,W,29.97,278.65,130919,,,A*4F
$GPGGA,122326.000,4308.4766,N,07726.4899,W,1,08,1.47,168.2,M,-34.4,M,,*55
$GPRMC,122326.250,A,4308.4770,N,07726.4929,W,30.68,279.49,130919,,,A*4B
$GPGGA,122326.500,4308.4775,N,07726.4959,W,1,08,1.96,168.3,M,-34.4,M,,*52
$GPRMC,122326.750,A,4308.4780,N,07726.4989,W,31.31,280.55,130919,,,A*4D
$GPGGA,122327.000,4308.4785,N,07726.5020,W,1,08,1.47,168.4,M,-34.4,M,,*54
$GPRMC,122327.250,A,4308.4790,N,07726.5050,W,31.66,280.96,130919,,,A*49
$GPGGA,122327.500,4308.4793,N,07726.5081,W,1,08,1.96,168.4,M,-34.4,M,,*51
$GPRMC,122327.750,A,4308.4797,N,07726.5112,W,31.95,280.52,130919,,,A*48
$GPGGA,122328.000,4308.4801,N,07726.5144,W,1,08,1.47,168.5,M,-34.4,M,,*5A
$GPRMC,122328.250,A,4308.4803,N,07726.5176,W,32.85,279.82,130919,,,A*4B
$GPGGA,122328.500,4308.4805,N,07726.5208,W,1,07,2.97,168.6,M,-34.4,M,,*52
$GPRMC,122328.750,A,4308.4807,N,07726.5240,W,32.91,279.03,130919,,,A*40
$GPGGA,122329.000,4308.4809,N,07726.5272,W,1,08,1.47,168.6,M,-34.4,M,,*56
$GPRMC,122329.250,A,4308.4811,N,07726.5304,W,32.59,278.35,130919,,,A*42
$GPGGA,122329.500,4308.4812,N,07726.5336,W,1,08,1.96,168.7,M,-34.4,M,,*55
$GPRMC,122329.750,A,4308.4814,N,07726.5367,W,32.64,277.06,130919,,,A*46
$GPGGA,122330.000,4308.4816,N,07726.5398,W,1,07,2.28,168.8,M,-34.4,M,,*5E
$GPRMC,122330.250,A,4308.4820,N,07726.5428,W,31.94,277.57,130919,,,A*48
$GPGGA,122330.500,4308.4823,N,07726.5459,W,1,07,2.28,168.9,M,-34.4,M,,*56
$GPRMC,122330.750,A,4308.4826,N,07726.5489,W,31.55,277.48,130919,,,A*43
$GPGGA,122331.000,4308.4828,N,07726.5519,W,1,07,2.28,169.0,M,-34.4,M,,*54
$GPRMC,122331.250,A,4308.4830,N,07726.5548,W,30.49,276.81,130919,,,A*44
$GPGGA,122331.500,4308.4831,N,07726.5577,W,1,07,2.97,169.1,M,-34.4,M,,*54
$GPRMC,122331.750,A,4308.4833,N,07726.5607,W,30.50,276.39,130919,,,A*41
$GPGGA,122332.000,4308.4834,N,07726.5637,W,1,07,2.28,169.3,M,-34.4,M,,*56
$GPRMC,122332.250,A,4308.4836,N,07726.5666,W,30.50,276.18,130919,,,A*46
$GPGGA,122332.500,4308.4837,N,07726.5695,W,1,07,2.28,169.5,M,-34.4,M,,*5E
$GPRMC,122332.750,A,4308.4837,N,07726.5724,W,30.45,275.63,130919,,,A*4E
$GPGGA,122333.000,4308.4837,N,07726.5754,W,1,07,2.28,169.6,M,-34.4,M,,*55
$GPRMC,122333.250,A,4308.4835,N,07726.5783,W,30.18,274.49,130919,,,A*44
$GPGGA,122333.500,4308.4834,N,07726.5812,W,1,08,1.96,169.8,M,-34.4,M,,*59
$GPRMC,122333.750,A,4308.4834,N,07726.5842,W,30.26,273.89,130919,,,A*44
$GPGGA,122334.000,4308.4835,N,07726.5871,W,1,08,1.47,170.0,M,-34.4,M,,*53
$GPRMC,122334.250,A,4308.4836,N,07726.5900,W,30.50,273.80,130919,,,A*4B
$GPGGA,122334.500,4308.4836,N,07726.5930,W,1,08,1.47,170.1,M,-34.4,M,,*50
$GPRMC,122334.750,A,4308.4835,N,07726.5960,W,30.78,273.20,130919,,,A*4B
$GPGGA,122335.000,4308.4834,N,07726.5990,W,1,08,1.47,170.3,M,-34.4,M,,*5E
$GPRMC,122335.250,A,4308.4834,N,07726.6020,W,30.80,272.48,130919,,,A*48
$GPGGA,122335.500,4308.4834,N,07726.6051,W,1,08,1.96,170.4,M,-34.4,M,,*57
$GPRMC,122335.750,A,4308.4835,N,07726.6081,W,30.99,272.57,130919,,,A*41
$GPGGA,122336.000,4308.4836,N,07726.6112,W,1,08,1.47,170.6,M,-34.4,M,,*5B
$GPRMC,122336.250,A,4308.4837,N,07726.6142,W,31.29,272.59,130919,,,A*4F
$GPGGA,122336.500,4308.4837,N,07726.6173,W,1,08,1.47,170.7,M,-34.4,M,,*59
$GPRMC,122336.750,A,4308.4838,N,07726.6204,W,31.38,272.57,130919,,,A*4A
$GPGGA,122337.000,4308.4839,N,07726.6234,W,1,08,1.47,170.9,M,-34.4,M,,*5D
$GPRMC,122337.250,A,4308.4839,N,07726.6265,W,31.46,272.51,130919,,,A*47
$GPGGA,122337.500,4308.4840,N,07726.6296,W,1,08,1.96,171.0,M,-34.4,M,,*5A
$GPRMC,122337.750,A,4308.4840,N,07726.6328,W,31.70,272.59,130919,,,A*49
$GPGGA,122338.000,4308.4839,N,07726.6359,W,1,08,1.47,171.2,M,-34.4,M,,*52
$GPRMC,122338.250,A,4308.4836,N,07726.6392,W,31.93,272.18,130919,,,A*4B
$GPGGA,122338.500,4308.4833,N,07726.6425,W,1,08,1.96,171.3,M,-34.4,M,,*5C
$GPRMC,122338.750,A,4308.4830,N,07726.6462,W,32.20,271.18,130919,,,A*48
$GPGGA,122339.000,4308.4828,N,07726.6494,W,1,08,1.47,171.1,M,-34.4,M,,*56
$GPRMC,122339.250,A,4308.4826,N,07726.6526,W,32.12,270.29,130919,,,A*48
$GPGGA,122339.500,4308.4823,N,07726.6558,W,1,08,1.96,171.3,M,-34.4,M,,*57
$GPRMC,122339.750,A,4308.4821,N,07726.6591,W,32.09,269.24,130919,,,A*49
$GPGGA,122340.000,4308.4819,N,07726.6623,W,1,08,1.96,171.4,M,-34.4,M,,*5D
$GPRMC,122340.250,A,4308.4818,N,07726.6655,W,32.09,268.69,130919,,,A*4B
$GPGGA,122340.500,4308.4817,N,07726.6688,W,1,08,1.96,171.5,M,-34.4,M,,*56
$GPRMC,122340.750,A,4308.4815,N,07726.6722,W,32.04,268.23,130919,,,A*41
$GPGGA,122341.000,4308.4814,N,07726.6756,W,1,08,1.96,171.0,M,-34.4,M,,*56
$GPRMC,122341.250,A,4308.4812,N,07726.6788,W,31.55,268.26,130919,,,A*40
$GPGGA,122341.500,4308.4810,N,07726.6820,W,1,08,1.96,171.1,M,-34.4,M,,*58
$GPRMC,122341.750,A,4308.4808,N,07726.6850,W,31.32,267.60,130919,,,A*48
$GPGGA,122342.000,4308.4806,N,07726.6880,W,1,08,1.96,171.3,M,-34.4,M,,*51
$GPRMC,122342.250,A,4308.4804,N,07726.6910,W,31.04,266.56,130919,,,A*46
$GPGGA,122342.500,4308.4800,N,07726.6939,W,1,08,1.96,171.6,M,-34.4,M,,*54
$GPRMC,122342.750,A,4308.4798,N,07726.6969,W,31.10,265.55,130919,,,A*42
$GPGGA,122343.000,4308.4795,N,07726.6999,W,1,08,1.47,171.9,M,-34.4,M,,*5A
$GPRMC,122343.250,A,4308.4792,N,07726.7029,W,31.29,265.65,130919,,,A*49
$GPGGA,122343.500,4308.4789,N,07726.7059,W,1,08,1.96,172.2,M,-34.4,M,,*52
$GPRMC,122343.750,A,4308.4787,N,07726.7089,W,31.33,265.83,130919,,,A*41
$GPGGA,122344.000,4308.4785,N,07726.7119,W,1,08,1.47,172.5,M,-34.4,M,,*52
$GPRMC,122344.250,A,4308.4784,N,07726.7149,W,31.53,266.55,130919,,,A*43
$GPGGA,122344.500,4308.4782,N,07726.7179,W,1,08,1.96,172.8,M,-34.4,M,,*57
$GPRMC,122344.750,A,4308.4782,N,07726.7209,W,31.49,267.13,130919,,,A*4F
$GPGGA,122345.000,4308.4780,N,07726.7240,W,1,08,1.47,173.1,M,-34.4,M,,*5C
$GPRMC,122345.250,A,4308.4779,N,07726.7271,W,32.07,265.16,130919,,,A*4E
$GPGGA,122345.500,4308.4777,N,07726.7303,W,1,08,1.47,173.4,M,-34.4,M,,*52
$GPRMC,122345.750,A,4308.4775,N,07726.7336,W,32.06,265.30,130919,,,A*40
$GPGGA,122346.000,4308.4774,N,07726.7367,W,1,08,1.47,173.5,M,-34.4,M,,*54
$GPRMC,122346.250,A,4308.4772,N,07726.7398,W,31.94,265.79,130919,,,A*40
$GPGGA,122346.500,4308.4771,N,07726.7428,W,1,08,1.47,173.5,M,-34.4,M,,*58
$GPRMC,122346.750,A,4308.4770,N,07726.7458,W,31.91,266.06,130919,,,A*42
$GPGGA,122347.000,4308.4768,N,07726.7488,W,1,08,1.47,173.5,M,-34.4,M,,*5E
$GPRMC,122347.250,A,4308.4766,N,07726.7519,W,32.10,265.82,130919,,,A*40
$GPGGA,122347.500,4308.4764,N,07726.7550,W,1,08,1.47,173.4,M,-34.4,M,,*52
$GPRMC,122347.750,A,4308.4763,N,07726.7582,W,32.08,265.45,130919,,,A*40
$GPGGA,122348.000,4308.4761,N,07726.7613,W,1,08,1.47,173.4,M,-34.4,M,,*59
$GPRMC,122348.250,A,4308.4758,N,07726.7645,W,32.23,265.22,130919,,,A*42
$GPGGA,122348.500,4308.4756,N,07726.7677,W,1,08,1.47,173.4,M,-34.4,M,,*5A
$GPRMC,122348.750,A,4308.4755,N,07726.7710,W,32.39,265.05,130919,,,A*45
$GPGGA,122349.000,4308.4753,N,07726.7742,W,1,08,1.47,173.4,M,-34.4,M,,*5C
$GPRMC,122349.250,A,4308.4751,N,07726.7775,W,33.76,264.84,130919,,,A*44
$GPGGA,122349.500,4308.4749,N,07726.7808,W,1,08,1.96,173.4,M,-34.4,M,,*5F
$GPRMC,122349.750,A,4308.4747,N,07726.7841,W,34.02,264.72,130919,,,A*43
$GPGGA,122350.000,4308.4745,N,07726.7874,W,1,08,1.47,173.4,M,-34.4,M,,*59
$GPRMC,122350.250,A,4308.4742,N,07726.7907,W,34.48,264.66,130919,,,A*43
$GPGGA,122350.500,4308.4741,N,07726.7941,W,1,08,1.47,173.4,M,-34.4,M,,*5F
$GPRMC,122350.750,A,4308.4740,N,07726.7975,W,35.15,264.85,130919,,,A*45
$GPGGA,122351.000,4308.4738,N,07726.8009,W,1,08,1.47,173.4,M,-34.4,M,,*5F
$GPRMC,122351.250,A,4308.4736,N,07726.8043,W,35.60,264.83,130919,,,A*47
$GPGGA,122351.500,4308.4735,N,07726.8076,W,1,08,1.95,173.2,M,-34.4,M,,*56
$GPRMC,122351.750,A,4308.4734,N,07726.8110,W,35.91,265.32,130919,,,A*42
$GPGGA,122352.000,4308.4732,N,07726.8144,W,1,08,1.95,173.1,M,-34.4,M,,*54
$GPRMC,122352.250,A,4308.4731,N,07726.8177,W,35.98,265.73,130919,,,A*4C
$GPGGA,122352.500,4308.4730,N,07726.8212,W,1,08,1.95,173.0,M,-34.4,M,,*52
$GPRMC,122352.750,A,4308.4729,N,07726.8246,W,36.22,266.12,130919,,,A*47
$GPGGA,122353.000,4308.4727,N,07726.8280,W,1,08,1.47,172.8,M,-34.4,M,,*5D
$GPRMC,122353.250,A,4308.4724,N,07726.8314,W,36.43,265.58,130919,,,A*42
$GPGGA,122353.500,4308.4723,N,07726.8349,W,1,08,1.95,172.8,M,-34.4,M,,*57
$GPRMC,122353.750,A,4308.4720,N,07726.8385,W,36.47,265.49,130919,,,A*4F
$GPGGA,122354.000,4308.4718,N,07726.8420,W,1,08,1.47,172.7,M,-34.4,M,,*55
$GPRMC,122354.250,A,4308.4716,N,07726.8454,W,36.52,265.27,130919,,,A*4F
$GPGGA,122354.500,4308.4714,N,07726.8490,W,1,08,1.95,172.5,M,-34.4,M,,*5A
$GPRMC,122354.750,A,4308.4712,N,07726.8525,W,36.36,265.58,130919,,,A*43
$GPGGA,122355.000,4308.4710,N,07726.8560,W,1,08,1.95,172.4,M,-34.4,M,,*55
$GPRMC,122355.250,A,4308.4708,N,07726.8594,W,36.24,265.76,130919,,,A*49
$GPGGA,122355.500,4308.4705,N,07726.8628,W,1,08,1.95,172.3,M,-34.4,M,,*5C
$GPRMC,122355.750,A,4308.4702,N,07726.8663,W,35.77,265.69,130919,,,A*46
$GPGGA,122356.000,4308.4700,N,07726.8696,W,1,08,1.95,172.2,M,-34.4,M,,*5B
$GPRMC,122356.250,A,4308.4693,N,07726.8735,W,35.69,265.40,130919,,,A*4F
$GPGGA,122356.500,4308.4685,N,07726.8773,W,1,09,1.21,171.2,M,-34.4,M,,*55
$GPRMC,122356.750,A,4308.4682,N,07726.8809,W,35.61,265.10,130919,,,A*47
$GPGGA,122357.000,4308.4678,N,07726.8844,W,1,09,1.21,170.7,M,-34.4,M,,*5C
$GPRMC,122357.250,A,4308.4674,N,07726.8879,W,35.58,265.03,130919,,,A*45
$GPGGA,122357.500,4308.4671,N,07726.8915,W,1,09,1.21,170.1,M,-34.4,M,,*53
$GPRMC,122357.750,A,4308.4668,N,07726.8950,W,35.50,265.44,130919,,,A*4C
$GPGGA,122358.000,4308.4666,N,07726.8985,W,1,09,1.21,169.7,M,-34.4,M,,*58
$GPRMC,122358.250,A,4308.4664,N,07726.9019,W,35.45,265.62,130919,,,A*4F
$GPGGA,122358.500,4308.4662,N,07726.9054,W,1,09,1.21,169.2,M,-34.4,M,,*58
$GPRMC,122358.750,A,4308.4660,N,07726.9088,W,35.74,265.62,130919,,,A*44
$GPGGA,122359.000,4308.4657,N,07726.9123,W,1,09,1.21,168.8,M,-34.4,M,,*50
$GPRMC,122359.250,A,4308.4655,N,07726.9157,W,35.74,265.60,130919,,,A*47
$GPGGA,122359.500,4308.4653,N,07726.9191,W,1,09,1.21,168.4,M,-34.4,M,,*54
$GPRMC,122359.750,A,4308.4651,N,07726.9225,W,35.64,265.62,130919,,,A*43
$GPGGA,122400.000,4308.4649,N,07726.9259,W,1,09,1.09,167.9,M,-34.4,M,,*5E
$GPRMC,122400.250,A,4308.4647,N,07726.9293,W,35.60,265.21,130919,,,A*44
$GPGGA,122400.500,4308.4645,N,07726.9327,W,1,09,1.21,167.5,M,-34.4,M,,*59
$GPRMC,122400.750,A,4308.4642,N,07726.9361,W,35.77,265.00,130919,,,A*4D
$GPGGA,122401.000,4308.4639,N,07726.9395,W,1,09,1.21,167.1,M,-34.4,M,,*5B
$GPRMC,122401.250,A,4308.4637,N,07726.9429,W,35.81,264.71,130919,,,A*4E
$GPGGA,122401.500,4308.4635,N,07726.9464,W,1,09,1.21,166.6,M,-34.4,M,,*5D
$GPRMC,122401.750,A,4308.4633,N,07726.9498,W,35.92,265.01,130919,,,A*41
$GPGGA,122402.000,4308.4630,N,07726.9533,W,1,09,1.21,166.1,M,-34.4,M,,*5A
$GPRMC,122402.250,A,4308.4628,N,07726.9567,W,35.97,265.18,130919,,,A*41
$GPGGA,122402.500,4308.4626,N,07726.9602,W,1,09,1.21,165.6,M,-34.4,M,,*5D
$GPRMC,122402.750,A,4308.4624,N,07726.9637,W,36.24,265.23,130919,,,A*4D
$GPGGA,122403.000,4308.4621,N,07726.9672,W,1,09,1.09,165.2,M,-34.4,M,,*57
$GPRMC,122403.250,A,4308.4619,N,07726.9706,W,36.33,265.19,130919,,,A*4B
$GPGGA,122403.500,4308.4616,N,07726.9740,W,1,09,1.21,164.7,M,-34.4,M,,*58
$GPRMC,122403.750,A,4308.4614,N,07726.9775,W,36.55,265.19,130919,,,A*47
$GPGGA,122404.000,4308.4611,N,07726.9810,W,1,09,1.21,164.4,M,-34.4,M,,*54
$GPRMC,122404.250,A,4308.4609,N,07726.9845,W,36.61,264.72,130919,,,A*4E
$GPGGA,122404.500,4308.4606,N,07726.9880,W,1,09,1.21,164.0,M,-34.4,M,,*5A
$GPRMC,122404.750,A,4308.4604,N,07726.9915,W,36.64,264.25,130919,,,A*45
$GPGGA,122405.000,4308.4601,N,07726.9950,W,1,09,1.21,163.7,M,-34.4,M,,*55
$GPRMC,122405.250,A,4308.4599,N,07726.9985,W,36.70,264.27,130919,,,A*48
$GPGGA,122405.500,4308.4597,N,07727.0021,W,1,09,1.21,163.3,M,-34.4,M,,*5F
$GPRMC,122405.750,A,4308.4595,N,07727.0057,W,36.88,264.98,130919,,,A*4C
$GPGGA,122406.000,4308.4593,N,07727.0092,W,1,09,1.21,163.0,M,-34.4,M,,*56
$GPRMC,122406.250,A,4308.4592,N,07727.0128,W,36.85,266.08,130919,,,A*42
$GPGGA,122406.500,4308.4590,N,07727.0162,W,1,09,1.21,162.7,M,-34.4,M,,*58
$GPRMC,122406.750,A,4308.4588,N,07727.0197,W,36.36,266.31,130919,,,A*4A
$GPGGA,122407.000,4308.4586,N,07727.0232,W,1,09,1.21,162.5,M,-34.4,M,,*5F
$GPRMC,122407.250,A,4308.4584,N,07727.0267,W,36.38,265.63,130919,,,A*44
$GPGGA,122407.500,4308.4582,N,07727.0301,W,1,09,1.21,162.4,M,-34.4,M,,*5E
$GPRMC,122407.750,A,4308.4580,N,07727.0336,W,36.22,266.33,130919,,,A*4D
$GPGGA,122408.000,4308.4579,N,07727.0370,W,1,09,1.21,162.2,M,-34.4,M,,*50
$GPRMC,122408.250,A,4308.4578,N,07727.0404,W,36.18,267.43,130919,,,A*49
$GPGGA,122408.500,4308.4577,N,07727.0439,W,1,08,1.28,162.2,M,-34.4,M,,*59
$GPRMC,122408.750,A,4308.4576,N,07727.0473,W,36.09,268.56,130919,,,A*49
$GPGGA,122409.000,4308.4576,N,07727.0507,W,1,08,1.29,162.1,M,-34.4,M,,*52
$GPRMC,122409.250,A,4308.4576,N,07727.0542,W,36.39,269.89,130919,,,A*4E
$GPGGA,122409.500,4308.4576,N,07727.0577,W,1,09,1.21,162.0,M,-34.4,M,,*58
$GPRMC,122409.750,A,4308.4576,N,07727.0612,W,36.64,270.26,130919,,,A*48
$GPGGA,122410.000,4308.4576,N,07727.0647,W,1,09,1.21,162.0,M,-34.4,M,,*55
$GPRMC,122410.250,A,4308.4577,N,07727.0682,W,36.67,270.83,130919,,,A*41
$GPGGA,122410.500,4308.4579,N,07727.0717,W,1,09,1.21,162.0,M,-34.4,M,,*5B
$GPRMC,122410.750,A,4308.4580,N,07727.0752,W,36.85,273.00,130919,,,A*44
$GPGGA,122411.000,4308.4582,N,07727.0786,W,1,09,1.09,161.9,M,-34.4,M,,*53
$GPRMC,122411.250,A,4308.4584,N,07727.0822,W,36.97,274.05,130919,,,A*4D
$GPGGA,122411.500,4308.4587,N,07727.0857,W,1,09,1.21,161.9,M,-34.4,M,,*5A
$GPRMC,122411.750,A,4308.4589,N,07727.0892,W,36.98,275.14,130919,,,A*40
$GPGGA,122412.000,4308.4592,N,07727.0927,W,1,09,1.09,161.9,M,-34.4,M,,*54
$GPRMC,122412.250,A,4308.4594,N,07727.0963,W,36.99,275.02,130919,,,A*43
$GPGGA,122412.500,4308.4596,N,07727.0999,W,1,08,1.29,161.7,M,-34.4,M,,*5D
$GPRMC,122412.750,A,4308.4599,N,07727.1034,W,36.96,276.02,130919,,,A*4D
$GPGGA,122413.000,4308.4603,N,07727.1070,W,1,09,1.09,161.8,M,-34.4,M,,*55
$GPRMC,122413.250,A,4308.4606,N,07727.1105,W,36.80,277.51,130919,,,A*4F
$GPGGA,122413.500,4308.4610,N,07727.1140,W,1,08,1.29,161.7,M,-34.4,M,,*5C
$GPRMC,122413.750,A,4308.4614,N,07727.1175,W,36.73,278.51,130919,,,A*4D
$GPGGA,122414.000,4308.4618,N,07727.1210,W,1,06,1.92,161.6,M,-34.4,M,,*5F
$GPRMC,122414.250,A,4308.4622,N,07727.1245,W,36.70,278.97,130919,,,A*43
$GPGGA,122414.500,4308.4626,N,07727.1279,W,1,08,1.48,161.6,M,-34.4,M,,*51
$GPRMC,122414.750,A,4308.4630,N,07727.1313,W,36.63,278.91,130919,,,A*43
$GPGGA,122415.000,4308.4635,N,07727.1347,W,1,08,1.29,161.7,M,-34.4,M,,*5D
$GPRMC,122415.250,A,4308.4639,N,07727.1382,W,36.53,279.12,130919,,,A*4F
$GPGGA,122415.500,4308.4644,N,07727.1416,W,1,08,1.29,161.6,M,-34.4,M,,*5C
$GPRMC,122415.750,A,4308.4649,N,07727.1450,W,36.50,279.48,130919,,,A*49
$GPGGA,122416.000,4308.4653,N,07727.1485,W,1,09,1.09,161.6,M,-34.4,M,,*55
$GPRMC,122416.250,A,4308.4658,N,07727.1519,W,36.46,279.77,130919,,,A*48
$GPGGA,122416.500,4308.4663,N,07727.1554,W,1,08,1.48,161.5,M,-34.4,M,,*59
$GPRMC,122416.750,A,4308.4667,N,07727.1589,W,36.44,278.96,130919,,,A*44
$GPGGA,122417.000,4308.4672,N,07727.1623,W,1,09,1.09,161.5,M,-34.4,M,,*5A
$GPRMC,122417.250,A,4308.4676,N,07727.1658,W,36.68,279.55,130919,,,A*4F
$GPGGA,122417.500,4308.4681,N,07727.1693,W,1,09,1.21,161.5,M,-34.4,M,,*52
$GPRMC,122417.750,A,4308.4685,N,07727.1728,W,37.19,279.47,130919,,,A*44
$GPGGA,122418.000,4308.4690,N,07727.1763,W,1,09,1.10,161.6,M,-34.4,M,,*57
$GPRMC,122418.250,A,4308.4694,N,07727.1798,W,37.53,279.45,130919,,,A*49
$GPGGA,122418.500,4308.4698,N,07727.1833,W,1,09,1.09,161.7,M,-34.4,M,,*59
$GPRMC,122418.750,A,4308.4702,N,07727.1868,W,37.64,278.86,130919,,,A*48
$GPGGA,122419.000,4308.4707,N,07727.1904,W,1,08,1.36,161.6,M,-34.4,M,,*53
$GPRMC,122419.250,A,4308.4712,N,07727.1939,W,37.64,279.44,130919,,,A*47
$GPGGA,122419.500,4308.4717,N,07727.1975,W,1,09,1.21,161.5,M,-34.4,M,,*55
$GPRMC,122419.750,A,4308.4721,N,07727.2010,W,37.77,279.44,130919,,,A*41
$GPGGA,122420.000,4308.4726,N,07727.2046,W,1,09,1.10,161.5,M,-34.4,M,,*50
$GPRMC,122420.250,A,4308.4731,N,07727.2082,W,37.91,279.56,130919,,,A*4F
$GPGGA,122420.500,4308.4735,N,07727.2117,W,1,09,1.21,161.4,M,-34.4,M,,*51
$GPRMC,122420.750,A,4308.4739,N,07727.2153,W,37.92,279.34,130919,,,A*48
$GPGGA,122421.000,4308.4743,N,07727.2188,W,1,09,1.10,161.4,M,-34.4,M,,*50
$GPRMC,122421.250,A,4308.4747,N,07727.2222,W,37.62,279.15,130919,,,A*4C
$GPGGA,122421.500,4308.4751,N,07727.2257,W,1,09,1.21,161.3,M,-34.4,M,,*52
$GPRMC,122421.750,A,4308.4755,N,07727.2292,W,37.15,279.09,130919,,,A*4C
$GPGGA,122422.000,4308.4759,N,07727.2326,W,1,09,1.10,161.3,M,-34.4,M,,*59
$GPRMC,122422.250,A,4308.4763,N,07727.2361,W,37.10,278.99,130919,,,A*4F
$GPGGA,122422.500,4308.4767,N,07727.2396,W,1,09,1.10,161.4,M,-34.4,M,,*5D
$GPRMC,122422.750,A,4308.4772,N,07727.2431,W,37.09,279.17,130919,,,A*47
$GPGGA,122423.000,4308.4776,N,07727.2465,W,1,09,1.10,161.3,M,-34.4,M,,*55
$GPRMC,122423.250,A,4308.4780,N,07727.2500,W,37.10,278.53,130919,,,A*44
$GPGGA,122423.500,4308.4785,N,07727.2536,W,1,09,1.21,161.2,M,-34.4,M,,*58
$GPRMC,122423.750,A,4308.4790,N,07727.2572,W,37.09,278.55,130919,,,A*4B
$GPGGA,122424.000,4308.4794,N,07727.2607,W,1,09,1.10,161.0,M,-34.4,M,,*5B
$GPRMC,122424.250,A,4308.4799,N,07727.2642,W,37.29,278.73,130919,,,A*46
$GPGGA,122424.500,4308.4804,N,07727.2678,W,1,09,1.21,161.0,M,-34.4,M,,*52
$GPRMC,122424.750,A,4308.4808,N,07727.2713,W,37.21,279.07,130919,,,A*4B
$GPGGA,122425.000,4308.4813,N,07727.2748,W,1,09,1.21,160.9,M,-34.4,M,,*5A
$GPRMC,122425.250,A,4308.4818,N,07727.2783,W,37.13,279.34,130919,,,A*46
$GPGGA,122425.500,4308.4822,N,07727.2818,W,1,09,1.21,160.8,M,-34.4,M,,*56
$GPRMC,122425.750,A,4308.4827,N,07727.2853,W,36.90,279.41,130919,,,A*45
$GPGGA,122426.000,4308.4832,N,07727.2887,W,1,09,1.21,160.6,M,-34.4,M,,*59
$GPRMC,122426.250,A,4308.4837,N,07727.2922,W,36.78,279.49,130919,,,A*4B
$GPGGA,122426.500,4308.4841,N,07727.2957,W,1,09,1.21,160.4,M,-34.4,M,,*56
$GPRMC,122426.750,A,4308.4846,N,07727.2992,W,36.51,279.19,130919,,,A*4D
$GPGGA,122427.000,4308.4851,N,07727.3026,W,1,09,1.21,160.3,M,-34.4,M,,*5A
$GPRMC,122427.250,A,4308.4855,N,07727.3061,W,36.13,279.35,130919,,,A*47
$GPGGA,122427.500,4308.4860,N,07727.3095,W,1,09,1.21,160.1,M,-34.4,M,,*57
$GPRMC,122427.750,A,4308.4864,N,07727.3128,W,35.86,279.24,130919,,,A*43
$GPGGA,122428.000,4308.4868,N,07727.3162,W,1,09,1.10,160.0,M,-34.4,M,,*5F
$GPRMC,122428.250,A,4308.4872,N,07727.3195,W,35.43,278.59,130919,,,A*4A
$GPGGA,122428.500,4308.4876,N,07727.3228,W,1,09,1.21,159.9,M,-34.4,M,,*59
$GPRMC,122428.750,A,4308.4879,N,07727.3261,W,35.08,277.98,130919,,,A*41
$GPGGA,122429.000,4308.4883,N,07727.3294,W,1,09,1.10,159.8,M,-34.4,M,,*53
$GPRMC,122429.250,A,4308.4886,N,07727.3326,W,34.74,277.81,130919,,,A*45
$GPGGA,122429.500,4308.4890,N,07727.3359,W,1,09,1.21,159.8,M,-34.4,M,,*56
$GPRMC,122429.750,A,4308.4894,N,07727.3392,W,34.64,278.06,130919,,,A*4D
$GPGGA,122430.000,4308.4898,N,07727.3425,W,1,09,1.21,159.6,M,-34.4,M,,*51
